"","speciesCode","comName","sciName","locId","locName","obsDt","howMany","lat","lng","obsValid","obsReviewed","locationPrivate","subId"
"1","redpha1","Red Phalarope","Phalaropus fulicarius","L48478958","Arctic National Wildlife Refuge, Kaktovik US-AK (70.1333,-143.5595)","2025-06-25 22:56",1,70.133272,-143.559456,TRUE,FALSE,TRUE,"S254180690"
"2","redpha1","Red Phalarope","Phalaropus fulicarius","L20238931","Utqiaġvik--Sakeagak St. & Kaleak St.","2025-06-25 21:34",2,71.2971448,-156.7028405,TRUE,FALSE,FALSE,"S254171221"
"3","redpha1","Red Phalarope","Phalaropus fulicarius","L48476794","12460–13326 Cakeatter Rd, Barrow US-AK 71.28475, -156.65778","2025-06-25 20:27",2,71.284746,-156.657779,TRUE,FALSE,TRUE,"S254171088"
"4","redpha1","Red Phalarope","Phalaropus fulicarius","L2222767","Utqiaġvik--Middle Salt Lagoon (S end)","2025-06-25 19:58",3,71.3051952,-156.6897583,TRUE,FALSE,FALSE,"S254171056"
"5","redpha1","Red Phalarope","Phalaropus fulicarius","L1579238","Utqiaġvik--Cakeeater Rd.","2025-06-25 14:08",5,71.2879072,-156.6631195,TRUE,FALSE,FALSE,"S254131440"
"6","redpha1","Red Phalarope","Phalaropus fulicarius","L2897580","Utqiaġvik--Nunavaaq Rd.","2025-06-25 13:10",2,71.2757153,-156.8049967,TRUE,FALSE,FALSE,"S254175873"
"7","redpha1","Red Phalarope","Phalaropus fulicarius","L47537437","USFWS Eider Project Survey Area","2025-06-25 10:30",45,71.275283,-156.685523,TRUE,FALSE,TRUE,"S254151641"
"8","redpha1","Red Phalarope","Phalaropus fulicarius","L47956101","USFWS Shorebird Plot 0","2025-06-25 09:16",15,71.284913,-156.583463,TRUE,FALSE,TRUE,"S254167259"
"9","redpha1","Red Phalarope","Phalaropus fulicarius","L5993045","Utqiaġvik--South Salt Lagoons (south beach) & Nathaniel Olemaun Jr. Blvd. (NE end)","2025-06-24 19:39",1,71.3053603,-156.728797,TRUE,FALSE,FALSE,"S253866252"
"10","redpha1","Red Phalarope","Phalaropus fulicarius","L1212588","Utqiaġvik--Fresh Water Lake Rd.","2025-06-24 02:57",5,71.2612449,-156.7718339,TRUE,FALSE,FALSE,"S253803591"
"11","redpha1","Red Phalarope","Phalaropus fulicarius","L48028373","Restricted Area, North Slope","2025-06-24",NA,70.301232,-151.1378029,TRUE,FALSE,TRUE,"S253861743"
"12","redpha1","Red Phalarope","Phalaropus fulicarius","L48411720","10630 Sakeagak Street, Utqiagvik, Alaska, US (71.299, -156.705)","2025-06-23 21:05",2,71.2987914,-156.7051076,TRUE,FALSE,TRUE,"S253875829"
"13","redpha1","Red Phalarope","Phalaropus fulicarius","L1579480","Utqiaġvik--Gas Well Rd. (East of New Landfill Rd.)","2025-06-23 12:00",3,71.2495479,-156.4652919,TRUE,FALSE,FALSE,"S253604697"
"14","redpha1","Red Phalarope","Phalaropus fulicarius","L48028922","USFWS Shorebird Plots 1/2","2025-06-23 08:59",15,71.297627,-156.638443,TRUE,FALSE,TRUE,"S253603716"
"15","redpha1","Red Phalarope","Phalaropus fulicarius","L33411840","Utqiaġvik--New Gravel Pits Rd.","2025-06-23 06:06",7,71.286303,-156.709691,TRUE,FALSE,FALSE,"S253556715"
"16","redpha1","Red Phalarope","Phalaropus fulicarius","L736019","Utqiaġvik--Naval Arctic Research Lab","2025-06-22 20:34",10,71.326271,-156.6744804,TRUE,FALSE,FALSE,"S253614001"
"17","redpha1","Red Phalarope","Phalaropus fulicarius","L48205330","East Utqiagvik roads","2025-06-22 18:48",8,71.274976,-156.643591,TRUE,FALSE,TRUE,"S253338764"
"18","redpha1","Red Phalarope","Phalaropus fulicarius","L7615669","Utqiaġvik--Airport Bluffs","2025-06-22 15:38",3,71.285293,-156.8092219,TRUE,FALSE,FALSE,"S253285025"
"19","redpha1","Red Phalarope","Phalaropus fulicarius","L1214940","Utqiaġvik (town; please use a more specific location)","2025-06-22 15:30",15,71.2906914,-156.7885494,TRUE,FALSE,FALSE,"S253338446"
"20","redpha1","Red Phalarope","Phalaropus fulicarius","L2901555","Utqiaġvik--New Landfill Rd.","2025-06-22 12:36",6,71.2502605,-156.5665054,TRUE,FALSE,FALSE,"S253284951"
"21","redpha1","Red Phalarope","Phalaropus fulicarius","L48110147","Winter Trail, Barrow US-AK 71.25548, -156.53948","2025-06-22 11:23",4,71.255482,-156.539484,TRUE,FALSE,TRUE,"S253283711"
"22","redpha1","Red Phalarope","Phalaropus fulicarius","L2222756","Utqiaġvik--South Salt Lagoons","2025-06-22 10:12",4,71.3121267,-156.7134476,TRUE,FALSE,FALSE,"S253283207"
"23","redpha1","Red Phalarope","Phalaropus fulicarius","L788324","Point Barrow--Base of the Point","2025-06-22 07:04",1,71.3434786,-156.6175384,TRUE,FALSE,FALSE,"S253203051"
"24","redpha1","Red Phalarope","Phalaropus fulicarius","L19181197","Utqiaġvik--East Browerville","2025-06-21 21:15",12,71.3013457,-156.7221229,TRUE,FALSE,FALSE,"S253613700"
"25","redpha1","Red Phalarope","Phalaropus fulicarius","L47201408","Nunavak Rd, Utqiagvik US-AK 71.26712, -156.83229","2025-06-21 16:19",1,71.267115,-156.832287,TRUE,FALSE,TRUE,"S252938696"
"26","redpha1","Red Phalarope","Phalaropus fulicarius","L33669740","Nunavak Rd","2025-06-21 14:28",1,71.256808,-156.856969,TRUE,FALSE,TRUE,"S252905078"
"27","redpha1","Red Phalarope","Phalaropus fulicarius","L48171489","Eastfield Road, Utqiagvik, Alaska, US (71.275, -156.644)","2025-06-21 09:52",2,71.2750191,-156.6439419,TRUE,FALSE,TRUE,"S252832723"
"28","redpha1","Red Phalarope","Phalaropus fulicarius","L32783799","Utqiaġvik--Gas Well Rd. (Gas Plant to New Landfill Rd.)","2025-06-20 22:23",6,71.2612185,-156.6030896,TRUE,FALSE,FALSE,"S252601951"
"29","redpha1","Red Phalarope","Phalaropus fulicarius","L47823198","Karluk-Ahmaogak St. Field","2025-06-20 21:05",1,71.30475,-156.738073,TRUE,FALSE,TRUE,"S252574093"
"30","redpha1","Red Phalarope","Phalaropus fulicarius","L48111173","6196 Herman Street, Utqiagvik, Alaska, US (71.304, -156.743)I","2025-06-20 17:18",1,71.3036117,-156.7433009,TRUE,FALSE,TRUE,"S252572618"
"31","redpha1","Red Phalarope","Phalaropus fulicarius","L33468084","Utqiaġvik--Imaiqsaun Cemetery","2025-06-20 14:12",1,71.2694868,-156.7718785,TRUE,FALSE,FALSE,"S252520137"
"32","redpha1","Red Phalarope","Phalaropus fulicarius","L47886518","USFWS Shorebird Plots 3/5","2025-06-20 08:33",20,71.266882,-156.5222,TRUE,FALSE,TRUE,"S252641280"
"33","redpha1","Red Phalarope","Phalaropus fulicarius","L48034462","12459–13327 Cakeatter Rd, Utqiagvik US-AK 71.29325, -156.67254","2025-06-19 20:45",3,71.293248,-156.672543,TRUE,FALSE,TRUE,"S252238943"
"34","redpha1","Red Phalarope","Phalaropus fulicarius","L47396949","Stevenson St, Utqiagvik US-AK 71.31825, -156.71072","2025-06-19 20:17",1,71.318246,-156.71072,TRUE,FALSE,TRUE,"S252238659"
"35","redpha1","Red Phalarope","Phalaropus fulicarius","L48024505","Utqiagvik, Alaska, US (71.264, -156.763)","2025-06-19 14:34",4,71.2636017,-156.7625223,TRUE,FALSE,TRUE,"S252191753"
"36","redpha1","Red Phalarope","Phalaropus fulicarius","L48079642","11311–12341 Cakeatter Rd, Utqiagvik US-AK 71.30718, -156.70034","2025-06-19 14:23",2,71.307184,-156.70034,TRUE,FALSE,TRUE,"S252438950"
"37","redpha1","Red Phalarope","Phalaropus fulicarius","L109309","Pt. Pinos--seawatch only","2025-06-19 14:21",1,36.6373821,-121.9357538,TRUE,TRUE,FALSE,"S252214040"
"38","redpha1","Red Phalarope","Phalaropus fulicarius","L48079127","Winter Trail, Barrow US-AK 71.25729, -156.56118","2025-06-19 12:23",3,71.257286,-156.56118,TRUE,FALSE,TRUE,"S252436865"
"39","redpha1","Red Phalarope","Phalaropus fulicarius","L48079514","12459–13327 Cakeatter Rd, Utqiagvik US-AK 71.29147, -156.66934","2025-06-19 11:41",4,71.291466,-156.669342,TRUE,FALSE,TRUE,"S252438520"
"40","redpha1","Red Phalarope","Phalaropus fulicarius","L790945","Point Barrow","2025-06-19 10:26",1,71.3870157,-156.4774776,TRUE,FALSE,FALSE,"S252257239"
"41","redpha1","Red Phalarope","Phalaropus fulicarius","L48079335","10000–10198 Ahgeak St, Utqiagvik US-AK (71.3005,-156.7086)","2025-06-19 09:44",4,71.300543,-156.708616,TRUE,FALSE,TRUE,"S252437683"
"42","redpha1","Red Phalarope","Phalaropus fulicarius","L47965785","Ahmoagak Ave, Utqiagvik US-AK (71.3035,-156.7419)","2025-06-18 18:55",1,71.303508,-156.74194,TRUE,FALSE,TRUE,"S251935522"
"43","redpha1","Red Phalarope","Phalaropus fulicarius","L47950273","Winter Trail, Barrow US-AK (71.2515,-156.4930)","2025-06-18 12:42",1,71.251541,-156.493013,TRUE,FALSE,TRUE,"S251862091"
"44","redpha1","Red Phalarope","Phalaropus fulicarius","L9574329","Utqiaġvik--Nunavaaq Bay","2025-06-18 10:26",9,71.2510564,-156.8600337,TRUE,FALSE,FALSE,"S251813341"
"45","redpha1","Red Phalarope","Phalaropus fulicarius","L47898390","Winter Trail, Barrow US-AK 71.26241, -156.61993","2025-06-18 00:46",2,71.262414,-156.619925,TRUE,FALSE,TRUE,"S251612349"
"46","redpha1","Red Phalarope","Phalaropus fulicarius","L47904507","13348 Cakeatter Road, Utqiagvik, Alaska, US (71.293, -156.67)","2025-06-17 20:45",20,71.2929958,-156.6701611,TRUE,FALSE,TRUE,"S251649606"
"47","redpha1","Red Phalarope","Phalaropus fulicarius","L47886700","New Landfill Pond","2025-06-17 17:00",1,71.2431988,-156.5605569,TRUE,FALSE,TRUE,"S251556672"
"48","redpha1","Red Phalarope","Phalaropus fulicarius","L47793061","7100 Karluk Street, Utqiagvik, Alaska, US (71.304, -156.74)","2025-06-17 14:45",1,71.304029,-156.740265,TRUE,FALSE,TRUE,"S251556794"
"49","redpha1","Red Phalarope","Phalaropus fulicarius","L48169271","Cake Eater Rd","2025-06-17 09:00",6,71.2933516,-156.6729108,TRUE,FALSE,TRUE,"S252833051"
"50","redpha1","Red Phalarope","Phalaropus fulicarius","L610486","Utqiaġvik--Funakoshi Memorial","2025-06-17 08:41",1,71.287852,-156.8019176,TRUE,FALSE,FALSE,"S251438326"
