"","speciesCode","comName","sciName","locId","locName","obsDt","howMany","lat","lng","obsValid","obsReviewed","locationPrivate","subId"
"1","brant","Brant","Branta bernicla","L6171599","Harvey Cedars--Joe Torg Nature Preserve","2025-05-23 19:46",2,39.731436,-74.125962,TRUE,FALSE,FALSE,"S241721039"
"2","brant","Brant","Branta bernicla","L1152867","Braddock Bay--Rose's Marsh","2025-05-23 17:51",3,43.3261767,-77.7283573,TRUE,FALSE,FALSE,"S241697983"
"3","brant","Brant","Branta bernicla","L161004","Barnegat Lighthouse SP","2025-05-23 17:12",2,39.7633333,-74.1058333,TRUE,FALSE,FALSE,"S241717129"
"4","brant","Brant","Branta bernicla","L2508684","Hammonasset Beach SP--Cedar Island Trail","2025-05-23 16:16",25,41.2544824,-72.5408041,TRUE,FALSE,FALSE,"S241676094"
"5","brant","Brant","Branta bernicla","L716945","Richard A. Rutkowski Park","2025-05-23 15:53",100,40.6877528,-74.1107252,TRUE,FALSE,FALSE,"S241676563"
"6","brant","Brant","Branta bernicla","L213321","Oceanside Marine Nature Study Area","2025-05-23 15:29",17,40.6233726,-73.6242225,TRUE,FALSE,FALSE,"S241674402"
"7","brant","Brant","Branta bernicla","L4034501","Marina West Town Boat Launch","2025-05-23 15:20",6,40.593515,-73.5925414,TRUE,FALSE,FALSE,"S241716814"
"8","brant","Brant","Branta bernicla","L109216","Milford Point, CT Audubon","2025-05-23 14:22",4,41.1754303,-73.1032485,TRUE,FALSE,FALSE,"S241646803"
"9","brant","Brant","Branta bernicla","L1273605","Cotchpincut Rd. Landing","2025-05-23 14:20",12,41.7078238,-69.9537076,TRUE,FALSE,FALSE,"S241655093"
"10","brant","Brant","Branta bernicla","L515384","Collins Lake, Scotia","2025-05-23 14:20",1,42.8267613,-73.9537597,TRUE,FALSE,FALSE,"S241645253"
"11","brant","Brant","Branta bernicla","L1179703","Southport Beach","2025-05-23 14:15",8,41.1250235,-73.2983311,TRUE,FALSE,FALSE,"S241630038"
"12","brant","Brant","Branta bernicla","L933275","Hampton Harbor--Yankee Fisherman's Coop","2025-05-23 13:44",43,42.8910738,-70.8190835,TRUE,FALSE,FALSE,"S241609496"
"13","brant","Brant","Branta bernicla","L152773","Floyd Bennett Field","2025-05-23 13:43",75,40.5923453,-73.8914328,TRUE,FALSE,FALSE,"S241708817"
"14","brant","Brant","Branta bernicla","L610425","Esker Point Park","2025-05-23 13:39",25,41.3195913,-71.9997597,TRUE,FALSE,FALSE,"S241618670"
"15","brant","Brant","Branta bernicla","L109145","Jamaica Bay Wildlife Refuge--West Pond","2025-05-23 13:02",100,40.6188482,-73.8307995,TRUE,FALSE,FALSE,"S241616789"
"16","brant","Brant","Branta bernicla","L687632","Conimicut Point Park, Warwick","2025-05-23 13:02",17,41.7167491,-71.360321,TRUE,FALSE,FALSE,"S241625645"
"17","brant","Brant","Branta bernicla","L834654","Sodus Bay--Sodus Point","2025-05-23 12:54",1,43.2748307,-76.9732189,TRUE,FALSE,FALSE,"S241641802"
"18","brant","Brant","Branta bernicla","L472167","Ferry Beach, Scarborough","2025-05-23 12:51",14,43.5427701,-70.3229553,TRUE,FALSE,FALSE,"S241631379"
"19","brant","Brant","Branta bernicla","L358490","Raritan Bay Waterfront Park & Morgan Avenue Mudflats","2025-05-23 12:45",72,40.4769114,-74.268578,TRUE,FALSE,FALSE,"S241605686"
"20","brant","Brant","Branta bernicla","L1791669","Worlds Fair Marina, Flushing","2025-05-23 12:29",1,40.7599179,-73.8530159,TRUE,FALSE,FALSE,"S241626353"
"21","brant","Brant","Branta bernicla","L215343","Napatree Point","2025-05-23 12:18",11,41.3103371,-71.8743918,TRUE,FALSE,FALSE,"S241601401"
"22","brant","Brant","Branta bernicla","L4016807","US-CT- Stratford Birdseye Boat Ramp","2025-05-23 11:55",5,41.178474,-73.125184,TRUE,FALSE,TRUE,"S241586525"
"23","brant","Brant","Branta bernicla","L1311850","Ketchikan--Mountain Point","2025-05-23 11:30",2,55.2931036,-131.5416026,TRUE,FALSE,FALSE,"S241705179"
"24","brant","Brant","Branta bernicla","L109233","Sandy Point","2025-05-23 11:29",30,41.2645658,-72.9312372,TRUE,FALSE,FALSE,"S241648556"
"25","brant","Brant","Branta bernicla","L475851","Sandy Hook--E & D Lot Beaches","2025-05-23 11:16",NA,40.4295703,-73.9841652,TRUE,FALSE,FALSE,"S241708707"
"26","brant","Brant","Branta bernicla","L444485","Plumb Beach","2025-05-23 11:11",55,40.5823284,-73.9153746,TRUE,FALSE,FALSE,"S241695837"
"27","brant","Brant","Branta bernicla","L161083","MLK Jr. Regional Shoreline--Arrowhead Marsh","2025-05-23 11:08",1,37.7421628,-122.2112274,TRUE,TRUE,FALSE,"S241700266"
"28","brant","Brant","Branta bernicla","L10874116","Sandy Hook--Lot I, Proving Grounds, and North Beach Pavillion","2025-05-23 11:08",1,40.4670489,-73.9983956,TRUE,FALSE,FALSE,"S241565427"
"29","brant","Brant","Branta bernicla","L351189","Calvert Vaux Park (Dreier-Offerman Park)","2025-05-23 10:54",20,40.5848762,-73.9945752,TRUE,FALSE,FALSE,"S241586528"
"30","brant","Brant","Branta bernicla","L296391","Conaskonk Point","2025-05-23 10:39",120,40.454367,-74.17673,TRUE,FALSE,FALSE,"S241577529"
"31","brant","Brant","Branta bernicla","L197353","Sandy Hook","2025-05-23 10:35",500,40.4392518,-73.9869263,TRUE,FALSE,FALSE,"S241632848"
"32","brant","Brant","Branta bernicla","L13973467","1–129 3 Crabs Rd, Sequim US-WA 48.15048, -123.12034","2025-05-23 10:33",16,48.150485,-123.12034,TRUE,FALSE,TRUE,"S241620630"
"33","brant","Brant","Branta bernicla","L109146","Jones Beach SP--Coast Guard Station","2025-05-23 10:32",1,40.5888889,-73.5566667,TRUE,FALSE,FALSE,"S241650205"
"34","brant","Brant","Branta bernicla","L475849","Sandy Hook--Plum Island","2025-05-23 10:24",4,40.4072221,-73.9798737,TRUE,FALSE,FALSE,"S241708388"
"35","brant","Brant","Branta bernicla","L2617135","Hudson River Park--Tribeca Upland (Chambers to W Houston St.)","2025-05-23 10:15",2,40.7238322,-74.0116863,TRUE,FALSE,FALSE,"S241576022"
"36","brant","Brant","Branta bernicla","L35186697","Pescadero State Beach -- (south)  beach area, seawatch and Seabird Rock - West of Hwy 1 only","2025-05-23 10:00",1,37.2612534,-122.4141312,TRUE,FALSE,FALSE,"S241674087"
"37","brant","Brant","Branta bernicla","L1293732","Randalls Island","2025-05-23 09:49",10,40.7887808,-73.9219681,TRUE,FALSE,FALSE,"S241544747"
"38","brant","Brant","Branta bernicla","L31436801","Norwalk Harbor","2025-05-23 09:47",25,41.072419,-73.409833,TRUE,FALSE,TRUE,"S241528391"
"39","brant","Brant","Branta bernicla","L828590","Dungeness Landing Park/Oyster House","2025-05-23 09:36",15,48.1514639,-123.143456,TRUE,FALSE,FALSE,"S241602636"
"40","brant","Brant","Branta bernicla","L8259565","Spring Creek, Fountain Ave., Brooklyn","2025-05-23 09:32",15,40.655879,-73.8627657,TRUE,FALSE,FALSE,"S241527482"
"41","brant","Brant","Branta bernicla","L3593329","Pools South of Odiorne, West of Rt. 1A, Rye","2025-05-23 09:30",1,43.0415205,-70.7165207,TRUE,FALSE,FALSE,"S241549946"
"42","brant","Brant","Branta bernicla","L1845933","Jones Beach SP--Field 10","2025-05-23 09:30",12,40.6017384,-73.5144666,TRUE,FALSE,FALSE,"S241714586"
"43","brant","Brant","Branta bernicla","L715391","Sandy Hook--Horseshoe Cove area","2025-05-23 09:25",NA,40.4466531,-73.9968252,TRUE,FALSE,FALSE,"S241640413"
"44","brant","Brant","Branta bernicla","L109201","Griswold Point","2025-05-23 09:24",107,41.2797819,-72.3196399,TRUE,FALSE,FALSE,"S241693431"
"45","brant","Brant","Branta bernicla","L45740561","Refuge Island- restricted access","2025-05-23 09:23",4,46.658328,-124.034453,TRUE,FALSE,TRUE,"S241607682"
"46","brant","Brant","Branta bernicla","L4004485","Nome (town)","2025-05-23 09:20",4,64.5010632,-165.4081392,TRUE,FALSE,FALSE,"S241643198"
"47","brant","Brant","Branta bernicla","L1906442","Rt. 1A, Second Pullout South of Odiorne Point, Rye","2025-05-23 09:19",2,43.0400379,-70.7150774,TRUE,FALSE,FALSE,"S241524033"
"48","brant","Brant","Branta bernicla","L6721044","Sandy Hook","2025-05-23 09:15",NA,40.463748,-73.9993465,TRUE,FALSE,TRUE,"S241600657"
"49","brant","Brant","Branta bernicla","L613473","Misquamicut State Beach","2025-05-23 09:12",8,41.3230722,-71.8028641,TRUE,FALSE,FALSE,"S241587977"
"50","brant","Brant","Branta bernicla","L167741","Cape Neddick Light","2025-05-23 09:08",14,43.1653,-70.59318,TRUE,FALSE,FALSE,"S241521566"
"51","brant","Brant","Branta bernicla","L168335","Odiorne Point SP, Rye","2025-05-23 08:57",1,43.045555,-70.71444,TRUE,FALSE,FALSE,"S241571766"
"52","brant","Brant","Branta bernicla","L1041187","Sandy Hook--Spermaceti Cove area","2025-05-23 08:51",NA,40.4259441,-73.9882851,TRUE,FALSE,FALSE,"S241639353"
"53","brant","Brant","Branta bernicla","L12427956","Sunset Cove Park","2025-05-23 08:47",100,40.5985632,-73.8231237,TRUE,FALSE,FALSE,"S241499927"
"54","brant","Brant","Branta bernicla","L109204","Hammonasset Beach SP--Meig's Point","2025-05-23 08:37",38,41.2490558,-72.5442213,TRUE,FALSE,FALSE,"S241553837"
"55","brant","Brant","Branta bernicla","L45734117","East Refuge- restricted access","2025-05-23 08:31",22,46.659381,-124.034851,TRUE,FALSE,TRUE,"S241579563"
"56","brant","Brant","Branta bernicla","L785035","Pillar Point Harbor--West Point Ave. Freshwater Pond, Marsh and Willow areas","2025-05-23 08:30",1,37.5032728,-122.4968076,TRUE,FALSE,FALSE,"S241612543"
"57","brant","Brant","Branta bernicla","L722804","Jamaica Bay, Big Egg Marsh","2025-05-23 08:24",250,40.5963256,-73.8252819,TRUE,FALSE,FALSE,"S241496233"
"58","brant","Brant","Branta bernicla","L510138","Four Sparrow Marsh","2025-05-23 08:04",20,40.6000729,-73.9085591,TRUE,FALSE,FALSE,"S241495476"
"59","brant","Brant","Branta bernicla","L1440933","Bayshore Waterfront Park","2025-05-23 08:01",2,40.4400196,-74.0940917,TRUE,FALSE,FALSE,"S241534526"
"60","brant","Brant","Branta bernicla","L609644","Canarsie Beach Park","2025-05-23 07:51",42,40.6258911,-73.8972616,TRUE,FALSE,FALSE,"S241510516"
"61","brant","Brant","Branta bernicla","L566310","Cupsogue Beach County Park","2025-05-23 07:50",2,40.7713119,-72.7373457,TRUE,FALSE,FALSE,"S241594478"
"62","brant","Brant","Branta bernicla","L109200","Greenwich Point Park","2025-05-23 07:49",23,41.0029132,-73.5719419,TRUE,FALSE,FALSE,"S241572212"
"63","brant","Brant","Branta bernicla","L191106","Central Park","2025-05-23 07:36",2,40.7715482,-73.9724819,TRUE,FALSE,FALSE,"S241570385"
"64","brant","Brant","Branta bernicla","L385839","Salt Marsh Nature Center at Marine Park","2025-05-23 07:35",8,40.599946,-73.9243268,TRUE,FALSE,FALSE,"S241519371"
"65","brant","Brant","Branta bernicla","L299114","Bayswater Point SP","2025-05-23 07:23",70,40.6131054,-73.7700176,TRUE,FALSE,FALSE,"S241477543"
"66","brant","Brant","Branta bernicla","L6587274","Bayswater Park","2025-05-23 06:53",80,40.5991024,-73.7691124,TRUE,FALSE,FALSE,"S241464487"
"67","brant","Brant","Branta bernicla","L302089","Conference House Park","2025-05-23 06:17",200,40.4995098,-74.2516756,TRUE,FALSE,FALSE,"S241492931"
"68","brant","Brant","Branta bernicla","L1032818","Pelham Bay Park--Orchard Beach & parking lot","2025-05-23 06:06",9,40.8661259,-73.794305,TRUE,FALSE,FALSE,"S241455715"
"69","brant","Brant","Branta bernicla","L693848","Cape Island--CMP--Coral Ave. dune crossing","2025-05-23 05:41",1,38.9327948,-74.9651502,TRUE,FALSE,FALSE,"S241712265"
"70","brant","Brant","Branta bernicla","L45699369","2213–2231 Slater Rd, Ferndale US-WA 48.81922, -122.59710","2025-05-22 20:28",2,48.819217,-122.597103,TRUE,FALSE,TRUE,"S241404774"
"71","brant","Brant","Branta bernicla","L3962530","811 Ocean Drive Loop, Homer, AK","2025-05-22 19:43",6,59.6346542,-151.5233798,TRUE,FALSE,TRUE,"S241402700"
"72","brant","Brant","Branta bernicla","L10334097","Round Valley Reservoir--Main Boat Launch","2025-05-22 18:20",1,40.6316886,-74.8486733,TRUE,TRUE,FALSE,"S241347852"
"73","brant","Brant","Branta bernicla","L1785377","Randalls Island--Driving Range, Icahn Stadium & Event Lawn","2025-05-22 16:55",60,40.7955774,-73.9247542,TRUE,FALSE,FALSE,"S241351146"
"74","brant","Brant","Branta bernicla","L474417","Kettle Cove","2025-05-22 16:51",1,43.5622948,-70.2186012,TRUE,FALSE,FALSE,"S241347753"
"75","brant","Brant","Branta bernicla","L5415453","LaGuardia Airport (LGA)","2025-05-22 16:06",6,40.7772619,-73.8739237,TRUE,FALSE,FALSE,"S241325673"
"76","brant","Brant","Branta bernicla","L1785381","Randalls Island--NE fields and shoreline","2025-05-22 15:57",61,40.7943072,-73.9138235,TRUE,FALSE,FALSE,"S241319618"
"77","brant","Brant","Branta bernicla","L43899189","45 Condo Lane Bucknell University Boat Launch.","2025-05-22 15:52",1,40.8561729,-76.8101178,TRUE,TRUE,TRUE,"S241331006"
"78","brant","Brant","Branta bernicla","L1792112","Ashokan Reservoir, Dike Rd.","2025-05-22 15:52",2,41.9813146,-74.098672,TRUE,FALSE,FALSE,"S241380742"
"79","brant","Brant","Branta bernicla","L865061","Pelham Bay Park--Twin Islands","2025-05-22 15:46",2,40.8715659,-73.7853384,TRUE,FALSE,FALSE,"S241427988"
"80","brant","Brant","Branta bernicla","L391319","Miller Field","2025-05-22 15:17",75,40.5674723,-74.0990352,TRUE,FALSE,FALSE,"S241306912"
"81","brant","Brant","Branta bernicla","L27341969","Hudson River Park--Gansevoort Peninsula","2025-05-22 15:00",8,40.7400162,-74.010893,TRUE,FALSE,FALSE,"S241305391"
"82","brant","Brant","Branta bernicla","L2402250","MLK Jr. Regional Shoreline","2025-05-22 14:32",1,37.7318068,-122.2070861,TRUE,TRUE,FALSE,"S241419392"
"83","brant","Brant","Branta bernicla","L14148073","Bolsa Chica Conservancy, Huntington Beach US-CA 33.69577, -118.04581","2025-05-22 14:01",2,33.695775,-118.045814,TRUE,FALSE,TRUE,"S241342367"
"84","brant","Brant","Branta bernicla","L265438","Three Crabs","2025-05-22 13:39",8,48.151945,-123.1222855,TRUE,FALSE,FALSE,"S241327623"
"85","brant","Brant","Branta bernicla","L45681465","Randall's Island Park, New York US-NY 40.79657, -73.92487","2025-05-22 13:39",55,40.79657,-73.92487,TRUE,FALSE,TRUE,"S241317083"
"86","brant","Brant","Branta bernicla","L1308583","Curwensville Dam Rec Area","2025-05-22 13:11",3,40.950733,-78.5367966,TRUE,TRUE,FALSE,"S241425066"
"87","brant","Brant","Branta bernicla","L5209295","City Island, Belden Point","2025-05-22 12:48",44,40.8376243,-73.7829097,TRUE,FALSE,FALSE,"S241428847"
"88","brant","Brant","Branta bernicla","L1788995","Flushing Meadows Corona Park--Meadow Lake","2025-05-22 12:44",10,40.7351876,-73.8404751,TRUE,FALSE,FALSE,"S241318253"
"89","brant","Brant","Branta bernicla","L1373631","Coney Island Beach--35th St. Overlook","2025-05-22 12:40",13,40.5717813,-74.0006958,TRUE,FALSE,FALSE,"S241333120"
"90","brant","Brant","Branta bernicla","L634132","Forty First Avenue Park","2025-05-22 12:21",1,36.9599528,-121.9652045,TRUE,FALSE,FALSE,"S241302329"
"91","brant","Brant","Branta bernicla","L15064759","Anchor River--Anchor Point beach","2025-05-22 12:08",2,59.7790981,-151.8631308,TRUE,FALSE,FALSE,"S241348674"
"92","brant","Brant","Branta bernicla","L4638167","Homer Spit--Louie's Lagoon","2025-05-22 12:00",25,59.6230381,-151.4634633,TRUE,FALSE,FALSE,"S241365532"
"93","brant","Brant","Branta bernicla","L10216419","Homer Spit--Green Timbers","2025-05-22 12:00",28,59.6277719,-151.4729304,TRUE,FALSE,FALSE,"S241340296"
"94","brant","Brant","Branta bernicla","L16667679","Randall's Island Park, New York US-NY 40.79336, -73.92426","2025-05-22 11:41",8,40.793361,-73.924261,TRUE,FALSE,TRUE,"S241281565"
"95","brant","Brant","Branta bernicla","L1847433","Gravesend Bay, southern parking lot","2025-05-22 11:30",13,40.5972024,-74.0049123,TRUE,FALSE,FALSE,"S241272863"
"96","brant","Brant","Branta bernicla","L473325","Seaside Park","2025-05-22 11:14",6,41.1615162,-73.1931067,TRUE,FALSE,FALSE,"S241294995"
"97","brant","Brant","Branta bernicla","L189035","Liberty SP","2025-05-22 11:00",2,40.7025698,-74.0493536,TRUE,FALSE,FALSE,"S241243062"
"98","brant","Brant","Branta bernicla","L1130056","Kodiak Is.--Kalsin Pond and Olds River Estuary","2025-05-22 10:36",1,57.584638,-152.4485207,TRUE,FALSE,FALSE,"S241339113"
"99","brant","Brant","Branta bernicla","L246835","Round Valley Recreation Area","2025-05-22 10:20",1,40.623175,-74.8515027,TRUE,TRUE,FALSE,"S241218980"
"100","brant","Brant","Branta bernicla","L630265","Birdseye Boat Ramp","2025-05-22 10:15",NA,41.1793484,-73.124485,TRUE,FALSE,FALSE,"S241247774"
"101","brant","Brant","Branta bernicla","L982769","Hoppy's Landing","2025-05-22 09:51",1,41.5949211,-70.8433843,TRUE,FALSE,FALSE,"S241203314"
"102","brant","Brant","Branta bernicla","L275331","Piermont Pier","2025-05-22 09:50",1,41.0427778,-73.8975,TRUE,FALSE,FALSE,"S241206951"
"103","brant","Brant","Branta bernicla","L927270","Nome-Council Rd.--Solomon","2025-05-22 09:46",16,64.5585058,-164.4438634,TRUE,FALSE,FALSE,"S241355095"
"104","brant","Brant","Branta bernicla","L11020736","MLK Jr. Regional Shoreline--New Marsh/San Leandro Creek","2025-05-22 09:24",1,37.7370688,-122.2036665,TRUE,TRUE,FALSE,"S241287258"
"105","brant","Brant","Branta bernicla","L278184","Rye Harbor SP (Ragged Neck)","2025-05-22 08:48",24,43.00162,-70.74497,TRUE,FALSE,FALSE,"S241218629"
"106","brant","Brant","Branta bernicla","L2384171","Mousam River Estuary","2025-05-22 08:47",100,43.3455763,-70.5140787,TRUE,FALSE,FALSE,"S241287428"
"107","brant","Brant","Branta bernicla","L3295995","Biddeford Pool--Ocean Ave.","2025-05-22 08:24",72,43.444123,-70.340395,TRUE,FALSE,FALSE,"S241178868"
"108","brant","Brant","Branta bernicla","L234625","Petit Manan NWR--Petit Manan Island","2025-05-22 08:20",1,44.367175,-67.864624,TRUE,FALSE,FALSE,"S241171077"
"109","brant","Brant","Branta bernicla","L367966","Lewes Ferry Terminal","2025-05-22 08:15",4,38.782281,-75.119763,TRUE,FALSE,FALSE,"S241179315"
"110","brant","Brant","Branta bernicla","L297947","Harkness Memorial SP","2025-05-22 08:05",60,41.3014861,-72.1119044,TRUE,FALSE,FALSE,"S241197692"
"111","brant","Brant","Branta bernicla","L269491","Plymouth Beach","2025-05-22 07:58",12,41.9765658,-70.6505452,TRUE,FALSE,FALSE,"S241188716"
"112","brant","Brant","Branta bernicla","L129046","Parker River NWR","2025-05-22 07:55",25,42.7639008,-70.8022995,TRUE,FALSE,FALSE,"S241311733"
"113","brant","Brant","Branta bernicla","L129822","Peace Valley Park (IBA)","2025-05-22 07:39",1,40.3261424,-75.1893997,TRUE,TRUE,FALSE,"S241159932"
"114","brant","Brant","Branta bernicla","L11617323","Great Duck Island (restricted access)","2025-05-22 07:00",1,44.144019,-68.24627,TRUE,FALSE,FALSE,"S241161919"
"115","brant","Brant","Branta bernicla","L8534417","Rhinecliff Landing Park","2025-05-22 06:28",1,41.9200315,-73.9530906,TRUE,FALSE,FALSE,"S241168497"
"116","brant","Brant","Branta bernicla","L4776720","Witch Island, Hampton","2025-05-22 06:08",1,42.9379358,-70.7973361,TRUE,FALSE,TRUE,"S241201508"
"117","brant","Brant","Branta bernicla","L152499","Breezy Point Tip","2025-05-22 06:01",25,40.5506643,-73.9357889,TRUE,FALSE,FALSE,"S241401373"
"118","brant","Brant","Branta bernicla","L2508666","Smith Neck Road Boat Ramp","2025-05-22 05:45",60,41.2874794,-72.3240709,TRUE,FALSE,FALSE,"S241147435"
"119","brant","Brant","Branta bernicla","L279945","Andrews Point","2025-05-22 05:04",30,42.687714,-70.6204365,TRUE,FALSE,FALSE,"S241366392"
"120","brant","Brant","Branta bernicla","L1206739","Nome-Council Rd.--Safety Sound Bridge","2025-05-21 21:42",6,64.4720541,-164.746685,TRUE,FALSE,FALSE,"S241355698"
"121","brant","Brant","Branta bernicla","L1020720","Peace Valley Park ","2025-05-21 18:30",1,40.3358152,-75.1808167,TRUE,TRUE,TRUE,"S241067271"
"122","brant","Brant","Branta bernicla","L839427","Santa Cruz Harbor--lower harbor and jetty","2025-05-21 17:58",8,36.9630553,-122.0021118,TRUE,FALSE,FALSE,"S241085962"
"123","brant","Brant","Branta bernicla","L45624627","Boston, Massachusetts, US","2025-05-21 17:31",13,42.3255565,-71.0478743,TRUE,FALSE,TRUE,"S241040152"
"124","brant","Brant","Branta bernicla","L850102","Rt. 1A Pullout by Stone Angel, Rye","2025-05-21 17:19",18,43.0119042,-70.7375228,TRUE,FALSE,FALSE,"S241034074"
"125","brant","Brant","Branta bernicla","L360643","Geneva Lakefront Park, birds over water ONLY (Seneca Co.)","2025-05-21 16:00",1,42.8691152,-76.9737481,TRUE,FALSE,FALSE,"S241291617"
"126","brant","Brant","Branta bernicla","L509108","Croton Point Park","2025-05-21 15:29",1,41.1871668,-73.8891219,TRUE,FALSE,FALSE,"S241018205"
"127","brant","Brant","Branta bernicla","L165143","Jamaica Bay Wildlife Refuge","2025-05-21 15:25",200,40.6170296,-73.8244561,TRUE,FALSE,FALSE,"S241073557"
"128","brant","Brant","Branta bernicla","L3766673","Pamet Harbor","2025-05-21 15:20",1,41.991134,-70.0784215,TRUE,FALSE,TRUE,"S241015561"
"129","brant","Brant","Branta bernicla","L1785376","Randalls Island--Ferry Dock and environs","2025-05-21 15:19",18,40.7977472,-73.9268891,TRUE,FALSE,FALSE,"S241011422"
"130","brant","Brant","Branta bernicla","L45653262","Randall's Island Golf Center","2025-05-21 15:15",36,40.7971563,-73.9246804,TRUE,FALSE,TRUE,"S241187828"
"131","brant","Brant","Branta bernicla","L45621686","Randall's Island Park, New York US-NY 40.79577, -73.92488","2025-05-21 15:08",50,40.795774,-73.924878,TRUE,FALSE,TRUE,"S241023527"
"132","brant","Brant","Branta bernicla","L45618237","Randall's Island Park, New York US-NY 40.79602, -73.92508","2025-05-21 15:00",3,40.796021,-73.925084,TRUE,FALSE,TRUE,"S241005461"
"133","brant","Brant","Branta bernicla","L109210","Long Beach","2025-05-21 14:40",1,41.150094,-73.1408787,TRUE,FALSE,FALSE,"S241029483"
"134","brant","Brant","Branta bernicla","L249800","Short Beach Park","2025-05-21 14:14",20,41.1648434,-73.1104136,TRUE,FALSE,FALSE,"S241028756"
"135","brant","Brant","Branta bernicla","L10157408","Peace Valley Park","2025-05-21 13:55",1,40.5416633,-75.1666555,TRUE,TRUE,TRUE,"S241295330"
"136","brant","Brant","Branta bernicla","L45606047","Mexico Farms fields","2025-05-21 13:24",36,39.6073013,-78.7635314,TRUE,TRUE,TRUE,"S241014772"
"137","brant","Brant","Branta bernicla","L444842","Cammanns Pond Park","2025-05-21 13:00",1,40.6537553,-73.5509445,TRUE,FALSE,FALSE,"S241010661"
"138","brant","Brant","Branta bernicla","L45627490","Pelican point","2025-05-21 12:57",10,36.853536,-121.808518,TRUE,FALSE,TRUE,"S241051719"
"139","brant","Brant","Branta bernicla","L782177","Gustavus--Forelands (W of dock to Critical Habitat boundary)","2025-05-21 12:45",30,58.3921763,-135.7899857,TRUE,FALSE,FALSE,"S241098741"
"140","brant","Brant","Branta bernicla","L44007805","Warwick Complex","2025-05-21 12:16",1,41.15752,-74.257808,TRUE,FALSE,TRUE,"S241068549"
"141","brant","Brant","Branta bernicla","L695210","Great Boars Head, Hampton","2025-05-21 12:12",15,42.9182179,-70.7977867,TRUE,FALSE,FALSE,"S240946068"
"142","brant","Brant","Branta bernicla","L5070824","Allin's Cove (Barrington Land Conservation Trust)","2025-05-21 12:10",7,41.7442266,-71.3481226,TRUE,FALSE,FALSE,"S240956426"
"143","brant","Brant","Branta bernicla","L6327525","The Landing, Dobbs Ferry","2025-05-21 12:00",60,41.0185489,-73.8786125,TRUE,FALSE,FALSE,"S241328195"
"144","brant","Brant","Branta bernicla","L109217","Milford Point — Sandbars","2025-05-21 12:00",100,41.1725812,-73.1003666,TRUE,FALSE,FALSE,"S241017006"
"145","brant","Brant","Branta bernicla","L1283703","Nyatt Road Access","2025-05-21 11:41",67,41.7303621,-71.3408375,TRUE,TRUE,FALSE,"S240940696"
"146","brant","Brant","Branta bernicla","L444898","Hampton Harbor (overall)","2025-05-21 11:28",66,42.8964669,-70.8253055,TRUE,TRUE,FALSE,"S240937875"
"147","brant","Brant","Branta bernicla","L616218","Shore Road Park","2025-05-21 10:59",1,40.6220738,-74.0406629,TRUE,FALSE,FALSE,"S241089684"
"148","brant","Brant","Branta bernicla","L21260095","Paine's Creek Beach","2025-05-21 10:53",21,41.7607166,-70.1137376,TRUE,FALSE,FALSE,"S241040329"
"149","brant","Brant","Branta bernicla","L453702","Revere Beach--Point of Pines","2025-05-21 10:24",27,42.4408143,-70.9601784,TRUE,FALSE,FALSE,"S240927498"
"150","brant","Brant","Branta bernicla","L44396122","Catskill Along Hudson River, New York, US (42.202, -73.854)","2025-05-21 09:57",45,42.2024574,-73.8542774,TRUE,FALSE,TRUE,"S241050031"
"151","brant","Brant","Branta bernicla","L298379","Hammonasset Beach SP","2025-05-21 09:25",3,41.2619859,-72.5548234,TRUE,FALSE,FALSE,"S241049726"
"152","brant","Brant","Branta bernicla","L11241982","Wardsboro Road","2025-05-21 09:18",80,43.6779893,-73.5995859,TRUE,FALSE,TRUE,"S241000124"
"153","brant","Brant","Branta bernicla","L278317","Rye Harbor","2025-05-21 09:00",120,43.0008809,-70.747962,TRUE,TRUE,FALSE,"S240990534"
"154","brant","Brant","Branta bernicla","L109147","Jones Beach SP--West End","2025-05-21 09:00",46,40.5835871,-73.5514346,TRUE,FALSE,FALSE,"S241018786"
"155","brant","Brant","Branta bernicla","L269484","Duxbury Beach","2025-05-21 08:54",2,42.0295225,-70.6261466,TRUE,FALSE,FALSE,"S240888823"
"156","brant","Brant","Branta bernicla","L12199115","Samish Bay","2025-05-21 08:15",18,48.5907733,-122.4924468,TRUE,FALSE,TRUE,"S241511548"
"157","brant","Brant","Branta bernicla","L45689652","Nome-Council Rd, Nome US-AK (64.4817,-164.6951)","2025-05-21 08:12",9,64.481742,-164.695108,TRUE,FALSE,TRUE,"S241356801"
"158","brant","Brant","Branta bernicla","L11752783","Paradox upper lake","2025-05-21 08:09",300,43.891716,-73.665706,TRUE,TRUE,TRUE,"S240890751"
"159","brant","Brant","Branta bernicla","L555894","Governors Island (N.Y. County)","2025-05-21 08:09",50,40.6885372,-74.0189759,TRUE,FALSE,FALSE,"S241306053"
"160","brant","Brant","Branta bernicla","L279864","Sunken Meadow SP","2025-05-21 08:08",28,40.911701,-73.2578964,TRUE,FALSE,FALSE,"S240903428"
"161","brant","Brant","Branta bernicla","L6975167","Little Private Beach, Marblehead","2025-05-21 08:08",20,42.490443,-70.844304,TRUE,FALSE,FALSE,"S240901577"
"162","brant","Brant","Branta bernicla","L920855","Glacier Bay NP--Bartlett Cove","2025-05-21 08:00",7,58.4547386,-135.9149551,TRUE,FALSE,FALSE,"S241016471"
"163","brant","Brant","Branta bernicla","L16248284","Padanarum Road","2025-05-21 07:19",NA,43.6503193,-73.6069648,TRUE,FALSE,FALSE,"S240999481"
"164","brant","Brant","Branta bernicla","L5093265","Far Rockaway Home","2025-05-21 07:00",7,40.5937481,-73.7492664,TRUE,FALSE,TRUE,"S241176151"
"165","brant","Brant","Branta bernicla","L681809","Great Kills Park--Mudflats","2025-05-21 06:40",4,40.5464104,-74.1182005,TRUE,FALSE,FALSE,"S240857679"
"166","brant","Brant","Branta bernicla","L99615","Myers Point","2025-05-21 06:19",53,42.5371252,-76.5506476,TRUE,TRUE,FALSE,"S240837957"
"167","brant","Brant","Branta bernicla","L489056","Compo Beach","2025-05-21 06:15",38,41.1032532,-73.3529234,TRUE,FALSE,FALSE,"S241035770"
"168","brant","Brant","Branta bernicla","L985351","Cape Henlopen SP--Herring Point","2025-05-21 06:00",2,38.7657665,-75.0821221,TRUE,FALSE,FALSE,"S240891356"
"169","brant","Brant","Branta bernicla","L2781443","Jacob's Point Saltmarsh","2025-05-21 05:51",5,41.7106636,-71.2903995,TRUE,FALSE,FALSE,"S240865338"
"170","brant","Brant","Branta bernicla","L16814080","Tier Street, City Island","2025-05-21 05:40",5,40.848526,-73.791029,TRUE,FALSE,TRUE,"S240836937"
"171","brant","Brant","Branta bernicla","L1133152","Tareyton Drive yards","2025-05-21 00:02",20,42.470656,-76.4597903,TRUE,FALSE,TRUE,"S240838360"
"172","brant","Brant","Branta bernicla","L455424","North Hampton State Beach","2025-05-21",100,42.9546165,-70.7819617,TRUE,TRUE,FALSE,"S240991485"
"173","brant","Brant","Branta bernicla","L12736883","Reynolds Field, Hastings-on-Hudson","2025-05-20 23:35",40,40.9953367,-73.8760861,TRUE,FALSE,FALSE,"S241102370"
"174","brant","Brant","Branta bernicla","L324290","Hillside Woods & Children's Village","2025-05-20 23:34",40,40.9951767,-73.8709218,TRUE,FALSE,FALSE,"S241102555"
"175","brant","Brant","Branta bernicla","L29158074","My Backyard","2025-05-20 20:44",250,40.9401958,-74.0424103,TRUE,TRUE,TRUE,"S240769572"
"176","brant","Brant","Branta bernicla","L28588994","Hello MODO","2025-05-20 20:25",700,40.6598028,-73.9808692,TRUE,TRUE,TRUE,"S240770237"
"177","brant","Brant","Branta bernicla","L21150187","3 Ridgewood Place","2025-05-20 20:08",NA,40.698868,-73.911373,TRUE,FALSE,TRUE,"S240944830"
"178","brant","Brant","Branta bernicla","L19408408","28th Street, Astoria","2025-05-20 20:01",3740,40.770762,-73.920692,TRUE,TRUE,TRUE,"S240769499"
"179","brant","Brant","Branta bernicla","L29421056","Medgar Evers College, CUNY","2025-05-20 19:50",75,40.6665195,-73.9570488,TRUE,FALSE,FALSE,"S240762741"
"180","brant","Brant","Branta bernicla","L8955614","Greystone Metro-North Station","2025-05-20 19:48",220,40.9726034,-73.8891463,TRUE,FALSE,TRUE,"S240765390"
"181","brant","Brant","Branta bernicla","L614068","Meadowlands IBA--Kearny Marsh East","2025-05-20 19:40",12,40.75688,-74.1039848,TRUE,FALSE,FALSE,"S240769226"
"182","brant","Brant","Branta bernicla","L1618574","home","2025-05-20 19:40",32,41.1124458,-73.428978,TRUE,FALSE,TRUE,"S240758193"
"183","brant","Brant","Branta bernicla","L109516","Prospect Park","2025-05-20 19:37",400,40.6602841,-73.9689534,TRUE,TRUE,FALSE,"S240848584"
"184","brant","Brant","Branta bernicla","L10020264","Gramercy apartment","2025-05-20 19:35",3200,40.736599,-73.981441,TRUE,TRUE,TRUE,"S240775954"
"185","brant","Brant","Branta bernicla","L15390695","Bay Ridge - 86th Street","2025-05-20 19:10",150,40.6253276,-74.0285823,TRUE,TRUE,TRUE,"S240782332"
"186","brant","Brant","Branta bernicla","L1846362","Davenport Park","2025-05-20 19:08",75,40.8961717,-73.7710818,TRUE,FALSE,FALSE,"S240784251"
"187","brant","Brant","Branta bernicla","L37161938","home","2025-05-20 19:03",9000,40.69072,-73.939768,TRUE,TRUE,TRUE,"S240758577"
"188","brant","Brant","Branta bernicla","L45013037","My home - Rooftop","2025-05-20 19:00",350,40.7433448,-73.9580908,TRUE,TRUE,TRUE,"S240752432"
"189","brant","Brant","Branta bernicla","L200019","Island Beach SP (please consider using more specific locations)","2025-05-20 19:00",7,39.8483707,-74.0880203,TRUE,FALSE,FALSE,"S240784770"
"190","brant","Brant","Branta bernicla","L387182","Stewart B. McKinney NWR--Railroad Track Tr.","2025-05-20 18:56",1,41.1626415,-73.1512515,TRUE,FALSE,FALSE,"S240783368"
"191","brant","Brant","Branta bernicla","L819486","Keyport--waterfront area","2025-05-20 18:48",25,40.4391085,-74.2001152,TRUE,FALSE,FALSE,"S240738788"
"192","brant","Brant","Branta bernicla","L33124848","Congress Street","2025-05-20 18:30",650,40.6891943,-73.9969754,TRUE,TRUE,TRUE,"S240787643"
"193","brant","Brant","Branta bernicla","L11453168","11th St. Yard","2025-05-20 18:25",1087,40.663655,-73.978852,TRUE,TRUE,TRUE,"S240765472"
"194","brant","Brant","Branta bernicla","L519787","Fort Totten Park","2025-05-20 18:06",15,40.791916,-73.7761026,TRUE,FALSE,FALSE,"S240747930"
"195","brant","Brant","Branta bernicla","L7076484","Gulf Beach","2025-05-20 18:02",30,41.2092522,-73.04452,TRUE,FALSE,FALSE,"S240727825"
"196","brant","Brant","Branta bernicla","L2593026","Seamans Neck Park","2025-05-20 17:19",5,40.6529716,-73.49241,TRUE,FALSE,FALSE,"S240735271"
"197","brant","Brant","Branta bernicla","L45638857","Homer to Chowiet via Tiglax, Day 2, Leg 5 - 5/20/25","2025-05-20 17:05",4,56.701949,-153.821534,TRUE,FALSE,TRUE,"S241110256"
"198","brant","Brant","Branta bernicla","L2526644","Save The Bay Center & Coastal Greenway","2025-05-20 16:50",17,41.7857568,-71.3817573,TRUE,FALSE,FALSE,"S240765527"
"199","brant","Brant","Branta bernicla","L1166504","Hudson River Park--Greenwich Village (W Houston-14th St.)","2025-05-20 16:00",2,40.7351612,-74.0106225,TRUE,FALSE,FALSE,"S240736150"
"200","brant","Brant","Branta bernicla","L2167041","Oakwood Beach--tidal marshes, NW to Mill Rd.","2025-05-20 15:48",2,40.5494903,-74.1131688,TRUE,FALSE,FALSE,"S240703552"
"201","brant","Brant","Branta bernicla","L572072","Edwin B. Forsythe NWR--Cedar Bonnet Island","2025-05-20 15:45",20,39.6571874,-74.1938168,TRUE,FALSE,FALSE,"S240775673"
"202","brant","Brant","Branta bernicla","L280564","Sherwood Island State Park","2025-05-20 15:42",1,41.1157809,-73.3305955,TRUE,FALSE,FALSE,"S240721666"
"203","brant","Brant","Branta bernicla","L15669069","Glacier Bay NP--Bartlett Cove Campground","2025-05-20 15:31",7,58.4507812,-135.8944094,TRUE,FALSE,FALSE,"S240769391"
"204","brant","Brant","Branta bernicla","L4044569","Mouth of Nome River","2025-05-20 15:21",5,64.4825476,-165.305593,TRUE,FALSE,TRUE,"S240783782"
"205","brant","Brant","Branta bernicla","L10874026","Sandy Hook--F Lot/Fishing Beach","2025-05-20 14:49",7,40.4382623,-73.9843759,TRUE,FALSE,FALSE,"S240696971"
"206","brant","Brant","Branta bernicla","L1413893","Leeds Pond Preserve","2025-05-20 14:35",10,40.8148604,-73.7008044,TRUE,FALSE,FALSE,"S240699250"
"207","brant","Brant","Branta bernicla","L635901","Arden Ave. Beach","2025-05-20 14:35",24,40.5276639,-74.1605043,TRUE,FALSE,FALSE,"S240740411"
"208","brant","Brant","Branta bernicla","L109489","Bodega Bay--harbor and immediate vicinity","2025-05-20 14:30",16,38.3238144,-123.0488491,TRUE,FALSE,FALSE,"S240760326"
"209","brant","Brant","Branta bernicla","L34853669","Smith's Point","2025-05-20 14:04",300,41.172545,-73.1073222,TRUE,FALSE,TRUE,"S240680874"
"210","brant","Brant","Branta bernicla","L45547638","Interstate 678, New York, US (40.762, -73.839)","2025-05-20 14:02",3,40.7620411,-73.8391152,TRUE,FALSE,TRUE,"S240655358"
"211","brant","Brant","Branta bernicla","L3044567","Hudson River Park--Pier 55 (Little Island, W 12th-14th St.)","2025-05-20 14:00",2,40.7420139,-74.0106444,TRUE,FALSE,FALSE,"S240698518"
"212","brant","Brant","Branta bernicla","L45592283","Nelson Memorial Park, Plymouth US-MA 41.96668, -70.67166","2025-05-20 13:29",18,41.966676,-70.67166,TRUE,FALSE,TRUE,"S240879361"
"213","brant","Brant","Branta bernicla","L45727763","Jamaica Bay","2025-05-20 13:17",50,40.606704,-73.821568,TRUE,FALSE,TRUE,"S241550133"
"214","brant","Brant","Branta bernicla","L7960614","Jamaica Bay, JoCo Marsh","2025-05-20 13:00",NA,40.615764,-73.7906823,TRUE,FALSE,FALSE,"S240704037"
"215","brant","Brant","Branta bernicla","L611064","Stratford Point, CT Audubon","2025-05-20 12:53",10,41.1533577,-73.1033278,TRUE,FALSE,FALSE,"S240655689"
"216","brant","Brant","Branta bernicla","L754450","Plaice Cove, Hampton","2025-05-20 12:20",36,42.9433316,-70.7880664,TRUE,FALSE,FALSE,"S240628469"
"217","brant","Brant","Branta bernicla","L298357","Dubos Point","2025-05-20 12:03",26,40.6016353,-73.7895902,TRUE,FALSE,FALSE,"S240619795"
"218","brant","Brant","Branta bernicla","L520982","First Landing Park--Jetties","2025-05-20 11:50",55,42.0368471,-70.1967144,TRUE,FALSE,FALSE,"S240707552"
"219","brant","Brant","Branta bernicla","L12896593","Brant Point Wildlife Sanctuary","2025-05-20 11:30",32,40.5976066,-73.8027374,TRUE,FALSE,FALSE,"S240610834"
"220","brant","Brant","Branta bernicla","L9311630","Island Beach SP--Johnny Allen's Cove Trail","2025-05-20 11:14",21,39.805271,-74.098013,TRUE,FALSE,FALSE,"S240594405"
"221","brant","Brant","Branta bernicla","L293510","Mt. Loretto Unique Area","2025-05-20 11:09",12,40.5072899,-74.2180324,TRUE,FALSE,FALSE,"S240674962"
"222","brant","Brant","Branta bernicla","L109158","Silver Sands SP","2025-05-20 11:04",55,41.2007691,-73.072138,TRUE,FALSE,FALSE,"S240614723"
"223","brant","Brant","Branta bernicla","L1336916","Czecik Marina Park Harbor","2025-05-20 10:56",14,41.0409944,-73.5286228,TRUE,FALSE,TRUE,"S240588284"
"224","brant","Brant","Branta bernicla","L589790","Corson's Inlet SP","2025-05-20 10:26",11,39.2167774,-74.6462631,TRUE,FALSE,FALSE,"S240622715"
"225","brant","Brant","Branta bernicla","L272667","Dyer Point","2025-05-20 10:05",1,43.5653323,-70.1971416,TRUE,FALSE,FALSE,"S240600883"
"226","brant","Brant","Branta bernicla","L444827","Parker River NWR--Lot 1","2025-05-20 09:59",7,42.7897793,-70.8091271,TRUE,FALSE,FALSE,"S240569765"
"227","brant","Brant","Branta bernicla","L791193","Jamaica Bay Wildlife Refuge--North Garden","2025-05-20 09:58",20,40.6217543,-73.8277853,TRUE,FALSE,FALSE,"S240667938"
"228","brant","Brant","Branta bernicla","L1040577","Longshore Country Club, Westport","2025-05-20 09:37",16,41.1116605,-73.3601332,TRUE,FALSE,TRUE,"S240790030"
"229","brant","Brant","Branta bernicla","L781318","Gustavus--Forelands","2025-05-20 09:30",30,58.4121436,-135.724411,TRUE,FALSE,FALSE,"S240724549"
"230","brant","Brant","Branta bernicla","L167247","Jones Beach SP","2025-05-20 09:10",15,40.5945237,-73.5104002,TRUE,FALSE,FALSE,"S240704714"
"231","brant","Brant","Branta bernicla","L2121512","Sandy/Morse Points","2025-05-20 09:10",100,41.2679367,-72.9267311,TRUE,FALSE,TRUE,"S240710824"
"232","brant","Brant","Branta bernicla","L19284651","Manorhaven Beach Park, Manorhaven US-NY 40.84027, -73.71281","2025-05-20 09:06",9,40.840266,-73.712809,TRUE,FALSE,TRUE,"S240546230"
"233","brant","Brant","Branta bernicla","L444818","Parker River NWR--Maintenance Area","2025-05-20 08:46",18,42.756722,-70.8052111,TRUE,FALSE,FALSE,"S241078677"
"234","brant","Brant","Branta bernicla","L723695","Lido Beach Passive Nature Area","2025-05-20 08:00",NA,40.5923663,-73.5957384,TRUE,FALSE,FALSE,"S240592234"
"235","brant","Brant","Branta bernicla","L126644","Cape Henlopen State Park","2025-05-20 07:44",12,38.7714636,-75.086344,TRUE,FALSE,FALSE,"S240736497"
"236","brant","Brant","Branta bernicla","L827977","Bayfront Park (J St.)","2025-05-20 07:15",1,32.6186091,-117.1033868,TRUE,FALSE,FALSE,"S240701156"
"237","brant","Brant","Branta bernicla","L10874078","Sandy Hook--Lighthouse & bike path","2025-05-20 07:01",120,40.4621748,-74.0017339,TRUE,FALSE,FALSE,"S240547968"
"238","brant","Brant","Branta bernicla","L521509","Revere Beach--Pink Apartments","2025-05-20 06:58",125,42.4205103,-70.9857291,TRUE,FALSE,FALSE,"S240517444"
"239","brant","Brant","Branta bernicla","L1067145","Kasilof--Kasilof River Mouth","2025-05-20 06:50",1,60.3859137,-151.302166,TRUE,TRUE,FALSE,"S240733522"
"240","brant","Brant","Branta bernicla","L300477","Wolfe's Pond Park","2025-05-20 06:46",120,40.5140992,-74.191022,TRUE,FALSE,FALSE,"S240675390"
"241","brant","Brant","Branta bernicla","L1300483","Cape May NWR--Two Mile Unit","2025-05-19 20:30",3,38.9518672,-74.8578212,TRUE,FALSE,FALSE,"S240455509"
"242","brant","Brant","Branta bernicla","L2647809","Tappen Beach","2025-05-19 20:28",7,40.835643,-73.652637,TRUE,FALSE,FALSE,"S240413815"
"243","brant","Brant","Branta bernicla","L12462074","North Woodmere Park Trail, Valley Stream, New York, US (40.647, -73.738)","2025-05-19 20:03",8,40.6468317,-73.7383484,TRUE,FALSE,TRUE,"S240749165"
"244","brant","Brant","Branta bernicla","L11967603","11 Woodside Park, Winthrop, Mass., US (42.369, -70.986)","2025-05-19 17:52",3,42.3688425,-70.9861536,TRUE,FALSE,TRUE,"S240376936"
"245","brant","Brant","Branta bernicla","L14704091","David S. Lynch Memorial Park","2025-05-19 17:36",23,42.5468284,-70.8608723,TRUE,FALSE,FALSE,"S240373045"
"246","brant","Brant","Branta bernicla","L45575456","18 Hartshorne Drive, Highlands, New Jersey, US (40.458, -74.005)","2025-05-19 17:30",1,40.4581963,-74.0050254,TRUE,FALSE,TRUE,"S240794373"
"247","brant","Brant","Branta bernicla","L619821","Edith G. Read Wildlife Sanctuary","2025-05-19 17:16",16,40.9671742,-73.6701841,TRUE,FALSE,FALSE,"S240427674"
"248","brant","Brant","Branta bernicla","L2372882","Island Beach SP--Spizzle Creek Blind Trail","2025-05-19 17:00",15,39.7941774,-74.0972793,TRUE,FALSE,FALSE,"S240435250"
"249","brant","Brant","Branta bernicla","L187164","Watchemoket Cove","2025-05-19 16:35",10,41.800495,-71.376686,TRUE,FALSE,FALSE,"S240353561"
"250","brant","Brant","Branta bernicla","L45546172","Nome-Council Rd, Nome US-AK 64.49386, -164.64609","2025-05-19 16:34",600,64.493859,-164.646086,TRUE,FALSE,TRUE,"S240648162"
"251","brant","Brant","Branta bernicla","L9600622","Toolik Lake Public Access","2025-05-19 16:00",NA,68.6319721,-149.585038,TRUE,FALSE,FALSE,"S240791190"
"252","brant","Brant","Branta bernicla","L671525","Shirley Chisholm SP (Fountain Ave. Landfill)","2025-05-19 16:00",4,40.6472791,-73.8624734,TRUE,FALSE,FALSE,"S240423638"
"253","brant","Brant","Branta bernicla","L466296","Watch Hill Lighthouse","2025-05-19 16:00",5,41.3045,-71.8583,TRUE,FALSE,FALSE,"S240990737"
"254","brant","Brant","Branta bernicla","L4061758","Udall's Mill Pond","2025-05-19 15:25",14,40.7995738,-73.7487479,TRUE,FALSE,FALSE,"S240336224"
"255","brant","Brant","Branta bernicla","L45504859","Washington, US (48.571, -122.591)","2025-05-19 14:39",35,48.5710045,-122.5907096,TRUE,FALSE,TRUE,"S240440186"
"256","brant","Brant","Branta bernicla","L1265319","Cape Henlopen SP--The Point","2025-05-19 14:10",28,38.8000272,-75.092376,TRUE,FALSE,FALSE,"S240304292"
"257","brant","Brant","Branta bernicla","L45474828","Nickerson Beach Park, Lido Beach US-NY 40.59077, -73.60280","2025-05-19 13:12",100,40.590775,-73.602799,TRUE,FALSE,TRUE,"S240286968"
"258","brant","Brant","Branta bernicla","L19335562","Fort Saybrook Monument Park","2025-05-19 13:02",1,41.2847733,-72.3517968,TRUE,FALSE,FALSE,"S240292847"
"259","brant","Brant","Branta bernicla","L278320","Rye Ledge","2025-05-19 12:58",200,42.9736526,-70.7647414,TRUE,TRUE,FALSE,"S240298245"
"260","brant","Brant","Branta bernicla","L27417385","2400 Westshore Road, Bodega Bay, California, US (38.322, -123.057)","2025-05-19 12:45",8,38.3222853,-123.0569849,TRUE,FALSE,TRUE,"S240337935"
"261","brant","Brant","Branta bernicla","L1321104","Pine Creek (Whole) ","2025-05-19 11:56",5,41.1256066,-73.2619643,TRUE,FALSE,FALSE,"S240388185"
"262","brant","Brant","Branta bernicla","L791196","Jamaica Bay Wildlife Refuge--South Garden","2025-05-19 11:39",400,40.6175467,-73.825745,TRUE,FALSE,FALSE,"S240344437"
"263","brant","Brant","Branta bernicla","L207462","Wellfleet Bay Wildlife Sanctuary (Mass Audubon)","2025-05-19 11:28",1,41.8825315,-69.995712,TRUE,FALSE,FALSE,"S240257143"
"264","brant","Brant","Branta bernicla","L6986516","Brazil Beach","2025-05-19 11:00",10,38.23149,-122.96935,TRUE,FALSE,TRUE,"S240642392"
"265","brant","Brant","Branta bernicla","L1096942","Weekapaug Breachway--Ponds","2025-05-19 10:55",1,41.3367682,-71.7658388,TRUE,FALSE,FALSE,"S240270730"
"266","brant","Brant","Branta bernicla","L5158973","Westerly--Spray Rock Rd overlook","2025-05-19 10:53",1,41.326541,-71.754616,TRUE,FALSE,TRUE,"S240270680"
"267","brant","Brant","Branta bernicla","L508149","Nickerson Beach","2025-05-19 10:44",100,40.5871823,-73.6024,TRUE,FALSE,FALSE,"S240228830"
"268","brant","Brant","Branta bernicla","L3236803","Niantic Bay Boardwalk","2025-05-19 10:15",4,41.3237168,-72.1794891,TRUE,FALSE,FALSE,"S240174990"
"269","brant","Brant","Branta bernicla","L45506147","Sherwood Island State Park","2025-05-19 10:00",21,41.1186403,-73.3324695,TRUE,FALSE,TRUE,"S240447168"
"270","brant","Brant","Branta bernicla","L45304530","727 E Broadway, Milford US-CT","2025-05-19 09:48",30,41.201712,-73.064031,TRUE,FALSE,TRUE,"S240172547"
"271","brant","Brant","Branta bernicla","L1085306","Siletz Bay--Salishan Nature Trail","2025-05-19 09:35",1,44.8908168,-124.0253448,TRUE,FALSE,FALSE,"S240292799"
"272","brant","Brant","Branta bernicla","L1782365","Stuyvesant Town-Peter Cooper Village","2025-05-19 09:13",8,40.7338098,-73.9772238,TRUE,FALSE,FALSE,"S240232330"
"273","brant","Brant","Branta bernicla","L45445707","Black River, Carthage US-NY 44.02865, -75.75003","2025-05-19 09:08",1,44.028646,-75.750026,TRUE,FALSE,TRUE,"S240153414"
"274","brant","Brant","Branta bernicla","L31881848","Silver Sands State Park","2025-05-19 09:00",20,41.12,-73.04156,TRUE,FALSE,TRUE,"S240396973"
"275","brant","Brant","Branta bernicla","L39799460","Great Island, Darien","2025-05-19 08:37",3,41.052673,-73.473543,TRUE,FALSE,FALSE,"S240171908"
"276","brant","Brant","Branta bernicla","L45474526","UConn Study Site-Great Meadow Marsh","2025-05-19 08:35",1,41.162694,-73.154121,TRUE,FALSE,TRUE,"S240285580"
"277","brant","Brant","Branta bernicla","L445930","Cape Henlopen SP--Nature Center area","2025-05-19 07:55",35,38.7841137,-75.0980115,TRUE,FALSE,FALSE,"S240160943"
"278","brant","Brant","Branta bernicla","L836994","Salmon Creek mouth (SON Co.)","2025-05-19 07:52",1,38.3547149,-123.0679035,TRUE,FALSE,FALSE,"S240397857"
"279","brant","Brant","Branta bernicla","L259743","Caumsett SP","2025-05-19 07:20",8,40.9308721,-73.4720876,TRUE,FALSE,FALSE,"S240325499"
"280","brant","Brant","Branta bernicla","L503601","Kennedy Park","2025-05-19 07:20",3,39.3068744,-74.6057081,TRUE,FALSE,FALSE,"S240153262"
"281","brant","Brant","Branta bernicla","L26472517","Peter","2025-05-19 06:47",5,41.993002,-70.7000926,TRUE,FALSE,TRUE,"S240684571"
"282","brant","Brant","Branta bernicla","L1902982","Brooklyn Bridge Park","2025-05-19 06:36",5,40.6996104,-73.9973745,TRUE,FALSE,FALSE,"S240172274"
"283","brant","Brant","Branta bernicla","L45435307","Meadowbrook Parkway S, Roosevelt US-NY 40.67599, -73.57185","2025-05-19 06:14",11,40.675986,-73.571851,TRUE,FALSE,TRUE,"S240092610"
"284","brant","Brant","Branta bernicla","L45567211","A North Truro Beach","2025-05-18 19:11",1,42.0601462,-70.1446943,TRUE,FALSE,TRUE,"S240754532"
"285","brant","Brant","Branta bernicla","L45421634","801 Marine Drive, Port Angeles, Washington, US (48.125, -123.45)","2025-05-18 18:44",1,48.1248143,-123.4498042,TRUE,FALSE,TRUE,"S240027037"
"286","brant","Brant","Branta bernicla","L267814","Montezuma NWR--Wildlife Drive","2025-05-18 18:21",55,42.9817483,-76.7353284,TRUE,TRUE,FALSE,"S239986780"
"287","brant","Brant","Branta bernicla","L45166965","2142 Fairfield Beach Rd, Fairfield US-CT 41.11863, -73.26303","2025-05-18 16:26",40,41.118632,-73.263034,TRUE,FALSE,TRUE,"S239915389"
"288","brant","Brant","Branta bernicla","L109136","Cape Island--South Cape May Meadows (SCMM)","2025-05-18 16:22",1,38.9359287,-74.9434519,TRUE,FALSE,FALSE,"S239946782"
"289","brant","Brant","Branta bernicla","L45445897","20th St, Ocean City US-NJ (39.2695,-74.5941)","2025-05-18 16:15",14,39.269502,-74.594148,TRUE,FALSE,TRUE,"S240154389"
"290","brant","Brant","Branta bernicla","L164929","Bolsa Chica Ecological Reserve","2025-05-18 16:15",1,33.7026531,-118.050735,TRUE,FALSE,FALSE,"S240347686"
"291","brant","Brant","Branta bernicla","L1320502","Sasco Beach","2025-05-18 16:15",25,41.1266411,-73.2822204,TRUE,FALSE,FALSE,"S240148947"
"292","brant","Brant","Branta bernicla","L36365554","Ash Creek","2025-05-18 15:53",30,41.147283,-73.23722,TRUE,FALSE,TRUE,"S240429454"
"293","brant","Brant","Branta bernicla","L40611149","1401 New York 146, Clifton Park, New York, US (42.869, -73.86)","2025-05-18 15:42",17,42.8690692,-73.8596765,TRUE,FALSE,TRUE,"S239900630"
"294","brant","Brant","Branta bernicla","L2196011","Oneida Lake, Constantia (Mill St. parking area)","2025-05-18 15:34",4,43.2463281,-76.0001457,TRUE,FALSE,FALSE,"S239900334"
"295","brant","Brant","Branta bernicla","L45409389","10 Shore Rd, Niantic US-CT 41.31025, -72.20264","2025-05-18 15:29",6,41.310254,-72.202635,TRUE,FALSE,TRUE,"S239958896"
"296","brant","Brant","Branta bernicla","L45416798","103 New York 146, Mechanicville, New York, US (42.885, -73.716)","2025-05-18 15:28",4,42.885325,-73.7164827,TRUE,FALSE,TRUE,"S240000149"
"297","brant","Brant","Branta bernicla","L772429","Crab Meadow Beach","2025-05-18 15:00",125,40.9290128,-73.3249855,TRUE,FALSE,FALSE,"S239922004"
"298","brant","Brant","Branta bernicla","L284148","Norman J. Levy Park and Preserve","2025-05-18 14:45",30,40.6471523,-73.5630634,TRUE,FALSE,FALSE,"S240146220"
"299","brant","Brant","Branta bernicla","L280303","Eastern Point Wildlife Sanctuary (Mass Audubon)","2025-05-18 14:45",1,42.5811683,-70.6642726,TRUE,FALSE,FALSE,"S239915440"
"300","brant","Brant","Branta bernicla","L25091440","Jetty","2025-05-18 14:42",54,39.774494,-74.094694,TRUE,FALSE,TRUE,"S239949736"
"301","brant","Brant","Branta bernicla","L109144","Jamaica Bay Wildlife Refuge--East Pond","2025-05-18 14:29",30,40.6226854,-73.8220096,TRUE,FALSE,FALSE,"S239979061"
"302","brant","Brant","Branta bernicla","L594699","Jamaica Bay Wildlife Refuge--Big Johns Pond","2025-05-18 14:09",2,40.6206631,-73.8238335,TRUE,FALSE,FALSE,"S240039528"
"303","brant","Brant","Branta bernicla","L10948468","Pequot Ave. seawall","2025-05-18 14:07",30,41.3144086,-72.0938678,TRUE,FALSE,FALSE,"S240367628"
"304","brant","Brant","Branta bernicla","L1880516","Hammonasset Beach SP--Meig's Point Parking Lot/Marshes","2025-05-18 14:05",24,41.2522001,-72.5451318,TRUE,FALSE,FALSE,"S240009591"
"305","brant","Brant","Branta bernicla","L984762","Sandy Hook--North End","2025-05-18 14:00",NA,40.4769212,-74.0107298,TRUE,FALSE,FALSE,"S239936887"
"306","brant","Brant","Branta bernicla","L45393129","Sound School residential area","2025-05-18 13:48",35,41.283315,-72.926772,TRUE,FALSE,TRUE,"S239882202"
"307","brant","Brant","Branta bernicla","L23696099","410 Revere Beach Blvd, Revere US-MA 42.42331, -70.98387","2025-05-18 13:40",44,42.423308,-70.983868,TRUE,FALSE,TRUE,"S239832842"
"308","brant","Brant","Branta bernicla","L302921","Norbury's Landing","2025-05-18 13:24",10,39.0501634,-74.9273613,TRUE,FALSE,FALSE,"S239829597"
"309","brant","Brant","Branta bernicla","L3151880","Bush Terminal Piers Park","2025-05-18 13:13",40,40.6541609,-74.0204451,TRUE,FALSE,FALSE,"S239952176"
"310","brant","Brant","Branta bernicla","L296377","Great Kills Park","2025-05-18 13:12",80,40.5481454,-74.1241949,TRUE,FALSE,FALSE,"S239840418"
"311","brant","Brant","Branta bernicla","L3514361","North Woodmere Park","2025-05-18 13:08",30,40.641285,-73.7363824,TRUE,FALSE,FALSE,"S240019880"
"312","brant","Brant","Branta bernicla","L109206","Hammonasset Beach SP--Willard Island","2025-05-18 12:26",4,41.2568798,-72.5446236,TRUE,FALSE,FALSE,"S239882480"
"313","brant","Brant","Branta bernicla","L9958467","Central Park","2025-05-18 12:14",1,40.778051,-73.9674,TRUE,FALSE,TRUE,"S240095482"
"314","brant","Brant","Branta bernicla","L754467","Foss Beach, Rye","2025-05-18 12:05",144,43.0073934,-70.7441601,TRUE,TRUE,FALSE,"S239973024"
"315","brant","Brant","Branta bernicla","L547888","Heckscher SP, East Islip","2025-05-18 12:04",1,40.7129149,-73.1650615,TRUE,FALSE,FALSE,"S239873659"
"316","brant","Brant","Branta bernicla","L19460563","Broad Channel American Park","2025-05-18 12:03",1,40.5964382,-73.8227586,TRUE,FALSE,FALSE,"S239783741"
"317","brant","Brant","Branta bernicla","L6206350","Parker River NWR--Stage Island Trail","2025-05-18 11:55",3,42.7095765,-70.7840538,TRUE,FALSE,FALSE,"S239971273"
"318","brant","Brant","Branta bernicla","L45369415","beach","2025-05-18 11:50",NA,42.421627,-70.9836578,TRUE,FALSE,TRUE,"S239802335"
"319","brant","Brant","Branta bernicla","L45434189","21 S Delaware Ave, Villas US-NJ 39.04833, -74.92841","2025-05-18 11:47",5,39.048328,-74.928408,TRUE,FALSE,TRUE,"S240087237"
"320","brant","Brant","Branta bernicla","L2445730","Sandy Hook--C Lot & Beach","2025-05-18 10:54",500,40.4173516,-73.9810753,TRUE,FALSE,FALSE,"S240452379"
"321","brant","Brant","Branta bernicla","L508340","Lemon Creek Park","2025-05-18 10:53",80,40.5121298,-74.198581,TRUE,FALSE,FALSE,"S239760206"
"322","brant","Brant","Branta bernicla","L129084","Sandy Point State Reservation","2025-05-18 10:50",1,42.702006,-70.777711,TRUE,FALSE,FALSE,"S240022511"
"323","brant","Brant","Branta bernicla","L169393","Orient Point","2025-05-18 10:47",1,41.159225,-72.23746,TRUE,FALSE,TRUE,"S239738953"
"324","brant","Brant","Branta bernicla","L1280497","Cape May Harbor","2025-05-18 10:13",1,38.9496627,-74.8943564,TRUE,FALSE,FALSE,"S239718407"
"325","brant","Brant","Branta bernicla","L294962","Montezuma (NMWMA)--Railroad Rd. Marshes","2025-05-18 10:05",31,43.0572241,-76.7246532,TRUE,FALSE,FALSE,"S239736059"
"326","brant","Brant","Branta bernicla","L845195","Samish Island--Day Use Area","2025-05-18 10:05",35,48.5781665,-122.541408,TRUE,FALSE,FALSE,"S239882934"
"327","brant","Brant","Branta bernicla","L904314","Cape May (Cold Spring) Inlet","2025-05-18 10:02",1,38.9391833,-74.8659039,TRUE,FALSE,FALSE,"S239848616"
"328","brant","Brant","Branta bernicla","L444828","Parker River NWR--Emerson Rocks","2025-05-18 09:56",1,42.7073561,-70.7721689,TRUE,FALSE,FALSE,"S239736520"
"329","brant","Brant","Branta bernicla","L45496366","14 E Seventh St, Barnegat Light US-NJ 39.75794, -74.10435","2025-05-18 09:54",7,39.757944,-74.104349,TRUE,FALSE,TRUE,"S240393720"
"330","brant","Brant","Branta bernicla","L3232578","Czecik Marina","2025-05-18 09:34",8,41.0404878,-73.528018,TRUE,FALSE,FALSE,"S239687098"
"331","brant","Brant","Branta bernicla","L9431555","Westbrook Town Beach","2025-05-18 09:31",12,41.27431,-72.462366,TRUE,FALSE,FALSE,"S239697856"
"332","brant","Brant","Branta bernicla","L189039","Bayonne Golf Course Lefante Way","2025-05-18 09:00",12,40.665806,-74.10865,TRUE,FALSE,TRUE,"S239818890"
"333","brant","Brant","Branta bernicla","L9101479","Heaton Cabin","2025-05-18 09:00",18,48.5753285,-122.5168981,TRUE,FALSE,TRUE,"S239881345"
"334","brant","Brant","Branta bernicla","L45269670","Bayview Road, Ipswich, Massachusetts, US (42.7, -70.792)","2025-05-18 08:56",2,42.6997258,-70.7920115,TRUE,FALSE,TRUE,"S239656712"
"335","brant","Brant","Branta bernicla","L11794426","105 Auburn Rd, Lansing US-NY 42.53832, -76.49627","2025-05-18 08:49",26,42.538316,-76.496271,TRUE,FALSE,TRUE,"S239691503"
"336","brant","Brant","Branta bernicla","L207444","Long Pasture Wildlife Sanctuary (Mass Audubon)","2025-05-18 08:47",12,41.70703,-70.27171,TRUE,FALSE,FALSE,"S239663836"
"337","brant","Brant","Branta bernicla","L45347352","Salt Marsh Nature Center at Marine Park","2025-05-18 08:46",9,40.599946,-73.924327,TRUE,FALSE,TRUE,"S239669327"
"338","brant","Brant","Branta bernicla","L798371","Ona Beach SP","2025-05-18 08:37",1,44.5213563,-124.0740108,TRUE,FALSE,FALSE,"S240249696"
"339","brant","Brant","Branta bernicla","L14017825","Carkeek Park, Seattle US-WA 47.71119, -122.37209","2025-05-18 08:34",NA,47.711189,-122.372086,TRUE,FALSE,TRUE,"S239862301"
"340","brant","Brant","Branta bernicla","L593960","Lieutenant River","2025-05-18 08:21",86,41.3091661,-72.3397621,TRUE,FALSE,FALSE,"S239851248"
"341","brant","Brant","Branta bernicla","L5071674","Haines--Tanani Point","2025-05-18 08:05",10,59.2721599,-135.4407921,TRUE,FALSE,FALSE,"S239827715"
"342","brant","Brant","Branta bernicla","L212514","Upper Lisle County Park","2025-05-18 08:02",30,42.3970664,-75.9642321,TRUE,TRUE,FALSE,"S239852660"
"343","brant","Brant","Branta bernicla","L45416859","Griswold Cove, Niantic US-CT (41.2812,-72.3232)","2025-05-18 08:00",75,41.281173,-72.323242,TRUE,FALSE,TRUE,"S240000509"
"344","brant","Brant","Branta bernicla","L165376","Delta Park IBA","2025-05-18 07:58",51,44.5333652,-73.2777677,TRUE,TRUE,FALSE,"S239675936"
"345","brant","Brant","Branta bernicla","L30790775","Pedestrian Beach Crossing, Lewes US-DE 38.79579, -75.09298","2025-05-18 07:55",8,38.795793,-75.092976,TRUE,FALSE,TRUE,"S239615776"
"346","brant","Brant","Branta bernicla","L849163","Knapps Landing","2025-05-18 07:45",125,41.1710185,-73.1141478,TRUE,FALSE,FALSE,"S239611828"
"347","brant","Brant","Branta bernicla","L5267148","Harvey's Beach","2025-05-18 07:40",9,41.2735896,-72.3948087,TRUE,FALSE,FALSE,"S239629027"
"348","brant","Brant","Branta bernicla","L8550670","Jones Point","2025-05-18 07:10",100,41.2893401,-73.9587587,TRUE,FALSE,FALSE,"S239588405"
"349","brant","Brant","Branta bernicla","L1052460","Westport Longshore Club Park","2025-05-18 06:58",5,41.1101408,-73.363266,TRUE,FALSE,FALSE,"S240080967"
"350","brant","Brant","Branta bernicla","L852391","Manhattan Beach Park","2025-05-18 06:43",25,40.5762169,-73.9441681,TRUE,FALSE,FALSE,"S240026547"
"351","brant","Brant","Branta bernicla","L17764728","Black Rock Beach (Norfolk Co.)","2025-05-18 06:31",1,42.263822,-70.8245027,TRUE,FALSE,FALSE,"S239900040"
"352","brant","Brant","Branta bernicla","L294957","Kingston Point","2025-05-18 06:24",12,41.9238788,-73.9676753,TRUE,FALSE,FALSE,"S239590134"
"353","brant","Brant","Branta bernicla","L24415419","Odiorne Point State Park, Portsmouth US-NH 43.04895, -70.72629","2025-05-18 06:14",65,43.048951,-70.726287,TRUE,TRUE,TRUE,"S239605627"
"354","brant","Brant","Branta bernicla","L6570962","Saugatuck Shores","2025-05-18 05:45",150,41.096238,-73.373224,TRUE,FALSE,TRUE,"S239731570"
"355","brant","Brant","Branta bernicla","L11320312","Hartshorne Woods Park, Rumson US-NJ 40.39113, -74.00197","2025-05-18 05:44",1,40.391134,-74.001966,TRUE,FALSE,TRUE,"S239844181"
"356","brant","Brant","Branta bernicla","L278355","Isles of Shoals--Star Island, Rye","2025-05-18 05:43",3,42.9764333,-70.6125,TRUE,FALSE,FALSE,"S239793150"
"357","brant","Brant","Branta bernicla","L2457005","River Rd. marshes and RR tracks","2025-05-18 05:41",16,40.6165874,-74.1940534,TRUE,FALSE,FALSE,"S239784778"
"358","brant","Brant","Branta bernicla","L473471","Brewster Wing Island","2025-05-18 05:01",1,41.7574055,-70.1181364,TRUE,FALSE,FALSE,"S240101715"
"359","brant","Brant","Branta bernicla","L19132409","back yard","2025-05-18 00:21",5,42.8675461,-73.9375687,TRUE,FALSE,TRUE,"S239501787"
"360","brant","Brant","Branta bernicla","L7008756","McCook Point Park","2025-05-17 18:45",5,41.3174479,-72.1997237,TRUE,FALSE,FALSE,"S239482895"
"361","brant","Brant","Branta bernicla","L1918383","Bush Terminal waterfront, 51st St. access","2025-05-17 18:43",3,40.6511335,-74.0227568,TRUE,FALSE,FALSE,"S239450035"
"362","brant","Brant","Branta bernicla","L696772","Ferry Dr., Rexford","2025-05-17 18:11",32,42.7943457,-73.8311827,TRUE,FALSE,FALSE,"S239437381"
"363","brant","Brant","Branta bernicla","L3300860","Old Saybrook -- Fernwood","2025-05-17 18:10",8,41.264373,-72.366849,TRUE,FALSE,TRUE,"S239481598"
"364","brant","Brant","Branta bernicla","L45309265","Jones Beach State Park, Point Lookout US-NY 40.58456, -73.56052","2025-05-17 18:04",13,40.584565,-73.560516,TRUE,FALSE,TRUE,"S239476255"
"365","brant","Brant","Branta bernicla","L17748686","801 Rock Rimmon Rd, Stamford US-CT 41.15893, -73.57340","2025-05-17 17:45",500,41.15893,-73.573396,TRUE,FALSE,TRUE,"S239554456"
"366","brant","Brant","Branta bernicla","L45303305","150 Great Hammock Road, Old Saybrook, Connecticut, US (41.277, -72.394)","2025-05-17 17:27",50,41.2768814,-72.3936049,TRUE,FALSE,TRUE,"S239444528"
"367","brant","Brant","Branta bernicla","L386771","13 upper commons","2025-05-17 17:10",260,41.5117749,-73.2300568,TRUE,TRUE,TRUE,"S239456861"
"368","brant","Brant","Branta bernicla","L2615803","Hudson River Park--14th St. Park","2025-05-17 17:00",2,40.7428114,-74.0082952,TRUE,FALSE,FALSE,"S239410919"
"369","brant","Brant","Branta bernicla","L27341988","Hudson River Park--Pier 51","2025-05-17 17:00",2,40.7383517,-74.011054,TRUE,FALSE,FALSE,"S239488290"
"370","brant","Brant","Branta bernicla","L30541514","Garnsey Park","2025-05-17 16:55",2,42.870192,-73.8705883,TRUE,FALSE,TRUE,"S239839276"
"371","brant","Brant","Branta bernicla","L250628","Sunset Bay Park","2025-05-17 16:49",1,43.5211406,-76.3839446,TRUE,FALSE,FALSE,"S239397775"
"372","brant","Brant","Branta bernicla","L1354697","Croton Falls Reservoir, Stoneleigh Ave. overlook","2025-05-17 16:21",120,41.3716305,-73.6618434,TRUE,FALSE,FALSE,"S239406981"
"373","brant","Brant","Branta bernicla","L1415487","Ocean City--Seaview dunes area","2025-05-17 15:45",25,39.2936141,-74.5530364,TRUE,FALSE,FALSE,"S239475345"
"374","brant","Brant","Branta bernicla","L99628","Cayuga Lake SP--lake and boat launch","2025-05-17 15:42",1,42.9002148,-76.74963,TRUE,FALSE,FALSE,"S239370426"
"375","brant","Brant","Branta bernicla","L2101187","Fisherman's Cove Conservation Area","2025-05-17 15:22",6,40.1089316,-74.0406418,TRUE,FALSE,FALSE,"S239374833"
"376","brant","Brant","Branta bernicla","L1856987","Georgica Inlet, East Hampton","2025-05-17 15:06",50,40.9320816,-72.2276141,TRUE,FALSE,FALSE,"S239418041"
"377","brant","Brant","Branta bernicla","L45284983","Stamford Harbor","2025-05-17 14:47",30,41.038852,-73.532762,TRUE,FALSE,TRUE,"S239358816"
"378","brant","Brant","Branta bernicla","L350179","Cape Disappointment SP--North Jetty Columbia River","2025-05-17 14:43",3,46.2682069,-124.0796438,TRUE,FALSE,FALSE,"S239432186"
"379","brant","Brant","Branta bernicla","L92448","Edwin B. Forsythe NWR--Wildlife Drive (8-mile auto tour loop only)","2025-05-17 14:42",2,39.464298,-74.417612,TRUE,FALSE,FALSE,"S239431654"
"380","brant","Brant","Branta bernicla","L26992385","Woodland Cemetery","2025-05-17 14:32",40,41.0408722,-73.5349043,TRUE,FALSE,FALSE,"S239469555"
"381","brant","Brant","Branta bernicla","L4771638","US-NY-Croghan-4693-4697 Old State Rd - 43.9502x-75.5192","2025-05-17 14:26",200,43.950235,-75.519205,TRUE,TRUE,TRUE,"S239972418"
"382","brant","Brant","Branta bernicla","L1643176","Hyannis Harbor","2025-05-17 14:22",2,41.6463678,-70.2747006,TRUE,FALSE,FALSE,"S239595114"
"383","brant","Brant","Branta bernicla","L10487395","Passeonkquis Cove Fishing Access, Warwick","2025-05-17 14:22",4,41.747803,-71.38402,TRUE,FALSE,FALSE,"S239370076"
"384","brant","Brant","Branta bernicla","L8218966","Mercy by the Sea","2025-05-17 14:21",8,41.2687431,-72.6350714,TRUE,FALSE,FALSE,"S239892041"
"385","brant","Brant","Branta bernicla","L45275142","West Pond Trail, New York US-NY 40.61602, -73.82918","2025-05-17 14:16",8,40.616016,-73.829175,TRUE,FALSE,TRUE,"S239322726"
"386","brant","Brant","Branta bernicla","L473463","Quivet Creek and Wing Island Beach","2025-05-17 13:52",21,41.7603004,-70.1182652,TRUE,FALSE,FALSE,"S239409207"
"387","brant","Brant","Branta bernicla","L447860","Nahant--East Point Headland","2025-05-17 13:42",2,42.4184842,-70.9043393,TRUE,FALSE,FALSE,"S239384264"
"388","brant","Brant","Branta bernicla","L4340457","Breezy Point Beach","2025-05-17 13:41",NA,40.5512034,-73.9200545,TRUE,FALSE,FALSE,"S239312147"
"389","brant","Brant","Branta bernicla","L621284","Squantum--Squantum Point Park","2025-05-17 13:32",8,42.2999604,-71.0365033,TRUE,FALSE,FALSE,"S239342734"
"390","brant","Brant","Branta bernicla","L24936157","Harkness Memorial State Park, Waterford US-CT (41.3033,-72.1150)","2025-05-17 13:18",7,41.303314,-72.114967,TRUE,FALSE,TRUE,"S239485363"
"391","brant","Brant","Branta bernicla","L7050375","Woodland Cemetery","2025-05-17 13:18",5,41.0385003,-73.534524,TRUE,FALSE,TRUE,"S239301586"
"392","brant","Brant","Branta bernicla","L18372321","Gateway National Recreation Area - Jamaica Bay Unit, New York US-NY 40.61603, -73.82556","2025-05-17 13:15",18,40.616027,-73.825562,TRUE,FALSE,TRUE,"S239291937"
"393","brant","Brant","Branta bernicla","L553518","Mine Rd. (Orange Co.)","2025-05-17 13:10",100,41.3384095,-74.0187767,TRUE,FALSE,FALSE,"S239314334"
"394","brant","Brant","Branta bernicla","L1128824","Homer Spit--Freight Dock Rd & Overlooks","2025-05-17 12:38",38,59.6094117,-151.4287233,TRUE,FALSE,FALSE,"S239406448"
"395","brant","Brant","Branta bernicla","L1180204","Central Park--Turtle Pond","2025-05-17 12:33",1,40.7795361,-73.9678896,TRUE,FALSE,FALSE,"S239336370"
"396","brant","Brant","Branta bernicla","L31958502","Fort Stevens SP--Social Security Beach","2025-05-17 12:32",3,46.2373632,-124.0056326,TRUE,FALSE,FALSE,"S239407051"
"397","brant","Brant","Branta bernicla","L33707567","Potter Island","2025-05-17 12:17",1,44.284375,-76.151109,TRUE,FALSE,TRUE,"S239262344"
"398","brant","Brant","Branta bernicla","L109135","Cape Island--Higbee Beach WMA","2025-05-17 12:14",5,38.9613889,-74.9608333,TRUE,FALSE,FALSE,"S239876284"
"399","brant","Brant","Branta bernicla","L109209","Lighthouse Point Park","2025-05-17 12:06",12,41.24858,-72.90293,TRUE,FALSE,FALSE,"S239286149"
"400","brant","Brant","Branta bernicla","L1396701","Esopus Meadows Lighthouse Park","2025-05-17 11:49",100,41.8684798,-73.9511925,TRUE,FALSE,FALSE,"S239316680"
"401","brant","Brant","Branta bernicla","L3820063","OMI International Arts Center","2025-05-17 11:44",3,42.3317416,-73.6730719,TRUE,FALSE,FALSE,"S239286356"
"402","brant","Brant","Branta bernicla","L3066872","Dockside Park","2025-05-17 11:20",102,41.4181766,-73.9615133,TRUE,FALSE,FALSE,"S239275175"
"403","brant","Brant","Branta bernicla","L197073","Stone Harbor Point","2025-05-17 11:12",1,39.0317999,-74.7723111,TRUE,FALSE,FALSE,"S239321665"
"404","brant","Brant","Branta bernicla","L25359025","Great Hammock Beach (private)","2025-05-17 11:12",7,41.274351,-72.395516,TRUE,FALSE,TRUE,"S239233091"
"405","brant","Brant","Branta bernicla","L805092","Ash Creek Open Space","2025-05-17 10:57",32,41.1479611,-73.2361293,TRUE,FALSE,FALSE,"S240286898"
"406","brant","Brant","Branta bernicla","L17723137","12136, Old Chatham US-NY 42.40052, -73.56631","2025-05-17 10:54",2,42.400521,-73.566311,TRUE,FALSE,TRUE,"S239219839"
"407","brant","Brant","Branta bernicla","L7926194","Jamaica Bay, Ruffle Bar","2025-05-17 10:53",140,40.5990392,-73.8576042,TRUE,FALSE,FALSE,"S239323125"
"408","brant","Brant","Branta bernicla","L452353","Castle Island and Pleasure Bay","2025-05-17 10:53",3,42.3360561,-71.0123205,TRUE,FALSE,FALSE,"S239252321"
"409","brant","Brant","Branta bernicla","L5643639","Kingston Point Beach","2025-05-17 10:49",200,41.9300672,-73.9652988,TRUE,FALSE,FALSE,"S239233387"
"410","brant","Brant","Branta bernicla","L45267646","Kaiser Park, New York US-NY (40.5795,-73.9950)","2025-05-17 10:47",NA,40.57949,-73.995016,TRUE,FALSE,TRUE,"S239285661"
"411","brant","Brant","Branta bernicla","L490267","Saugerties Lighthouse","2025-05-17 10:44",120,42.0722249,-73.9367873,TRUE,FALSE,FALSE,"S239226752"
"412","brant","Brant","Branta bernicla","L3927697","Minor Island","2025-05-17 10:35",100,48.3241597,-122.819549,TRUE,FALSE,FALSE,"S239411349"
"413","brant","Brant","Branta bernicla","L45248383","10 Wamsutta Ave, Plymouth US-MA (41.8338,-70.5387)","2025-05-17 10:32",4,41.833765,-70.53874,TRUE,FALSE,TRUE,"S239199664"
"414","brant","Brant","Branta bernicla","L820722","Homer Spit--Lands End","2025-05-17 10:10",1,59.6003137,-151.408596,TRUE,FALSE,FALSE,"S239412695"
"415","brant","Brant","Branta bernicla","L453703","Revere Beach--South End","2025-05-17 10:10",15,42.4022912,-70.9894466,TRUE,FALSE,FALSE,"S239226042"
"416","brant","Brant","Branta bernicla","L45247977","Jamaica bay","2025-05-17 10:08",1,40.619359,-73.826092,TRUE,FALSE,TRUE,"S239257185"
"417","brant","Brant","Branta bernicla","L2550812","Stony Point SP","2025-05-17 10:02",50,41.2416315,-73.9734417,TRUE,FALSE,FALSE,"S239294288"
"418","brant","Brant","Branta bernicla","L211914","Nummy Island","2025-05-17 09:42",4,39.0365891,-74.7912741,TRUE,FALSE,FALSE,"S239189441"
"419","brant","Brant","Branta bernicla","L1177856","Jamaica Bay, Yellow Bar Hassock","2025-05-17 09:40",200,40.6088594,-73.8430779,TRUE,FALSE,FALSE,"S239306326"
"420","brant","Brant","Branta bernicla","L45304064","270 NY-59 W, Nanuet US-NY 41.10239, -74.02273","2025-05-17 09:30",150,41.102389,-74.022734,TRUE,FALSE,TRUE,"S239448552"
"421","brant","Brant","Branta bernicla","L293460","Sands Point Preserve","2025-05-17 09:24",6,40.8591053,-73.6970283,TRUE,FALSE,FALSE,"S239299512"
"422","brant","Brant","Branta bernicla","L475850","Sandy Hook--Guardian Park & bike path","2025-05-17 09:11",NA,40.4559188,-74.0034305,TRUE,FALSE,FALSE,"S239371280"
"423","brant","Brant","Branta bernicla","L39042611","Sherwood Island State Park, Westport US-CT 41.11514, -73.32246","2025-05-17 09:10",8,41.115136,-73.322455,TRUE,FALSE,TRUE,"S239840150"
"424","brant","Brant","Branta bernicla","L13662743","Ocean City - Intermediate School Ball Fields","2025-05-17 09:09",12,39.26915,-74.59449,TRUE,FALSE,TRUE,"S239147941"
"425","brant","Brant","Branta bernicla","L2403800","Liberty SP--Tidal Bay","2025-05-17 09:08",51,40.6931832,-74.0648353,TRUE,FALSE,FALSE,"S239204885"
"426","brant","Brant","Branta bernicla","L487670","Provincetown Harbor--Boat Ramp","2025-05-17 09:07",16,42.0417196,-70.1931792,TRUE,FALSE,FALSE,"S239154110"
"427","brant","Brant","Branta bernicla","L718378","Chincoteague NWR* (general area)","2025-05-17 09:05",12,37.9106228,-75.3479719,TRUE,FALSE,FALSE,"S239948944"
"428","brant","Brant","Branta bernicla","L7892460","Jamaica Bay, Stony Creek Marsh","2025-05-17 09:03",1100,40.6097424,-73.8525091,TRUE,TRUE,FALSE,"S240424114"
"429","brant","Brant","Branta bernicla","L45262652","347 Bone Hill Rd, Barnstable US-MA 41.70889, -70.27612","2025-05-17 09:01",2,41.708886,-70.276119,TRUE,FALSE,TRUE,"S239264196"
"430","brant","Brant","Branta bernicla","L1341211","Breezy Point--Silver Gull Beach Club","2025-05-17 08:51",20,40.5598332,-73.904462,TRUE,FALSE,FALSE,"S239181384"
"431","brant","Brant","Branta bernicla","L684740","Inwood Hill Park","2025-05-17 08:48",50,40.8717025,-73.9256904,TRUE,FALSE,FALSE,"S239193981"
"432","brant","Brant","Branta bernicla","L464792","Cow Meadow Park and Preserve","2025-05-17 08:44",8,40.6327036,-73.5697146,TRUE,FALSE,FALSE,"S239910778"
"433","brant","Brant","Branta bernicla","L7706326","Smith Island","2025-05-17 08:38",100,48.318233,-122.8410187,TRUE,FALSE,FALSE,"S239360992"
"434","brant","Brant","Branta bernicla","L45294733","Bay Avenue and 20th, Ocean City, NJ","2025-05-17 08:30",13,39.2697074,-74.594337,TRUE,FALSE,TRUE,"S239404681"
"435","brant","Brant","Branta bernicla","L866991","Astoria Park","2025-05-17 08:30",7,40.779859,-73.921659,TRUE,FALSE,FALSE,"S239333454"
"436","brant","Brant","Branta bernicla","L578608","Westside Regional Park","2025-05-17 08:26",25,38.3213566,-123.054986,TRUE,FALSE,FALSE,"S239248184"
"437","brant","Brant","Branta bernicla","L109133","Edwin B. Forsythe NWR (formerly Brig)","2025-05-17 08:24",5,39.465,-74.4477778,TRUE,FALSE,FALSE,"S239247620"
"438","brant","Brant","Branta bernicla","L16476856","Crab Meadow Beach, Northport US-NY 40.92849, -73.32401","2025-05-17 08:05",260,40.928488,-73.324012,TRUE,FALSE,TRUE,"S239267644"
"439","brant","Brant","Branta bernicla","L45311589","600–698 Mine Rd, Fort Montgomery US-NY 41.33017, -74.01331","2025-05-17 07:59",NA,41.330172,-74.013305,TRUE,FALSE,TRUE,"S239487105"
"440","brant","Brant","Branta bernicla","L11973394","421 Hardscrabble Road, Briarcliff Manor, New York, US (41.147, -73.795)","2025-05-17 07:51",4,41.1474762,-73.7951174,TRUE,FALSE,TRUE,"S239111210"
"441","brant","Brant","Branta bernicla","L1018912","Sherman Creek Park and Swindler Cove","2025-05-17 07:07",50,40.8580281,-73.921085,TRUE,FALSE,FALSE,"S239110379"
"442","brant","Brant","Branta bernicla","L501705","Nissequogue River SP","2025-05-17 06:45",15,40.9004069,-73.2310757,TRUE,FALSE,FALSE,"S239143167"
"443","brant","Brant","Branta bernicla","L139567","Rodeo Lagoon (including beach and offshore)","2025-05-17 06:30",5,37.8304863,-122.5329514,TRUE,FALSE,FALSE,"S239333124"
"444","brant","Brant","Branta bernicla","L109149","Marshlands Conservancy","2025-05-17 06:24",2,40.9531117,-73.7012273,TRUE,FALSE,FALSE,"S239113354"
"445","brant","Brant","Branta bernicla","L45239156","Liberty State Park, Jersey City US-NJ 40.69858, -74.06557","2025-05-17 06:11",1,40.698582,-74.065569,TRUE,FALSE,TRUE,"S239152841"
"446","brant","Brant","Branta bernicla","L298675","Three Mile Bay WMA--Phillips Pt.","2025-05-17 06:06",1,43.2392316,-76.0503864,TRUE,FALSE,FALSE,"S239084716"
"447","brant","Brant","Branta bernicla","L299350","Rockefeller SP Preserve","2025-05-17 06:02",30,41.10804,-73.8378825,TRUE,FALSE,FALSE,"S240443158"
"448","brant","Brant","Branta bernicla","L4138025","Hillview Reservoir (restricted access)","2025-05-17 05:59",1,40.9123793,-73.8696057,TRUE,FALSE,FALSE,"S239155085"
"449","brant","Brant","Branta bernicla","L3558255","Black Dirt Region (general area, please use more specific locations)","2025-05-17 05:51",80,41.316712,-74.4784069,TRUE,FALSE,FALSE,"S239171172"
"450","brant","Brant","Branta bernicla","L45306959","Belt Pwky, Brooklyn, NY","2025-05-17",16,40.6371491,-73.8792966,TRUE,FALSE,TRUE,"S239464529"
"451","brant","Brant","Branta bernicla","L3717427","Nome-Council Rd.--Safety Sound Bridge to Last Train to Nowhere","2025-05-16 20:15",400,64.5153332,-164.5622527,TRUE,FALSE,FALSE,"S239054988"
"452","brant","Brant","Branta bernicla","L7980922","Riveria Drive, Kings Park","2025-05-16 18:33",32,40.897951,-73.2208541,TRUE,FALSE,FALSE,"S238932127"
"453","brant","Brant","Branta bernicla","L1165694","Bolsa Chica--walkbridge/inner bay","2025-05-16 18:25",1,33.6965128,-118.0451372,TRUE,FALSE,FALSE,"S238990902"
"454","brant","Brant","Branta bernicla","L6049576","Kaal Rock Park","2025-05-16 18:15",1,41.7029564,-73.9407609,TRUE,FALSE,FALSE,"S238926733"
"455","brant","Brant","Branta bernicla","L1099694","Homer Spit--Green Timbers & Louie's Lagoon","2025-05-16 17:10",70,59.6249745,-151.4695358,TRUE,TRUE,FALSE,"S239476503"
"456","brant","Brant","Branta bernicla","L45191299","89 Dune Road, Hampton Bays, New York, US (40.828, -72.53)","2025-05-16 17:05",2,40.8282387,-72.5303663,TRUE,FALSE,TRUE,"S238904570"
"457","brant","Brant","Branta bernicla","L350765","Villas--Cox Hall Creek WMA","2025-05-16 17:03",4,39.0015934,-74.9446321,TRUE,FALSE,FALSE,"S238913510"
"458","brant","Brant","Branta bernicla","L1817967","City Island (Bronx Co.)","2025-05-16 16:57",2,40.8491054,-73.7872685,TRUE,FALSE,FALSE,"S238959308"
"459","brant","Brant","Branta bernicla","L3638546","Plumb Beach, Brooklyn","2025-05-16 16:45",6,40.5830455,-73.9175284,TRUE,FALSE,TRUE,"S239042904"
"460","brant","Brant","Branta bernicla","L582117","Fresh Creek Park","2025-05-16 15:45",20,40.6437706,-73.8831639,TRUE,FALSE,FALSE,"S238881429"
"461","brant","Brant","Branta bernicla","L13116728","Jones Beach SP--West End 2","2025-05-16 15:19",20,40.5844142,-73.5627208,TRUE,FALSE,FALSE,"S238889756"
"462","brant","Brant","Branta bernicla","L1413279","Old Bridge Waterfront Park","2025-05-16 14:55",30,40.4584546,-74.245838,TRUE,FALSE,FALSE,"S238901725"
"463","brant","Brant","Branta bernicla","L4124172","Home - Spring Green (private residence)","2025-05-16 14:24",3,41.7362735,-71.396547,TRUE,FALSE,TRUE,"S238865689"
"464","brant","Brant","Branta bernicla","L38137595","Society Hill","2025-05-16 14:22",38,40.703141,-74.104509,TRUE,FALSE,TRUE,"S238853959"
"465","brant","Brant","Branta bernicla","L832502","Cold Spring Harbor Park","2025-05-16 14:05",NA,40.8697486,-73.4618962,TRUE,FALSE,FALSE,"S238841072"
"466","brant","Brant","Branta bernicla","L1292713","Jamaica Bay WR","2025-05-16 14:05",26,40.620038,-73.8270522,TRUE,FALSE,TRUE,"S239040876"
"467","brant","Brant","Branta bernicla","L292324","Homer Spit","2025-05-16 14:00",50,59.6130805,-151.4467049,TRUE,FALSE,FALSE,"S239004915"
"468","brant","Brant","Branta bernicla","L638097","Plymouth Harbor","2025-05-16 13:40",11,41.9621908,-70.6654988,TRUE,FALSE,FALSE,"S238848200"
"469","brant","Brant","Branta bernicla","L15929621","Point Lookout Clam Bar","2025-05-16 13:35",3,40.5939794,-73.5801601,TRUE,FALSE,TRUE,"S238997656"
"470","brant","Brant","Branta bernicla","L45100826","stakeout White-winged Dove, City Island, Bronx County (2025)","2025-05-16 13:25",9,40.8478631,-73.790339,TRUE,FALSE,FALSE,"S238890596"
"471","brant","Brant","Branta bernicla","L1070878","Great Captain's Island","2025-05-16 12:52",15,40.9825,-73.6235,TRUE,FALSE,FALSE,"S238825876"
"472","brant","Brant","Branta bernicla","L45172397","Harkness Memorial State Park, Waterford US-CT 41.30099, -72.11123","2025-05-16 12:45",11,41.300991,-72.111233,TRUE,FALSE,TRUE,"S238814212"
"473","brant","Brant","Branta bernicla","L1118528","Alvin P. Williams Park (Sewaren Marina Park)","2025-05-16 12:30",32,40.5535263,-74.2541885,TRUE,FALSE,FALSE,"S238820555"
"474","brant","Brant","Branta bernicla","L1520212","Dune Road Loop","2025-05-16 12:27",4,40.8224745,-72.5695618,TRUE,FALSE,TRUE,"S238809833"
"475","brant","Brant","Branta bernicla","L268000","Robert Moses SP","2025-05-16 11:05",6,40.6242696,-73.2622342,TRUE,FALSE,FALSE,"S238892318"
"476","brant","Brant","Branta bernicla","L592872","Ocean Drive--Two Mile Landing","2025-05-16 11:04",6,38.9595423,-74.866333,TRUE,FALSE,FALSE,"S238808987"
"477","brant","Brant","Branta bernicla","L20937709","Jones Beach SP--Hawkwatch","2025-05-16 10:41",3,40.5853919,-73.5574422,TRUE,FALSE,FALSE,"S238823254"
"478","brant","Brant","Branta bernicla","L3254292","Calvert Vaux Park","2025-05-16 10:00",42,40.5829314,-73.9956665,TRUE,FALSE,TRUE,"S239038931"
"479","brant","Brant","Branta bernicla","L19095793","Bayonne Waterfront Walkway","2025-05-16 09:25",50,40.6643031,-74.0921518,TRUE,FALSE,FALSE,"S238626411"
"480","brant","Brant","Branta bernicla","L810505","Water Street Marsh, Yarmouth","2025-05-16 09:14",6,41.7107104,-70.2602398,TRUE,FALSE,FALSE,"S238592361"
"481","brant","Brant","Branta bernicla","L45187334","Sandy Hook - North End","2025-05-16 09:12",15,40.47111,-74.014707,TRUE,FALSE,TRUE,"S238938813"
"482","brant","Brant","Branta bernicla","L1080028","Delaware Seashore SP--Savage's Ditch Rd.","2025-05-16 09:10",2,38.6291754,-75.0714684,TRUE,FALSE,FALSE,"S238624456"
"483","brant","Brant","Branta bernicla","L45190667","West 9th and Shad Creek","2025-05-16 09:05",150,40.607244,-73.820739,TRUE,FALSE,TRUE,"S238901423"
"484","brant","Brant","Branta bernicla","L8898345","Gateway National Recreation Area - Sandy Hook, Highlands US-NJ (40.4491,-73.9978)","2025-05-16 09:03",50,40.449057,-73.997791,TRUE,FALSE,TRUE,"S238926149"
"485","brant","Brant","Branta bernicla","L24182809","Bullocks Cove, Riverside ri","2025-05-16 08:55",46,41.747795,-71.353767,TRUE,FALSE,TRUE,"S238817018"
"486","brant","Brant","Branta bernicla","L15858389","Hudson River Park--Pier 26, TriBeCa (featuring a Tide Deck)","2025-05-16 08:48",4,40.7214282,-74.0153579,TRUE,FALSE,FALSE,"S238620978"
"487","brant","Brant","Branta bernicla","L21011167","Rhode Island Island Park Beach","2025-05-16 08:30",NA,41.621609,-71.2340961,TRUE,FALSE,TRUE,"S238972327"
"488","brant","Brant","Branta bernicla","L2975253","Bullards Beach SP--Picnic Shelter and Day Use Area","2025-05-16 07:31",1,43.14665,-124.405962,TRUE,FALSE,FALSE,"S238773228"
"489","brant","Brant","Branta bernicla","L1929469","Pier 44 Waterfront Garden","2025-05-16 06:46",8,40.6757764,-74.018366,TRUE,FALSE,FALSE,"S238556282"
"490","brant","Brant","Branta bernicla","L473315","Stratton Island","2025-05-16 06:00",2,43.5046746,-70.3116417,TRUE,FALSE,FALSE,"S238975481"
"491","brant","Brant","Branta bernicla","L36873173","Harding Gateway","2025-05-16",3,59.7989025,-149.4510564,TRUE,FALSE,FALSE,"S239713127"
"492","brant","Brant","Branta bernicla","L45093088","Ocean City Bike Path, Ocean City, New Jersey, US (39.295, -74.588)","2025-05-15 19:19",5,39.2945986,-74.5878341,TRUE,FALSE,TRUE,"S238453230"
"493","brant","Brant","Branta bernicla","L45082798","Ocean city Intermediate School","2025-05-15 18:30",85,39.269347,-74.594656,TRUE,FALSE,TRUE,"S238392565"
"494","brant","Brant","Branta bernicla","L958581","Neck Creek Preserve","2025-05-15 18:15",3,40.5964133,-74.1930269,TRUE,FALSE,FALSE,"S238390591"
"495","brant","Brant","Branta bernicla","L861623","Kings Bay WMA--Stony Point Jetty","2025-05-15 18:10",1,44.9716485,-73.354876,TRUE,FALSE,FALSE,"S238388528"
"496","brant","Brant","Branta bernicla","L109134","North Wildwood--Hereford Inlet/Seawall","2025-05-15 18:00",15,39.0119444,-74.7925,TRUE,FALSE,FALSE,"S240162975"
"497","brant","Brant","Branta bernicla","L433644","Sandy Point","2025-05-15 17:42",1,48.7871878,-122.7081871,TRUE,FALSE,FALSE,"S238471773"
"498","brant","Brant","Branta bernicla","L12494408","Groton Long Point (private community)","2025-05-15 16:32",5,41.3186902,-72.0070523,TRUE,FALSE,FALSE,"S238369326"
"499","brant","Brant","Branta bernicla","L2686238","Liberty Island/Statue of Liberty (NY County)","2025-05-15 15:08",NA,40.6900653,-74.0452476,TRUE,FALSE,FALSE,"S238340180"
"500","brant","Brant","Branta bernicla","L45070661","1900–1964 Haven Ave, Ocean City US-NJ 39.26885, -74.59308","2025-05-15 14:59",97,39.26885,-74.593077,TRUE,FALSE,TRUE,"S238325185"
"501","brant","Brant","Branta bernicla","L3797793","Ocean City Welcome Center","2025-05-15 14:43",12,39.2881767,-74.5824587,TRUE,FALSE,FALSE,"S238354915"
"502","brant","Brant","Branta bernicla","L247765","Canarsie Pier","2025-05-15 14:36",10,40.6287773,-73.8836704,TRUE,FALSE,FALSE,"S238320742"
"503","brant","Brant","Branta bernicla","L5596580","Tanner Park, Copiague","2025-05-15 13:57",33,40.6584003,-73.3958458,TRUE,FALSE,FALSE,"S238328052"
"504","brant","Brant","Branta bernicla","L338362","Ocean Drive--Cape May to Diamond Beach (general area)","2025-05-15 13:33",14,38.957626,-74.8812973,TRUE,FALSE,FALSE,"S238344849"
"505","brant","Brant","Branta bernicla","L24377673","1214 Wilson Dr, Cape May US-NJ 38.95004, -74.91054","2025-05-15 13:33",17,38.950044,-74.910536,TRUE,FALSE,TRUE,"S238345403"
"506","brant","Brant","Branta bernicla","L771306","Jarvis Sound","2025-05-15 13:30",22,38.967751,-74.8683929,TRUE,FALSE,FALSE,"S238405843"
"507","brant","Brant","Branta bernicla","L12380734","Birding by Boat—Osprey with Captain Bob","2025-05-15 13:30",15,38.950067,-74.91035,TRUE,FALSE,TRUE,"S238349834"
"508","brant","Brant","Branta bernicla","L17909312","Hawtree Creek at Howard Beach Station","2025-05-15 13:17",7,40.6606218,-73.8288965,TRUE,FALSE,FALSE,"S239755713"
"509","brant","Brant","Branta bernicla","L1415469","Ocean City--Battersea Road overlook","2025-05-15 13:16",20,39.2928156,-74.5656191,TRUE,FALSE,FALSE,"S238596288"
"510","brant","Brant","Branta bernicla","L1103086","Sandy Hook--South Beach area","2025-05-15 13:00",15,40.4063521,-73.9757538,TRUE,FALSE,FALSE,"S238285685"
"511","brant","Brant","Branta bernicla","L11097351","CSHL inner Harbor, Laurel Hollow US-NY (40.8605,-73.4676)","2025-05-15 12:55",50,40.860462,-73.467581,TRUE,FALSE,TRUE,"S238303442"
"512","brant","Brant","Branta bernicla","L1303908","Atlantic City--Harrah's Baywalk","2025-05-15 12:51",1,39.38205,-74.4368,TRUE,FALSE,FALSE,"S238303179"
"513","brant","Brant","Branta bernicla","L387180","Stewart B. McKinney NWR--Long Beach Blvd. Pond","2025-05-15 12:48",30,41.162017,-73.1551051,TRUE,FALSE,FALSE,"S238293684"
"514","brant","Brant","Branta bernicla","L405289","Hartshorne Woods","2025-05-15 11:59",37,40.3905951,-73.9890361,TRUE,FALSE,FALSE,"S238331854"
"515","brant","Brant","Branta bernicla","L464795","Short Beach Park","2025-05-15 11:57",18,40.9061827,-73.2211304,TRUE,FALSE,FALSE,"S238224549"
"516","brant","Brant","Branta bernicla","L19302691","Jacobs Point","2025-05-15 11:35",2,41.7121602,-71.2902139,TRUE,FALSE,TRUE,"S238301837"
"517","brant","Brant","Branta bernicla","L5509481","Jamaica Bay, Canarsie Pol","2025-05-15 11:35",400,40.6205545,-73.8725567,TRUE,FALSE,FALSE,"S240415790"
"518","brant","Brant","Branta bernicla","L486255","Biddeford Pool","2025-05-15 11:25",2,43.4441328,-70.3623676,TRUE,FALSE,FALSE,"S238216667"
"519","brant","Brant","Branta bernicla","L7926219","Jamaica Bay, Elder's Point Marsh (West)","2025-05-15 11:23",60,40.6316358,-73.8554435,TRUE,FALSE,FALSE,"S240415627"
"520","brant","Brant","Branta bernicla","L7926210","Jamaica Bay, Elder's Point Marsh (East)","2025-05-15 11:12",85,40.6356223,-73.8475863,TRUE,FALSE,FALSE,"S240415507"
"521","brant","Brant","Branta bernicla","L8911901","Lido Beach Passive Nature Area","2025-05-15 10:38",140,40.5932477,-73.5977857,TRUE,FALSE,TRUE,"S238376634"
"522","brant","Brant","Branta bernicla","L45107112","676 Bar Harbor Rd, Trenton US-ME 44.47034, -68.36344","2025-05-15 10:27",1,44.470343,-68.363442,TRUE,FALSE,TRUE,"S238526450"
"523","brant","Brant","Branta bernicla","L2030575","Marciante-Jackson-Millet Park","2025-05-15 10:19",110,40.649689,-74.1742238,TRUE,FALSE,FALSE,"S238161350"
"524","brant","Brant","Branta bernicla","L306109","Cook's Beach and Road","2025-05-15 09:55",10,39.1088683,-74.8936135,TRUE,FALSE,FALSE,"S238291578"
"525","brant","Brant","Branta bernicla","L2180025","Elk River Wildlife Sanctuary (incl. Hikshari' Trail & WTP)","2025-05-15 09:47",1,40.7662253,-124.1962874,TRUE,FALSE,FALSE,"S238965129"
"526","brant","Brant","Branta bernicla","L45500134","Subway Island","2025-05-15 09:35",138,40.601717,-73.811839,TRUE,FALSE,TRUE,"S240415360"
"527","brant","Brant","Branta bernicla","L213318","Touisset Marsh Wildlife Refuge (ASRI)","2025-05-15 09:00",3,41.7059838,-71.2374794,TRUE,FALSE,FALSE,"S238407157"
"528","brant","Brant","Branta bernicla","L38543910","Short Beach Park, Stratford US-CT 41.16165, -73.11159","2025-05-15 09:00",NA,41.161651,-73.111593,TRUE,FALSE,TRUE,"S238145156"
"529","brant","Brant","Branta bernicla","L2285914","Stratford Greenway - Beacon Point","2025-05-15 08:57",40,41.1767482,-73.1247103,TRUE,FALSE,FALSE,"S238130950"
"530","brant","Brant","Branta bernicla","L45029178","Pralls Island, New York US-NY (40.6097,-74.2027)","2025-05-15 08:31",2,40.609652,-74.202736,TRUE,FALSE,TRUE,"S238103899"
"531","brant","Brant","Branta bernicla","L1809510","Jones Beach State Park","2025-05-15 08:15",13,40.5896798,-73.5177275,TRUE,FALSE,TRUE,"S238193768"
"532","brant","Brant","Branta bernicla","L787279","Lewes-Cape May Ferry (DE waters)","2025-05-15 07:46",13,38.8308824,-75.1073456,TRUE,FALSE,FALSE,"S238098735"
"533","brant","Brant","Branta bernicla","L2094076","Timber Point Golf Course","2025-05-15 07:40",10,40.7171362,-73.1445837,TRUE,FALSE,FALSE,"S238534984"
"534","brant","Brant","Branta bernicla","L480147","Burying Hill Beach","2025-05-15 07:39",8,41.1157344,-73.3192134,TRUE,FALSE,FALSE,"S238324785"
"535","brant","Brant","Branta bernicla","L42103418","Big Brook Park","2025-05-15",1,40.3327074,-74.2340612,TRUE,FALSE,TRUE,"S238380097"
"536","brant","Brant","Branta bernicla","L211434","Crane Beach (TTOR)","2025-05-14 19:20",1,42.6839598,-70.7667586,TRUE,FALSE,FALSE,"S237994379"
"537","brant","Brant","Branta bernicla","L20321229","White House","2025-05-14 18:55",40,41.266552,-72.646829,TRUE,FALSE,TRUE,"S237945174"
"538","brant","Brant","Branta bernicla","L17927810","Flushing Meadows Corona Park--Ilse Metzger Sitting Area","2025-05-14 18:09",30,40.716337,-73.831009,TRUE,FALSE,FALSE,"S237932012"
"539","brant","Brant","Branta bernicla","L45009023","Avalon Harbor Overlook","2025-05-14 18:04",12,40.913,-73.158795,TRUE,FALSE,TRUE,"S237986483"
"540","brant","Brant","Branta bernicla","L45015150","Port Krestof","2025-05-14 18:00",47,57.1503204,-135.5930401,TRUE,TRUE,TRUE,"S238020403"
"541","brant","Brant","Branta bernicla","L3189438","Hammonasset Beach SP--Moraine Trail","2025-05-14 17:30",8,41.2514297,-72.5369894,TRUE,FALSE,FALSE,"S237929857"
"542","brant","Brant","Branta bernicla","L2620375","Stony Brook Harbor","2025-05-14 17:27",12,40.9210416,-73.150173,TRUE,FALSE,FALSE,"S237937918"
"543","brant","Brant","Branta bernicla","L1060282","Tobay Beach Park","2025-05-14 17:00",7,40.6113752,-73.4314372,TRUE,FALSE,FALSE,"S237934964"
"544","brant","Brant","Branta bernicla","L889837","Humboldt pelagic--Humboldt Bay portion only","2025-05-14 14:11",2,40.7585725,-124.2123591,TRUE,FALSE,FALSE,"S237969125"
"545","brant","Brant","Branta bernicla","L476174","Skagit Wildlife Area--Wylie Slough","2025-05-14 14:00",12,48.3246351,-122.3741287,TRUE,FALSE,FALSE,"S237993568"
"546","brant","Brant","Branta bernicla","L44983837","404 Schooner Way, North Plymouth US-MA (41.9781,-70.6794)","2025-05-14 13:50",6,41.978108,-70.679434,TRUE,FALSE,TRUE,"S237843757"
"547","brant","Brant","Branta bernicla","L45012803","Willapa Bay Red Knot Survey Route","2025-05-14 12:59",115,46.634031,-123.940693,TRUE,FALSE,TRUE,"S238007088"
"548","brant","Brant","Branta bernicla","L831656","Williamsport Dam","2025-05-14 12:17",1,41.2347685,-77.0060921,TRUE,TRUE,FALSE,"S237818380"
"549","brant","Brant","Branta bernicla","L41337261","Lewes Harbor and Breakwaters--Delaware Breakwater","2025-05-14 12:16",2,38.7987519,-75.1074152,TRUE,FALSE,FALSE,"S237840329"
"550","brant","Brant","Branta bernicla","L7788167","Gaspee Point","2025-05-14 12:00",150,41.743699,-71.3766397,TRUE,TRUE,FALSE,"S238094816"
"551","brant","Brant","Branta bernicla","L1099706","Floyd Bennett Field--Ecology Village Area","2025-05-14 11:55",4,40.5863535,-73.8851488,TRUE,FALSE,FALSE,"S237915768"
"552","brant","Brant","Branta bernicla","L1396935","Jamaica Bay, North Channel Bridge","2025-05-14 11:53",120,40.638525,-73.8325786,TRUE,FALSE,FALSE,"S237860643"
"553","brant","Brant","Branta bernicla","L92443","Cape Island--CMPSP--Hawkwatch Platform","2025-05-14 11:30",1,38.9328558,-74.9579416,TRUE,FALSE,FALSE,"S238072690"
"554","brant","Brant","Branta bernicla","L2026478","Gilgo Beach--bay side (parking lot)","2025-05-14 11:30",5,40.6194672,-73.3941026,TRUE,FALSE,FALSE,"S237802402"
"555","brant","Brant","Branta bernicla","L365673","Hampton Beach SP","2025-05-14 10:58",29,42.898808,-70.8133006,TRUE,FALSE,FALSE,"S237792653"
"556","brant","Brant","Branta bernicla","L1429267","Cape Island--Schellenger's Landing/The Lobster House","2025-05-14 10:23",12,38.9491318,-74.9057248,TRUE,FALSE,FALSE,"S237813007"
"557","brant","Brant","Branta bernicla","L4180824","Elizabeth Waterfront","2025-05-14 10:20",2,40.6456511,-74.1874284,TRUE,FALSE,FALSE,"S237763999"
"558","brant","Brant","Branta bernicla","L2865928","Captree Island","2025-05-14 10:00",3,40.6469348,-73.2632673,TRUE,FALSE,FALSE,"S237777808"
"559","brant","Brant","Branta bernicla","L830335","Plum Island (please use more refined location)","2025-05-14 09:45",42,42.7987508,-70.8114526,TRUE,FALSE,FALSE,"S237948380"
"560","brant","Brant","Branta bernicla","L109247","Cove Island Park","2025-05-14 09:11",90,41.0454562,-73.5018396,TRUE,FALSE,FALSE,"S237753042"
"561","brant","Brant","Branta bernicla","L911058","Heckscher State Park","2025-05-14 08:45",3,40.70771,-73.1524658,TRUE,FALSE,TRUE,"S237789229"
"562","brant","Brant","Branta bernicla","L44959976","Plymouth Long Beach","2025-05-14 08:39",1,41.95424,-70.634342,TRUE,FALSE,TRUE,"S237710431"
"563","brant","Brant","Branta bernicla","L19521291","Geisslers Beach Park","2025-05-14 08:00",10,40.926474,-73.3113635,TRUE,FALSE,FALSE,"S237771372"
"564","brant","Brant","Branta bernicla","L884109","Palomarin Trail","2025-05-14 07:48",3,37.9344939,-122.747328,TRUE,FALSE,FALSE,"S237797993"
"565","brant","Brant","Branta bernicla","L722651","Seaside Park","2025-05-14 06:15",4,42.4948366,-70.8569455,TRUE,FALSE,FALSE,"S237662842"
"566","brant","Brant","Branta bernicla","L489376","Race Point Beach, Provincetown","2025-05-14 06:10",25,42.0782217,-70.2263891,TRUE,FALSE,FALSE,"S237783857"
