"","speciesCode","comName","sciName","locId","locName","obsDt","howMany","lat","lng","obsValid","obsReviewed","locationPrivate","subId"
"1","greyel","Greater Yellowlegs","Tringa melanoleuca","L657122","Bombay Hook NWR--Refuge Headquarters","2025-07-02 18:59",14,39.2597968,-75.4731452,TRUE,FALSE,FALSE,"S256341990"
"2","greyel","Greater Yellowlegs","Tringa melanoleuca","L296392","Tuckerton--Great Bay Bvld. WMA","2025-07-02 18:49",5,39.5301285,-74.3183899,TRUE,FALSE,FALSE,"S256335957"
"3","greyel","Greater Yellowlegs","Tringa melanoleuca","L6471373","Quivira NWR--Big Salt Marsh--NE 170th St.","2025-07-02 18:38",1,38.2017745,-98.5267379,TRUE,FALSE,FALSE,"S256341013"
"4","greyel","Greater Yellowlegs","Tringa melanoleuca","L6471374","Quivira NWR--Big Salt Marsh--Wildlife Drive","2025-07-02 17:43",21,38.1856615,-98.5338718,TRUE,FALSE,FALSE,"S256337410"
"5","greyel","Greater Yellowlegs","Tringa melanoleuca","L483327","Bombay Hook NWR--Raymond Pool","2025-07-02 17:41",9,39.2600377,-75.4642296,TRUE,FALSE,FALSE,"S256321583"
"6","greyel","Greater Yellowlegs","Tringa melanoleuca","L48961831","209 Prestwick Ln, Lewisville US-TX 32.98708, -96.98651","2025-07-02 17:34",1,32.987079,-96.986507,TRUE,FALSE,TRUE,"S256324473"
"7","greyel","Greater Yellowlegs","Tringa melanoleuca","L4209447","Ninigret Pond Mudflats (east of the breach)","2025-07-02 17:30",1,41.3644898,-71.637404,TRUE,FALSE,FALSE,"S256333186"
"8","greyel","Greater Yellowlegs","Tringa melanoleuca","L372837","Oyster Rocks Rd.","2025-07-02 17:10",2,38.8020757,-75.2032077,TRUE,FALSE,FALSE,"S256334846"
"9","greyel","Greater Yellowlegs","Tringa melanoleuca","L48959453","Big Talbot Birding Walk","2025-07-02 16:45",8,30.51032,-81.457954,TRUE,FALSE,TRUE,"S256331117"
"10","greyel","Greater Yellowlegs","Tringa melanoleuca","L270936","Monomoy NWR--Morris Island","2025-07-02 16:30",1,41.6568485,-69.9582152,TRUE,FALSE,FALSE,"S256318416"
"11","greyel","Greater Yellowlegs","Tringa melanoleuca","L126637","Bombay Hook National Wildlife Refuge","2025-07-02 16:28",40,39.2670818,-75.4695511,TRUE,FALSE,FALSE,"S256338717"
"12","greyel","Greater Yellowlegs","Tringa melanoleuca","L129046","Parker River NWR","2025-07-02 16:24",8,42.7639008,-70.8022995,TRUE,FALSE,FALSE,"S256342689"
"13","greyel","Greater Yellowlegs","Tringa melanoleuca","L298379","Hammonasset Beach SP","2025-07-02 16:02",3,41.2619859,-72.5548234,TRUE,FALSE,FALSE,"S256294454"
"14","greyel","Greater Yellowlegs","Tringa melanoleuca","L469546","Skagit Wildlife Area--Fir Island Farm Reserve (Hayton Reserve)","2025-07-02 15:35",1,48.3356338,-122.4131659,TRUE,FALSE,FALSE,"S256327364"
"15","greyel","Greater Yellowlegs","Tringa melanoleuca","L807500","Koll Center Wetlands Area","2025-07-02 14:55",1,45.4561652,-122.7919064,TRUE,FALSE,FALSE,"S256323628"
"16","greyel","Greater Yellowlegs","Tringa melanoleuca","L15407834","Fish Creek / Third Lagoon","2025-07-02 14:51",2,48.4627643,-122.9718793,TRUE,FALSE,FALSE,"S256314845"
"17","greyel","Greater Yellowlegs","Tringa melanoleuca","L473168","Cape Hatteras NS--Cape Point","2025-07-02 14:46",3,35.2234655,-75.5286026,TRUE,FALSE,FALSE,"S256316263"
"18","greyel","Greater Yellowlegs","Tringa melanoleuca","L6329229","Oakwood Beach--Delwit Ave. marsh","2025-07-02 14:32",1,40.5532081,-74.118756,TRUE,FALSE,FALSE,"S256314949"
"19","greyel","Greater Yellowlegs","Tringa melanoleuca","L168162","Sweitzer Lake SP","2025-07-02 14:30",1,38.712734,-108.032265,TRUE,FALSE,FALSE,"S256304409"
"20","greyel","Greater Yellowlegs","Tringa melanoleuca","L1880516","Hammonasset Beach SP--Meig's Point Parking Lot/Marshes","2025-07-02 14:15",3,41.2522001,-72.5451318,TRUE,FALSE,FALSE,"S256294904"
"21","greyel","Greater Yellowlegs","Tringa melanoleuca","L929964","Beluga--South Bog","2025-07-02 14:00",1,61.1223093,-151.1026955,TRUE,FALSE,FALSE,"S256330142"
"22","greyel","Greater Yellowlegs","Tringa melanoleuca","L25239248","Los Alamitos Retarding Basin","2025-07-02 13:45",2,33.7546211,-118.0922973,TRUE,FALSE,FALSE,"S256304323"
"23","greyel","Greater Yellowlegs","Tringa melanoleuca","L159708","Loloff Reservoir","2025-07-02 13:42",3,40.3533207,-104.5238106,TRUE,FALSE,FALSE,"S256292422"
"24","greyel","Greater Yellowlegs","Tringa melanoleuca","L20937709","Jones Beach SP--Hawkwatch","2025-07-02 13:41",3,40.5853919,-73.5574422,TRUE,FALSE,FALSE,"S256259938"
"25","greyel","Greater Yellowlegs","Tringa melanoleuca","L127324","Honeymoon Island SP","2025-07-02 13:29",1,28.0706,-82.8314,TRUE,FALSE,FALSE,"S256255301"
"26","greyel","Greater Yellowlegs","Tringa melanoleuca","L210257","Weld CR 59 wetlands","2025-07-02 13:23",2,40.3609628,-104.5068109,TRUE,FALSE,FALSE,"S256285602"
"27","greyel","Greater Yellowlegs","Tringa melanoleuca","L721519","Guilford Boat Launch","2025-07-02 13:05",1,41.2718154,-72.6644164,TRUE,FALSE,FALSE,"S256252907"
"28","greyel","Greater Yellowlegs","Tringa melanoleuca","L48944963","Great Harbor Wildlife Management Area.","2025-07-02 12:59",1,41.259306,-72.704309,TRUE,FALSE,TRUE,"S256254781"
"29","greyel","Greater Yellowlegs","Tringa melanoleuca","L48955470","4708–4838 66th St W, Bradenton US-FL 27.45349, -82.62869","2025-07-02 12:51",1,27.45349,-82.628689,TRUE,FALSE,TRUE,"S256294446"
"30","greyel","Greater Yellowlegs","Tringa melanoleuca","L464994","Scarborough Marsh--Dunstan Landing","2025-07-02 12:39",1,43.5657154,-70.3792763,TRUE,FALSE,FALSE,"S256253693"
"31","greyel","Greater Yellowlegs","Tringa melanoleuca","L580373","Tualatin River NWR","2025-07-02 12:30",8,45.3811203,-122.8353667,TRUE,FALSE,FALSE,"S256303306"
"32","greyel","Greater Yellowlegs","Tringa melanoleuca","L598944","Blackwater NWR--Wildlife Drive","2025-07-02 12:27",1,38.4456871,-76.0915446,TRUE,FALSE,FALSE,"S256258121"
"33","greyel","Greater Yellowlegs","Tringa melanoleuca","L985270","Bombay Hook NWR--Raymond Pool overlook trail","2025-07-02 12:09",6,39.2554022,-75.4655653,TRUE,FALSE,FALSE,"S256286310"
"34","greyel","Greater Yellowlegs","Tringa melanoleuca","L498314","Tualatin River NWR--Atfálat'i Unit","2025-07-02 11:57",10,45.3817834,-122.8312254,TRUE,FALSE,FALSE,"S256307686"
"35","greyel","Greater Yellowlegs","Tringa melanoleuca","L1128812","Homer--Alaska Islands & Oceans Visitor Center & Trails","2025-07-02 11:50",1,59.641132,-151.5389299,TRUE,FALSE,FALSE,"S256293817"
"36","greyel","Greater Yellowlegs","Tringa melanoleuca","L1663502","Pea Island NWR--North Pond Wildlife Trail","2025-07-02 11:45",1,35.7156212,-75.4935891,TRUE,FALSE,FALSE,"S256301534"
"37","greyel","Greater Yellowlegs","Tringa melanoleuca","L784803","Allens Pond WS--Beach Loop (Mass Audubon)","2025-07-02 11:39",9,41.5070668,-71.023618,TRUE,FALSE,FALSE,"S256235489"
"38","greyel","Greater Yellowlegs","Tringa melanoleuca","L278017","Stubblefield Lake","2025-07-02 11:25",3,36.5790705,-104.6599819,TRUE,FALSE,FALSE,"S256276971"
"39","greyel","Greater Yellowlegs","Tringa melanoleuca","L301069","Parsons Beach","2025-07-02 11:25",3,43.3443346,-70.5181011,TRUE,FALSE,FALSE,"S256256150"
"40","greyel","Greater Yellowlegs","Tringa melanoleuca","L39728997","Chatam Hill Dr 6","2025-07-02 11:24",NA,32.961553,-97.09407,TRUE,FALSE,TRUE,"S256238725"
"41","greyel","Greater Yellowlegs","Tringa melanoleuca","L48962406","Chichagof Island, Elfin Cove US-AK 58.10118, -136.27942","2025-07-02 11:20",2,58.101177,-136.279415,TRUE,FALSE,TRUE,"S256327142"
"42","greyel","Greater Yellowlegs","Tringa melanoleuca","L888474","Walden Reservoir--SE side","2025-07-02 11:13",1,40.7251123,-106.2990332,TRUE,FALSE,FALSE,"S256252931"
"43","greyel","Greater Yellowlegs","Tringa melanoleuca","L212070","Glover Lane & GSL Nature Center","2025-07-02 11:12",11,40.9650238,-111.9299004,TRUE,FALSE,FALSE,"S256310648"
"44","greyel","Greater Yellowlegs","Tringa melanoleuca","L1979614","Tule Lake NWR--Auto Tour and Sump 1A","2025-07-02 11:06",2,41.8776136,-121.5273285,TRUE,FALSE,FALSE,"S256290801"
"45","greyel","Greater Yellowlegs","Tringa melanoleuca","L1667064","Leque Island--Eide Rd.","2025-07-02 11:01",2,48.2320943,-122.3829746,TRUE,FALSE,FALSE,"S256274070"
"46","greyel","Greater Yellowlegs","Tringa melanoleuca","L487048","Fern Ridge WMA--Royal Ave. area (general)","2025-07-02 11:00",32,44.0705825,-123.2574606,TRUE,FALSE,FALSE,"S256297765"
"47","greyel","Greater Yellowlegs","Tringa melanoleuca","L3858879","Baskett Slough NWR--South Slough transect path","2025-07-02 10:56",38,44.9562801,-123.2571548,TRUE,FALSE,FALSE,"S256330752"
"48","greyel","Greater Yellowlegs","Tringa melanoleuca","L48915163","Gibbon Anchorage, Prince William Sound Alaska, US (60.288, -147.413)","2025-07-02 10:54",1,60.2877056,-147.4129133,TRUE,FALSE,TRUE,"S256287099"
"49","greyel","Greater Yellowlegs","Tringa melanoleuca","L1495128","Deere Dike Park and Riverside Road","2025-07-02 10:45",1,42.5749533,-90.6840151,TRUE,TRUE,FALSE,"S256322760"
"50","greyel","Greater Yellowlegs","Tringa melanoleuca","L621530","Apollo Beach Nature Preserve","2025-07-02 10:44",1,27.7930159,-82.4180818,TRUE,FALSE,FALSE,"S256234074"
"51","greyel","Greater Yellowlegs","Tringa melanoleuca","L914607","Portage Park","2025-07-02 10:40",1,44.8010832,-87.3074913,TRUE,FALSE,FALSE,"S256237970"
"52","greyel","Greater Yellowlegs","Tringa melanoleuca","L92448","Edwin B. Forsythe NWR--Wildlife Drive (8-mile auto tour loop only)","2025-07-02 10:35",NA,39.464298,-74.417612,TRUE,FALSE,FALSE,"S256261664"
"53","greyel","Greater Yellowlegs","Tringa melanoleuca","L1339539","Kenai Flats--Sea Catch Dr. & Cannery Rd.","2025-07-02 10:31",2,60.5351637,-151.2629414,TRUE,FALSE,FALSE,"S256302799"
"54","greyel","Greater Yellowlegs","Tringa melanoleuca","L793855","Elwha River Mouth -- west access","2025-07-02 10:28",1,48.1454438,-123.5673952,TRUE,FALSE,FALSE,"S256275461"
"55","greyel","Greater Yellowlegs","Tringa melanoleuca","L48933707","258 Seashore Ave, Portland US-ME 43.65241, -70.18454","2025-07-02 10:27",1,43.652408,-70.184535,TRUE,FALSE,TRUE,"S256208466"
"56","greyel","Greater Yellowlegs","Tringa melanoleuca","L1645147","Bartlett's Landing Road, Pretty Marsh","2025-07-02 10:25",1,44.3417544,-68.400974,TRUE,FALSE,FALSE,"S256213192"
"57","greyel","Greater Yellowlegs","Tringa melanoleuca","L691056","Howard Marsh--West Side of Howard Rd.","2025-07-02 10:19",1,41.6500553,-83.278719,TRUE,FALSE,FALSE,"S256278805"
"58","greyel","Greater Yellowlegs","Tringa melanoleuca","L444818","Parker River NWR--Maintenance Area","2025-07-02 10:12",1,42.756722,-70.8052111,TRUE,FALSE,FALSE,"S256204544"
"59","greyel","Greater Yellowlegs","Tringa melanoleuca","L1840584","Westport Light SP","2025-07-02 10:07",1,46.8887211,-124.1274368,TRUE,FALSE,FALSE,"S256268386"
"60","greyel","Greater Yellowlegs","Tringa melanoleuca","L124353","Huntington Beach SP","2025-07-02 10:02",6,33.5083,-79.0659,TRUE,FALSE,FALSE,"S256234324"
"61","greyel","Greater Yellowlegs","Tringa melanoleuca","L47946635","7699 W Parks Hwy, Wasilla US-AK 61.58085, -149.64657","2025-07-02 09:45",1,61.580849,-149.646566,TRUE,FALSE,TRUE,"S256266166"
"62","greyel","Greater Yellowlegs","Tringa melanoleuca","L34665780","Olsen Rd, Charlo US-MT 47.42815, -114.09775","2025-07-02 09:43",3,47.428149,-114.097749,TRUE,FALSE,TRUE,"S256232178"
"63","greyel","Greater Yellowlegs","Tringa melanoleuca","L457476","Eden Landing Ecological Reserve","2025-07-02 09:40",1,37.596824,-122.1138096,TRUE,FALSE,FALSE,"S256279694"
"64","greyel","Greater Yellowlegs","Tringa melanoleuca","L207348","Belle Isle Marsh Reservation","2025-07-02 09:35",1,42.3910639,-70.9930195,TRUE,FALSE,FALSE,"S256210286"
"65","greyel","Greater Yellowlegs","Tringa melanoleuca","L4961519","US-DE-Smyrna-Bombay Hook National Wildlife Refuge - 39.2597x-75.4731","2025-07-02 09:33",7,39.259653,-75.473068,TRUE,FALSE,TRUE,"S256229860"
"66","greyel","Greater Yellowlegs","Tringa melanoleuca","L905660","College Point Wetlands (formerly Flushing Airport)","2025-07-02 09:31",1,40.7777629,-73.8341331,TRUE,FALSE,FALSE,"S256231766"
"67","greyel","Greater Yellowlegs","Tringa melanoleuca","L5558801","Ontario--7th Street settling ponds","2025-07-02 09:20",1,34.0890435,-117.6325572,TRUE,FALSE,FALSE,"S256248224"
"68","greyel","Greater Yellowlegs","Tringa melanoleuca","L2874927","Ft Steven - Trestle Bay Unit (49)","2025-07-02 09:16",1,46.2251434,-123.9906725,TRUE,FALSE,TRUE,"S256246130"
"69","greyel","Greater Yellowlegs","Tringa melanoleuca","L27503185","Lincoln WTP--East Ponds (restricted access, open M–F, 7:30-3:00)","2025-07-02 09:15",3,38.8586743,-121.3387836,TRUE,FALSE,FALSE,"S256283385"
"70","greyel","Greater Yellowlegs","Tringa melanoleuca","L266875","Willcox--Lake Cochise and Twin Lakes Golf Course","2025-07-02 09:01",1,32.2298515,-109.8243175,TRUE,FALSE,FALSE,"S256232176"
"71","greyel","Greater Yellowlegs","Tringa melanoleuca","L613438","Klamath Wildlife Area--Miller Island Unit","2025-07-02 08:58",1,42.1551736,-121.8082073,TRUE,FALSE,FALSE,"S256247001"
"72","greyel","Greater Yellowlegs","Tringa melanoleuca","L913173","Kellys Slough NWR--Observation platform","2025-07-02 08:53",7,47.9849436,-97.2616111,TRUE,FALSE,FALSE,"S256200014"
"73","greyel","Greater Yellowlegs","Tringa melanoleuca","L2919587","NC-ISS-8","2025-07-02 08:46",1,34.529122,-77.3428917,TRUE,FALSE,TRUE,"S256207310"
"74","greyel","Greater Yellowlegs","Tringa melanoleuca","L189487","Arcata Marsh and Wildlife Sanctuary","2025-07-02 08:45",1,40.857361,-124.094612,TRUE,FALSE,FALSE,"S256277511"
"75","greyel","Greater Yellowlegs","Tringa melanoleuca","L23642152","Back porch","2025-07-02 08:40",1,41.108432,-72.359892,TRUE,FALSE,TRUE,"S256204499"
"76","greyel","Greater Yellowlegs","Tringa melanoleuca","L48930556","Plum Island Stage Pool Tower","2025-07-02 08:34",8,42.707592,-70.7728736,TRUE,FALSE,TRUE,"S256193356"
"77","greyel","Greater Yellowlegs","Tringa melanoleuca","L207462","Wellfleet Bay Wildlife Sanctuary (Mass Audubon)","2025-07-02 08:30",1,41.8825315,-69.995712,TRUE,FALSE,FALSE,"S256208227"
"78","greyel","Greater Yellowlegs","Tringa melanoleuca","L1295310","Bufferlands--Upper Beach Lake (limited access)","2025-07-02 08:26",1,38.4496454,-121.4852086,TRUE,FALSE,FALSE,"S256254333"
"79","greyel","Greater Yellowlegs","Tringa melanoleuca","L14236328","158th Marsh","2025-07-02 08:22",1,45.5577297,-122.5034468,TRUE,FALSE,FALSE,"S256238336"
"80","greyel","Greater Yellowlegs","Tringa melanoleuca","L28546700","Saltese Flats","2025-07-02 08:20",2,47.639104,-117.133258,TRUE,FALSE,TRUE,"S256279111"
"81","greyel","Greater Yellowlegs","Tringa melanoleuca","L109535","Ocean Shores--Oyhut Wildlife Area","2025-07-02 08:11",4,46.9444663,-124.1522412,TRUE,FALSE,FALSE,"S256297838"
"82","greyel","Greater Yellowlegs","Tringa melanoleuca","L48939179","1157 South Waterfowl Way, Farmington US-UT 40.96194, -111.92851","2025-07-02 08:11",11,40.961938,-111.928507,TRUE,FALSE,TRUE,"S256231882"
"83","greyel","Greater Yellowlegs","Tringa melanoleuca","L474791","Dennis Chapin Beach","2025-07-02 08:10",1,41.730314,-70.2350271,TRUE,FALSE,FALSE,"S256179366"
"84","greyel","Greater Yellowlegs","Tringa melanoleuca","L448189","Scarborough Marsh--Eastern Trail","2025-07-02 08:09",1,43.5649691,-70.3639502,TRUE,FALSE,FALSE,"S256197026"
"85","greyel","Greater Yellowlegs","Tringa melanoleuca","L9526173","Petersburg--Hungry Point Trail","2025-07-02 08:04",2,56.8152373,-132.9422079,TRUE,FALSE,FALSE,"S256261527"
"86","greyel","Greater Yellowlegs","Tringa melanoleuca","L447435","Hatfield Lake","2025-07-02 08:03",1,44.1232081,-121.198554,TRUE,FALSE,FALSE,"S256267545"
"87","greyel","Greater Yellowlegs","Tringa melanoleuca","L275331","Piermont Pier","2025-07-02 07:58",1,41.0427778,-73.8975,TRUE,FALSE,FALSE,"S256293317"
"88","greyel","Greater Yellowlegs","Tringa melanoleuca","L20026852","Windmill WLA - Phase 1 wetland","2025-07-02 07:55",1,46.637769,-119.071569,TRUE,FALSE,TRUE,"S256220223"
"89","greyel","Greater Yellowlegs","Tringa melanoleuca","L598440","Salinas River NWR","2025-07-02 07:52",2,36.7354169,-121.8033385,TRUE,FALSE,FALSE,"S256251417"
"90","greyel","Greater Yellowlegs","Tringa melanoleuca","L218758","Bald Knob NWR","2025-07-02 07:52",1,35.2744747,-91.571223,TRUE,FALSE,FALSE,"S256237929"
"91","greyel","Greater Yellowlegs","Tringa melanoleuca","L10749298","Saltese--Church Pond","2025-07-02 07:52",2,47.6389037,-117.1360343,TRUE,FALSE,FALSE,"S256251587"
"92","greyel","Greater Yellowlegs","Tringa melanoleuca","L815296","Broughton Beach","2025-07-02 07:50",1,45.6003622,-122.6152539,TRUE,FALSE,FALSE,"S256227244"
"93","greyel","Greater Yellowlegs","Tringa melanoleuca","L832048","Corte Madera Creek","2025-07-02 07:50",8,37.9474464,-122.5409889,TRUE,FALSE,FALSE,"S256226482"
"94","greyel","Greater Yellowlegs","Tringa melanoleuca","L14597027","Horizon City RO Ponds","2025-07-02 07:44",1,31.680525,-106.15563,TRUE,FALSE,FALSE,"S256216749"
"95","greyel","Greater Yellowlegs","Tringa melanoleuca","L2719856","Parker River NWR -- Hellcat Area","2025-07-02 07:41",6,42.7417804,-70.7946539,TRUE,FALSE,TRUE,"S256165178"
"96","greyel","Greater Yellowlegs","Tringa melanoleuca","L587721","Hayward Regional Shoreline--Interpretive Center","2025-07-02 07:30",1,37.6233925,-122.1372843,TRUE,FALSE,FALSE,"S256272619"
"97","greyel","Greater Yellowlegs","Tringa melanoleuca","L1294688","Sacramento Reg Wastewater Treatment Plant (limited access)","2025-07-02 07:30",1,38.4407495,-121.4792633,TRUE,FALSE,FALSE,"S256214786"
"98","greyel","Greater Yellowlegs","Tringa melanoleuca","L5988406","Fern Ridge WMA--Fisher Butte Unit north (dikes around Pond 4, 5, 6, and west edge of 3)","2025-07-02 07:28",25,44.0667313,-123.263855,TRUE,FALSE,FALSE,"S256278369"
"99","greyel","Greater Yellowlegs","Tringa melanoleuca","L573127","Horicon NWR--Old Marsh Rd.","2025-07-02 07:27",1,43.6159453,-88.6473083,TRUE,FALSE,FALSE,"S256223628"
"100","greyel","Greater Yellowlegs","Tringa melanoleuca","L4379639","Parker River NWR--Lot 3","2025-07-02 07:25",2,42.7728661,-70.8059482,TRUE,FALSE,FALSE,"S256151637"
"101","greyel","Greater Yellowlegs","Tringa melanoleuca","L596427","Little River Salt Marsh, North Hampton","2025-07-02 07:24",1,42.9584954,-70.7854271,TRUE,FALSE,FALSE,"S256196967"
"102","greyel","Greater Yellowlegs","Tringa melanoleuca","L3659024","Tony Knowles Coastal Trail--Pete's Place to Audubon Wayside","2025-07-02 07:23",10,61.2022996,-149.9509227,TRUE,FALSE,FALSE,"S256224122"
"103","greyel","Greater Yellowlegs","Tringa melanoleuca","L11450199","Ship Island (restricted access)","2025-07-02 07:15",1,44.234261,-68.4402775,TRUE,FALSE,FALSE,"S256152604"
"104","greyel","Greater Yellowlegs","Tringa melanoleuca","L936733","Parker River NWR--Salt Pannes","2025-07-02 07:11",6,42.7758211,-70.8074325,TRUE,FALSE,FALSE,"S256150356"
"105","greyel","Greater Yellowlegs","Tringa melanoleuca","L2113967","Timber Point Golf Course--East Marina","2025-07-02 07:10",1,40.7202869,-73.1412855,TRUE,FALSE,FALSE,"S256216169"
"106","greyel","Greater Yellowlegs","Tringa melanoleuca","L830335","Plum Island (please use more refined location)","2025-07-02 07:05",NA,42.7987508,-70.8114526,TRUE,FALSE,FALSE,"S256332126"
"107","greyel","Greater Yellowlegs","Tringa melanoleuca","L48947965","RESTRICTED- New River Inlet CW- Raisin Rock, North Topsail Beach US-NC (34.5500,-77.3548)","2025-07-02 07:04",1,34.550045,-77.354844,TRUE,FALSE,TRUE,"S256267624"
"108","greyel","Greater Yellowlegs","Tringa melanoleuca","L12262037","Bond Co. - Tamalco Township","2025-07-02 06:53",1,38.7927776,-89.3109072,TRUE,TRUE,TRUE,"S256270223"
"109","greyel","Greater Yellowlegs","Tringa melanoleuca","L444485","Plumb Beach","2025-07-02 06:51",2,40.5823284,-73.9153746,TRUE,TRUE,FALSE,"S256213909"
"110","greyel","Greater Yellowlegs","Tringa melanoleuca","L472951","Paloma Ranch","2025-07-02 06:45",2,32.9189081,-112.8944135,TRUE,FALSE,FALSE,"S256315091"
"111","greyel","Greater Yellowlegs","Tringa melanoleuca","L594360","Ceres WTP","2025-07-02 06:43",8,37.576,-120.970675,TRUE,FALSE,FALSE,"S256201247"
"112","greyel","Greater Yellowlegs","Tringa melanoleuca","L614549","Santa Ana River mouth","2025-07-02 06:40",1,33.6299142,-117.9575443,TRUE,FALSE,FALSE,"S256237083"
"113","greyel","Greater Yellowlegs","Tringa melanoleuca","L6023480","Round Island  - Beneficial Use Site (Restricted Access)","2025-07-02 06:39",1,30.3119125,-88.604393,TRUE,FALSE,TRUE,"S256247839"
"114","greyel","Greater Yellowlegs","Tringa melanoleuca","L163561","San Jacinto Wildlife Area","2025-07-02 06:30",2,33.8854488,-117.104104,TRUE,FALSE,FALSE,"S256309351"
"115","greyel","Greater Yellowlegs","Tringa melanoleuca","L1576069","Mascoutin Valley State Trail","2025-07-02 06:20",2,43.9381181,-88.8506192,TRUE,FALSE,FALSE,"S256213778"
"116","greyel","Greater Yellowlegs","Tringa melanoleuca","L422541","Leonabelle Turnbull Birding Ctr. (CTC 057)","2025-07-02 06:15",6,27.8275297,-97.0789558,TRUE,FALSE,FALSE,"S256176794"
"117","greyel","Greater Yellowlegs","Tringa melanoleuca","L5708156","Hulett Ranch (Private)","2025-07-02 06:15",1,39.1139793,-120.9788835,TRUE,FALSE,TRUE,"S256283796"
"118","greyel","Greater Yellowlegs","Tringa melanoleuca","L11733849","Helen Mellon Schmidt Park","2025-07-02 06:09",4,29.700015,-81.231602,TRUE,FALSE,FALSE,"S256158150"
"119","greyel","Greater Yellowlegs","Tringa melanoleuca","L127258","St. Marks NWR (please consider using a more precise location)","2025-07-02 06:07",3,30.1515653,-84.1473314,TRUE,FALSE,FALSE,"S256175389"
"120","greyel","Greater Yellowlegs","Tringa melanoleuca","L34764985","Gray's Beach, Yarmouth","2025-07-02 06:07",1,41.7232357,-70.2350163,TRUE,FALSE,FALSE,"S256179436"
"121","greyel","Greater Yellowlegs","Tringa melanoleuca","L109136","Cape Island--South Cape May Meadows (SCMM)","2025-07-02 06:05",8,38.9359287,-74.9434519,TRUE,FALSE,FALSE,"S256140544"
"122","greyel","Greater Yellowlegs","Tringa melanoleuca","L199461","Lake Woodruff NWR","2025-07-02 06:00",1,29.1092685,-81.3752445,TRUE,FALSE,FALSE,"S256189127"
"123","greyel","Greater Yellowlegs","Tringa melanoleuca","L473315","Stratton Island","2025-07-02 06:00",4,43.5046746,-70.3116417,TRUE,FALSE,FALSE,"S256341955"
"124","greyel","Greater Yellowlegs","Tringa melanoleuca","L152737","Waukegan Beach","2025-07-02 05:40",1,42.364,-87.8139,TRUE,TRUE,FALSE,"S256176648"
"125","greyel","Greater Yellowlegs","Tringa melanoleuca","L3025481","Esther Island","2025-07-02 05:37",3,41.2799608,-70.2243304,TRUE,FALSE,FALSE,"S256142239"
"126","greyel","Greater Yellowlegs","Tringa melanoleuca","L517778","Deer Lagoon","2025-07-02 05:27",1,47.9938851,-122.4926662,TRUE,FALSE,FALSE,"S256209497"
"127","greyel","Greater Yellowlegs","Tringa melanoleuca","L710850","Glendale Recharge Ponds","2025-07-02 05:11",3,33.5242237,-112.286582,TRUE,FALSE,FALSE,"S256204542"
"128","greyel","Greater Yellowlegs","Tringa melanoleuca","L46033863","Sandpiper Village, Seaside, Oregon, US (45.987, -123.925)","2025-07-01 21:50",1,45.9868306,-123.9246778,TRUE,FALSE,TRUE,"S256097674"
"129","greyel","Greater Yellowlegs","Tringa melanoleuca","L3889173","Long Lake View","2025-07-01 20:00",1,45.8404004,-99.2668129,TRUE,FALSE,TRUE,"S256090573"
"130","greyel","Greater Yellowlegs","Tringa melanoleuca","L814926","Nehalem Sewage Ponds","2025-07-01 19:49",2,45.7161882,-123.8876724,TRUE,FALSE,FALSE,"S256255267"
"131","greyel","Greater Yellowlegs","Tringa melanoleuca","L152823","Mendenhall Wetlands SGR--Airport Dike Trail","2025-07-01 19:48",10,58.3523993,-134.5945144,TRUE,FALSE,FALSE,"S256099067"
"132","greyel","Greater Yellowlegs","Tringa melanoleuca","L35597549","Hernando County Airport Water Reclamation Facility","2025-07-01 19:23",2,28.4520015,-82.4815986,TRUE,FALSE,FALSE,"S256060530"
"133","greyel","Greater Yellowlegs","Tringa melanoleuca","L1740648","Necanicum River Estuary--Little Beach","2025-07-01 19:11",1,46.0176115,-123.921583,TRUE,FALSE,FALSE,"S256088995"
"134","greyel","Greater Yellowlegs","Tringa melanoleuca","L581494","Scarborough Marsh--Nature Center","2025-07-01 19:10",1,43.565902,-70.3747487,TRUE,FALSE,FALSE,"S256050160"
"135","greyel","Greater Yellowlegs","Tringa melanoleuca","L48903318","2101–2143 24th St NE, Mekinock US-ND 47.97766, -97.34684","2025-07-01 19:01",3,47.977656,-97.346845,TRUE,FALSE,TRUE,"S256061699"
"136","greyel","Greater Yellowlegs","Tringa melanoleuca","L781318","Gustavus--Forelands","2025-07-01 19:00",11,58.4121436,-135.724411,TRUE,FALSE,FALSE,"S256196170"
"137","greyel","Greater Yellowlegs","Tringa melanoleuca","L4472980","Saltese Wetlands","2025-07-01 19:00",2,47.6169256,-117.1218109,TRUE,FALSE,FALSE,"S256080335"
"138","greyel","Greater Yellowlegs","Tringa melanoleuca","L1764908","Don Edwards NWR--entrance road (Grand Blvd.) between tracks and gate","2025-07-01 18:41",1,37.4334652,-121.9614815,TRUE,FALSE,FALSE,"S256082981"
"139","greyel","Greater Yellowlegs","Tringa melanoleuca","L376186","""Viera"" Ritch Grissom Memorial Wetlands","2025-07-01 18:20",1,28.228577,-80.7604659,TRUE,FALSE,FALSE,"S256054709"
"140","greyel","Greater Yellowlegs","Tringa melanoleuca","L515634","Arapaho NWR--Auto Loop","2025-07-01 18:20",1,40.6686604,-106.322937,TRUE,FALSE,FALSE,"S256157587"
"141","greyel","Greater Yellowlegs","Tringa melanoleuca","L551465","Kenai NWR--Headquarters","2025-07-01 17:58",2,60.4647289,-151.0733414,TRUE,FALSE,FALSE,"S256088558"
"142","greyel","Greater Yellowlegs","Tringa melanoleuca","L129084","Sandy Point State Reservation","2025-07-01 17:50",3,42.702006,-70.777711,TRUE,FALSE,FALSE,"S256046074"
"143","greyel","Greater Yellowlegs","Tringa melanoleuca","L1346833","Upper Newport Bay--boardwalk","2025-07-01 17:48",3,33.6521463,-117.8818611,TRUE,FALSE,FALSE,"S256081393"
"144","greyel","Greater Yellowlegs","Tringa melanoleuca","L15873803","Anchor River SRA","2025-07-01 17:26",NA,59.7739031,-151.8658974,TRUE,FALSE,FALSE,"S256076622"
"145","greyel","Greater Yellowlegs","Tringa melanoleuca","L48913801","SR-109, Pacific Beach US-WA 47.20666, -124.19787","2025-07-01 17:15",2,47.206658,-124.197874,TRUE,FALSE,TRUE,"S256112161"
"146","greyel","Greater Yellowlegs","Tringa melanoleuca","L129045","Parker River NWR--Stage Island Pool","2025-07-01 17:12",NA,42.710964,-70.7760179,TRUE,FALSE,FALSE,"S256032072"
"147","greyel","Greater Yellowlegs","Tringa melanoleuca","L6800283","Cherry Creek SP--Railroad Bed Trail","2025-07-01 17:10",1,39.6176233,-104.8378301,TRUE,FALSE,FALSE,"S256070502"
"148","greyel","Greater Yellowlegs","Tringa melanoleuca","L3089685","Fisherman's Bend Park","2025-07-01 17:10",1,42.3710911,-70.9805042,TRUE,FALSE,FALSE,"S256058221"
"149","greyel","Greater Yellowlegs","Tringa melanoleuca","L152122","Palo Alto Baylands","2025-07-01 17:04",15,37.459167,-122.10445,TRUE,FALSE,FALSE,"S256067970"
"150","greyel","Greater Yellowlegs","Tringa melanoleuca","L12968236","Bolsa Chica Ecological Reserve-Backside (restricted access)","2025-07-01 16:15",1,33.7025628,-118.035571,TRUE,FALSE,FALSE,"S256076046"
"151","greyel","Greater Yellowlegs","Tringa melanoleuca","L579586","Arcata Marsh--Klopp Lake","2025-07-01 16:13",4,40.855284,-124.095567,TRUE,FALSE,FALSE,"S256049797"
"152","greyel","Greater Yellowlegs","Tringa melanoleuca","L2325993","Hammonasset Beach SP--Boulder Pond","2025-07-01 15:35",2,41.2494929,-72.5441891,TRUE,FALSE,FALSE,"S256006523"
"153","greyel","Greater Yellowlegs","Tringa melanoleuca","L109133","Edwin B. Forsythe NWR (formerly Brig)","2025-07-01 14:50",18,39.465,-74.4477778,TRUE,FALSE,FALSE,"S256044121"
"154","greyel","Greater Yellowlegs","Tringa melanoleuca","L7978571","Ella Ave. ponds","2025-07-01 14:01",1,39.0731671,-121.5687923,TRUE,FALSE,FALSE,"S256026935"
"155","greyel","Greater Yellowlegs","Tringa melanoleuca","L603705","Lorain Impoundment Lakeside Landing","2025-07-01 13:46",1,41.4759174,-82.1756744,TRUE,FALSE,FALSE,"S255976400"
"156","greyel","Greater Yellowlegs","Tringa melanoleuca","L420537","Nob Hill Pond","2025-07-01 13:34",24,37.5218818,-122.2498887,TRUE,TRUE,FALSE,"S256030550"
"157","greyel","Greater Yellowlegs","Tringa melanoleuca","L1739005","I-5--Maxwell Rest Area","2025-07-01 13:05",2,39.2410398,-122.181834,TRUE,FALSE,FALSE,"S256032887"
"158","greyel","Greater Yellowlegs","Tringa melanoleuca","L463228","White City Lagoons (Kirtland Rd. Ponds)","2025-07-01 12:48",7,42.4336881,-122.9128075,TRUE,FALSE,FALSE,"S256010786"
"159","greyel","Greater Yellowlegs","Tringa melanoleuca","L34271778","State Dock Rd, Gustavus US-AK 58.39365, -135.72886","2025-07-01 12:45",2,58.393654,-135.728865,TRUE,FALSE,TRUE,"S256039185"
"160","greyel","Greater Yellowlegs","Tringa melanoleuca","L14874886","John Butler's Mudhole","2025-07-01 12:45",1,41.3958945,-70.5134408,TRUE,FALSE,FALSE,"S256071214"
"161","greyel","Greater Yellowlegs","Tringa melanoleuca","L42313954","St. Joseph Peninsula Point","2025-07-01 12:34",1,29.8747401,-85.3888503,TRUE,FALSE,TRUE,"S256054080"
"162","greyel","Greater Yellowlegs","Tringa melanoleuca","L387773","Richland Creek WMA (N. Unit)(Navarro Co) PPW-W 019","2025-07-01 12:30",2,32.0072107,-96.0808261,TRUE,FALSE,FALSE,"S256038528"
"163","greyel","Greater Yellowlegs","Tringa melanoleuca","L3045759","Viridian Community / Lake Viridian","2025-07-01 11:40",1,32.794057,-97.0886707,TRUE,FALSE,FALSE,"S256022016"
"164","greyel","Greater Yellowlegs","Tringa melanoleuca","L3192597","Damonte Ranch Wetlands--Veterans Pkwy Lake and Wetlands","2025-07-01 11:31",1,39.4202899,-119.7332203,TRUE,FALSE,FALSE,"S256017082"
"165","greyel","Greater Yellowlegs","Tringa melanoleuca","L45007342","Hatteras Point","2025-07-01 11:28",5,35.1991783,-75.722874,TRUE,FALSE,TRUE,"S256075200"
"166","greyel","Greater Yellowlegs","Tringa melanoleuca","L109541","North Potholes Reserve","2025-07-01 11:22",2,47.058487,-119.419928,TRUE,FALSE,FALSE,"S256000929"
"167","greyel","Greater Yellowlegs","Tringa melanoleuca","L491963","William L. Finley NWR--McFadden Marsh","2025-07-01 11:14",1,44.3907013,-123.2976294,TRUE,FALSE,FALSE,"S256009931"
"168","greyel","Greater Yellowlegs","Tringa melanoleuca","L493044","Philomath Sewage Ponds (restricted access)","2025-07-01 11:10",1,44.5185755,-123.3444586,TRUE,FALSE,FALSE,"S256006505"
"169","greyel","Greater Yellowlegs","Tringa melanoleuca","L43931096","Bald Knob NWR--Central Ag Fields","2025-07-01 11:09",2,35.2602622,-91.5801847,TRUE,FALSE,FALSE,"S255959220"
"170","greyel","Greater Yellowlegs","Tringa melanoleuca","L48907306","977–989 300th Ave, Blue Earth US-MN (43.6282,-94.2679)","2025-07-01 11:06",1,43.628173,-94.267901,TRUE,FALSE,TRUE,"S256079698"
"171","greyel","Greater Yellowlegs","Tringa melanoleuca","L7868981","Cypress Grove, Marshall US-CA (38.1657,-122.8991)","2025-07-01 11:02",1,38.165659,-122.899127,TRUE,FALSE,TRUE,"S256319110"
"172","greyel","Greater Yellowlegs","Tringa melanoleuca","L272215","Wyoming Hereford Ranch Reservoir #1","2025-07-01 10:26",4,41.1167222,-104.7379491,TRUE,FALSE,FALSE,"S256090446"
"173","greyel","Greater Yellowlegs","Tringa melanoleuca","L594012","Shoreline Park--Shoreline Lake area","2025-07-01 10:15",1,37.432341,-122.0918369,TRUE,FALSE,FALSE,"S256012732"
"174","greyel","Greater Yellowlegs","Tringa melanoleuca","L352554","Fargo--Sewage Settling Ponds","2025-07-01 10:14",1,46.9626441,-96.8402598,TRUE,FALSE,FALSE,"S256050964"
"175","greyel","Greater Yellowlegs","Tringa melanoleuca","L815005","Baskett Slough NWR--The Narrows and Cottonwood Pond","2025-07-01 10:12",6,44.9592377,-123.2700262,TRUE,FALSE,FALSE,"S255963003"
"176","greyel","Greater Yellowlegs","Tringa melanoleuca","L483019","Bombay Hook NWR--Shearness Pool","2025-07-01 10:08",4,39.2684108,-75.4772758,TRUE,FALSE,FALSE,"S256006377"
"177","greyel","Greater Yellowlegs","Tringa melanoleuca","L777491","Mercer Wildlife Area","2025-07-01 09:37",1,40.4974514,-84.566617,TRUE,FALSE,FALSE,"S255899471"
"178","greyel","Greater Yellowlegs","Tringa melanoleuca","L2656239","Narrow River Rd., Orient","2025-07-01 09:30",1,41.1403084,-72.2839192,TRUE,FALSE,FALSE,"S255910355"
"179","greyel","Greater Yellowlegs","Tringa melanoleuca","L19306100","Oceanview","2025-07-01 09:22",1,61.097429,-149.873965,TRUE,FALSE,TRUE,"S255972929"
"180","greyel","Greater Yellowlegs","Tringa melanoleuca","L16871073","Coal Oil Point Reserve (if possible, use more specific hotspot)","2025-07-01 09:13",1,34.4151882,-119.8799569,TRUE,FALSE,FALSE,"S256026648"
"181","greyel","Greater Yellowlegs","Tringa melanoleuca","L40001501","Calhoun Port Authority Wetland Mitigation Site (restricted access)","2025-07-01 09:09",1,28.670311,-96.570329,TRUE,FALSE,TRUE,"S255988961"
"182","greyel","Greater Yellowlegs","Tringa melanoleuca","L7044989","Harvey E. Oyer Jr. Park","2025-07-01 09:00",1,26.5466,-80.053196,TRUE,FALSE,FALSE,"S255883747"
"183","greyel","Greater Yellowlegs","Tringa melanoleuca","L2639748","2929","2025-07-01 08:44",2,32.543637,-97.4124584,TRUE,FALSE,TRUE,"S255903677"
"184","greyel","Greater Yellowlegs","Tringa melanoleuca","L566310","Cupsogue Beach County Park","2025-07-01 08:40",1,40.7713119,-72.7373457,TRUE,FALSE,FALSE,"S255947632"
"185","greyel","Greater Yellowlegs","Tringa melanoleuca","L594010","Spreckles Ave. Pond (State at Spreckles)","2025-07-01 08:25",1,37.43323,-121.966232,TRUE,FALSE,FALSE,"S256087693"
"186","greyel","Greater Yellowlegs","Tringa melanoleuca","L159723","Ken Euers Wetland Preserve","2025-07-01 08:20",1,44.55768,-88.03675,TRUE,FALSE,FALSE,"S255931426"
"187","greyel","Greater Yellowlegs","Tringa melanoleuca","L164929","Bolsa Chica Ecological Reserve","2025-07-01 08:18",1,33.7026531,-118.050735,TRUE,FALSE,FALSE,"S256040023"
"188","greyel","Greater Yellowlegs","Tringa melanoleuca","L241530","Smith Reservoir SWA","2025-07-01 08:18",1,37.3919965,-105.534457,TRUE,FALSE,FALSE,"S255925013"
"189","greyel","Greater Yellowlegs","Tringa melanoleuca","L775797","Bradley Woods Reservation","2025-07-01 08:18",1,41.4179595,-81.9511392,TRUE,FALSE,FALSE,"S256007696"
"190","greyel","Greater Yellowlegs","Tringa melanoleuca","L1247410","Bonham Rd., York Township Rd. 205","2025-07-01 08:17",4,41.2979849,-82.8990126,TRUE,FALSE,FALSE,"S255992448"
"191","greyel","Greater Yellowlegs","Tringa melanoleuca","L35959869","Old Marsh Road","2025-07-01 08:15",1,43.611279,-88.621568,TRUE,FALSE,TRUE,"S255920356"
"192","greyel","Greater Yellowlegs","Tringa melanoleuca","L5717718","913C Sandy Beach Rd","2025-07-01 08:15",1,56.8081911,-132.9177361,TRUE,FALSE,TRUE,"S256028684"
"193","greyel","Greater Yellowlegs","Tringa melanoleuca","L2123565","Canal Road, Toutle","2025-07-01 08:15",1,46.2967215,-122.7351379,TRUE,FALSE,FALSE,"S255947924"
"194","greyel","Greater Yellowlegs","Tringa melanoleuca","L793778","Port Aransas Nature Preserve at Charlie's Pasture","2025-07-01 08:10",9,27.8327765,-97.0873833,TRUE,FALSE,FALSE,"S255891923"
"195","greyel","Greater Yellowlegs","Tringa melanoleuca","L48880401","Stella SE - 28582, Stella US-NC (34.7642,-77.1453)","2025-07-01 08:06",1,34.764171,-77.145277,TRUE,FALSE,TRUE,"S255959487"
"196","greyel","Greater Yellowlegs","Tringa melanoleuca","L3091619","Des Lacs NWR--Lower Des Lacs Lake","2025-07-01 08:00",1,48.607187,-102.0095084,TRUE,FALSE,FALSE,"S256077600"
"197","greyel","Greater Yellowlegs","Tringa melanoleuca","L6227462","Siesta Key--Beach Access 7","2025-07-01 07:59",1,27.2703128,-82.5628682,TRUE,FALSE,FALSE,"S255939200"
"198","greyel","Greater Yellowlegs","Tringa melanoleuca","L11523901","33 Northwood Rd, West Bath US-ME 43.87286, -69.85827","2025-07-01 07:58",1,43.872856,-69.858271,TRUE,FALSE,TRUE,"S255890017"
"199","greyel","Greater Yellowlegs","Tringa melanoleuca","L1333239","McDuffie PFA","2025-07-01 07:55",1,33.3841167,-82.41755,TRUE,FALSE,FALSE,"S255939573"
"200","greyel","Greater Yellowlegs","Tringa melanoleuca","L11045511","Girdwood Junction general area","2025-07-01 07:52",1,60.9407178,-149.1729013,TRUE,FALSE,FALSE,"S256033258"
"201","greyel","Greater Yellowlegs","Tringa melanoleuca","L937659","Kenai--Tarbox Wildlife Viewing Platform","2025-07-01 07:45",1,60.5420341,-151.2194681,TRUE,FALSE,FALSE,"S256103473"
"202","greyel","Greater Yellowlegs","Tringa melanoleuca","L10908867","Pea Island NWR--Visitor Center","2025-07-01 07:42",1,35.7166887,-75.4940924,TRUE,FALSE,FALSE,"S256000382"
"203","greyel","Greater Yellowlegs","Tringa melanoleuca","L1064269","Sportsmens Club Road (Cowlitz Co.)","2025-07-01 07:33",2,46.03891,-122.87399,TRUE,FALSE,FALSE,"S255914586"
"204","greyel","Greater Yellowlegs","Tringa melanoleuca","L718342","Brownsville Preserve","2025-07-01 07:30",1,37.4689,-75.8327,TRUE,FALSE,FALSE,"S256288315"
"205","greyel","Greater Yellowlegs","Tringa melanoleuca","L7248639","Hagerman National Wildlife Refuge, Sherman US-TX (33.7355,-96.7507)","2025-07-01 07:25",1,33.735497,-96.750726,TRUE,FALSE,TRUE,"S255995462"
"206","greyel","Greater Yellowlegs","Tringa melanoleuca","L165048","Farmington Bay WMA","2025-07-01 07:24",2,40.955141,-111.9191396,TRUE,FALSE,FALSE,"S255914679"
"207","greyel","Greater Yellowlegs","Tringa melanoleuca","L811205","Upper Santa Ana River--Glassell St. to Tustin Ave.","2025-07-01 07:23",12,33.8462532,-117.843411,TRUE,FALSE,FALSE,"S255939520"
"208","greyel","Greater Yellowlegs","Tringa melanoleuca","L3043951","Southeast Intracoastal Waterway Park","2025-07-01 07:22",5,29.7197911,-81.2347636,TRUE,FALSE,FALSE,"S255875362"
"209","greyel","Greater Yellowlegs","Tringa melanoleuca","L448084","Woodland WTP","2025-07-01 07:15",6,38.6624345,-121.7173585,TRUE,FALSE,FALSE,"S255977343"
"210","greyel","Greater Yellowlegs","Tringa melanoleuca","L34188023","Pea Island NWR--North Pond Wildlife Trail [NCBA Pea Island Oe W NE]","2025-07-01 07:10",6,35.712707,-75.5023833,TRUE,FALSE,TRUE,"S255894766"
"211","greyel","Greater Yellowlegs","Tringa melanoleuca","L2056359","South Waterfront","2025-07-01 07:10",1,45.4977745,-122.6678038,TRUE,FALSE,FALSE,"S256076386"
"212","greyel","Greater Yellowlegs","Tringa melanoleuca","L1555375","Pea Island NWR--Salt Flats Wildlife Trail","2025-07-01 07:06",1,35.7355509,-75.5053226,TRUE,FALSE,FALSE,"S256000353"
"213","greyel","Greater Yellowlegs","Tringa melanoleuca","L2898687","Muirhead Springs Forest Preserve","2025-07-01 07:05",2,42.0466113,-88.4521948,TRUE,TRUE,FALSE,"S256062846"
"214","greyel","Greater Yellowlegs","Tringa melanoleuca","L10139371","Trails End Park (Coburg Industrial Way Wetland)","2025-07-01 07:03",3,44.1489433,-123.0580246,TRUE,FALSE,FALSE,"S255941328"
"215","greyel","Greater Yellowlegs","Tringa melanoleuca","L16866205","Peters Marsh","2025-07-01 07:02",3,44.5886882,-88.015912,TRUE,FALSE,FALSE,"S255870057"
"216","greyel","Greater Yellowlegs","Tringa melanoleuca","L1283469","Grapevine Lake—Oak Grove Park—Sand Bass Dr.","2025-07-01 07:01",2,32.9647828,-97.073822,TRUE,FALSE,FALSE,"S255924145"
"217","greyel","Greater Yellowlegs","Tringa melanoleuca","L46636531","A-2 Reservoir","2025-07-01 07:00",1,26.470038,-80.697312,TRUE,FALSE,TRUE,"S256031972"
"218","greyel","Greater Yellowlegs","Tringa melanoleuca","L770751","Petaluma Marsh WA--Rush Creek Unit (accessed by Binford Rd or Pinheiro Fire Rd)","2025-07-01 06:57",2,38.1225723,-122.5628328,TRUE,FALSE,FALSE,"S255949407"
"219","greyel","Greater Yellowlegs","Tringa melanoleuca","L906006","Warm Springs WMA","2025-07-01 06:55",1,46.1907642,-112.7748299,TRUE,FALSE,FALSE,"S255890879"
"220","greyel","Greater Yellowlegs","Tringa melanoleuca","L46480902","Stella SE - 28582, Stella US-NC (34.7660,-77.1526)","2025-07-01 06:48",2,34.765963,-77.152637,TRUE,FALSE,TRUE,"S255958545"
"221","greyel","Greater Yellowlegs","Tringa melanoleuca","L7424978","Sammy's Beach","2025-07-01 06:46",1,41.0290844,-72.1875189,TRUE,FALSE,FALSE,"S255853954"
"222","greyel","Greater Yellowlegs","Tringa melanoleuca","L812292","San Diego Bay NWR--Sweetwater Marsh Unit / Living Coast Discovery Center (limited access)","2025-07-01 06:40",5,32.6391472,-117.113378,TRUE,FALSE,FALSE,"S256012656"
"223","greyel","Greater Yellowlegs","Tringa melanoleuca","L24208440","Alvadore Road, Junction City, Oregon, US (44.193, -123.242)","2025-07-01 06:40",7,44.1933048,-123.2419876,TRUE,FALSE,TRUE,"S256034233"
"224","greyel","Greater Yellowlegs","Tringa melanoleuca","L48514184","E Bay Mud Rd, Burson US-CA 38.20313, -120.92430","2025-07-01 06:33",2,38.203127,-120.924299,TRUE,FALSE,TRUE,"S255950616"
"225","greyel","Greater Yellowlegs","Tringa melanoleuca","L40437905","SW 67th Dr, Okeechobee US-FL (27.2359,-80.8961)","2025-07-01 06:15",4,27.23586,-80.896056,TRUE,FALSE,TRUE,"S255871894"
"226","greyel","Greater Yellowlegs","Tringa melanoleuca","L1821033","Anatolia Vernal Pool Preserve","2025-07-01 06:05",3,38.5366287,-121.2380278,TRUE,FALSE,FALSE,"S256098325"
"227","greyel","Greater Yellowlegs","Tringa melanoleuca","L129103","Galveston--8 Mile Rd./Sportsman Rd (UTC 066)","2025-07-01 06:04",1,29.2572178,-94.8949664,TRUE,FALSE,FALSE,"S255861161"
"228","greyel","Greater Yellowlegs","Tringa melanoleuca","L16865396","Lower Fourmile Trail","2025-07-01 06:04",1,43.0110766,-124.4479018,TRUE,FALSE,FALSE,"S255918546"
"229","greyel","Greater Yellowlegs","Tringa melanoleuca","L286004","Deer Island","2025-07-01 05:59",1,30.3847226,-88.8718414,TRUE,FALSE,FALSE,"S255983598"
"230","greyel","Greater Yellowlegs","Tringa melanoleuca","L578601","Doran Regional Park - entrance pond to jetty","2025-07-01 05:55",1,38.3146057,-123.0438066,TRUE,FALSE,FALSE,"S256301317"
"231","greyel","Greater Yellowlegs","Tringa melanoleuca","L481023","Los Angeles River--Willow St.","2025-07-01 05:50",1,33.8048977,-118.2059383,TRUE,FALSE,FALSE,"S256059298"
"232","greyel","Greater Yellowlegs","Tringa melanoleuca","L480138","Janes Island State Park","2025-07-01 05:43",1,38.0128338,-75.8459616,TRUE,FALSE,FALSE,"S255871968"
"233","greyel","Greater Yellowlegs","Tringa melanoleuca","L129129","Westchester Lagoon","2025-06-30 20:24",8,61.2070462,-149.9198785,TRUE,FALSE,FALSE,"S255798139"
"234","greyel","Greater Yellowlegs","Tringa melanoleuca","L247312","Freezout Lake WMA","2025-06-30 20:15",1,47.6657859,-112.0112392,TRUE,FALSE,FALSE,"S255795567"
"235","greyel","Greater Yellowlegs","Tringa melanoleuca","L48838327","Wildlife Drive, Cambridge, Maryland, US (38.442, -76.13)","2025-06-30 19:55",1,38.4416987,-76.1297472,TRUE,FALSE,TRUE,"S255755118"
"236","greyel","Greater Yellowlegs","Tringa melanoleuca","L1592822","Nehalem Bay SP--Boat Ramp","2025-06-30 19:50",1,45.68955,-123.93382,TRUE,FALSE,FALSE,"S255793756"
"237","greyel","Greater Yellowlegs","Tringa melanoleuca","L1576429","Malheur NWR--Sodhouse Ln.","2025-06-30 19:36",2,43.2699566,-118.8691263,TRUE,FALSE,FALSE,"S255785942"
"238","greyel","Greater Yellowlegs","Tringa melanoleuca","L19478011","Nelson Reservoir Campground","2025-06-30 19:02",1,48.4911538,-107.5309809,TRUE,FALSE,FALSE,"S255852683"
"239","greyel","Greater Yellowlegs","Tringa melanoleuca","L48843104","North end of Oregon St @ Neawanna Creek","2025-06-30 18:48",1,46.0132394,-123.9149056,TRUE,FALSE,TRUE,"S255778328"
"240","greyel","Greater Yellowlegs","Tringa melanoleuca","L9035928","Freezout Lake WMA--Pond 1","2025-06-30 18:44",1,47.7085989,-112.063156,TRUE,FALSE,FALSE,"S255794839"
"241","greyel","Greater Yellowlegs","Tringa melanoleuca","L466299","Quonochontaug Breachway","2025-06-30 18:06",1,41.3362,-71.722224,TRUE,FALSE,FALSE,"S255787038"
"242","greyel","Greater Yellowlegs","Tringa melanoleuca","L48956036","99611, Kenai US-AK 60.78453, -151.07753","2025-06-30 18:05",6,60.784526,-151.077531,TRUE,FALSE,TRUE,"S256297723"
"243","greyel","Greater Yellowlegs","Tringa melanoleuca","L1545636","Anchorage Coastal WR--Clitheroe flats","2025-06-30 18:02",1,61.178193,-150.0367842,TRUE,FALSE,FALSE,"S255786311"
"244","greyel","Greater Yellowlegs","Tringa melanoleuca","L248057","Pte. Mouillee SGA (permit required Sep 1-Dec 15)","2025-06-30 17:40",1,42.0146112,-83.2001495,TRUE,FALSE,FALSE,"S255753463"
"245","greyel","Greater Yellowlegs","Tringa melanoleuca","L109339","IRWD San Joaquin Marsh & Wildlife Sanctuary, Irvine","2025-06-30 17:40",2,33.6637274,-117.8426814,TRUE,FALSE,FALSE,"S255793071"
"246","greyel","Greater Yellowlegs","Tringa melanoleuca","L361774","Greenbush WTP","2025-06-30 17:35",3,48.7166768,-96.1772132,TRUE,FALSE,FALSE,"S255748903"
"247","greyel","Greater Yellowlegs","Tringa melanoleuca","L1539134","Eel Pond","2025-06-30 17:35",1,41.3972601,-70.5134244,TRUE,FALSE,TRUE,"S255724271"
"248","greyel","Greater Yellowlegs","Tringa melanoleuca","L48899242","Boulder Creek Trail","2025-06-30 17:30",1,61.8426196,-148.2207642,TRUE,FALSE,TRUE,"S256045692"
"249","greyel","Greater Yellowlegs","Tringa melanoleuca","L1303189","Fort Stevens SP--Parking Area D","2025-06-30 17:22",1,46.2265811,-123.9901543,TRUE,FALSE,FALSE,"S255766671"
"250","greyel","Greater Yellowlegs","Tringa melanoleuca","L35228793","Los Angeles River--Slauson Ave","2025-06-30 17:14",1,33.9867637,-118.1714193,TRUE,FALSE,TRUE,"S255765806"
"251","greyel","Greater Yellowlegs","Tringa melanoleuca","L887381","Fort Stevens SP--South Jetty/Parking Area C","2025-06-30 16:54",1,46.2286726,-124.0217721,TRUE,FALSE,FALSE,"S255759588"
"252","greyel","Greater Yellowlegs","Tringa melanoleuca","L802931","Elkhorn Slough--Estrada & North marsh and/or Kirby Park","2025-06-30 16:40",1,36.8404781,-121.7424688,TRUE,FALSE,FALSE,"S255758411"
"253","greyel","Greater Yellowlegs","Tringa melanoleuca","L11601168","122nd Street, Sisseton, South Dakota, US (45.616, -96.987)","2025-06-30 16:27",1,45.6162578,-96.9874059,TRUE,FALSE,TRUE,"S255793334"
"254","greyel","Greater Yellowlegs","Tringa melanoleuca","L23235597","Robin’s Balcony on Corte Madera Creek","2025-06-30 15:05",12,37.943071,-122.535375,TRUE,FALSE,TRUE,"S255734965"
"255","greyel","Greater Yellowlegs","Tringa melanoleuca","L2394283","Old Santee Canal Park","2025-06-30 14:42",1,33.1926591,-79.970727,TRUE,FALSE,FALSE,"S255710048"
"256","greyel","Greater Yellowlegs","Tringa melanoleuca","L357257","Roseau Sewage Lagoons","2025-06-30 14:10",20,48.869655,-95.7280397,TRUE,TRUE,FALSE,"S256292298"
"257","greyel","Greater Yellowlegs","Tringa melanoleuca","L48821807","Big Stone County Road 21, Ortonville, Minnesota, US (45.388, -96.303)","2025-06-30 13:28",6,45.3875346,-96.3029155,TRUE,FALSE,TRUE,"S255682156"
"258","greyel","Greater Yellowlegs","Tringa melanoleuca","L500360","Don Edwards NWR (ALA Co.)","2025-06-30 13:25",2,37.5316305,-122.0733619,TRUE,FALSE,FALSE,"S255751591"
"259","greyel","Greater Yellowlegs","Tringa melanoleuca","L582682","Merritt Island NWR--Bio Lab Rd.","2025-06-30 12:32",1,28.6799002,-80.6935447,TRUE,FALSE,FALSE,"S255681899"
"260","greyel","Greater Yellowlegs","Tringa melanoleuca","L25595995","Corte Madera Creek lower channel","2025-06-30 12:30",10,37.942986,-122.52418,TRUE,FALSE,TRUE,"S256004771"
"261","greyel","Greater Yellowlegs","Tringa melanoleuca","L716993","Chester Creek & Fish Creek Mouths (Audubon Bench & Fish Creek Bench)","2025-06-30 12:11",3,61.2075708,-149.9289732,TRUE,FALSE,FALSE,"S255724333"
"262","greyel","Greater Yellowlegs","Tringa melanoleuca","L523265","Ship Creek--Ship Creek Mouth & Small Boat Launch Rd.","2025-06-30 12:03",1,61.2250765,-149.9045473,TRUE,FALSE,FALSE,"S255724906"
"263","greyel","Greater Yellowlegs","Tringa melanoleuca","L6346442","458th bet 118 & 117","2025-06-30 11:57",1,45.6797174,-97.0406875,TRUE,FALSE,TRUE,"S255793036"
"264","greyel","Greater Yellowlegs","Tringa melanoleuca","L1174183","Brush Lake SP","2025-06-30 11:45",1,48.599771,-104.1085052,TRUE,FALSE,FALSE,"S256342219"
"265","greyel","Greater Yellowlegs","Tringa melanoleuca","L608435","Chautauqua NWR--Eagle Bluff","2025-06-30 11:40",1,40.3747335,-89.9800786,TRUE,FALSE,FALSE,"S255668480"
"266","greyel","Greater Yellowlegs","Tringa melanoleuca","L164961","Bear River MBR--Auto Tour Loop","2025-06-30 11:37",9,41.4692291,-112.2947788,TRUE,FALSE,FALSE,"S255712634"
"267","greyel","Greater Yellowlegs","Tringa melanoleuca","L471074","Swallows Park","2025-06-30 10:59",1,46.3902208,-117.0463657,TRUE,FALSE,FALSE,"S255685496"
"268","greyel","Greater Yellowlegs","Tringa melanoleuca","L597658","Malibu Lagoon--State Beach including Lagoon","2025-06-30 10:44",1,34.0333857,-118.6822987,TRUE,FALSE,FALSE,"S255903032"
"269","greyel","Greater Yellowlegs","Tringa melanoleuca","L247318","Benton Lake NWR","2025-06-30 10:34",1,47.6641904,-111.3007221,TRUE,FALSE,FALSE,"S255699576"
"270","greyel","Greater Yellowlegs","Tringa melanoleuca","L5988412","Fern Ridge WMA--Royal Unit (Royal footpath and north of Royal)","2025-06-30 10:00",7,44.0725631,-123.2544565,TRUE,FALSE,FALSE,"S255651956"
"271","greyel","Greater Yellowlegs","Tringa melanoleuca","L827977","Bayfront Park (J St.)","2025-06-30 09:51",4,32.6186091,-117.1033868,TRUE,FALSE,FALSE,"S255725536"
"272","greyel","Greater Yellowlegs","Tringa melanoleuca","L168559","Provo Airport Dike","2025-06-30 09:50",1,40.2186598,-111.7285157,TRUE,TRUE,FALSE,"S255720974"
"273","greyel","Greater Yellowlegs","Tringa melanoleuca","L11333070","Edward S. Brinkley Nature Preserve","2025-06-30 09:47",1,37.3023409,-75.93155,TRUE,FALSE,FALSE,"S255632424"
"274","greyel","Greater Yellowlegs","Tringa melanoleuca","L723695","Lido Beach Passive Nature Area","2025-06-30 09:25",1,40.5923663,-73.5957384,TRUE,FALSE,FALSE,"S255596312"
"275","greyel","Greater Yellowlegs","Tringa melanoleuca","L126638","Little Creek WA--Mahon Impoundment","2025-06-30 09:23",1,39.167,-75.425,TRUE,FALSE,FALSE,"S255768629"
"276","greyel","Greater Yellowlegs","Tringa melanoleuca","L1067145","Kasilof--Kasilof River Mouth","2025-06-30 09:21",20,60.3859137,-151.302166,TRUE,FALSE,FALSE,"S255672611"
"277","greyel","Greater Yellowlegs","Tringa melanoleuca","L1096412","Tule Lake NWR--Hill Rd. and Sump 1A","2025-06-30 09:16",8,41.9060588,-121.5654287,TRUE,FALSE,FALSE,"S255703285"
"278","greyel","Greater Yellowlegs","Tringa melanoleuca","L230620","Big Talbot Island SP","2025-06-30 09:15",2,30.5017447,-81.4517114,TRUE,FALSE,FALSE,"S255688468"
"279","greyel","Greater Yellowlegs","Tringa melanoleuca","L598882","Edwin B. Forsythe NWR--Gull Pond","2025-06-30 08:50",1,39.46952,-74.4455696,TRUE,FALSE,FALSE,"S255579384"
"280","greyel","Greater Yellowlegs","Tringa melanoleuca","L2367527","Scituate - Old St. Mary's Cemetery","2025-06-30 08:49",1,42.1894189,-70.7313967,TRUE,FALSE,TRUE,"S255571876"
"281","greyel","Greater Yellowlegs","Tringa melanoleuca","L282253","Billy Frank Jr. Nisqually NWR","2025-06-30 08:49",1,47.0812514,-122.7180576,TRUE,FALSE,FALSE,"S255657109"
"282","greyel","Greater Yellowlegs","Tringa melanoleuca","L1366655","Pine Knoll Shores Aquarium","2025-06-30 08:41",2,34.7003467,-76.8294842,TRUE,FALSE,FALSE,"S255572321"
"283","greyel","Greater Yellowlegs","Tringa melanoleuca","L1615074","Winsegansett Ave. Marsh","2025-06-30 08:35",1,41.5976441,-70.8622672,TRUE,FALSE,FALSE,"S255585925"
"284","greyel","Greater Yellowlegs","Tringa melanoleuca","L911700","Burrage Pond WMA","2025-06-30 08:32",1,42.0212167,-70.8722806,TRUE,FALSE,FALSE,"S255596039"
"285","greyel","Greater Yellowlegs","Tringa melanoleuca","L257970","Tokeland","2025-06-30 08:07",29,46.70642,-123.97198,TRUE,TRUE,FALSE,"S255650927"
"286","greyel","Greater Yellowlegs","Tringa melanoleuca","L265438","Three Crabs","2025-06-30 08:00",2,48.151945,-123.1222855,TRUE,FALSE,FALSE,"S255766305"
"287","greyel","Greater Yellowlegs","Tringa melanoleuca","L32534805","Central Beach","2025-06-30 07:55",2,58.393319,-135.74582,TRUE,FALSE,TRUE,"S256057668"
"288","greyel","Greater Yellowlegs","Tringa melanoleuca","L225431","Hayward Regional Shoreline","2025-06-30 07:50",2,37.6419316,-122.1517012,TRUE,FALSE,FALSE,"S255793796"
"289","greyel","Greater Yellowlegs","Tringa melanoleuca","L257976","Tokeland -- Graveyard Spit/Fisher Ave","2025-06-30 07:32",24,46.7079709,-123.9877832,TRUE,TRUE,FALSE,"S255613190"
"290","greyel","Greater Yellowlegs","Tringa melanoleuca","L48794537","Glen lakes ponds","2025-06-30 07:29",1,28.564499,-82.577647,TRUE,FALSE,TRUE,"S255557914"
"291","greyel","Greater Yellowlegs","Tringa melanoleuca","L27731494","Back deck","2025-06-30 07:25",1,34.693005,-76.869175,TRUE,FALSE,TRUE,"S255566733"
"292","greyel","Greater Yellowlegs","Tringa melanoleuca","L1743855","Lake Elsinore--south levee and back basin","2025-06-30 07:25",1,33.6427729,-117.3317176,TRUE,FALSE,FALSE,"S255785276"
"293","greyel","Greater Yellowlegs","Tringa melanoleuca","L216132","Coyote Hills Regional Park","2025-06-30 07:10",1,37.553764,-122.0875025,TRUE,FALSE,FALSE,"S255669199"
"294","greyel","Greater Yellowlegs","Tringa melanoleuca","L216924","Kenai River Flats","2025-06-30 06:58",4,60.5341504,-151.2264633,TRUE,FALSE,FALSE,"S255642695"
"295","greyel","Greater Yellowlegs","Tringa melanoleuca","L592967","Ridgefield NWR--River 'S' Unit","2025-06-30 06:53",1,45.7990694,-122.7490082,TRUE,FALSE,FALSE,"S255899119"
"296","greyel","Greater Yellowlegs","Tringa melanoleuca","L18079042","Area 7 & 8  NO Public Access Flume Road, Fort Pierce, Florida, US (27.397, -80.517)","2025-06-30 06:46",4,27.396823,-80.5170375,TRUE,FALSE,TRUE,"S255822062"
"297","greyel","Greater Yellowlegs","Tringa melanoleuca","L573594","Tulare WTP","2025-06-30 06:44",3,36.1807372,-119.3752957,TRUE,FALSE,FALSE,"S255625883"
"298","greyel","Greater Yellowlegs","Tringa melanoleuca","L590812","Napa-Sonoma Marshes WA--Huichica Creek Unit","2025-06-30 06:30",30,38.2076388,-122.3329353,TRUE,FALSE,FALSE,"S255663750"
"299","greyel","Greater Yellowlegs","Tringa melanoleuca","L290333","Arthur Pack Regional Park","2025-06-30 06:30",1,32.3733753,-111.0535231,TRUE,FALSE,FALSE,"S255630808"
"300","greyel","Greater Yellowlegs","Tringa melanoleuca","L799912","St. Marks NWR--Mounds Pool No. 1","2025-06-30 06:30",7,30.1161297,-84.1484606,TRUE,FALSE,FALSE,"S255771009"
"301","greyel","Greater Yellowlegs","Tringa melanoleuca","L913804","Nantucket--Jackson Point","2025-06-30 06:30",1,41.2747344,-70.2025938,TRUE,FALSE,FALSE,"S255544084"
"302","greyel","Greater Yellowlegs","Tringa melanoleuca","L27042019","Old Wharf Road micro-marsh","2025-06-30 06:25",1,41.7014267,-69.9514509,TRUE,FALSE,TRUE,"S255901686"
"303","greyel","Greater Yellowlegs","Tringa melanoleuca","L48925059","Lucas Creek, Bloxom US-VA 37.78729, -75.54132","2025-06-30 06:17",1,37.787286,-75.541316,TRUE,FALSE,TRUE,"S256162107"
"304","greyel","Greater Yellowlegs","Tringa melanoleuca","L10989938","Keyhole SP--Brandenburg Loop, Beach CG, and Coulter Bay CG","2025-06-30 05:49",1,44.3698629,-104.7956075,TRUE,FALSE,FALSE,"S255575039"
"305","greyel","Greater Yellowlegs","Tringa melanoleuca","L367627","Salton Sea--Young Rd. (west end)","2025-06-30 05:37",1,33.1330196,-115.6666589,TRUE,FALSE,FALSE,"S255788649"
"306","greyel","Greater Yellowlegs","Tringa melanoleuca","L19049755","Sitka, Alaska, US (57.011, -135.612)","2025-06-30",2,57.0111937,-135.6119799,TRUE,FALSE,TRUE,"S255802868"
"307","greyel","Greater Yellowlegs","Tringa melanoleuca","L9523564","Horsehead Lake--Northwest","2025-06-29 20:20",2,47.0824103,-99.8193113,TRUE,FALSE,FALSE,"S255478502"
"308","greyel","Greater Yellowlegs","Tringa melanoleuca","L593834","Miller/Knox Regional Shoreline","2025-06-29 19:21",1,37.9162036,-122.3865795,TRUE,FALSE,FALSE,"S255470398"
"309","greyel","Greater Yellowlegs","Tringa melanoleuca","L29947737","16 East Creek Road, Nantucket, Massachusetts, US (41.275, -70.09)","2025-06-29 19:15",1,41.274706,-70.0899058,TRUE,FALSE,TRUE,"S255442787"
"310","greyel","Greater Yellowlegs","Tringa melanoleuca","L25727529","Thayer’s Domain (Private)","2025-06-29 18:25",1,40.78819,-124.128352,TRUE,FALSE,TRUE,"S255580440"
"311","greyel","Greater Yellowlegs","Tringa melanoleuca","L351847","Mono Lake--Rush Creek Delta","2025-06-29 17:37",1,37.9555351,-119.0526772,TRUE,FALSE,FALSE,"S255461857"
"312","greyel","Greater Yellowlegs","Tringa melanoleuca","L805361","New River Inlet","2025-06-29 17:35",1,34.529576,-77.3440719,TRUE,FALSE,FALSE,"S255475906"
"313","greyel","Greater Yellowlegs","Tringa melanoleuca","L8647598","Swan Pond","2025-06-29 17:22",1,40.9080933,-72.7177914,TRUE,FALSE,TRUE,"S255404769"
"314","greyel","Greater Yellowlegs","Tringa melanoleuca","L32716074","Lawton Drive Extension Kenai, Alaska, US","2025-06-29 17:14",2,60.5601139,-151.1729153,TRUE,FALSE,TRUE,"S255468219"
"315","greyel","Greater Yellowlegs","Tringa melanoleuca","L2454360","Smith Point","2025-06-29 16:57",1,41.2748511,-70.2156186,TRUE,FALSE,FALSE,"S255470260"
"316","greyel","Greater Yellowlegs","Tringa melanoleuca","L11580102","Colfax Trail","2025-06-29 16:05",1,46.893047,-117.3905468,TRUE,FALSE,FALSE,"S255447750"
"317","greyel","Greater Yellowlegs","Tringa melanoleuca","L6206084","Onondaga Lake Park--Marshy Spits Area","2025-06-29 15:45",2,43.065508,-76.192503,TRUE,FALSE,FALSE,"S255870304"
"318","greyel","Greater Yellowlegs","Tringa melanoleuca","L47267130","Bear River ADFG Camp","2025-06-29 15:34",19,56.038488,-160.270499,TRUE,FALSE,TRUE,"S255452383"
"319","greyel","Greater Yellowlegs","Tringa melanoleuca","L2182908","North Ottawa Impoundment","2025-06-29 15:20",1,45.9856315,-96.2471008,TRUE,FALSE,FALSE,"S255447574"
"320","greyel","Greater Yellowlegs","Tringa melanoleuca","L140453","Lake Ogallala","2025-06-29 15:08",2,41.2150002,-101.6624985,TRUE,FALSE,FALSE,"S255417221"
"321","greyel","Greater Yellowlegs","Tringa melanoleuca","L48763848","27755–27799 379th Ave, Corsica US-SD 43.37232, -98.60469","2025-06-29 14:55",2,43.37232,-98.604693,TRUE,FALSE,TRUE,"S255409697"
"322","greyel","Greater Yellowlegs","Tringa melanoleuca","L7596233","Ohmer Creek Trail","2025-06-29 14:46",1,56.5843523,-132.7524161,TRUE,FALSE,TRUE,"S255491690"
"323","greyel","Greater Yellowlegs","Tringa melanoleuca","L48765972","Least Tern stakeout, west side of pond 6 - 97402, Eugene US-OR (44.0668,-123.2749)","2025-06-29 14:36",21,44.066803,-123.274897,TRUE,FALSE,TRUE,"S255419149"
"324","greyel","Greater Yellowlegs","Tringa melanoleuca","L2381795","Big Wall Lake WMA","2025-06-29 14:35",1,42.6206631,-93.6471176,TRUE,TRUE,FALSE,"S255367911"
"325","greyel","Greater Yellowlegs","Tringa melanoleuca","L48764168","27728–27798 383rd Ave, Corsica US-SD 43.36541, -98.51986","2025-06-29 14:08",3,43.365414,-98.519863,TRUE,FALSE,TRUE,"S255410907"
"326","greyel","Greater Yellowlegs","Tringa melanoleuca","L1430602","Duck Lake","2025-06-29 14:05",1,48.8689625,-113.3358366,TRUE,FALSE,FALSE,"S255490258"
"327","greyel","Greater Yellowlegs","Tringa melanoleuca","L1287042","James Kipp Recreation Area","2025-06-29 13:58",1,47.6269917,-108.6932373,TRUE,FALSE,FALSE,"S255480872"
"328","greyel","Greater Yellowlegs","Tringa melanoleuca","L128553","Chugach NF--Tern Lake","2025-06-29 13:50",1,60.5340384,-149.5476663,TRUE,FALSE,FALSE,"S255988819"
"329","greyel","Greater Yellowlegs","Tringa melanoleuca","L5654189","Split Pond N of Browning","2025-06-29 13:34",1,48.5874782,-113.0154803,TRUE,FALSE,FALSE,"S255490419"
"330","greyel","Greater Yellowlegs","Tringa melanoleuca","L48742958","Sedgefield Blvd, Palmetto US-FL 27.63231, -82.48611","2025-06-29 13:32",1,27.632311,-82.486114,TRUE,FALSE,TRUE,"S255327082"
"331","greyel","Greater Yellowlegs","Tringa melanoleuca","L294962","Montezuma (NMWMA)--Railroad Rd. Marshes","2025-06-29 13:30",1,43.0572241,-76.7246532,TRUE,FALSE,FALSE,"S256266137"
"332","greyel","Greater Yellowlegs","Tringa melanoleuca","L48760915","AK-10, Gakona US-AK 60.43611, -145.21455","2025-06-29 13:08",2,60.436105,-145.214545,TRUE,FALSE,TRUE,"S255397906"
"333","greyel","Greater Yellowlegs","Tringa melanoleuca","L6206350","Parker River NWR--Stage Island Trail","2025-06-29 12:48",2,42.7095765,-70.7840538,TRUE,FALSE,FALSE,"S255336917"
"334","greyel","Greater Yellowlegs","Tringa melanoleuca","L22666134","Denali Hwy.--mm 126.5 Lake","2025-06-29 12:28",1,63.3946929,-148.6707815,TRUE,FALSE,FALSE,"S255408850"
"335","greyel","Greater Yellowlegs","Tringa melanoleuca","L502380","Heron's Head Park","2025-06-29 12:28",1,37.7381243,-122.3725462,TRUE,FALSE,FALSE,"S255385459"
"336","greyel","Greater Yellowlegs","Tringa melanoleuca","L444581","Sitka National Historical Park","2025-06-29 12:13",2,57.0476401,-135.3161573,TRUE,FALSE,FALSE,"S255473626"
"337","greyel","Greater Yellowlegs","Tringa melanoleuca","L558225","Ted Stevens Anchorage International Airport","2025-06-29 12:03",2,61.1779708,-149.9919702,TRUE,FALSE,FALSE,"S255386965"
"338","greyel","Greater Yellowlegs","Tringa melanoleuca","L478286","Carr Slough","2025-06-29 11:47",1,46.0432718,-122.8927231,TRUE,FALSE,FALSE,"S255451179"
"339","greyel","Greater Yellowlegs","Tringa melanoleuca","L48755915","FL, Big Talbot Is. SP, Spoonbill Pond","2025-06-29 11:30",2,30.5099427,-81.4580245,TRUE,FALSE,TRUE,"S255378771"
"340","greyel","Greater Yellowlegs","Tringa melanoleuca","L267398","Shiawassee NWR--Wildlife Drive","2025-06-29 11:02",1,43.3596344,-84.0304756,TRUE,FALSE,FALSE,"S255301767"
"341","greyel","Greater Yellowlegs","Tringa melanoleuca","L1125706","Big Talbot Island SP--Spoonbill Pond (includes parking & boat ramp)","2025-06-29 11:00",3,30.5101704,-81.4585671,TRUE,FALSE,FALSE,"S255278016"
"342","greyel","Greater Yellowlegs","Tringa melanoleuca","L696431","Hampton-Seabrook Marsh--Rt. 1, Taylor River, Hampton","2025-06-29 10:55",1,42.9255716,-70.8500576,TRUE,FALSE,FALSE,"S255295070"
"343","greyel","Greater Yellowlegs","Tringa melanoleuca","L23488695","Kilohana dock","2025-06-29 10:45",1,37.504856,-122.217093,TRUE,FALSE,TRUE,"S255407202"
"344","greyel","Greater Yellowlegs","Tringa melanoleuca","L271298","Shiawassee NWR--Ferguson Bayou Trail","2025-06-29 10:41",1,43.3391937,-84.0257978,TRUE,FALSE,FALSE,"S255323603"
"345","greyel","Greater Yellowlegs","Tringa melanoleuca","L129047","Parker River NWR--Hellcat Dike","2025-06-29 10:39",5,42.7408429,-70.796873,TRUE,FALSE,FALSE,"S255272831"
"346","greyel","Greater Yellowlegs","Tringa melanoleuca","L23360888","Shiawassee National Wildlife Refuge South of Parking Lot","2025-06-29 10:37",1,43.3248469,-84.033113,TRUE,FALSE,TRUE,"S255319338"
"347","greyel","Greater Yellowlegs","Tringa melanoleuca","L1130056","Kodiak Is.--Kalsin Pond and Olds River Estuary","2025-06-29 10:37",13,57.584638,-152.4485207,TRUE,TRUE,FALSE,"S255492475"
"348","greyel","Greater Yellowlegs","Tringa melanoleuca","L1230391","Katmai NP--Brooks Lodge","2025-06-29 10:31",1,58.5527623,-155.7810688,TRUE,FALSE,FALSE,"S255453922"
"349","greyel","Greater Yellowlegs","Tringa melanoleuca","L785019","Valley Ford Wetlands - Sonoma County","2025-06-29 10:30",1,38.3115919,-122.9340076,TRUE,FALSE,FALSE,"S255421249"
"350","greyel","Greater Yellowlegs","Tringa melanoleuca","L17284095","Cedar Key","2025-06-29 10:12",1,29.139425,-83.034957,TRUE,FALSE,TRUE,"S255286216"
"351","greyel","Greater Yellowlegs","Tringa melanoleuca","L860341","Madera Equalization Reservoir (no public access)","2025-06-29 09:53",2,37.0647662,-119.9343109,TRUE,FALSE,TRUE,"S255388077"
"352","greyel","Greater Yellowlegs","Tringa melanoleuca","L44514160","99652, Big Lake US-AK 61.81799, -150.36179","2025-06-29 09:49",1,61.817992,-150.361789,TRUE,FALSE,TRUE,"S255353487"
"353","greyel","Greater Yellowlegs","Tringa melanoleuca","L109145","Jamaica Bay Wildlife Refuge--West Pond","2025-06-29 09:44",1,40.6188482,-73.8307995,TRUE,FALSE,FALSE,"S255680500"
"354","greyel","Greater Yellowlegs","Tringa melanoleuca","L989047","South Richmond Marshes (Stege, Hoffman) and Meeker Slough","2025-06-29 09:28",1,37.9090901,-122.3329122,TRUE,FALSE,FALSE,"S255335414"
"355","greyel","Greater Yellowlegs","Tringa melanoleuca","L232479","Juanita Bay Park","2025-06-29 09:27",1,47.6981686,-122.2101878,TRUE,FALSE,FALSE,"S255372087"
"356","greyel","Greater Yellowlegs","Tringa melanoleuca","L42962486","15869 Alabama 193, Coden, Alabama, US (30.349, -88.122)","2025-06-29 09:22",20,30.3489681,-88.1220024,TRUE,TRUE,TRUE,"S255247098"
"357","greyel","Greater Yellowlegs","Tringa melanoleuca","L48755702","CR 1500 x CR 1500 Playa","2025-06-29 09:18",1,33.7418775,-101.9932836,TRUE,FALSE,TRUE,"S255377123"
"358","greyel","Greater Yellowlegs","Tringa melanoleuca","L506275","San Diego River mudflats (including Robb Field & north side)","2025-06-29 08:58",1,32.7568803,-117.2401432,TRUE,FALSE,FALSE,"S255305943"
"359","greyel","Greater Yellowlegs","Tringa melanoleuca","L1360026","*Heron Crossing Farm","2025-06-29 08:57",1,46.8684256,-114.0812491,TRUE,FALSE,TRUE,"S255345307"
"360","greyel","Greater Yellowlegs","Tringa melanoleuca","L246782","Montezuma NWR (general area)","2025-06-29 08:53",4,42.9833651,-76.7562389,TRUE,FALSE,FALSE,"S255460292"
"361","greyel","Greater Yellowlegs","Tringa melanoleuca","L48732504","2710 Carlsbad Blvd, Carlsbad US-CA 33.16090, -117.35303","2025-06-29 08:52",1,33.160905,-117.353034,TRUE,FALSE,TRUE,"S255285357"
"362","greyel","Greater Yellowlegs","Tringa melanoleuca","L48756646","Sterling Hwy, Cooper Landing US-AK 60.52538, -150.55739","2025-06-29 08:52",1,60.525379,-150.557388,TRUE,FALSE,TRUE,"S255380868"
"363","greyel","Greater Yellowlegs","Tringa melanoleuca","L4979470","Long Wharf Landing","2025-06-29 08:50",1,42.6413779,-70.6944841,TRUE,FALSE,FALSE,"S255207923"
"364","greyel","Greater Yellowlegs","Tringa melanoleuca","L3543611","Fernhill Wetlands--Natural Treatment System (ASoP/CWS survey)","2025-06-29 08:48",1,45.507174,-123.0879879,TRUE,FALSE,FALSE,"S255361213"
"365","greyel","Greater Yellowlegs","Tringa melanoleuca","L1151034","Bayfront Park (Alabama Port, AL)","2025-06-29 08:47",9,30.3570641,-88.1168318,TRUE,TRUE,FALSE,"S255235299"
"366","greyel","Greater Yellowlegs","Tringa melanoleuca","L48728281","16701–16839 Dauphin Island Pkwy, Coden US-AL 30.34251, -88.12571","2025-06-29 08:46",12,30.342509,-88.125707,TRUE,TRUE,TRUE,"S255268367"
"367","greyel","Greater Yellowlegs","Tringa melanoleuca","L1206814","Anchor Point--Anchor River Mouth","2025-06-29 08:41",19,59.7918257,-151.857233,TRUE,FALSE,FALSE,"S255408024"
"368","greyel","Greater Yellowlegs","Tringa melanoleuca","L197073","Stone Harbor Point","2025-06-29 08:37",6,39.0317999,-74.7723111,TRUE,FALSE,FALSE,"S255229374"
"369","greyel","Greater Yellowlegs","Tringa melanoleuca","L159273","Tony Knowles Coastal Trail--Chester Creek to Ship Creek","2025-06-29 08:35",15,61.2155506,-149.9119878,TRUE,FALSE,FALSE,"S255357330"
"370","greyel","Greater Yellowlegs","Tringa melanoleuca","L354451","Angwin Airport pond","2025-06-29 08:16",2,38.5800475,-122.4334302,TRUE,FALSE,FALSE,"S255410374"
"371","greyel","Greater Yellowlegs","Tringa melanoleuca","L4856056","Belle Isle Marsh Reservation--The Key Wildlife Observation Area","2025-06-29 08:14",2,42.3897569,-70.9848479,TRUE,FALSE,FALSE,"S255222463"
"372","greyel","Greater Yellowlegs","Tringa melanoleuca","L599123","Belle Isle Cemetery and Winthrop Compost Dump","2025-06-29 08:00",2,42.3872684,-70.9835243,TRUE,FALSE,FALSE,"S255360255"
"373","greyel","Greater Yellowlegs","Tringa melanoleuca","L1289808","Winthrop Greenway","2025-06-29 08:00",2,42.3892236,-70.9816253,TRUE,FALSE,FALSE,"S255291075"
"374","greyel","Greater Yellowlegs","Tringa melanoleuca","L810505","Water Street Marsh, Yarmouth","2025-06-29 07:59",6,41.7107104,-70.2602398,TRUE,FALSE,FALSE,"S255199652"
"375","greyel","Greater Yellowlegs","Tringa melanoleuca","L1156220","Thousand Acre Marsh","2025-06-29 07:56",2,39.5470076,-75.5847359,TRUE,FALSE,FALSE,"S255436475"
"376","greyel","Greater Yellowlegs","Tringa melanoleuca","L11510059","Spot Road Farm","2025-06-29 07:48",1,32.7969853,-113.352323,TRUE,FALSE,FALSE,"S255420210"
"377","greyel","Greater Yellowlegs","Tringa melanoleuca","L2837420","Hamilton Wetlands","2025-06-29 07:48",1,38.0578151,-122.5078261,TRUE,FALSE,FALSE,"S255373725"
"378","greyel","Greater Yellowlegs","Tringa melanoleuca","L48885684","Davis SE: Bean Island US-NC (34.7703,-76.4122)","2025-06-29 07:45",2,34.770314,-76.412184,TRUE,FALSE,TRUE,"S255982431"
"379","greyel","Greater Yellowlegs","Tringa melanoleuca","L3435308","Bombay Hook NWR","2025-06-29 07:45",NA,39.2647682,-75.4651093,TRUE,FALSE,TRUE,"S255354870"
"380","greyel","Greater Yellowlegs","Tringa melanoleuca","L298649","Lake Apopka Wildlife Drive","2025-06-29 07:44",1,28.6691945,-81.5598149,TRUE,FALSE,FALSE,"S255338192"
"381","greyel","Greater Yellowlegs","Tringa melanoleuca","L575549","Rumney Marsh--South","2025-06-29 07:44",1,42.4231186,-70.9966307,TRUE,FALSE,FALSE,"S255187551"
"382","greyel","Greater Yellowlegs","Tringa melanoleuca","L48741268","Sedgefield Boulevard, Palmetto, Florida, US (27.633, -82.484)","2025-06-29 07:44",2,27.6334166,-82.4842967,TRUE,FALSE,TRUE,"S255320683"
"383","greyel","Greater Yellowlegs","Tringa melanoleuca","L46248381","S US Highway 85 (Private Property)Newcastle US-WY","2025-06-29 07:35",1,43.740436,-104.187768,TRUE,FALSE,TRUE,"S255409157"
"384","greyel","Greater Yellowlegs","Tringa melanoleuca","L33521101","0.2 miles up Eaglecrest Rd from N. Douglas Highway","2025-06-29 07:30",1,58.3300174,-134.559262,TRUE,FALSE,TRUE,"S255290378"
"385","greyel","Greater Yellowlegs","Tringa melanoleuca","L48706982","Parker River National Wildlife Refuge, Newbury US-MA 42.77619, -70.80702","2025-06-29 07:23",1,42.776189,-70.807023,TRUE,FALSE,TRUE,"S255162532"
"386","greyel","Greater Yellowlegs","Tringa melanoleuca","L21829360","Bolsa Chica Ecological Reserve, Huntington Beach US-CA 33.69578, -118.04614","2025-06-29 07:11",1,33.695783,-118.046137,TRUE,FALSE,TRUE,"S255292576"
"387","greyel","Greater Yellowlegs","Tringa melanoleuca","L3807444","Baskett Slough NWR--Parvipes Marsh","2025-06-29 07:07",1,44.968191,-123.2679212,TRUE,FALSE,FALSE,"S255312735"
"388","greyel","Greater Yellowlegs","Tringa melanoleuca","L198798","Shollenberger Park","2025-06-29 07:05",1,38.2262552,-122.5976274,TRUE,FALSE,FALSE,"S256301621"
"389","greyel","Greater Yellowlegs","Tringa melanoleuca","L268126","River Lane","2025-06-29 06:52",2,40.1662735,-111.737139,TRUE,TRUE,FALSE,"S255295538"
"390","greyel","Greater Yellowlegs","Tringa melanoleuca","L274946","Bitter Lake NWR","2025-06-29 06:37",5,33.4512089,-104.3998146,TRUE,FALSE,FALSE,"S255234429"
"391","greyel","Greater Yellowlegs","Tringa melanoleuca","L598880","Edwin B. Forsythe NWR--Southwest Pool","2025-06-29 06:29",1,39.4621738,-74.4368362,TRUE,FALSE,FALSE,"S255204592"
"392","greyel","Greater Yellowlegs","Tringa melanoleuca","L29227681","Orlando Apopka Airport Industrial Area","2025-06-29 06:21",4,28.7067118,-81.5827368,TRUE,FALSE,TRUE,"S255338362"
"393","greyel","Greater Yellowlegs","Tringa melanoleuca","L552710","Powder Point Bridge","2025-06-29 06:08",1,42.047986,-70.648613,TRUE,FALSE,FALSE,"S255147672"
"394","greyel","Greater Yellowlegs","Tringa melanoleuca","L9612611","Wertheim NWR--Lower Carman's River","2025-06-29 05:59",2,40.7666335,-72.8914734,TRUE,FALSE,FALSE,"S255267132"
"395","greyel","Greater Yellowlegs","Tringa melanoleuca","L8926707","Legacy Nature Preserve(restricted access)","2025-06-29 05:58",1,40.8621604,-111.9529441,TRUE,FALSE,TRUE,"S255255225"
"396","greyel","Greater Yellowlegs","Tringa melanoleuca","L140473","Cherry Creek SP","2025-06-29 05:55",1,39.6402646,-104.8538589,TRUE,TRUE,FALSE,"S255252529"
"397","greyel","Greater Yellowlegs","Tringa melanoleuca","L109147","Jones Beach SP--West End","2025-06-29 05:00",1,40.5835871,-73.5514346,TRUE,FALSE,FALSE,"S254998602"
"398","greyel","Greater Yellowlegs","Tringa melanoleuca","L1489522","Due Process (Private Property)","2025-06-29 04:24",1,40.299969,-74.109316,TRUE,FALSE,TRUE,"S255756805"
"399","greyel","Greater Yellowlegs","Tringa melanoleuca","L858466","Parker River NWR--Visitor Center","2025-06-28 21:54",1,42.7987361,-70.8493688,TRUE,FALSE,FALSE,"S255595139"
"400","greyel","Greater Yellowlegs","Tringa melanoleuca","L48466024","Iliamna Lake Lodge","2025-06-28 21:43",1,59.753397,-154.827289,TRUE,FALSE,TRUE,"S255482500"
"401","greyel","Greater Yellowlegs","Tringa melanoleuca","L27684316","Seldon Road, Wasilla, Alaska, US (61.616, -149.542)","2025-06-28 21:00",1,61.6161014,-149.5418888,TRUE,FALSE,TRUE,"S255081607"
"402","greyel","Greater Yellowlegs","Tringa melanoleuca","L2725332","Beluga--Threemile Creek Mouth","2025-06-28 19:34",25,61.1428624,-151.0732877,TRUE,FALSE,FALSE,"S255082493"
"403","greyel","Greater Yellowlegs","Tringa melanoleuca","L48706281","377 Ave (45.76, -98.601)","2025-06-28 19:23",1,45.7599986,-98.6009844,TRUE,FALSE,TRUE,"S255158889"
"404","greyel","Greater Yellowlegs","Tringa melanoleuca","L586881","Seward--Airport Mudflats","2025-06-28 18:47",2,60.1253055,-149.4220018,TRUE,FALSE,FALSE,"S255065763"
"405","greyel","Greater Yellowlegs","Tringa melanoleuca","L966521","Lawen Marshes","2025-06-28 18:20",2,43.40224,-118.84859,TRUE,FALSE,FALSE,"S255090553"
"406","greyel","Greater Yellowlegs","Tringa melanoleuca","L48669076","mudflat north of Jemison's","2025-06-28 18:15",2,30.3431834,-88.1254677,TRUE,FALSE,TRUE,"S255041568"
"407","greyel","Greater Yellowlegs","Tringa melanoleuca","L48670358","Mulberry Point Beach","2025-06-28 17:41",1,41.256526,-72.681058,TRUE,FALSE,TRUE,"S254999347"
"408","greyel","Greater Yellowlegs","Tringa melanoleuca","L48676450","Plover Pond, Wimbledon US-ND (47.2580,-98.4456)","2025-06-28 17:35",3,47.257973,-98.445565,TRUE,FALSE,TRUE,"S255023931"
"409","greyel","Greater Yellowlegs","Tringa melanoleuca","L2820019","Hookton Yard","2025-06-28 17:33",1,40.679351,-124.229816,TRUE,FALSE,TRUE,"S255288090"
"410","greyel","Greater Yellowlegs","Tringa melanoleuca","L30435560","Kearney Lake","2025-06-28 17:02",3,48.8733193,-115.07868,TRUE,FALSE,FALSE,"S255022873"
"411","greyel","Greater Yellowlegs","Tringa melanoleuca","L30224043","Auto Tour Route - Raymond Pool Loop, Smyrna, Delaware, US (39.255, -75.465)","2025-06-28 16:47",NA,39.2546016,-75.4647847,TRUE,FALSE,TRUE,"S255316017"
"412","greyel","Greater Yellowlegs","Tringa melanoleuca","L6110147","Zunino/Jiggs Reservoir Recreation Area","2025-06-28 16:23",1,40.4605353,-115.6550524,TRUE,FALSE,FALSE,"S255356989"
"413","greyel","Greater Yellowlegs","Tringa melanoleuca","L42294916","409th Ave (45.442, -98.042)","2025-06-28 16:07",1,45.4424408,-98.041847,TRUE,FALSE,TRUE,"S255158997"
"414","greyel","Greater Yellowlegs","Tringa melanoleuca","L48747209","Clark, Valley and Spring Road Sloughs","2025-06-28 15:46",3,48.268997,-114.383069,TRUE,FALSE,TRUE,"S255343627"
"415","greyel","Greater Yellowlegs","Tringa melanoleuca","L387180","Stewart B. McKinney NWR--Long Beach Blvd. Pond","2025-06-28 14:35",2,41.162017,-73.1551051,TRUE,FALSE,FALSE,"S254994742"
"416","greyel","Greater Yellowlegs","Tringa melanoleuca","L48681144","Auto selected 58.92996, -148.89830","2025-06-28 14:31",1,58.929961,-148.898298,TRUE,TRUE,TRUE,"S255043981"
"417","greyel","Greater Yellowlegs","Tringa melanoleuca","L46526983","Seldon Slew 
4325 Seldon Road, Wasilla, Alaska, US (61.617, -149.55)","2025-06-28 14:20",2,61.6170969,-149.54962,TRUE,FALSE,TRUE,"S255022189"
"418","greyel","Greater Yellowlegs","Tringa melanoleuca","L20552412","Job Corps Ponds","2025-06-28 13:53",2,46.2054302,-112.7771166,TRUE,FALSE,FALSE,"S254977875"
"419","greyel","Greater Yellowlegs","Tringa melanoleuca","L109203","Guilford shorebird pools","2025-06-28 13:30",1,41.268378,-72.694856,TRUE,FALSE,FALSE,"S254993025"
"420","greyel","Greater Yellowlegs","Tringa melanoleuca","L3192446","Lee Metcalf NWR--Wildfowl Lane Dr.","2025-06-28 13:24",1,46.5552601,-114.0834045,TRUE,FALSE,FALSE,"S254971859"
"421","greyel","Greater Yellowlegs","Tringa melanoleuca","L5841068","Bombay Hook NWR--Parson Point Trail","2025-06-28 13:21",9,39.2752182,-75.4801941,TRUE,FALSE,FALSE,"S254954224"
"422","greyel","Greater Yellowlegs","Tringa melanoleuca","L48649903","Shellmore Avenue Pit","2025-06-28 13:15",2,27.6308242,-82.4765406,TRUE,FALSE,TRUE,"S254924298"
"423","greyel","Greater Yellowlegs","Tringa melanoleuca","L15807537","16871 Dauphin Island Pkwy, Coden US-AL (30.3415,-88.1262)","2025-06-28 13:12",40,30.341489,-88.126183,TRUE,TRUE,TRUE,"S255024315"
"424","greyel","Greater Yellowlegs","Tringa melanoleuca","L4827152","Kinney Lake","2025-06-28 13:11",1,45.3140722,-117.1021342,TRUE,FALSE,FALSE,"S254992530"
"425","greyel","Greater Yellowlegs","Tringa melanoleuca","L1002148","Blackwater NWR--Visitors Center","2025-06-28 13:09",3,38.4449343,-76.1194181,TRUE,TRUE,FALSE,"S255010005"
"426","greyel","Greater Yellowlegs","Tringa melanoleuca","L1299729","West Valley Ponds","2025-06-28 13:05",1,48.2745105,-114.3729973,TRUE,FALSE,FALSE,"S254958651"
"427","greyel","Greater Yellowlegs","Tringa melanoleuca","L158902","McKenzie Slough","2025-06-28 13:02",1,46.7942788,-100.4157696,TRUE,FALSE,FALSE,"S254981473"
"428","greyel","Greater Yellowlegs","Tringa melanoleuca","L365673","Hampton Beach SP","2025-06-28 12:20",1,42.898808,-70.8133006,TRUE,FALSE,FALSE,"S254921383"
"429","greyel","Greater Yellowlegs","Tringa melanoleuca","L4960826","New Creek Watershed, Olympia Blvd. bridge & marsh","2025-06-28 12:05",2,40.5782158,-74.088079,TRUE,FALSE,FALSE,"S254927294"
"430","greyel","Greater Yellowlegs","Tringa melanoleuca","L389007","Richard W. DeKorte Park","2025-06-28 11:57",1,40.7833,-74.1025167,TRUE,FALSE,FALSE,"S254962775"
"431","greyel","Greater Yellowlegs","Tringa melanoleuca","L48649353","615th Ave, Correll US-MN 45.23737, -96.19594","2025-06-28 11:52",20,45.237371,-96.195944,TRUE,FALSE,TRUE,"S254922126"
"432","greyel","Greater Yellowlegs","Tringa melanoleuca","L5156578","Jemison's Bait N Tackle","2025-06-28 11:50",7,30.3411173,-88.1263296,TRUE,TRUE,TRUE,"S254927085"
"433","greyel","Greater Yellowlegs","Tringa melanoleuca","L2430444","San Lorenzo Creek","2025-06-28 11:50",4,37.6721361,-122.1596432,TRUE,FALSE,FALSE,"S255216031"
"434","greyel","Greater Yellowlegs","Tringa melanoleuca","L612903","Erie Marsh Preserve/Gun Club (no access Sep 1-Jan 1)","2025-06-28 11:49",1,41.7642459,-83.4719821,TRUE,TRUE,FALSE,"S254938837"
"435","greyel","Greater Yellowlegs","Tringa melanoleuca","L2094076","Timber Point Golf Course","2025-06-28 11:25",2,40.7171362,-73.1445837,TRUE,FALSE,FALSE,"S254915035"
"436","greyel","Greater Yellowlegs","Tringa melanoleuca","L5302787","Penn Cove--Grasser's Lagoon","2025-06-28 11:02",2,48.2341321,-122.7316647,TRUE,FALSE,FALSE,"S254941343"
"437","greyel","Greater Yellowlegs","Tringa melanoleuca","L1866452","Cactus Creek Ranch (private - restricted access)","2025-06-28 10:58",1,26.215797,-97.429897,TRUE,FALSE,FALSE,"S254938086"
"438","greyel","Greater Yellowlegs","Tringa melanoleuca","L48679339","Restoration lagoon, Dauphin Island Pkwy, Coden","2025-06-28 10:46",52,30.34261,-88.125707,TRUE,TRUE,TRUE,"S255036362"
"439","greyel","Greater Yellowlegs","Tringa melanoleuca","L2897565","Stratford - Mac's Harbor Area","2025-06-28 10:42",1,41.1829423,-73.1253694,TRUE,FALSE,FALSE,"S254868445"
"440","greyel","Greater Yellowlegs","Tringa melanoleuca","L2402250","MLK Jr. Regional Shoreline","2025-06-28 10:30",2,37.7318068,-122.2070861,TRUE,FALSE,FALSE,"S254949757"
"441","greyel","Greater Yellowlegs","Tringa melanoleuca","L48757946","CR-73, Correll US-MN 45.26893, -96.20077","2025-06-28 09:57",2,45.268932,-96.200768,TRUE,FALSE,TRUE,"S255385899"
"442","greyel","Greater Yellowlegs","Tringa melanoleuca","L791371","Lake Merced--Concrete Bridge area","2025-06-28 09:37",1,37.7126918,-122.4879456,TRUE,FALSE,FALSE,"S255270431"
"443","greyel","Greater Yellowlegs","Tringa melanoleuca","L12660107","Brazoria Co.—Levee Road/CR690","2025-06-28 09:27",1,28.9871077,-95.3055501,TRUE,FALSE,FALSE,"S254880414"
"444","greyel","Greater Yellowlegs","Tringa melanoleuca","L372956","Killdeer Plains Wildlife Area (Wyandot Co.)","2025-06-28 09:20",1,40.7138257,-83.3016014,TRUE,FALSE,FALSE,"S255038367"
"445","greyel","Greater Yellowlegs","Tringa melanoleuca","L280564","Sherwood Island State Park","2025-06-28 09:13",1,41.1157809,-73.3305955,TRUE,FALSE,FALSE,"S254888687"
"446","greyel","Greater Yellowlegs","Tringa melanoleuca","L779308","Forest Beach and Conservation Lands, Chatham","2025-06-28 08:58",2,41.6700588,-70.0253749,TRUE,FALSE,FALSE,"S254847939"
"447","greyel","Greater Yellowlegs","Tringa melanoleuca","L22410914","Baywood Nature Trail","2025-06-28 08:56",1,48.0179423,-122.2109686,TRUE,FALSE,FALSE,"S254902824"
"448","greyel","Greater Yellowlegs","Tringa melanoleuca","L48657971","Jemison’s Bait Shop, Coden US-AL","2025-06-28 08:50",20,30.34213,-88.12591,TRUE,TRUE,TRUE,"S254953674"
"449","greyel","Greater Yellowlegs","Tringa melanoleuca","L450544","Matagorda Bay Nature Park/Jetty (CTC 003)","2025-06-28 08:46",1,28.5976351,-95.9782791,TRUE,FALSE,FALSE,"S254861331"
"450","greyel","Greater Yellowlegs","Tringa melanoleuca","L523501","Anchorage Coastal WR--Carr-Gottstein Park to Campbell Creek","2025-06-28 08:41",4,61.1151712,-149.9404769,TRUE,FALSE,FALSE,"S254968091"
"451","greyel","Greater Yellowlegs","Tringa melanoleuca","L295687","Wallkill River NWR--Liberty Marsh (Sussex Co.)","2025-06-28 08:40",1,41.2774724,-74.5320937,TRUE,TRUE,FALSE,"S255011114"
"452","greyel","Greater Yellowlegs","Tringa melanoleuca","L424722","Salinas River SB","2025-06-28 08:30",1,36.791072,-121.7923737,TRUE,FALSE,FALSE,"S254892342"
"453","greyel","Greater Yellowlegs","Tringa melanoleuca","L4653074","Headquarters Plantation Drive","2025-06-28 08:25",3,32.7565665,-80.0232339,TRUE,FALSE,FALSE,"S254812800"
"454","greyel","Greater Yellowlegs","Tringa melanoleuca","L464099","Prime Hook NWR--Dike Trail (formerly Observation Point Trail)","2025-06-28 08:23",2,38.831785,-75.2446157,TRUE,FALSE,FALSE,"S254821870"
"455","greyel","Greater Yellowlegs","Tringa melanoleuca","L158588","Helena Valley Regulating Reservoir","2025-06-28 08:17",1,46.6399134,-111.8784685,TRUE,FALSE,FALSE,"S254904177"
"456","greyel","Greater Yellowlegs","Tringa melanoleuca","L340479","Bay Center","2025-06-28 08:09",2,46.6212809,-123.9460435,TRUE,FALSE,FALSE,"S254964897"
"457","greyel","Greater Yellowlegs","Tringa melanoleuca","L2198871","Bayocean Spit","2025-06-28 08:04",1,45.553569,-123.9435911,TRUE,FALSE,FALSE,"S254973987"
"458","greyel","Greater Yellowlegs","Tringa melanoleuca","L21144184","Crowley Lake, McGee Bay","2025-06-28 08:02",3,37.6181264,-118.7571304,TRUE,FALSE,TRUE,"S254878854"
"459","greyel","Greater Yellowlegs","Tringa melanoleuca","L249812","Blacks Creek Bird Reserve","2025-06-28 08:02",3,43.4584433,-116.1426544,TRUE,TRUE,FALSE,"S254926624"
"460","greyel","Greater Yellowlegs","Tringa melanoleuca","L1042229","Upper Newport Bay (by boat)","2025-06-28 07:59",1,33.6198192,-117.9030955,TRUE,FALSE,TRUE,"S254940474"
"461","greyel","Greater Yellowlegs","Tringa melanoleuca","L48619205","Horsepen CW North Carolina, US (34.697, -76.476)","2025-06-28 07:25",1,34.6972019,-76.4757684,TRUE,FALSE,TRUE,"S254793506"
"462","greyel","Greater Yellowlegs","Tringa melanoleuca","L2982306","Charles Towne Landing","2025-06-28 07:20",1,32.8073499,-79.9884939,TRUE,FALSE,FALSE,"S254850856"
"463","greyel","Greater Yellowlegs","Tringa melanoleuca","L509134","Elsie Roemer Bird Sanctuary","2025-06-28 07:17",1,37.7525975,-122.2473836,TRUE,FALSE,FALSE,"S254893868"
"464","greyel","Greater Yellowlegs","Tringa melanoleuca","L48589423","1221–1299 N-61, Ogallala US-NE 41.17054, -101.66747","2025-06-28 07:16",2,41.170543,-101.667472,TRUE,FALSE,TRUE,"S255043625"
"465","greyel","Greater Yellowlegs","Tringa melanoleuca","L272917","Sacramento Bar","2025-06-28 07:14",1,38.6295281,-121.2824672,TRUE,FALSE,TRUE,"S254906293"
"466","greyel","Greater Yellowlegs","Tringa melanoleuca","L837268","Sacramento NWR--Auto Route & Visitor Center","2025-06-28 07:09",1,39.4284385,-122.1564999,TRUE,FALSE,FALSE,"S254871640"
"467","greyel","Greater Yellowlegs","Tringa melanoleuca","L4071534","Calipatria, West Young Road area","2025-06-28 07:06",1,33.1321607,-115.6386566,TRUE,FALSE,TRUE,"S254911465"
"468","greyel","Greater Yellowlegs","Tringa melanoleuca","L25631866","Assawoman Bay State Wildlife Area, Frankford US-DE 38.51725, -75.07764","2025-06-28 07:04",2,38.517249,-75.077643,TRUE,FALSE,TRUE,"S254831709"
"469","greyel","Greater Yellowlegs","Tringa melanoleuca","L726819","Waterville Plateau -- Atkins Lake","2025-06-28 07:02",1,47.6232605,-119.4848585,TRUE,FALSE,FALSE,"S254848556"
"470","greyel","Greater Yellowlegs","Tringa melanoleuca","L20902653","Tualatin River National Wildlife Refuge, Sherwood US-OR 45.38223, -122.83200","2025-06-28 06:56",4,45.382226,-122.832004,TRUE,FALSE,TRUE,"S254880168"
"471","greyel","Greater Yellowlegs","Tringa melanoleuca","L37697411","321 Munson St, Rehoboth Beach US-DE 38.71324, -75.08801","2025-06-28 06:49",1,38.713242,-75.088011,TRUE,FALSE,TRUE,"S255068767"
"472","greyel","Greater Yellowlegs","Tringa melanoleuca","L7661329","6000 Bishop Road, Saginaw, Michigan, US (43.325, -84.033)","2025-06-28 06:44",1,43.3249462,-84.0332465,TRUE,FALSE,TRUE,"S254774519"
"473","greyel","Greater Yellowlegs","Tringa melanoleuca","L348472","Logan City Polishing Ponds","2025-06-28 06:44",1,41.7731387,-111.8971309,TRUE,FALSE,FALSE,"S254894530"
"474","greyel","Greater Yellowlegs","Tringa melanoleuca","L792647","Pea Island NWR--Salt Flats","2025-06-28 06:32",4,35.7423325,-75.5069733,TRUE,FALSE,FALSE,"S254819566"
"475","greyel","Greater Yellowlegs","Tringa melanoleuca","L17639350","Auto Tour Route - Raymond Pool Loop, Smyrna, Delaware, US (39.256, -75.46)","2025-06-28 06:28",NA,39.2564124,-75.4604424,TRUE,FALSE,TRUE,"S254853704"
"476","greyel","Greater Yellowlegs","Tringa melanoleuca","L2316709","Ellis Creek Water Recycling Facility","2025-06-28 06:25",1,38.2251678,-122.5838828,TRUE,FALSE,FALSE,"S256301619"
"477","greyel","Greater Yellowlegs","Tringa melanoleuca","L946233","Soldotna--Centennial Park","2025-06-27 22:21",1,60.4817335,-151.0991335,TRUE,FALSE,FALSE,"S254741889"
"478","greyel","Greater Yellowlegs","Tringa melanoleuca","L15540169","Kenai--Marathon Road","2025-06-27 21:29",1,60.5922946,-151.2200908,TRUE,FALSE,FALSE,"S254903788"
"479","greyel","Greater Yellowlegs","Tringa melanoleuca","L2151809","Kenai--Bridge Access Road Viewing Platform","2025-06-27 21:20",1,60.534657,-151.2117863,TRUE,FALSE,FALSE,"S254903377"
"480","greyel","Greater Yellowlegs","Tringa melanoleuca","L48765867","16701–16839 Dauphin Island Pkwy, Coden US-AL 30.34263, -88.12565","2025-06-27 20:27",2,30.342627,-88.125652,TRUE,FALSE,TRUE,"S255418579"
"481","greyel","Greater Yellowlegs","Tringa melanoleuca","L2601163","Cape Hatteras NS--Lighthouse Rd. Pond","2025-06-27 19:44",1,35.2570995,-75.5263833,TRUE,FALSE,FALSE,"S254860414"
"482","greyel","Greater Yellowlegs","Tringa melanoleuca","L48595782","Freezout big lake Fairfield US-MT (47.6599,-112.0171)","2025-06-27 18:23",4,47.659908,-112.017134,TRUE,FALSE,TRUE,"S254693396"
"483","greyel","Greater Yellowlegs","Tringa melanoleuca","L1168083","Potter Marsh--mm 115.7","2025-06-27 18:00",1,61.059303,-149.8041415,TRUE,FALSE,FALSE,"S254720508"
"484","greyel","Greater Yellowlegs","Tringa melanoleuca","L763879","Potter Marsh Boardwalk","2025-06-27 17:02",1,61.0775802,-149.8262,TRUE,FALSE,FALSE,"S255709295"
"485","greyel","Greater Yellowlegs","Tringa melanoleuca","L11551710","Kodiak Isl.--Sargent Cr. Trail","2025-06-27 16:28",1,57.71577,-152.60068,TRUE,FALSE,TRUE,"S254704626"
"486","greyel","Greater Yellowlegs","Tringa melanoleuca","L777215","Napa-Sonoma Marshes WA--Napa River Units - Pond 1","2025-06-27 16:20",1,38.142204,-122.3490097,TRUE,FALSE,FALSE,"S254717697"
"487","greyel","Greater Yellowlegs","Tringa melanoleuca","L828590","Dungeness Landing Park/Oyster House","2025-06-27 16:13",1,48.1514639,-123.143456,TRUE,FALSE,FALSE,"S254892092"
"488","greyel","Greater Yellowlegs","Tringa melanoleuca","L197609","Cape Henlopen SP--Gordon's Pond","2025-06-27 15:19",2,38.7522693,-75.0893841,TRUE,FALSE,FALSE,"S254661681"
"489","greyel","Greater Yellowlegs","Tringa melanoleuca","L30924619","Lake Placid Florida","2025-06-27 15:02",1,27.2829437,-81.3478622,TRUE,FALSE,TRUE,"S254618773"
"490","greyel","Greater Yellowlegs","Tringa melanoleuca","L47368333","Poplar Island","2025-06-27 14:48",1,38.756951,-76.385099,TRUE,FALSE,TRUE,"S254613889"
"491","greyel","Greater Yellowlegs","Tringa melanoleuca","L109204","Hammonasset Beach SP--Meig's Point","2025-06-27 14:33",1,41.2490558,-72.5442213,TRUE,FALSE,FALSE,"S254626250"
"492","greyel","Greater Yellowlegs","Tringa melanoleuca","L14303040","Pencader Ponds","2025-06-27 13:30",1,39.6125271,-75.7576921,TRUE,FALSE,TRUE,"S254615597"
"493","greyel","Greater Yellowlegs","Tringa melanoleuca","L3797793","Ocean City Welcome Center","2025-06-27 12:57",2,39.2881767,-74.5824587,TRUE,FALSE,FALSE,"S255177336"
"494","greyel","Greater Yellowlegs","Tringa melanoleuca","L8297812","16871 Dauphin Island Pkwy, Coden US-AL (30.3417,-88.1262)","2025-06-27 12:50",5,30.341719,-88.126211,TRUE,FALSE,TRUE,"S254704716"
"495","greyel","Greater Yellowlegs","Tringa melanoleuca","L1017276","CJ Strike WMA--Bruneau Duck Ponds","2025-06-27 12:48",1,42.927,-115.719,TRUE,FALSE,FALSE,"S254642903"
"496","greyel","Greater Yellowlegs","Tringa melanoleuca","L47840278","Hornsby Bend","2025-06-27 12:30",1,30.222226,-97.647175,TRUE,FALSE,TRUE,"S254595723"
"497","greyel","Greater Yellowlegs","Tringa melanoleuca","L7187342","Dry Fork Reservoir","2025-06-27 12:26",1,47.70288,-114.661336,TRUE,FALSE,FALSE,"S254626249"
"498","greyel","Greater Yellowlegs","Tringa melanoleuca","L14223712","Coquille Valley Wildlife Area","2025-06-27 11:30",1,43.2160479,-124.2587955,TRUE,FALSE,FALSE,"S254617574"
"499","greyel","Greater Yellowlegs","Tringa melanoleuca","L1273605","Cotchpincut Rd. Landing","2025-06-27 11:27",1,41.7078238,-69.9537076,TRUE,FALSE,FALSE,"S254656608"
"500","greyel","Greater Yellowlegs","Tringa melanoleuca","L48577864","34075 Ski Hill Road, Soldotna, Alaska, US (60.47, -151.082)","2025-06-27 11:08",1,60.4702802,-151.082267,TRUE,FALSE,TRUE,"S254619484"
"501","greyel","Greater Yellowlegs","Tringa melanoleuca","L450388","Lake Hood & Lake Spenard","2025-06-27 10:54",1,61.1787982,-149.9607182,TRUE,FALSE,FALSE,"S254643779"
"502","greyel","Greater Yellowlegs","Tringa melanoleuca","L248017","Bolivar Flats Shorebird Sanctuary","2025-06-27 10:47",2,29.3711371,-94.7287083,TRUE,FALSE,FALSE,"S254689343"
"503","greyel","Greater Yellowlegs","Tringa melanoleuca","L12242493","27600–27644 Royal Ave, Eugene US-OR 44.07050, -123.25855","2025-06-27 10:46",8,44.070497,-123.258547,TRUE,FALSE,TRUE,"S254616812"
"504","greyel","Greater Yellowlegs","Tringa melanoleuca","L48406868","Set net Cabin","2025-06-27 10:17",10,58.7660699,-157.0611328,TRUE,FALSE,TRUE,"S254604878"
"505","greyel","Greater Yellowlegs","Tringa melanoleuca","L31133174","NUWC Division Keyport (restricted)","2025-06-27 10:10",3,47.6957254,-122.6242018,TRUE,FALSE,TRUE,"S255456381"
"506","greyel","Greater Yellowlegs","Tringa melanoleuca","L7951497","Highway 26 Playa, Minatare","2025-06-27 09:37",7,41.821666,-103.546628,TRUE,TRUE,TRUE,"S254669221"
"507","greyel","Greater Yellowlegs","Tringa melanoleuca","L387182","Stewart B. McKinney NWR--Railroad Track Tr.","2025-06-27 09:24",1,41.1626415,-73.1512515,TRUE,FALSE,FALSE,"S254697879"
"508","greyel","Greater Yellowlegs","Tringa melanoleuca","L4607254","Cochran Lake","2025-06-27 09:13",4,41.7706651,-103.5388041,TRUE,FALSE,FALSE,"S254557866"
"509","greyel","Greater Yellowlegs","Tringa melanoleuca","L159573","Baskett Slough NWR","2025-06-27 09:03",1,44.9614021,-123.257246,TRUE,FALSE,FALSE,"S254657165"
"510","greyel","Greater Yellowlegs","Tringa melanoleuca","L2765154","Kenai--Warren Ames Bridge (river, flats & gull roost)","2025-06-27 08:43",3,60.525399,-151.2090182,TRUE,FALSE,FALSE,"S254583227"
"511","greyel","Greater Yellowlegs","Tringa melanoleuca","L989821","Ocean Beach County Park and Santa Ynez River Estuary","2025-06-27 08:42",4,34.6909567,-120.6003785,TRUE,FALSE,FALSE,"S254683658"
"512","greyel","Greater Yellowlegs","Tringa melanoleuca","L16462124","Grand Palms Hotel-Spa","2025-06-27 08:41",1,26.001318,-80.356616,TRUE,FALSE,TRUE,"S254515945"
"513","greyel","Greater Yellowlegs","Tringa melanoleuca","L344663","Madera WTP","2025-06-27 08:38",15,36.9417288,-120.1645947,TRUE,FALSE,FALSE,"S254587832"
"514","greyel","Greater Yellowlegs","Tringa melanoleuca","L1831579","Resolution Park","2025-06-27 08:29",4,61.2202498,-149.9022782,TRUE,FALSE,FALSE,"S255016830"
"515","greyel","Greater Yellowlegs","Tringa melanoleuca","L478948","Prime Hook NWR--Prime Hook Beach Rd.","2025-06-27 08:26",1,38.8536119,-75.2592659,TRUE,FALSE,FALSE,"S254600687"
"516","greyel","Greater Yellowlegs","Tringa melanoleuca","L1791250","West Bank Park","2025-06-27 08:16",1,47.5141206,-111.3120885,TRUE,FALSE,FALSE,"S254644805"
"517","greyel","Greater Yellowlegs","Tringa melanoleuca","L718378","Chincoteague NWR* (general area)","2025-06-27 08:11",4,37.9106228,-75.3479719,TRUE,FALSE,FALSE,"S255302948"
"518","greyel","Greater Yellowlegs","Tringa melanoleuca","L1900441","Pine Meadows Conservation Area (Small Game Hunt Area)","2025-06-27 08:10",3,28.88406,-81.66308,TRUE,FALSE,FALSE,"S254515088"
"519","greyel","Greater Yellowlegs","Tringa melanoleuca","L48580017","22301–22305 McGrath Rd, Bend US-OR 44.11978, -121.20448","2025-06-27 08:03",2,44.119785,-121.204477,TRUE,FALSE,TRUE,"S254628021"
"520","greyel","Greater Yellowlegs","Tringa melanoleuca","L2618136","Dauphin Island Causeway","2025-06-27 07:54",2,30.2932775,-88.1309509,TRUE,FALSE,FALSE,"S254526204"
"521","greyel","Greater Yellowlegs","Tringa melanoleuca","L5403306","Batiquitos Lagoon--Navigator Circle","2025-06-27 07:40",2,33.0896202,-117.3067053,TRUE,FALSE,FALSE,"S254685070"
"522","greyel","Greater Yellowlegs","Tringa melanoleuca","L126644","Cape Henlopen State Park","2025-06-27 07:34",2,38.7714636,-75.086344,TRUE,FALSE,FALSE,"S254546541"
"523","greyel","Greater Yellowlegs","Tringa melanoleuca","L286953","Candlestick Pt. State Rec. Area - long traveling lists - use specific hotspot where appropriate","2025-06-27 07:30",1,37.7117054,-122.3804593,TRUE,FALSE,FALSE,"S254604121"
"524","greyel","Greater Yellowlegs","Tringa melanoleuca","L616660","Huntington Beach SP--North Beach/Jetty/Dunes Trail","2025-06-27 07:14",1,33.5253779,-79.0367106,TRUE,FALSE,FALSE,"S254513994"
"525","greyel","Greater Yellowlegs","Tringa melanoleuca","L761524","Bayshore Bikeway--Emory Cove & Pond 11","2025-06-27 07:09",3,32.6018801,-117.1238114,TRUE,FALSE,FALSE,"S254571650"
"526","greyel","Greater Yellowlegs","Tringa melanoleuca","L16651473","Bethel--Lion's Club River Walk","2025-06-27 06:57",1,60.7885012,-161.7720547,TRUE,FALSE,FALSE,"S254557303"
"527","greyel","Greater Yellowlegs","Tringa melanoleuca","L39687118","16701–16839 Dauphin Island Pkwy, Coden US-AL 30.34253, -88.12575","2025-06-27 06:51",3,30.342526,-88.125754,TRUE,FALSE,TRUE,"S254490300"
"528","greyel","Greater Yellowlegs","Tringa melanoleuca","L23965440","Parker River National Wildlife Refuge, Newbury US-MA 42.75090, -70.79942","2025-06-27 05:39",1,42.750898,-70.79942,TRUE,FALSE,TRUE,"S254703575"
"529","greyel","Greater Yellowlegs","Tringa melanoleuca","L248058","Block Island","2025-06-27 04:45",2,41.1627059,-71.5865525,TRUE,FALSE,FALSE,"S254703649"
"530","greyel","Greater Yellowlegs","Tringa melanoleuca","L4491511","Copper River Hwy.--Pavilion","2025-06-27 04:30",2,60.5014816,-145.5113786,TRUE,FALSE,FALSE,"S254571996"
"531","greyel","Greater Yellowlegs","Tringa melanoleuca","L8969599","109th St from 455th east, Sisseton, South Dakota, US","2025-06-26 20:58",4,45.8048906,-97.1023795,TRUE,FALSE,TRUE,"S255074641"
"532","greyel","Greater Yellowlegs","Tringa melanoleuca","L1532020","San Dieguito Lagoon--Southeast & Dust Devil Trails","2025-06-26 18:37",1,32.9696861,-117.2395813,TRUE,FALSE,FALSE,"S254421025"
"533","greyel","Greater Yellowlegs","Tringa melanoleuca","L35259463","Ripon WTP--Vera Ave access","2025-06-26 18:24",4,37.727051,-121.133223,TRUE,TRUE,FALSE,"S254420148"
"534","greyel","Greater Yellowlegs","Tringa melanoleuca","L417835","Waterbird Regional Preserve/McNabney Marsh","2025-06-26 18:05",1,38.0236359,-122.0956349,TRUE,FALSE,FALSE,"S254411124"
"535","greyel","Greater Yellowlegs","Tringa melanoleuca","L969765","Scarborough Marsh--Eastern Trail Pannes","2025-06-26 17:58",4,43.5668063,-70.3579393,TRUE,FALSE,FALSE,"S254393890"
"536","greyel","Greater Yellowlegs","Tringa melanoleuca","L48535663","AK-10, Gakona US-AK 60.46966, -145.36678","2025-06-26 17:45",2,60.469656,-145.366778,TRUE,FALSE,TRUE,"S254432219"
"537","greyel","Greater Yellowlegs","Tringa melanoleuca","L42212713","140 Pine Point Rd, Scarborough US-ME 43.56136, -70.36941","2025-06-26 16:46",2,43.56136,-70.369414,TRUE,FALSE,TRUE,"S254375873"
"538","greyel","Greater Yellowlegs","Tringa melanoleuca","L12973338","West Valley Bird and Wildlife Viewing Area","2025-06-26 16:33",1,48.2579407,-114.3905326,TRUE,FALSE,FALSE,"S254380333"
"539","greyel","Greater Yellowlegs","Tringa melanoleuca","L165143","Jamaica Bay Wildlife Refuge","2025-06-26 16:30",2,40.6170296,-73.8244561,TRUE,FALSE,FALSE,"S254534442"
"540","greyel","Greater Yellowlegs","Tringa melanoleuca","L594346","Belmont Slough--slough along Oracle Pkwy and area behind Oracle","2025-06-26 16:10",1,37.533855,-122.2654102,TRUE,FALSE,FALSE,"S254730882"
"541","greyel","Greater Yellowlegs","Tringa melanoleuca","L8219277","Neck Road","2025-06-26 16:06",1,41.270438,-72.6390387,TRUE,FALSE,FALSE,"S254350021"
"542","greyel","Greater Yellowlegs","Tringa melanoleuca","L961319","Beluga--North Bog","2025-06-26 15:12",1,61.2094437,-151.0248041,TRUE,FALSE,FALSE,"S254444448"
"543","greyel","Greater Yellowlegs","Tringa melanoleuca","L574876","Walter E. Long Lake (HOTE-036)","2025-06-26 14:55",1,30.2836775,-97.6080322,TRUE,FALSE,FALSE,"S254355103"
"544","greyel","Greater Yellowlegs","Tringa melanoleuca","L1222792","Okanogan Highlands--Fields Lake","2025-06-26 14:40",1,48.9374283,-119.1289401,TRUE,FALSE,FALSE,"S254416278"
"545","greyel","Greater Yellowlegs","Tringa melanoleuca","L1440933","Bayshore Waterfront Park","2025-06-26 13:45",1,40.4400196,-74.0940917,TRUE,FALSE,FALSE,"S254311952"
"546","greyel","Greater Yellowlegs","Tringa melanoleuca","L767320","Anchor Point","2025-06-26 13:23",21,59.7790573,-151.8633485,TRUE,FALSE,FALSE,"S254381404"
"547","greyel","Greater Yellowlegs","Tringa melanoleuca","L48506480","Davis SE North Carolina, US (34.76, -76.428)","2025-06-26 12:40",1,34.7597799,-76.4275369,TRUE,FALSE,TRUE,"S254305224"
"548","greyel","Greater Yellowlegs","Tringa melanoleuca","L715391","Sandy Hook--Horseshoe Cove area","2025-06-26 12:21",1,40.4466531,-73.9968252,TRUE,FALSE,FALSE,"S254362162"
"549","greyel","Greater Yellowlegs","Tringa melanoleuca","L48503928","Davis SE Davis, North Carolina, US (34.761, -76.433)","2025-06-26 11:19",4,34.7605172,-76.4333204,TRUE,FALSE,TRUE,"S254294951"
"550","greyel","Greater Yellowlegs","Tringa melanoleuca","L3823290","Eggemoggin Reach, Brooklin","2025-06-26 10:58",1,44.223154,-68.559624,TRUE,FALSE,TRUE,"S254497292"
"551","greyel","Greater Yellowlegs","Tringa melanoleuca","L3001062","Pea Island NWR--New Inlet","2025-06-26 10:54",1,35.6821195,-75.482769,TRUE,FALSE,FALSE,"S254295050"
"552","greyel","Greater Yellowlegs","Tringa melanoleuca","L387163","Elkhorn Slough--Hudson Landing mudflats & Porter Marsh","2025-06-26 10:45",3,36.8560012,-121.7548674,TRUE,FALSE,FALSE,"S254315505"
"553","greyel","Greater Yellowlegs","Tringa melanoleuca","L48508038","Salton Sea, Calipatria US-CA 33.18405, -115.62156","2025-06-26 10:45",3,33.184046,-115.621564,TRUE,FALSE,TRUE,"S254311538"
"554","greyel","Greater Yellowlegs","Tringa melanoleuca","L48406713","BRMBR Unit 5","2025-06-26 10:37",NA,41.4229883,-112.127182,TRUE,FALSE,TRUE,"S254414888"
"555","greyel","Greater Yellowlegs","Tringa melanoleuca","L365394","Pea Island NWR--South Pond","2025-06-26 10:34",8,35.693971,-75.485696,TRUE,FALSE,FALSE,"S254295496"
"556","greyel","Greater Yellowlegs","Tringa melanoleuca","L7873632","Theodore Roosevelt NP--Little Mo Nature Trail","2025-06-26 10:29",1,47.5942758,-103.3324078,TRUE,FALSE,FALSE,"S254340623"
"557","greyel","Greater Yellowlegs","Tringa melanoleuca","L48830038","T. Roosevelt NP - N Area, parking lot @ W end of Buckhorn Trail","2025-06-26 10:22",1,47.596071,-103.3285635,TRUE,FALSE,TRUE,"S255718520"
"558","greyel","Greater Yellowlegs","Tringa melanoleuca","L4647937","Cedar Point Biological Station","2025-06-26 10:13",2,41.2095019,-101.6477233,TRUE,FALSE,FALSE,"S254297652"
"559","greyel","Greater Yellowlegs","Tringa melanoleuca","L1296469","West Ship Island","2025-06-26 10:10",2,30.2122016,-88.9542389,TRUE,FALSE,FALSE,"S254393742"
"560","greyel","Greater Yellowlegs","Tringa melanoleuca","L48497875","Elmer's Island Road, Grand Isle, Louisiana, US (29.183, -90.071)","2025-06-26 10:04",2,29.1826199,-90.0709423,TRUE,FALSE,TRUE,"S254270811"
"561","greyel","Greater Yellowlegs","Tringa melanoleuca","L33712380","Sandy River Lodge","2025-06-26 09:53",3,56.231547,-160.067524,TRUE,FALSE,TRUE,"S254418244"
"562","greyel","Greater Yellowlegs","Tringa melanoleuca","L42304395","Sears Landing Chatham, MA","2025-06-26 09:53",1,41.66602,-69.982382,TRUE,FALSE,TRUE,"S254264757"
