"","speciesCode","comName","sciName","locId","locName","obsDt","howMany","lat","lng","obsValid","obsReviewed","locationPrivate","subId"
"1","fragul","Franklin's Gull","Leucophaeus pipixcan","L1077672","Saylorville Reservoir--Big Creek spillway area","2025-05-21 17:56",5,41.7806466,-93.7435055,TRUE,FALSE,FALSE,"S241056040"
"2","fragul","Franklin's Gull","Leucophaeus pipixcan","L3875853","Little Storm Lake","2025-05-21 17:52",200,42.6417882,-95.2374959,TRUE,FALSE,FALSE,"S241057158"
"3","fragul","Franklin's Gull","Leucophaeus pipixcan","L7740703","Jones Bridge & Perry Rd. area, Leicester","2025-05-21 17:45",1,42.7623896,-77.8588164,TRUE,TRUE,FALSE,"S241050117"
"4","fragul","Franklin's Gull","Leucophaeus pipixcan","L42396876","Smithville Lake--Kelsey Short Area, Smithville, Missouri, US (39.416, -94.505)","2025-05-21 16:44",40,39.4159983,-94.5052139,TRUE,FALSE,TRUE,"S241042302"
"5","fragul","Franklin's Gull","Leucophaeus pipixcan","L45623770","15200–15902 US-59, Worthington US-MN 43.77006, -95.59320","2025-05-21 16:23",2,43.770061,-95.593199,TRUE,FALSE,TRUE,"S241033775"
"6","fragul","Franklin's Gull","Leucophaeus pipixcan","L45620939","MS river ste Genevieve bend","2025-05-21 15:20",1,37.96229,-89.987811,TRUE,FALSE,TRUE,"S241019903"
"7","fragul","Franklin's Gull","Leucophaeus pipixcan","L45465999","2933–2975 Jones Bridge Rd, Leicester US-NY 42.76638, -77.86722","2025-05-21 15:20",1,42.766385,-77.867224,TRUE,TRUE,TRUE,"S241053303"
"8","fragul","Franklin's Gull","Leucophaeus pipixcan","L16083136","Belvidere ponds","2025-05-21 14:55",2,43.8356756,-101.2713356,TRUE,FALSE,FALSE,"S241027716"
"9","fragul","Franklin's Gull","Leucophaeus pipixcan","L159619","Malheur NWR--Headquarters","2025-05-21 14:54",3,43.2658741,-118.8448941,TRUE,FALSE,FALSE,"S241056423"
"10","fragul","Franklin's Gull","Leucophaeus pipixcan","L140460","Big Johnson Reservoir & Bluestem Prairie Open Space","2025-05-21 14:52",18,38.7482319,-104.6943795,TRUE,FALSE,FALSE,"S241044640"
"11","fragul","Franklin's Gull","Leucophaeus pipixcan","L247318","Benton Lake NWR","2025-05-21 14:46",160,47.6641904,-111.3007221,TRUE,FALSE,FALSE,"S241045263"
"12","fragul","Franklin's Gull","Leucophaeus pipixcan","L211085","Frontenac SP--Sand Point","2025-05-21 14:32",2,44.5108901,-92.315925,TRUE,FALSE,FALSE,"S241051424"
"13","fragul","Franklin's Gull","Leucophaeus pipixcan","L550748","Red Lake Falls--Oak Grove Cemetery","2025-05-21 14:32",2,47.8750226,-96.2461138,TRUE,FALSE,FALSE,"S241024698"
"14","fragul","Franklin's Gull","Leucophaeus pipixcan","L266875","Willcox--Lake Cochise and Twin Lakes Golf Course","2025-05-21 14:29",4,32.2298515,-109.8243175,TRUE,FALSE,FALSE,"S241056228"
"15","fragul","Franklin's Gull","Leucophaeus pipixcan","L10989957","Keyhole SP--Wind Creek CG area","2025-05-21 14:24",3,44.3680109,-104.8321127,TRUE,FALSE,FALSE,"S241020403"
"16","fragul","Franklin's Gull","Leucophaeus pipixcan","L9857682","Bledsoe Ferry Public Use Area","2025-05-21 14:05",1,38.2619419,-93.3956938,TRUE,FALSE,TRUE,"S241056578"
"17","fragul","Franklin's Gull","Leucophaeus pipixcan","L2368725","West Fargo WTP","2025-05-21 14:00",10,46.8916628,-96.9263134,TRUE,FALSE,FALSE,"S241006589"
"18","fragul","Franklin's Gull","Leucophaeus pipixcan","L30929597","Bradford Beach, Milwaukee US-WI 43.06242, -87.87295","2025-05-21 13:58",1,43.062416,-87.872947,TRUE,TRUE,TRUE,"S240996895"
"19","fragul","Franklin's Gull","Leucophaeus pipixcan","L17284329","4502 39th Avenue North, Fargo, North Dakota, US (46.931, -96.861)","2025-05-21 13:39",11,46.9309249,-96.8612749,TRUE,FALSE,TRUE,"S240991274"
"20","fragul","Franklin's Gull","Leucophaeus pipixcan","L4647937","Cedar Point Biological Station","2025-05-21 13:31",100,41.2095019,-101.6477233,TRUE,FALSE,FALSE,"S241013041"
"21","fragul","Franklin's Gull","Leucophaeus pipixcan","L2703750","J. Clark Salyer NWR--Willow City Road","2025-05-21 13:24",75,48.5890289,-100.6856203,TRUE,FALSE,FALSE,"S241018005"
"22","fragul","Franklin's Gull","Leucophaeus pipixcan","L230540","Bradford Beach/North Point","2025-05-21 13:19",1,43.058455,-87.876085,TRUE,TRUE,FALSE,"S240989255"
"23","fragul","Franklin's Gull","Leucophaeus pipixcan","L165048","Farmington Bay WMA","2025-05-21 13:17",1,40.955141,-111.9191396,TRUE,FALSE,FALSE,"S241020147"
"24","fragul","Franklin's Gull","Leucophaeus pipixcan","L45613950","56288, Spicer US-MN (45.2377,-94.7968)","2025-05-21 13:15",62,45.237709,-94.796756,TRUE,FALSE,TRUE,"S240985477"
"25","fragul","Franklin's Gull","Leucophaeus pipixcan","L45623216","Missouri River, Springfield US-SD 42.76814, -98.02295","2025-05-21 12:52",4,42.768143,-98.022948,TRUE,FALSE,TRUE,"S241031092"
"26","fragul","Franklin's Gull","Leucophaeus pipixcan","L28266513","Provo River Delta","2025-05-21 12:31",1,40.2458762,-111.7205421,TRUE,FALSE,FALSE,"S241024064"
"27","fragul","Franklin's Gull","Leucophaeus pipixcan","L6227652","13 flooded field West Side","2025-05-21 12:31",37,44.608844,-93.501487,TRUE,FALSE,TRUE,"S240974852"
"28","fragul","Franklin's Gull","Leucophaeus pipixcan","L475876","Lake Pueblo SP--South Marina area","2025-05-21 12:25",2,38.2539529,-104.7348791,TRUE,FALSE,FALSE,"S241060326"
"29","fragul","Franklin's Gull","Leucophaeus pipixcan","L272998","Boyd Lake","2025-05-21 12:06",15,40.4341128,-105.0338644,TRUE,FALSE,FALSE,"S240989386"
"30","fragul","Franklin's Gull","Leucophaeus pipixcan","L6491556","Stratton Meyers Park area","2025-05-21 12:05",1,41.5053233,-109.4454467,TRUE,FALSE,FALSE,"S241033346"
"31","fragul","Franklin's Gull","Leucophaeus pipixcan","L151646","Walden Reservoir","2025-05-21 12:02",5,40.7321439,-106.3120244,TRUE,FALSE,FALSE,"S240986970"
"32","fragul","Franklin's Gull","Leucophaeus pipixcan","L7163585","Sand Lake NWR (use more specific location if possible)","2025-05-21 11:46",4,45.7627439,-98.255775,TRUE,FALSE,FALSE,"S241027453"
"33","fragul","Franklin's Gull","Leucophaeus pipixcan","L385644","Standley Lake Park--north shore","2025-05-21 11:28",2,39.8739445,-105.1244831,TRUE,FALSE,FALSE,"S240992399"
"34","fragul","Franklin's Gull","Leucophaeus pipixcan","L807188","Blue Creek","2025-05-21 11:28",5,42.051842,-116.1807632,TRUE,FALSE,FALSE,"S240988083"
"35","fragul","Franklin's Gull","Leucophaeus pipixcan","L18365119","Oard to Burns OR Hwy 20/395","2025-05-21 11:27",3,43.6137742,-118.8619647,TRUE,FALSE,TRUE,"S240997996"
"36","fragul","Franklin's Gull","Leucophaeus pipixcan","L11539866","Devils Lake--Pelican Lake Landing","2025-05-21 11:19",NA,48.117987,-99.1799833,TRUE,FALSE,FALSE,"S240948462"
"37","fragul","Franklin's Gull","Leucophaeus pipixcan","L45622464","Engle some red","2025-05-21 11:13",1,43.647714,-118.611286,TRUE,FALSE,TRUE,"S241027380"
"38","fragul","Franklin's Gull","Leucophaeus pipixcan","L1222974","Sheridan Reservoir","2025-05-21 11:08",6,44.4600053,-111.6967106,TRUE,FALSE,FALSE,"S240969516"
"39","fragul","Franklin's Gull","Leucophaeus pipixcan","L606247","Saylorville Reservoir--Cherry Glen Recreation Area","2025-05-21 11:03",3,41.7310987,-93.6875439,TRUE,FALSE,FALSE,"S240951693"
"40","fragul","Franklin's Gull","Leucophaeus pipixcan","L11314797","Upper Gem Lake--East Side","2025-05-21 11:01",2,43.4531993,-112.0879269,TRUE,FALSE,FALSE,"S240976972"
"41","fragul","Franklin's Gull","Leucophaeus pipixcan","L40544056","Ted Trueblood WMA--South Ponds","2025-05-21 10:56",31,43.0052276,-116.1018244,TRUE,FALSE,FALSE,"S241010566"
"42","fragul","Franklin's Gull","Leucophaeus pipixcan","L45604793","10314–10332 US-2 E, Lakota US-ND 48.03540, -98.38251","2025-05-21 10:56",5,48.035401,-98.382509,TRUE,FALSE,TRUE,"S240943444"
"43","fragul","Franklin's Gull","Leucophaeus pipixcan","L24596431","Boat Ramp Road","2025-05-21 10:50",3,43.271666,-118.8382294,TRUE,FALSE,TRUE,"S241005508"
"44","fragul","Franklin's Gull","Leucophaeus pipixcan","L45603606","42900–42994 SD-50, Tabor US-SD (42.9087,-97.6130)","2025-05-21 10:50",250,42.908686,-97.612978,TRUE,FALSE,TRUE,"S240937765"
"45","fragul","Franklin's Gull","Leucophaeus pipixcan","L2153964","Wilson WA","2025-05-21 10:32",10,38.959191,-98.6628055,TRUE,FALSE,FALSE,"S240940001"
"46","fragul","Franklin's Gull","Leucophaeus pipixcan","L45603660","Seawolf Park, Galveston","2025-05-21 10:32",2,29.337227,-94.777679,TRUE,FALSE,TRUE,"S240938010"
"47","fragul","Franklin's Gull","Leucophaeus pipixcan","L159536","White Horse Hill National Game Preserve","2025-05-21 10:31",2,47.9900372,-98.9696286,TRUE,FALSE,FALSE,"S240967623"
"48","fragul","Franklin's Gull","Leucophaeus pipixcan","L45603860","67648, Lucas US-KS 38.95465, -98.66300","2025-05-21 10:30",3,38.954647,-98.663003,TRUE,FALSE,TRUE,"S240938965"
"49","fragul","Franklin's Gull","Leucophaeus pipixcan","L38333698","Jordan River Pkwy, West Jordan US-UT 40.61854, -111.92060","2025-05-21 10:29",1,40.618543,-111.920595,TRUE,FALSE,TRUE,"S240957948"
"50","fragul","Franklin's Gull","Leucophaeus pipixcan","L45601852","1183 East 550 Road, Lawrence, Kansas, US (38.911, -95.4)","2025-05-21 10:22",1200,38.9105626,-95.3996026,TRUE,TRUE,TRUE,"S240928608"
"51","fragul","Franklin's Gull","Leucophaeus pipixcan","L1759273","Greenhouse Ln.","2025-05-21 10:21",32,43.512015,-119.0786411,TRUE,FALSE,FALSE,"S240970609"
"52","fragul","Franklin's Gull","Leucophaeus pipixcan","L6425455","Lovell Lakes","2025-05-21 10:20",5,44.8042063,-108.3565195,TRUE,FALSE,FALSE,"S241063517"
"53","fragul","Franklin's Gull","Leucophaeus pipixcan","L13686140","Devils Elbow Recreation Site","2025-05-21 10:10",7,46.700134,-111.8056681,TRUE,FALSE,FALSE,"S240963472"
"54","fragul","Franklin's Gull","Leucophaeus pipixcan","L28899478","Dairy farm Hastings","2025-05-21 10:08",40,44.752536,-92.932801,TRUE,FALSE,TRUE,"S240923153"
"55","fragul","Franklin's Gull","Leucophaeus pipixcan","L518546","Malheur NWR--Narrows","2025-05-21 09:53",1,43.2873151,-118.9591885,TRUE,FALSE,FALSE,"S240970784"
"56","fragul","Franklin's Gull","Leucophaeus pipixcan","L480981","Clinton Lake--Bloomington East","2025-05-21 09:51",2,38.9100198,-95.3690743,TRUE,FALSE,FALSE,"S240939753"
"57","fragul","Franklin's Gull","Leucophaeus pipixcan","L283255","Utah Lake SP","2025-05-21 09:51",4,40.2367208,-111.7394114,TRUE,FALSE,FALSE,"S240958687"
"58","fragul","Franklin's Gull","Leucophaeus pipixcan","L43835512","AR-33, Cotton Plant US-AR 35.03013, -91.36418","2025-05-21 09:50",1,35.030126,-91.364182,TRUE,FALSE,TRUE,"S240921789"
"59","fragul","Franklin's Gull","Leucophaeus pipixcan","L1429966","Lake Baker","2025-05-21 09:48",1,46.3645395,-104.2705282,TRUE,FALSE,FALSE,"S240967541"
"60","fragul","Franklin's Gull","Leucophaeus pipixcan","L830113","Powell Slough","2025-05-21 09:41",1,40.2716348,-111.7405915,TRUE,FALSE,FALSE,"S240950763"
"61","fragul","Franklin's Gull","Leucophaeus pipixcan","L45542435","Unnamed Road, Corinne, Utah, US (41.449, -112.332)","2025-05-21 09:33",1,41.4485317,-112.3321447,TRUE,FALSE,TRUE,"S240941540"
"62","fragul","Franklin's Gull","Leucophaeus pipixcan","L7477845","Sands WPA--East Unit","2025-05-21 09:05",4,48.5316117,-109.706254,TRUE,FALSE,FALSE,"S240943366"
"63","fragul","Franklin's Gull","Leucophaeus pipixcan","L45595715","3699 360th Street, Ruthven, Iowa, US (43.127, -94.857)","2025-05-21 08:50",17,43.1266344,-94.8572581,TRUE,FALSE,TRUE,"S240897897"
"64","fragul","Franklin's Gull","Leucophaeus pipixcan","L1801406","Lake Alcazar","2025-05-21 08:47",60,43.3225981,-98.3416887,TRUE,FALSE,TRUE,"S240921448"
"65","fragul","Franklin's Gull","Leucophaeus pipixcan","L295759","Medina River Natural Area (HOTE 104)","2025-05-21 08:31",1,29.2640406,-98.5784351,TRUE,FALSE,FALSE,"S240932183"
"66","fragul","Franklin's Gull","Leucophaeus pipixcan","L129107","Texas City Dike (UTC 074)","2025-05-21 08:27",1,29.3838952,-94.867115,TRUE,FALSE,FALSE,"S240985865"
"67","fragul","Franklin's Gull","Leucophaeus pipixcan","L45539700","Unnamed Road, Corinne, Utah, US (41.465, -112.337)","2025-05-21 08:25",1,41.4652451,-112.337082,TRUE,FALSE,TRUE,"S240929674"
"68","fragul","Franklin's Gull","Leucophaeus pipixcan","L151122","Antelope Island SP--Causeway","2025-05-21 08:24",200,41.08841,-112.186714,TRUE,FALSE,FALSE,"S240946803"
"69","fragul","Franklin's Gull","Leucophaeus pipixcan","L1460618","Buffalo Ranch Pond","2025-05-21 08:06",1,40.9801077,-111.9387368,TRUE,FALSE,FALSE,"S240976108"
"70","fragul","Franklin's Gull","Leucophaeus pipixcan","L10167401","Angostura Reservoir","2025-05-21 07:51",6,43.314446,-103.4206818,TRUE,FALSE,FALSE,"S241002240"
"71","fragul","Franklin's Gull","Leucophaeus pipixcan","L208127","Salt Creek WMA","2025-05-21 07:48",13,41.6351667,-112.2440278,TRUE,FALSE,FALSE,"S240937238"
"72","fragul","Franklin's Gull","Leucophaeus pipixcan","L2342351","Malheur NWR--Central Patrol Rd.--Between Headquarters and the Field Station","2025-05-21 07:42",3,43.238598,-118.8540888,TRUE,FALSE,FALSE,"S240971048"
"73","fragul","Franklin's Gull","Leucophaeus pipixcan","L20489660","29 Broken Spoke Ln, Great Falls US-MT (47.5319,-111.4369) HOME","2025-05-21 07:37",5,47.531868,-111.436894,TRUE,FALSE,TRUE,"S240965483"
"74","fragul","Franklin's Gull","Leucophaeus pipixcan","L4660115","Henrys Lake Drive","2025-05-21 07:26",20,44.6683904,-111.4259491,TRUE,FALSE,FALSE,"S240896981"
"75","fragul","Franklin's Gull","Leucophaeus pipixcan","L21669337","Higman Quarry","2025-05-21 07:25",14,42.8123668,-96.579684,TRUE,FALSE,TRUE,"S240870587"
"76","fragul","Franklin's Gull","Leucophaeus pipixcan","L740752","Malheur NWR--Benson Pond","2025-05-21 07:21",12,42.9566738,-118.8657188,TRUE,FALSE,FALSE,"S240929682"
"77","fragul","Franklin's Gull","Leucophaeus pipixcan","L444656","Summer Lake Wildlife Area","2025-05-21 07:15",NA,42.950819,-120.7639503,TRUE,FALSE,FALSE,"S240943078"
"78","fragul","Franklin's Gull","Leucophaeus pipixcan","L1386107","Northlake Park & Loch Lomond Pond","2025-05-21 07:02",15,40.3620139,-111.859546,TRUE,FALSE,FALSE,"S240919031"
"79","fragul","Franklin's Gull","Leucophaeus pipixcan","L926819","Burns Sewage Ponds (restricted access)","2025-05-21 06:58",4,43.5672909,-119.0676928,TRUE,FALSE,FALSE,"S240920687"
"80","fragul","Franklin's Gull","Leucophaeus pipixcan","L366519","Lewisville Lake Park","2025-05-21 06:40",1,33.0703978,-96.9915962,TRUE,FALSE,FALSE,"S240936070"
"81","fragul","Franklin's Gull","Leucophaeus pipixcan","L45588188","43424–43484 SD-50, Yankton US-SD (42.9088,-97.5060)","2025-05-21 06:39",500,42.908834,-97.506037,TRUE,FALSE,TRUE,"S240855835"
"82","fragul","Franklin's Gull","Leucophaeus pipixcan","L2917669","Hawkeye WMA--headquarters area","2025-05-21 06:37",5,41.8132361,-91.6776724,TRUE,TRUE,FALSE,"S240860803"
"83","fragul","Franklin's Gull","Leucophaeus pipixcan","L158588","Helena Valley Regulating Reservoir","2025-05-21 06:30",2,46.6399134,-111.8784685,TRUE,FALSE,FALSE,"S240962418"
"84","fragul","Franklin's Gull","Leucophaeus pipixcan","L752930","Hotchkiss Ln.--WTP Ponds (restricted access)","2025-05-21 06:11",4,43.5551186,-119.0707684,TRUE,FALSE,FALSE,"S240893670"
"85","fragul","Franklin's Gull","Leucophaeus pipixcan","L109287","Adobe Creek Reservoir (Blue Lake)--Bent Co","2025-05-21 06:10",NA,38.25,-103.25,TRUE,FALSE,FALSE,"S240901713"
"86","fragul","Franklin's Gull","Leucophaeus pipixcan","L170028","Loess Bluffs NWR","2025-05-21 05:58",30,40.068893,-95.23534,TRUE,FALSE,FALSE,"S241057231"
"87","fragul","Franklin's Gull","Leucophaeus pipixcan","L16282361","Albees","2025-05-21 04:48",2,41.298102,-101.966052,TRUE,FALSE,TRUE,"S241042094"
"88","fragul","Franklin's Gull","Leucophaeus pipixcan","L45574241","Davis County Cswy, Syracuse US-UT 41.08869, -112.18908","2025-05-20 21:05",30,41.088688,-112.189078,TRUE,FALSE,TRUE,"S240788193"
"89","fragul","Franklin's Gull","Leucophaeus pipixcan","L279425","Lake Elwell--Sanford Park","2025-05-20 20:34",15,48.3110008,-111.0893619,TRUE,FALSE,FALSE,"S241031206"
"90","fragul","Franklin's Gull","Leucophaeus pipixcan","L45572470","Cherry Creek State Park","2025-05-20 20:07",10,39.633704,-104.843847,TRUE,FALSE,TRUE,"S240780838"
"91","fragul","Franklin's Gull","Leucophaeus pipixcan","L45573402","59315 Oregon 78, Burns, Oregon, US (43.44, -118.64)","2025-05-20 19:23",10,43.4398644,-118.639731,TRUE,FALSE,TRUE,"S240784488"
"92","fragul","Franklin's Gull","Leucophaeus pipixcan","L36726978","38967 123rd Avenue Southeast, Fertile, Minnesota, US (47.601, -96.212)","2025-05-20 18:44",25,47.601094,-96.2121781,TRUE,FALSE,TRUE,"S240758476"
"93","fragul","Franklin's Gull","Leucophaeus pipixcan","L45567415","Bradford beach","2025-05-20 18:37",1,43.063383,-87.871557,TRUE,TRUE,TRUE,"S240752122"
"94","fragul","Franklin's Gull","Leucophaeus pipixcan","L678659","Skipper Bay Trail","2025-05-20 18:09",1,40.2486775,-111.7311287,TRUE,FALSE,FALSE,"S240782349"
"95","fragul","Franklin's Gull","Leucophaeus pipixcan","L353768","Pismo Creek mouth","2025-05-20 17:34",1,35.1340046,-120.6392555,TRUE,TRUE,FALSE,"S240777536"
"96","fragul","Franklin's Gull","Leucophaeus pipixcan","L273165","South Fork SRA","2025-05-20 17:32",3,40.6776438,-115.7598495,TRUE,FALSE,FALSE,"S240773671"
"97","fragul","Franklin's Gull","Leucophaeus pipixcan","L2701622","Gavins Point National Fish Hatchery","2025-05-20 17:30",200,42.8717652,-97.4754151,TRUE,FALSE,FALSE,"S240778299"
"98","fragul","Franklin's Gull","Leucophaeus pipixcan","L770872","Bird Refuge Rd.","2025-05-20 16:58",2,41.4689719,-112.1759892,TRUE,FALSE,FALSE,"S240776901"
"99","fragul","Franklin's Gull","Leucophaeus pipixcan","L45567716","69768 Oregon 205, Burns, Oregon, US (43.571, -119.02)","2025-05-20 16:41",5,43.57138,-119.0202166,TRUE,FALSE,TRUE,"S240753816"
"100","fragul","Franklin's Gull","Leucophaeus pipixcan","L1507695","Rice Lake (Eden Prairie)","2025-05-20 16:28",20,44.816249,-93.5145157,TRUE,FALSE,FALSE,"S240720819"
"101","fragul","Franklin's Gull","Leucophaeus pipixcan","L14718495","Rice Lake (Carver Co.)","2025-05-20 16:28",NA,44.812348,-93.5239798,TRUE,FALSE,FALSE,"S240721356"
"102","fragul","Franklin's Gull","Leucophaeus pipixcan","L159567","Kraft Slough","2025-05-20 15:39",45,46.1242916,-97.9117784,TRUE,FALSE,FALSE,"S240713958"
"103","fragul","Franklin's Gull","Leucophaeus pipixcan","L16387074","Lawen Lane, Princeton, Oregon, US (43.389, -118.819)","2025-05-20 15:23",1,43.388587,-118.8191235,TRUE,FALSE,TRUE,"S240912622"
"104","fragul","Franklin's Gull","Leucophaeus pipixcan","L8871237","Mud Lake WMA--North Boat Ramp","2025-05-20 15:19",120,43.8979357,-112.3886632,TRUE,FALSE,FALSE,"S240720256"
"105","fragul","Franklin's Gull","Leucophaeus pipixcan","L248762","Bolivar-Galveston Ferry","2025-05-20 15:03",1,29.3563781,-94.7808955,TRUE,FALSE,FALSE,"S240696157"
"106","fragul","Franklin's Gull","Leucophaeus pipixcan","L2351134","Marston Reservoir Complex--Marston Reservoir West End","2025-05-20 14:55",13,39.6319295,-105.0789671,TRUE,FALSE,FALSE,"S240735263"
"107","fragul","Franklin's Gull","Leucophaeus pipixcan","L45559022","052025 Franklin’s Gull","2025-05-20 14:53",1,45.885843,-109.139547,TRUE,FALSE,TRUE,"S240708985"
"108","fragul","Franklin's Gull","Leucophaeus pipixcan","L1397044","Lower Provo River Parkway--Oxbow to Lakeshore Dr.","2025-05-20 14:49",5,40.2375348,-111.7152155,TRUE,FALSE,FALSE,"S240744479"
"109","fragul","Franklin's Gull","Leucophaeus pipixcan","L1676985","Mud Lake WMA--East End","2025-05-20 14:37",50,43.8924953,-112.357379,TRUE,FALSE,FALSE,"S240862594"
"110","fragul","Franklin's Gull","Leucophaeus pipixcan","L1422055","Antelope Island SP--Marina","2025-05-20 14:19",44,41.0614917,-112.2390532,TRUE,FALSE,FALSE,"S240708802"
"111","fragul","Franklin's Gull","Leucophaeus pipixcan","L45567807","Hwy 385 South of Alliance","2025-05-20 14:15",2,41.9360559,-103.0287687,TRUE,FALSE,TRUE,"S240756310"
"112","fragul","Franklin's Gull","Leucophaeus pipixcan","L168559","Provo Airport Dike","2025-05-20 14:13",7,40.2186598,-111.7285157,TRUE,FALSE,FALSE,"S240768392"
"113","fragul","Franklin's Gull","Leucophaeus pipixcan","L45553405","6045–6399 34th Ave, Rugby US-ND 48.32545, -99.89072","2025-05-20 13:56",6,48.32545,-99.890719,TRUE,FALSE,TRUE,"S240681785"
"114","fragul","Franklin's Gull","Leucophaeus pipixcan","L265044","Winfield Dam/Sandy Chute and surrounding fields","2025-05-20 13:55",3,39.001065,-90.6969059,TRUE,FALSE,FALSE,"S240678845"
"115","fragul","Franklin's Gull","Leucophaeus pipixcan","L27775736","Barger Gulch Fishing Access","2025-05-20 13:41",21,40.043004,-106.322102,TRUE,FALSE,TRUE,"S240697330"
"116","fragul","Franklin's Gull","Leucophaeus pipixcan","L44583159","Plough","2025-05-20 13:40",1,40.27433,-111.739241,TRUE,FALSE,TRUE,"S240689505"
"117","fragul","Franklin's Gull","Leucophaeus pipixcan","L1432264","Fort Peck Dredge Cut Ponds FAS","2025-05-20 13:38",1,48.0517499,-106.4437504,TRUE,FALSE,FALSE,"S240751522"
"118","fragul","Franklin's Gull","Leucophaeus pipixcan","L3940256","Sands WPA--West Unit","2025-05-20 13:30",3,48.5393197,-109.7490031,TRUE,FALSE,FALSE,"S240747884"
"119","fragul","Franklin's Gull","Leucophaeus pipixcan","L888074","Western Wings Pond","2025-05-20 13:24",17,43.7423286,-112.1505404,TRUE,FALSE,FALSE,"S240704892"
"120","fragul","Franklin's Gull","Leucophaeus pipixcan","L212323","Lee Kay Ponds","2025-05-20 13:18",2,40.7397136,-112.0437241,TRUE,FALSE,FALSE,"S240707366"
"121","fragul","Franklin's Gull","Leucophaeus pipixcan","L504335","4000 West & Lake Shore (Utah Co.)","2025-05-20 13:18",13,40.1437905,-111.7493248,TRUE,FALSE,FALSE,"S240688552"
"122","fragul","Franklin's Gull","Leucophaeus pipixcan","L109548","McNary NWR--Walla Walla River Delta","2025-05-20 12:55",3,46.0685319,-118.9096792,TRUE,FALSE,FALSE,"S240779862"
"123","fragul","Franklin's Gull","Leucophaeus pipixcan","L24887887","Lawen Ln, Burns US-OR 43.38511, -118.83016","2025-05-20 12:36",3,43.385111,-118.830159,TRUE,FALSE,TRUE,"S240690107"
"124","fragul","Franklin's Gull","Leucophaeus pipixcan","L45548585","Pothole area south of Pleasant Lake","2025-05-20 12:30",4,48.3185,-99.826607,TRUE,FALSE,TRUE,"S240659711"
"125","fragul","Franklin's Gull","Leucophaeus pipixcan","L45544120","9th Street Northwest, Coleharbor, North Dakota, US (47.545, -101.214)","2025-05-20 12:17",1,47.5454728,-101.2139466,TRUE,FALSE,TRUE,"S240638886"
"126","fragul","Franklin's Gull","Leucophaeus pipixcan","L35977151","Rome Boat Launch (Peoria Co.)","2025-05-20 12:05",1,40.8816395,-89.4994793,TRUE,FALSE,FALSE,"S240657205"
"127","fragul","Franklin's Gull","Leucophaeus pipixcan","L164961","Bear River MBR--Auto Tour Loop","2025-05-20 12:05",2,41.4692291,-112.2947788,TRUE,FALSE,FALSE,"S240723282"
"128","fragul","Franklin's Gull","Leucophaeus pipixcan","L45542516","57501, Pierre US-SD 44.44599, -100.38989","2025-05-20 11:50",10,44.445987,-100.389895,TRUE,FALSE,TRUE,"S240631481"
"129","fragul","Franklin's Gull","Leucophaeus pipixcan","L151758","Agassiz NWR","2025-05-20 11:47",8,48.3504,-95.9501,TRUE,FALSE,FALSE,"S240774282"
"130","fragul","Franklin's Gull","Leucophaeus pipixcan","L7454226","30300–30398 Hotchkiss Ln, Burns US-OR (43.5566,-119.0503)","2025-05-20 11:45",200,43.55659,-119.050253,TRUE,FALSE,TRUE,"S240673837"
"131","fragul","Franklin's Gull","Leucophaeus pipixcan","L45546052","Unnamed Road, Corinne, Utah, US (41.46, -112.277)","2025-05-20 11:39",1,41.4598685,-112.277281,TRUE,FALSE,TRUE,"S240647627"
"132","fragul","Franklin's Gull","Leucophaeus pipixcan","L20667735","Freezout Lake WMA—Pond 6 Dike","2025-05-20 11:16",NA,47.66024,-112.017459,TRUE,FALSE,TRUE,"S240661458"
"133","fragul","Franklin's Gull","Leucophaeus pipixcan","L44391992","Tuttle Creek Lake--The Roost AirBnB (birders welcome)","2025-05-20 11:12",NA,39.277046,-96.6265709,TRUE,FALSE,FALSE,"S240623673"
"134","fragul","Franklin's Gull","Leucophaeus pipixcan","L19979477","Freezeout Lake WMA--auto tour route ""The Neck""","2025-05-20 11:12",18,47.6753607,-112.0419934,TRUE,FALSE,FALSE,"S240713191"
"135","fragul","Franklin's Gull","Leucophaeus pipixcan","L1300569","255 St x Pflug Rd","2025-05-20 11:12",22,41.071328,-96.3204646,TRUE,FALSE,FALSE,"S240633472"
"136","fragul","Franklin's Gull","Leucophaeus pipixcan","L338774","Neegronda Reservoir","2025-05-20 11:10",14,38.3034071,-102.7543708,TRUE,FALSE,FALSE,"S241013515"
"137","fragul","Franklin's Gull","Leucophaeus pipixcan","L45538851","1119–1167 US-77, Hooper US-NE 41.60180, -96.50230","2025-05-20 11:00",27,41.601798,-96.502297,TRUE,FALSE,TRUE,"S240614355"
"138","fragul","Franklin's Gull","Leucophaeus pipixcan","L9520126","Grand Forks Lagoons Birding from Perimeter","2025-05-20 10:36",50,47.9692466,-97.1318288,TRUE,FALSE,TRUE,"S240615017"
"139","fragul","Franklin's Gull","Leucophaeus pipixcan","L299782","Burlington Lake (Goldeneye Reservoir)","2025-05-20 10:32",28,43.019333,-106.7073727,TRUE,FALSE,FALSE,"S240644825"
"140","fragul","Franklin's Gull","Leucophaeus pipixcan","L523579","198 bridge Payne Springs,Texas","2025-05-20 10:30",4,32.3045453,-96.1125183,TRUE,FALSE,TRUE,"S240919713"
"141","fragul","Franklin's Gull","Leucophaeus pipixcan","L45562281","1050 N Woodruff Ave, Idaho Falls US-ID 43.50568, -111.99755","2025-05-20 10:28",14,43.50568,-111.997545,TRUE,FALSE,TRUE,"S240726329"
"142","fragul","Franklin's Gull","Leucophaeus pipixcan","L45541714","600–656 S Division Ln, Fairfield US-MT 47.52279, -112.01188","2025-05-20 10:21",3,47.522793,-112.011875,TRUE,FALSE,TRUE,"S240627629"
"143","fragul","Franklin's Gull","Leucophaeus pipixcan","L2161824","Springer/Bump Sullivan Wildlife Habitat Management Area--Bump-Sullivan Reservoir","2025-05-20 10:17",4,41.863169,-104.3146706,TRUE,FALSE,FALSE,"S240646692"
"144","fragul","Franklin's Gull","Leucophaeus pipixcan","L966521","Lawen Marshes","2025-05-20 10:15",300,43.40224,-118.84859,TRUE,FALSE,FALSE,"S240668888"
"145","fragul","Franklin's Gull","Leucophaeus pipixcan","L742936","Malheur NWR (general)","2025-05-20 10:11",3,43.2053426,-118.9297485,TRUE,FALSE,FALSE,"S240787012"
"146","fragul","Franklin's Gull","Leucophaeus pipixcan","L45572904","County Road 11, Mead US-NE 41.23330, -96.50280","2025-05-20 10:08",46,41.233296,-96.502797,TRUE,FALSE,TRUE,"S240782119"
"147","fragul","Franklin's Gull","Leucophaeus pipixcan","L159535","Grahams Island SP","2025-05-20 10:05",NA,48.04376,-99.0561354,TRUE,FALSE,FALSE,"S240678869"
"148","fragul","Franklin's Gull","Leucophaeus pipixcan","L158584","Bowdoin NWR","2025-05-20 10:00",1,48.4018332,-107.6784611,TRUE,FALSE,FALSE,"S240731656"
"149","fragul","Franklin's Gull","Leucophaeus pipixcan","L45552405","Dam Site Park -John Redmond Reservoir","2025-05-20 09:59",2,38.244798,-95.755915,TRUE,FALSE,TRUE,"S240677283"
"150","fragul","Franklin's Gull","Leucophaeus pipixcan","L1433931","Lake Carl Blackwell","2025-05-20 09:55",2,36.134915,-97.2001329,TRUE,FALSE,FALSE,"S240596711"
"151","fragul","Franklin's Gull","Leucophaeus pipixcan","L1095592","Township Rd.","2025-05-20 09:54",1,42.0385842,-121.769886,TRUE,FALSE,FALSE,"S240635678"
"152","fragul","Franklin's Gull","Leucophaeus pipixcan","L30772798","Bird Refuge Rd, western segment of the auto loop road. Corinne US-UT 41.47714, -112.34023","2025-05-20 09:44",12,41.477141,-112.340232,TRUE,FALSE,TRUE,"S240719436"
"153","fragul","Franklin's Gull","Leucophaeus pipixcan","L2191941","Hwy. 205--Substation Pond","2025-05-20 09:43",4,43.4971413,-119.0183258,TRUE,FALSE,FALSE,"S240794054"
"154","fragul","Franklin's Gull","Leucophaeus pipixcan","L3451037","Boerne Lake","2025-05-20 09:42",1,29.8240748,-98.7686348,TRUE,FALSE,TRUE,"S240619726"
"155","fragul","Franklin's Gull","Leucophaeus pipixcan","L1335935","Alum Creek SP--Beach and Alum Reservoir South","2025-05-20 09:34",1,40.1907888,-82.9665642,TRUE,TRUE,FALSE,"S240609453"
"156","fragul","Franklin's Gull","Leucophaeus pipixcan","L12129231","Hans and Pat Suter Wildlife Refuge, Corpus Christi US-TX 27.70867, -97.33794","2025-05-20 09:15",6,27.708674,-97.337936,TRUE,FALSE,TRUE,"S240664925"
"157","fragul","Franklin's Gull","Leucophaeus pipixcan","L2387523","Beaver Creek Park and Reservoir","2025-05-20 09:13",1,48.4039,-109.71291,TRUE,FALSE,FALSE,"S240734294"
"158","fragul","Franklin's Gull","Leucophaeus pipixcan","L190743","Antelope Island SP","2025-05-20 09:08",46,41.0465405,-112.2383881,TRUE,FALSE,FALSE,"S240730215"
"159","fragul","Franklin's Gull","Leucophaeus pipixcan","L1283469","Grapevine Lake—Oak Grove Park—Sand Bass Dr.","2025-05-20 09:02",1,32.9647828,-97.073822,TRUE,FALSE,FALSE,"S240673256"
"160","fragul","Franklin's Gull","Leucophaeus pipixcan","L43222678","Bountiful Pond","2025-05-20 08:59",4,40.907061,-111.92462,TRUE,FALSE,TRUE,"S240735518"
"161","fragul","Franklin's Gull","Leucophaeus pipixcan","L45538744","1603–1699 ND-3, Chaseley US-ND (47.1567,-99.9686)","2025-05-20 08:58",12,47.156658,-99.968566,TRUE,FALSE,TRUE,"S240613837"
"162","fragul","Franklin's Gull","Leucophaeus pipixcan","L31724928","Teton River Behind Stonebridge Neighborhood","2025-05-20 08:55",30,43.834862,-111.768527,TRUE,FALSE,TRUE,"S240612666"
"163","fragul","Franklin's Gull","Leucophaeus pipixcan","L1570131","River Lane--Sandy Beach","2025-05-20 08:55",6,40.1676042,-111.7469285,TRUE,FALSE,FALSE,"S240688001"
"164","fragul","Franklin's Gull","Leucophaeus pipixcan","L45549207","4431 West Gentile Street, Syracuse, Utah, US (41.06, -112.062)","2025-05-20 08:46",4,41.0601942,-112.0619859,TRUE,FALSE,TRUE,"S240662545"
"165","fragul","Franklin's Gull","Leucophaeus pipixcan","L45571086","Harold Crane and Plover Survey","2025-05-20 08:23",1,41.308841,-112.142252,TRUE,FALSE,TRUE,"S240773404"
"166","fragul","Franklin's Gull","Leucophaeus pipixcan","L8539543","461 East 1600 South, Trenton, Utah, US (41.889, -111.932)","2025-05-20 08:21",2,41.8885511,-111.9316883,TRUE,FALSE,TRUE,"S240590540"
"167","fragul","Franklin's Gull","Leucophaeus pipixcan","L852058","Cheney SP--West Shore Area (Kingman Co.)","2025-05-20 08:20",26,37.7253794,-97.8364277,TRUE,FALSE,FALSE,"S240572689"
"168","fragul","Franklin's Gull","Leucophaeus pipixcan","L45530103","8730 Bird Refuge Road, Corinne, Utah, US (41.48, -112.251)","2025-05-20 08:04",1,41.4796044,-112.2505785,TRUE,FALSE,TRUE,"S240570536"
"169","fragul","Franklin's Gull","Leucophaeus pipixcan","L18461325","Lake Hefner Jetty","2025-05-20 07:52",8,35.553854,-97.596536,TRUE,FALSE,TRUE,"S240569345"
"170","fragul","Franklin's Gull","Leucophaeus pipixcan","L815117","Hagerman NWR","2025-05-20 07:50",3,33.7385706,-96.7527511,TRUE,FALSE,FALSE,"S240710064"
"171","fragul","Franklin's Gull","Leucophaeus pipixcan","L45567494","River Camp","2025-05-20 07:45",4,45.8581237,-112.0111108,TRUE,FALSE,TRUE,"S240789054"
"172","fragul","Franklin's Gull","Leucophaeus pipixcan","L558294","Lake North/Babcock","2025-05-20 07:42",NA,41.4901921,-97.3539734,TRUE,FALSE,FALSE,"S240541052"
"173","fragul","Franklin's Gull","Leucophaeus pipixcan","L7941934","Jordan River Parkway--Redwood Rd to Davis Co. Line","2025-05-20 07:19",5,40.8151569,-111.9414783,TRUE,FALSE,FALSE,"S240629542"
"174","fragul","Franklin's Gull","Leucophaeus pipixcan","L294849","Granger Lake Area (HOTE 031)","2025-05-20 07:18",75,30.7001608,-97.3597466,TRUE,FALSE,FALSE,"S240593504"
"175","fragul","Franklin's Gull","Leucophaeus pipixcan","L1286659","Giant Springs SP","2025-05-20 07:10",3,47.5337623,-111.2297487,TRUE,FALSE,FALSE,"S240750952"
"176","fragul","Franklin's Gull","Leucophaeus pipixcan","L1309950","Lake Park--Linnwood Water Treatment Plant to Bradford Beach","2025-05-20 07:10",1,43.0695148,-87.865777,TRUE,TRUE,FALSE,"S240593778"
"177","fragul","Franklin's Gull","Leucophaeus pipixcan","L31939844","Oak Grove Park, Grapevine US-TX 32.96501, -97.07752","2025-05-20 06:46",12,32.96501,-97.077516,TRUE,FALSE,TRUE,"S240530246"
"178","fragul","Franklin's Gull","Leucophaeus pipixcan","L22855201","Twin Lakes Golf Course, Willcox US-AZ 32.23361, -109.82678","2025-05-20 06:46",5,32.233607,-109.82678,TRUE,FALSE,TRUE,"S240615774"
"179","fragul","Franklin's Gull","Leucophaeus pipixcan","L1509906","Utah Lake Parkway Trail (North Shore)","2025-05-20 06:31",1,40.3622447,-111.8832118,TRUE,FALSE,FALSE,"S240660453"
"180","fragul","Franklin's Gull","Leucophaeus pipixcan","L45521145","Pothole areas SW of Rugby","2025-05-20 06:23",20,48.326312,-100.063947,TRUE,FALSE,TRUE,"S240522001"
"181","fragul","Franklin's Gull","Leucophaeus pipixcan","L6707504","Storm Lake","2025-05-20 06:22",2,42.6242589,-95.2050304,TRUE,FALSE,FALSE,"S240532718"
"182","fragul","Franklin's Gull","Leucophaeus pipixcan","L200627","Horseshoe Lake State Park","2025-05-20 06:15",10,38.7039503,-90.0724398,TRUE,TRUE,FALSE,"S240558808"
"183","fragul","Franklin's Gull","Leucophaeus pipixcan","L887672","Neosho WA","2025-05-20 05:57",8,37.4923621,-95.1404214,TRUE,FALSE,FALSE,"S240623128"
"184","fragul","Franklin's Gull","Leucophaeus pipixcan","L8346063","Hines Nature Trail","2025-05-20 05:57",7,43.5561306,-119.0771071,TRUE,FALSE,FALSE,"S240568309"
"185","fragul","Franklin's Gull","Leucophaeus pipixcan","L850355","Tule Lake NWR--Auto Tour and Sump 1B (SIS Co.)","2025-05-19 19:46",3,41.8496929,-121.4777098,TRUE,FALSE,FALSE,"S240437807"
"186","fragul","Franklin's Gull","Leucophaeus pipixcan","L41148991","Bird Refuge Road, Corinne, Utah, US (41.483, -112.293)","2025-05-19 18:25",7,41.482841,-112.2929265,TRUE,FALSE,TRUE,"S240421380"
"187","fragul","Franklin's Gull","Leucophaeus pipixcan","L8597362","Meadow Lake (Barnes Co.)","2025-05-19 18:21",60,46.7473615,-98.3335925,TRUE,FALSE,FALSE,"S240405825"
"188","fragul","Franklin's Gull","Leucophaeus pipixcan","L2689078","Red Rock Lakes NWR--Lakeview","2025-05-19 18:19",1,44.6009393,-111.810565,TRUE,FALSE,FALSE,"S240436696"
"189","fragul","Franklin's Gull","Leucophaeus pipixcan","L31334236","County Road 62, Clark, Colorado, US (40.804, -106.984)","2025-05-19 18:00",4,40.8041847,-106.9838345,TRUE,FALSE,TRUE,"S240985292"
"190","fragul","Franklin's Gull","Leucophaeus pipixcan","L45502038","Camas NWR, 1st half of Auto Tour Loop","2025-05-19 17:55",3,43.9634191,-112.2651178,TRUE,FALSE,TRUE,"S240425771"
"191","fragul","Franklin's Gull","Leucophaeus pipixcan","L45529758","TNC Bunkhouse","2025-05-19 17:45",1,38.3996835,-96.5396594,TRUE,FALSE,TRUE,"S240571382"
"192","fragul","Franklin's Gull","Leucophaeus pipixcan","L20820603","7750 Washington Boulevard, Manhattan, Kansas, US (39.273, -96.588)","2025-05-19 17:42",6,39.2725516,-96.5881795,TRUE,FALSE,TRUE,"S240435646"
"193","fragul","Franklin's Gull","Leucophaeus pipixcan","L241530","Smith Reservoir SWA","2025-05-19 17:33",1,37.3919965,-105.534457,TRUE,FALSE,FALSE,"S240430622"
"194","fragul","Franklin's Gull","Leucophaeus pipixcan","L1893162","Hillsdale WA--Antioch Marsh (south)","2025-05-19 16:55",1,38.7096879,-94.9662173,TRUE,FALSE,FALSE,"S240549420"
"195","fragul","Franklin's Gull","Leucophaeus pipixcan","L158612","North Platte NWR--Lake Minatare","2025-05-19 16:40",124,41.9315,-103.4916,TRUE,FALSE,FALSE,"S240427515"
"196","fragul","Franklin's Gull","Leucophaeus pipixcan","L3112862","Antelope Island SP--Lady Finger Point","2025-05-19 16:39",NA,41.058608,-112.2512646,TRUE,FALSE,FALSE,"S240402100"
"197","fragul","Franklin's Gull","Leucophaeus pipixcan","L348472","Logan City Polishing Ponds","2025-05-19 16:30",NA,41.7731387,-111.8971309,TRUE,FALSE,FALSE,"S240423414"
"198","fragul","Franklin's Gull","Leucophaeus pipixcan","L2117003","Snyder Bend Park","2025-05-19 16:13",15,42.2824843,-96.3355064,TRUE,FALSE,FALSE,"S240368162"
"199","fragul","Franklin's Gull","Leucophaeus pipixcan","L45499114","US-52, Harvey US-ND 47.73131, -99.84459","2025-05-19 16:07",12,47.731314,-99.844586,TRUE,FALSE,TRUE,"S240409516"
"200","fragul","Franklin's Gull","Leucophaeus pipixcan","L45498351","Black Sandy State Park, Helena, Montana","2025-05-19 16:00",1,46.7455365,-111.8866968,TRUE,FALSE,TRUE,"S240427999"
"201","fragul","Franklin's Gull","Leucophaeus pipixcan","L45499165","US-52, Martin US-ND 47.84536, -100.16219","2025-05-19 15:51",6,47.845361,-100.162187,TRUE,FALSE,TRUE,"S240409841"
"202","fragul","Franklin's Gull","Leucophaeus pipixcan","L14554924","Beck-Alkali-Buchanan Lakes","2025-05-19 15:35",10,44.5101278,-109.0232847,TRUE,FALSE,TRUE,"S240371318"
"203","fragul","Franklin's Gull","Leucophaeus pipixcan","L693440","Amalga Barrens","2025-05-19 15:31",2,41.8599089,-111.9320583,TRUE,FALSE,FALSE,"S240382137"
"204","fragul","Franklin's Gull","Leucophaeus pipixcan","L44893749","Alkali","2025-05-19 15:30",1,44.5106016,-109.0278116,TRUE,FALSE,TRUE,"S240435509"
"205","fragul","Franklin's Gull","Leucophaeus pipixcan","L45486746","24149 Highway 10, McKenzie, North Dakota, US (46.823, -100.403)","2025-05-19 15:27",150,46.8226659,-100.4027816,TRUE,FALSE,TRUE,"S240341984"
"206","fragul","Franklin's Gull","Leucophaeus pipixcan","L12877871","Quivira NWR (Stafford Co.)","2025-05-19 15:16",22,38.1511805,-98.5188995,TRUE,FALSE,FALSE,"S240669816"
"207","fragul","Franklin's Gull","Leucophaeus pipixcan","L9635832","Big Sandy Reservoir (Sublette County)","2025-05-19 15:05",12,42.2710546,-109.4280364,TRUE,FALSE,FALSE,"S240617525"
"208","fragul","Franklin's Gull","Leucophaeus pipixcan","L4796481","stakeout Costa's Hummingbird, Tuttle Creek (2005)","2025-05-19 14:55",3,39.2625963,-96.6149068,TRUE,FALSE,FALSE,"S240331306"
"209","fragul","Franklin's Gull","Leucophaeus pipixcan","L44909985","Rowe Sanctuary--Southwest Meadows (restricted access)","2025-05-19 14:45",33,40.657854,-98.934513,TRUE,FALSE,TRUE,"S240344582"
"210","fragul","Franklin's Gull","Leucophaeus pipixcan","L421073","Beck & Alkali Lakes","2025-05-19 14:44",8,44.5096973,-109.0376973,TRUE,FALSE,FALSE,"S240362233"
"211","fragul","Franklin's Gull","Leucophaeus pipixcan","L45483320","22247–22699 ND-52 N, Carpio US-ND 48.40974, -101.64468","2025-05-19 14:30",20,48.409745,-101.644676,TRUE,FALSE,TRUE,"S240325440"
"212","fragul","Franklin's Gull","Leucophaeus pipixcan","L12634065","Wheatland Reservoir Number 1","2025-05-19 14:14",2,41.9993829,-105.0369627,TRUE,FALSE,FALSE,"S240375201"
"213","fragul","Franklin's Gull","Leucophaeus pipixcan","L23253573","Lacreek National Wildlife Refuge, Martin US-SD 43.12500, -101.53488","2025-05-19 14:05",4,43.125002,-101.534881,TRUE,FALSE,TRUE,"S240345422"
"214","fragul","Franklin's Gull","Leucophaeus pipixcan","L45482648","Welker Lake","2025-05-19 14:03",20,43.664852,-97.668891,TRUE,FALSE,TRUE,"S240322407"
"215","fragul","Franklin's Gull","Leucophaeus pipixcan","L268781","Lake Somerville—Yegua Creek Pk (PPW-W 004) (Campers Only)","2025-05-19 14:02",2,30.303156,-96.5417068,TRUE,FALSE,FALSE,"S240320190"
"216","fragul","Franklin's Gull","Leucophaeus pipixcan","L267480","Rio Blanco SWA--Rio Blanco Lake","2025-05-19 14:00",1,40.0881027,-108.2080536,TRUE,FALSE,FALSE,"S240365253"
"217","fragul","Franklin's Gull","Leucophaeus pipixcan","L661712","Lower Klamath NWR (OR side)","2025-05-19 14:00",5,42.013744,-121.7566509,TRUE,FALSE,FALSE,"S240926687"
"218","fragul","Franklin's Gull","Leucophaeus pipixcan","L45487026","BLM HORSE THIEF OHV ROAD Roundup US-MT 46.47647, -108.67359","2025-05-19 13:47",4,46.476471,-108.673588,TRUE,FALSE,TRUE,"S240343431"
"219","fragul","Franklin's Gull","Leucophaeus pipixcan","L1315460","Lake Charles swimming beach","2025-05-19 13:33",1,30.2359137,-93.2347634,TRUE,TRUE,FALSE,"S240301376"
"220","fragul","Franklin's Gull","Leucophaeus pipixcan","L212070","Glover Lane & GSL Nature Center","2025-05-19 13:30",17,40.9650238,-111.9299004,TRUE,FALSE,FALSE,"S240352469"
"221","fragul","Franklin's Gull","Leucophaeus pipixcan","L45479151","8784 82nd Street Northwest, Powers Lake, North Dakota, US (48.604, -102.579)","2025-05-19 13:25",7,48.6042956,-102.5788295,TRUE,FALSE,TRUE,"S240306640"
"222","fragul","Franklin's Gull","Leucophaeus pipixcan","L45481188","Arimo, Idaho","2025-05-19 13:10",3,42.5639566,-112.178568,TRUE,FALSE,TRUE,"S240315806"
"223","fragul","Franklin's Gull","Leucophaeus pipixcan","L45475243","I-90 E, Pukwana US-SD 43.75169, -99.15787","2025-05-19 13:04",75,43.751689,-99.157871,TRUE,FALSE,TRUE,"S240288813"
"224","fragul","Franklin's Gull","Leucophaeus pipixcan","L2956332","Fort Benton--Riverfront Trail","2025-05-19 12:54",2,47.8174779,-110.6671746,TRUE,FALSE,FALSE,"S240341913"
"225","fragul","Franklin's Gull","Leucophaeus pipixcan","L874514","North Platte WTP","2025-05-19 12:48",4,41.1189351,-100.7230532,TRUE,FALSE,FALSE,"S240299659"
"226","fragul","Franklin's Gull","Leucophaeus pipixcan","L2837099","US-ND-Valley City-3300-3306 Old Hwy 10","2025-05-19 12:30",1,46.930873,-98.101762,TRUE,FALSE,TRUE,"S240361054"
"227","fragul","Franklin's Gull","Leucophaeus pipixcan","L1138866","Salt Plains NWR--Sandpiper Trail","2025-05-19 12:10",15,36.7992854,-98.249917,TRUE,FALSE,FALSE,"S240668254"
"228","fragul","Franklin's Gull","Leucophaeus pipixcan","L23564257","56243, Grove City US-MN (45.0342,-94.6989)","2025-05-19 12:09",40,45.034202,-94.698857,TRUE,FALSE,TRUE,"S240307481"
"229","fragul","Franklin's Gull","Leucophaeus pipixcan","L45515245","20246 Islandview Pl, Mystic US-IA 40.82790, -92.90033","2025-05-19 12:05",4,40.827901,-92.900331,TRUE,FALSE,TRUE,"S240488095"
"230","fragul","Franklin's Gull","Leucophaeus pipixcan","L45481751","17652–17688 Highway 20 W, Riley US-OR (43.5423,-119.4962)","2025-05-19 12:03",12,43.542277,-119.496217,TRUE,FALSE,TRUE,"S240318242"
"231","fragul","Franklin's Gull","Leucophaeus pipixcan","L45472879","N 1190 Rd, Lawrence US-KS (38.9107,-95.3990)","2025-05-19 12:02",30,38.91069,-95.399028,TRUE,FALSE,TRUE,"S240277982"
"232","fragul","Franklin's Gull","Leucophaeus pipixcan","L2128132","Cheney WA--Yoder Cove","2025-05-19 11:59",15,37.8047319,-97.8795362,TRUE,FALSE,FALSE,"S240356105"
"233","fragul","Franklin's Gull","Leucophaeus pipixcan","L45474566","Irving Gas Station--Oakfield","2025-05-19 11:58",1,46.1136174,-68.1591457,TRUE,TRUE,TRUE,"S240314959"
"234","fragul","Franklin's Gull","Leucophaeus pipixcan","L45469558","N 1190 Rd, Lawrence US-KS (38.9115,-95.3976)","2025-05-19 11:55",25,38.911505,-95.397558,TRUE,FALSE,TRUE,"S240262447"
"235","fragul","Franklin's Gull","Leucophaeus pipixcan","L13418171","Walnut Woods Metro Park--Tall Pines Area","2025-05-19 11:49",2,39.8378125,-82.8739484,TRUE,TRUE,FALSE,"S240660310"
"236","fragul","Franklin's Gull","Leucophaeus pipixcan","L32076597","Rainbow Ridge, Clark, Colorado, US (40.802, -106.983)","2025-05-19 11:32",1,40.8019767,-106.9825863,TRUE,FALSE,TRUE,"S240327444"
"237","fragul","Franklin's Gull","Leucophaeus pipixcan","L2369993","St. Hilaire City Park","2025-05-19 11:27",20,48.0110708,-96.2118137,TRUE,FALSE,FALSE,"S240264190"
"238","fragul","Franklin's Gull","Leucophaeus pipixcan","L26754366","Widgeon Pond","2025-05-19 11:15",3,44.6434949,-111.6556364,TRUE,FALSE,TRUE,"S240537386"
"239","fragul","Franklin's Gull","Leucophaeus pipixcan","L5001557","I15--Nephi","2025-05-19 11:06",1,39.7104531,-111.8168022,TRUE,FALSE,FALSE,"S240574692"
"240","fragul","Franklin's Gull","Leucophaeus pipixcan","L45465749","10118 North Dakota 50, McGregor, North Dakota, US (48.575, -102.868)","2025-05-19 11:05",9,48.5754089,-102.8681116,TRUE,FALSE,TRUE,"S240244899"
"241","fragul","Franklin's Gull","Leucophaeus pipixcan","L7847702","Pierce WTP","2025-05-19 11:03",110,42.1862429,-97.5232745,TRUE,FALSE,FALSE,"S240699887"
"242","fragul","Franklin's Gull","Leucophaeus pipixcan","L45464491","10898-10800 81st Street Northwest, McGregor, North Dakota, US (48.59, -103.016)","2025-05-19 10:55",55,48.5899394,-103.0163592,TRUE,FALSE,TRUE,"S240238682"
"243","fragul","Franklin's Gull","Leucophaeus pipixcan","L45501517","Chain Lake Road, Kremlin, Montana, US (48.645, -110.052)","2025-05-19 10:51",24,48.6448742,-110.0518756,TRUE,FALSE,TRUE,"S240422601"
"244","fragul","Franklin's Gull","Leucophaeus pipixcan","L45463566","80th Street Northwest, Alamo, North Dakota, US (48.575, -103.314)","2025-05-19 10:40",90,48.5754057,-103.3142199,TRUE,FALSE,TRUE,"S240233933"
"245","fragul","Franklin's Gull","Leucophaeus pipixcan","L3715131","Lake Mason NWR--Lake Mason","2025-05-19 10:33",30,46.5139592,-108.6719022,TRUE,FALSE,FALSE,"S240307490"
"246","fragul","Franklin's Gull","Leucophaeus pipixcan","L2057799","Jordan River Parkway--6100 S to 7800 S (incl. Winchester Park)","2025-05-19 10:27",1,40.6304998,-111.9235182,TRUE,FALSE,FALSE,"S240277026"
"247","fragul","Franklin's Gull","Leucophaeus pipixcan","L1767203","Ennis Lake--Clute's Landing FAS","2025-05-19 10:23",2,45.4207883,-111.7110322,TRUE,FALSE,FALSE,"S240263465"
"248","fragul","Franklin's Gull","Leucophaeus pipixcan","L159714","Manitowoc Impoundment","2025-05-19 10:18",1,44.1001088,-87.6486295,TRUE,TRUE,FALSE,"S240369157"
"249","fragul","Franklin's Gull","Leucophaeus pipixcan","L45462203","15249 83rd Street Northwest, Grenora, North Dakota, US (48.619, -103.976)","2025-05-19 10:07",90,48.619235,-103.9759464,TRUE,FALSE,TRUE,"S240227633"
"250","fragul","Franklin's Gull","Leucophaeus pipixcan","L1102896","Lake Wanahoo","2025-05-19 10:07",10,41.2434171,-96.610508,TRUE,FALSE,FALSE,"S240258324"
"251","fragul","Franklin's Gull","Leucophaeus pipixcan","L25931775","Bassway Gravel Ponds","2025-05-19 10:06",1,40.681787,-98.9428543,TRUE,FALSE,FALSE,"S240223607"
"252","fragul","Franklin's Gull","Leucophaeus pipixcan","L45471709","Pothole areas West and NW of Rugby","2025-05-19 09:55",40,48.371224,-100.022157,TRUE,FALSE,TRUE,"S240272602"
"253","fragul","Franklin's Gull","Leucophaeus pipixcan","L3675283","Putney #3 GPA","2025-05-19 09:53",5,45.6891318,-98.1119774,TRUE,FALSE,FALSE,"S240312852"
"254","fragul","Franklin's Gull","Leucophaeus pipixcan","L45459623","Resevoir Road, Dorrance, Kansas, US (38.947, -98.657)","2025-05-19 09:50",90,38.9467893,-98.6565237,TRUE,FALSE,TRUE,"S240215642"
"255","fragul","Franklin's Gull","Leucophaeus pipixcan","L390912","Saylorville Reservoir--Sandpiper Recreation Area","2025-05-19 09:38",1,41.746982,-93.7059975,TRUE,FALSE,FALSE,"S240255038"
"256","fragul","Franklin's Gull","Leucophaeus pipixcan","L30904000","North Little River, Boat Launch, 190th St, Leon US-IA 40.76768, -93.77360","2025-05-19 09:37",4,40.76768,-93.773597,TRUE,FALSE,TRUE,"S240244064"
"257","fragul","Franklin's Gull","Leucophaeus pipixcan","L45464460","77–159 Golf Course Rd, Roundup US-MT 46.46040, -108.56834","2025-05-19 09:32",8,46.460405,-108.568345,TRUE,FALSE,TRUE,"S240238498"
"258","fragul","Franklin's Gull","Leucophaeus pipixcan","L45570065","MI 5/19","2025-05-19 09:30",4,47.819186,-100.928992,TRUE,FALSE,TRUE,"S240767680"
"259","fragul","Franklin's Gull","Leucophaeus pipixcan","L45500236","82nd Avenue West, Havre, Montana, US (48.517, -109.801)","2025-05-19 09:22",3,48.5171665,-109.8006481,TRUE,FALSE,TRUE,"S240416011"
"260","fragul","Franklin's Gull","Leucophaeus pipixcan","L45469159","CR-233, Lyman US-WY 41.35521, -110.23882","2025-05-19 09:21",6,41.355212,-110.238819,TRUE,FALSE,TRUE,"S240260496"
"261","fragul","Franklin's Gull","Leucophaeus pipixcan","L45456966","Resevoir Road, Lucas, Kansas, US (38.954, -98.664)","2025-05-19 09:12",42,38.9540339,-98.6637324,TRUE,FALSE,TRUE,"S240202684"
"262","fragul","Franklin's Gull","Leucophaeus pipixcan","L9433849","Summer Lake Wildlife Area--Bullgate Dike","2025-05-19 09:04",6,42.931446,-120.74207,TRUE,FALSE,FALSE,"S240381410"
"263","fragul","Franklin's Gull","Leucophaeus pipixcan","L338760","Highline Lake SP","2025-05-19 09:00",1,39.2741769,-108.8396124,TRUE,FALSE,FALSE,"S240357506"
"264","fragul","Franklin's Gull","Leucophaeus pipixcan","L45458057","Arikara Creek, Fort Pierre US-SD (44.4409,-100.3884)","2025-05-19 08:42",2,44.440856,-100.38843,TRUE,FALSE,TRUE,"S240207920"
"265","fragul","Franklin's Gull","Leucophaeus pipixcan","L45464641","128 Kiana Ln, Chinook US-MT 48.60444, -109.25536","2025-05-19 08:30",NA,48.604437,-109.255356,TRUE,FALSE,TRUE,"S240239458"
"266","fragul","Franklin's Gull","Leucophaeus pipixcan","L23651533","Diver’s Pt sandbar","2025-05-19 08:16",3,44.4239678,-100.3820036,TRUE,FALSE,TRUE,"S240153576"
"267","fragul","Franklin's Gull","Leucophaeus pipixcan","L212071","Antelope Island SP--Garr Ranch","2025-05-19 08:14",NA,40.9234737,-112.1680972,TRUE,FALSE,FALSE,"S240382242"
"268","fragul","Franklin's Gull","Leucophaeus pipixcan","L622135","Bountiful Pond","2025-05-19 08:11",NA,40.9057611,-111.9219303,TRUE,FALSE,FALSE,"S240174268"
"269","fragul","Franklin's Gull","Leucophaeus pipixcan","L1003088","Cheney SP--East Shore Area","2025-05-19 08:00",4,37.7500865,-97.7811527,TRUE,FALSE,FALSE,"S240213944"
"270","fragul","Franklin's Gull","Leucophaeus pipixcan","L30463972","Richardson Rd. Skypond","2025-05-19 07:45",1,39.8337277,-82.8686905,TRUE,TRUE,TRUE,"S240350621"
"271","fragul","Franklin's Gull","Leucophaeus pipixcan","L131720","Union Reservoir","2025-05-19 07:45",30,40.1818008,-105.0372009,TRUE,FALSE,FALSE,"S240230811"
"272","fragul","Franklin's Gull","Leucophaeus pipixcan","L45447521","2533 West 5800 North, Amalga, Utah, US (41.839, -111.897)","2025-05-19 07:24",2,41.8394461,-111.8967393,TRUE,FALSE,TRUE,"S240162901"
"273","fragul","Franklin's Gull","Leucophaeus pipixcan","L584006","Yanney Heritage Park","2025-05-19 07:21",2,40.6816469,-99.1070223,TRUE,FALSE,FALSE,"S240154143"
"274","fragul","Franklin's Gull","Leucophaeus pipixcan","L779628","Oahe Downstream Rec. Area","2025-05-19 07:14",25,44.4369055,-100.389204,TRUE,FALSE,FALSE,"S240139121"
"275","fragul","Franklin's Gull","Leucophaeus pipixcan","L45443738","8216 Harborside Dr, Galveston US-TX 29.28782, -94.86459Howard Johnson Motel.","2025-05-19 07:13",7,29.287823,-94.864586,TRUE,FALSE,TRUE,"S240142324"
"276","fragul","Franklin's Gull","Leucophaeus pipixcan","L27763469","Elm Island Road--Lowell to Sioux Roads","2025-05-19 07:08",1,40.679249,-98.8336748,TRUE,FALSE,FALSE,"S240134615"
"277","fragul","Franklin's Gull","Leucophaeus pipixcan","L1210095","Antelope Island SP--Road to Garr Ranch","2025-05-19 06:41",1,40.9836063,-112.1903591,TRUE,FALSE,FALSE,"S240382195"
"278","fragul","Franklin's Gull","Leucophaeus pipixcan","L5576049","Utah Lake Shore Trail","2025-05-19 06:37",2,40.2969739,-111.7617702,TRUE,FALSE,FALSE,"S240211097"
"279","fragul","Franklin's Gull","Leucophaeus pipixcan","L45573751","River and  Marsh near Red Rock","2025-05-19 06:30",55,44.9087166,-112.8165897,TRUE,FALSE,TRUE,"S240786389"
"280","fragul","Franklin's Gull","Leucophaeus pipixcan","L2107185","Logan River--Icon Trail","2025-05-19 06:29",30,41.7062251,-111.8640697,TRUE,FALSE,FALSE,"S240174661"
"281","fragul","Franklin's Gull","Leucophaeus pipixcan","L140473","Cherry Creek SP","2025-05-19 06:23",2,39.6402646,-104.8538589,TRUE,FALSE,FALSE,"S240292934"
"282","fragul","Franklin's Gull","Leucophaeus pipixcan","L332514","Medicine Lake NWR","2025-05-19 06:09",350,48.4844088,-104.451592,TRUE,FALSE,FALSE,"S240252279"
"283","fragul","Franklin's Gull","Leucophaeus pipixcan","L608435","Chautauqua NWR--Eagle Bluff","2025-05-19 06:00",4,40.3747335,-89.9800786,TRUE,FALSE,FALSE,"S240119827"
"284","fragul","Franklin's Gull","Leucophaeus pipixcan","L45439995","Theodore Roosevelt Expressway, Froid, Montana, US (48.316, -104.498)","2025-05-19 05:47",475,48.315664,-104.4977379,TRUE,FALSE,TRUE,"S240119542"
"285","fragul","Franklin's Gull","Leucophaeus pipixcan","L45439690","Theodore Roosevelt Expressway, Culbertson, Montana, US (48.163, -104.513)","2025-05-19 05:38",275,48.1634672,-104.5130855,TRUE,FALSE,TRUE,"S240117692"
"286","fragul","Franklin's Gull","Leucophaeus pipixcan","L352554","Fargo--Sewage Settling Ponds","2025-05-18 19:24",40,46.9626441,-96.8402598,TRUE,FALSE,FALSE,"S240031947"
"287","fragul","Franklin's Gull","Leucophaeus pipixcan","L11087699","Shaw Residence","2025-05-18 19:22",1,41.1719928,-112.081392,TRUE,FALSE,TRUE,"S240022386"
"288","fragul","Franklin's Gull","Leucophaeus pipixcan","L45417642","341–389 US-59, Holloway US-MN 45.27737, -95.91200","2025-05-18 19:15",1,45.277374,-95.912,TRUE,FALSE,TRUE,"S240004864"
"289","fragul","Franklin's Gull","Leucophaeus pipixcan","L1562455","Hendrickson Marsh WMA (Story Co.)","2025-05-18 18:38",3,41.9375272,-93.2377267,TRUE,FALSE,FALSE,"S240028177"
"290","fragul","Franklin's Gull","Leucophaeus pipixcan","L9523564","Horsehead Lake--Northwest","2025-05-18 18:30",12,47.0824103,-99.8193113,TRUE,FALSE,FALSE,"S240041227"
"291","fragul","Franklin's Gull","Leucophaeus pipixcan","L45421914","Great Salt Lake Shorelands Preserve, Layton US-UT 41.04140, -112.02586","2025-05-18 18:19",20,41.0414,-112.025856,TRUE,FALSE,TRUE,"S240028484"
"292","fragul","Franklin's Gull","Leucophaeus pipixcan","L827128","Hecla Ponds","2025-05-18 18:17",15,45.8786464,-98.1308215,TRUE,FALSE,FALSE,"S240036775"
"293","fragul","Franklin's Gull","Leucophaeus pipixcan","L512600","Council Grove Lake","2025-05-18 18:10",12,38.6860122,-96.5081978,TRUE,FALSE,FALSE,"S240572751"
"294","fragul","Franklin's Gull","Leucophaeus pipixcan","L366862","Lower Provo River Parkway","2025-05-18 18:10",3,40.2351637,-111.7264055,TRUE,FALSE,FALSE,"S240025695"
"295","fragul","Franklin's Gull","Leucophaeus pipixcan","L30899030","31035 Green House Ln, Hines US-OR 43.51209, -119.04427","2025-05-18 17:59",91,43.512089,-119.044271,TRUE,FALSE,TRUE,"S240019785"
"296","fragul","Franklin's Gull","Leucophaeus pipixcan","L32081681","Fort Supply Reservoir--Northwest Boat Ramp","2025-05-18 17:57",1,36.5508333,-99.5722222,TRUE,FALSE,FALSE,"S239974616"
"297","fragul","Franklin's Gull","Leucophaeus pipixcan","L5064634","Lake McConaughy--Kingsley Dam","2025-05-18 17:45",55,41.2219871,-101.6720295,TRUE,FALSE,FALSE,"S240044595"
"298","fragul","Franklin's Gull","Leucophaeus pipixcan","L45411924","11631 415th Avenue, Amherst, South Dakota, US (45.702, -97.917)","2025-05-18 17:35",1,45.7019748,-97.9170539,TRUE,FALSE,TRUE,"S239972157"
"299","fragul","Franklin's Gull","Leucophaeus pipixcan","L45423827","60th Ave, Balaton US-MN","2025-05-18 17:34",12,44.157116,-95.94178,TRUE,FALSE,TRUE,"S240038321"
"300","fragul","Franklin's Gull","Leucophaeus pipixcan","L1039526","Oahe Dam Tailrace--West","2025-05-18 17:31",NA,44.4464039,-100.389719,TRUE,FALSE,FALSE,"S239971527"
"301","fragul","Franklin's Gull","Leucophaeus pipixcan","L45419841","Auto Tour Route along Sump 1-A & South Sump, Tulelake, California, US (41.878, -121.545)","2025-05-18 17:22",2,41.8778471,-121.5445291,TRUE,FALSE,TRUE,"S240017220"
"302","fragul","Franklin's Gull","Leucophaeus pipixcan","L45572266","463rd Street, Wentworth, South Dakota, US (44.026, -96.949)","2025-05-18 17:11",1,44.0264221,-96.9491171,TRUE,FALSE,TRUE,"S240779247"
"303","fragul","Franklin's Gull","Leucophaeus pipixcan","L45412674","North Dakota 19, Minnewaukan, North Dakota, US (48.115, -99.119)","2025-05-18 17:00",NA,48.1150138,-99.1193992,TRUE,FALSE,TRUE,"S239976341"
"304","fragul","Franklin's Gull","Leucophaeus pipixcan","L45187526","Richardson Rd Skyponds","2025-05-18 16:45",1,39.8306544,-82.8723639,TRUE,TRUE,TRUE,"S240008231"
"305","fragul","Franklin's Gull","Leucophaeus pipixcan","L586105","Sue's Pond--Logan River Wetlands and Shorebird Playa","2025-05-18 16:43",1,41.7320355,-111.8809032,TRUE,FALSE,FALSE,"S239980484"
"306","fragul","Franklin's Gull","Leucophaeus pipixcan","L41660213","Shoreline Dr","2025-05-18 16:14",1,32.874458,-97.524061,TRUE,FALSE,TRUE,"S239983736"
"307","fragul","Franklin's Gull","Leucophaeus pipixcan","L45409426","Pawnee Lake","2025-05-18 16:13",1,40.8481917,-96.8695317,TRUE,FALSE,TRUE,"S239959068"
"308","fragul","Franklin's Gull","Leucophaeus pipixcan","L513529","Clinton SP","2025-05-18 16:04",1,38.935061,-95.371199,TRUE,FALSE,FALSE,"S240807917"
"309","fragul","Franklin's Gull","Leucophaeus pipixcan","L25414884","¡El Super Blablazo Backyard Blitz!  ¡Que Horror!","2025-05-18 16:00",2,42.2309247,-121.8177046,TRUE,FALSE,TRUE,"S240925186"
"310","fragul","Franklin's Gull","Leucophaeus pipixcan","L45421467","7179 Richardson Rd, Groveport US-OH 39.83237, -82.86894","2025-05-18 15:48",1,39.83237,-82.868944,TRUE,TRUE,TRUE,"S240026134"
"311","fragul","Franklin's Gull","Leucophaeus pipixcan","L45401989","U.S. 20, Wellsburg, Iowa, US (42.462, -92.949)","2025-05-18 15:45",13,42.4622124,-92.9491272,TRUE,FALSE,TRUE,"S239923090"
"312","fragul","Franklin's Gull","Leucophaeus pipixcan","L594590","Millwood SP","2025-05-18 15:43",2,33.6837466,-93.9891529,TRUE,FALSE,FALSE,"S240028725"
"313","fragul","Franklin's Gull","Leucophaeus pipixcan","L591920","Nelson Reservoir","2025-05-18 15:38",1,48.5288834,-107.5307465,TRUE,FALSE,FALSE,"S239987767"
"314","fragul","Franklin's Gull","Leucophaeus pipixcan","L3536090","Baker Wetlands--East Restoration","2025-05-18 15:30",50,38.9208135,-95.2166927,TRUE,FALSE,FALSE,"S239972007"
"315","fragul","Franklin's Gull","Leucophaeus pipixcan","L1502426","Sutherland Reservoir","2025-05-18 15:26",4,41.1021827,-101.1073152,TRUE,FALSE,FALSE,"S239937432"
"316","fragul","Franklin's Gull","Leucophaeus pipixcan","L2081870","Lake Hefner--Lakeshore Dr. Inlet","2025-05-18 15:24",1,35.5562224,-97.6114869,TRUE,FALSE,FALSE,"S240025801"
"317","fragul","Franklin's Gull","Leucophaeus pipixcan","L6299253","Saylorville Reservoir--Jester Park, Campground #4","2025-05-18 15:21",3,41.7888889,-93.7788889,TRUE,FALSE,FALSE,"S240554702"
"318","fragul","Franklin's Gull","Leucophaeus pipixcan","L1915425","Camas NWR--Headquarters","2025-05-18 15:15",22,43.9640943,-112.2639656,TRUE,FALSE,FALSE,"S239980550"
"319","fragul","Franklin's Gull","Leucophaeus pipixcan","L28041776","Sutherland Reservoir--Inlet Campground","2025-05-18 14:59",2,41.0952086,-101.1553707,TRUE,FALSE,FALSE,"S239939645"
"320","fragul","Franklin's Gull","Leucophaeus pipixcan","L31454691","FireMountain ThinkTank","2025-05-18 14:57",5,42.232905,-121.770218,TRUE,FALSE,TRUE,"S239951808"
"321","fragul","Franklin's Gull","Leucophaeus pipixcan","L18670770","4883–4899 S Industrial Service Rd, Cheyenne US-WY 41.11760, -104.73460","2025-05-18 14:57",2,41.117596,-104.734601,TRUE,FALSE,TRUE,"S239960131"
"322","fragul","Franklin's Gull","Leucophaeus pipixcan","L568253","Lake Texoma--Dam area (Grayson Co)","2025-05-18 14:54",24,33.8172351,-96.5689659,TRUE,FALSE,FALSE,"S239908350"
"323","fragul","Franklin's Gull","Leucophaeus pipixcan","L149138","Swan Lake Wildlife Management Area","2025-05-18 14:51",25,44.3075104,-94.2553329,TRUE,FALSE,FALSE,"S240019075"
"324","fragul","Franklin's Gull","Leucophaeus pipixcan","L45399109","61801–62189 326th St, Gibbon US-MN 44.47799, -94.51110","2025-05-18 14:46",50,44.477989,-94.511097,TRUE,FALSE,TRUE,"S239909563"
"325","fragul","Franklin's Gull","Leucophaeus pipixcan","L1420675","South Twin Lake","2025-05-18 14:38",14,42.462994,-94.6524893,TRUE,FALSE,FALSE,"S239922927"
"326","fragul","Franklin's Gull","Leucophaeus pipixcan","L2805890","Lake Thunderbird SP--Alameda Dr. & Indian Point Rd.","2025-05-18 14:37",4,35.2324749,-97.2394967,TRUE,FALSE,FALSE,"S240002922"
"327","fragul","Franklin's Gull","Leucophaeus pipixcan","L1210098","Antelope Island SP--Visitor Center & Loop Rd.","2025-05-18 14:36",201,41.054726,-112.2407765,TRUE,FALSE,FALSE,"S239997463"
"328","fragul","Franklin's Gull","Leucophaeus pipixcan","L5117763","North of N. Point - Memorial Drive","2025-05-18 14:35",1,43.0662072,-87.8680623,TRUE,TRUE,TRUE,"S239899147"
"329","fragul","Franklin's Gull","Leucophaeus pipixcan","L603827","Perry WA--Kyle Marsh","2025-05-18 14:17",8,39.2956663,-95.4514289,TRUE,FALSE,FALSE,"S239926415"
"330","fragul","Franklin's Gull","Leucophaeus pipixcan","L16795084","Fargo--Sewage Settling Ponds (south cells)","2025-05-18 14:11",18,46.948824,-96.8402631,TRUE,FALSE,FALSE,"S240047240"
"331","fragul","Franklin's Gull","Leucophaeus pipixcan","L319397","Bear Butte Lake","2025-05-18 14:00",1,44.4563502,-103.4452331,TRUE,FALSE,FALSE,"S240022321"
"332","fragul","Franklin's Gull","Leucophaeus pipixcan","L10235221","Kolbo farm","2025-05-18 14:00",25,48.6046693,-102.0474338,TRUE,FALSE,TRUE,"S239951531"
"333","fragul","Franklin's Gull","Leucophaeus pipixcan","L45425631","85643, Willcox US-AZ (32.2326,-109.8248)","2025-05-18 14:00",5,32.232645,-109.824777,TRUE,FALSE,TRUE,"S240047726"
"334","fragul","Franklin's Gull","Leucophaeus pipixcan","L140470","Lake Hasty (lake and campground)","2025-05-18 14:00",1,38.0733658,-102.9348135,TRUE,FALSE,FALSE,"S239914791"
"335","fragul","Franklin's Gull","Leucophaeus pipixcan","L2694323","Lake Talcot - beach","2025-05-18 13:57",6,43.864015,-95.4528236,TRUE,FALSE,TRUE,"S239878791"
"336","fragul","Franklin's Gull","Leucophaeus pipixcan","L5132562","Big Creek SP","2025-05-18 13:54",40,41.8108597,-93.7338066,TRUE,FALSE,FALSE,"S239911124"
"337","fragul","Franklin's Gull","Leucophaeus pipixcan","L29143140","85643, Willcox US-AZ (32.2315,-109.8251)Lake Cochise","2025-05-18 13:48",7,32.231454,-109.825096,TRUE,FALSE,TRUE,"S240013827"
"338","fragul","Franklin's Gull","Leucophaeus pipixcan","L1312278","Arco Ponds","2025-05-18 13:15",17,46.1624744,-112.7791214,TRUE,FALSE,FALSE,"S239967886"
"339","fragul","Franklin's Gull","Leucophaeus pipixcan","L2745443","Saylorville Reservoir--dam pullouts","2025-05-18 13:09",60,41.7038702,-93.6826086,TRUE,FALSE,FALSE,"S239857298"
"340","fragul","Franklin's Gull","Leucophaeus pipixcan","L350533","Willard Bay SP--South Dike & Playas","2025-05-18 13:09",20,41.3406611,-112.1091308,TRUE,FALSE,FALSE,"S239903748"
"341","fragul","Franklin's Gull","Leucophaeus pipixcan","L2153696","Lehman Organic Farm (private property)","2025-05-18 13:06",40,41.816809,-93.6586189,TRUE,FALSE,FALSE,"S239927383"
"342","fragul","Franklin's Gull","Leucophaeus pipixcan","L2161814","South Park Wildlife Habitat Management Area","2025-05-18 12:47",16,43.3965039,-110.7767773,TRUE,FALSE,FALSE,"S240199583"
"343","fragul","Franklin's Gull","Leucophaeus pipixcan","L603832","Perry WA--Lassiter Marsh","2025-05-18 12:36",1,39.3548411,-95.4885989,TRUE,FALSE,FALSE,"S239925859"
"344","fragul","Franklin's Gull","Leucophaeus pipixcan","L109176","Camas NWR","2025-05-18 12:28",12,43.9509896,-112.2557731,TRUE,FALSE,FALSE,"S239948792"
"345","fragul","Franklin's Gull","Leucophaeus pipixcan","L45380164","Minnesota Valley National Wildlife Refuge, Chanhassen US-MN 44.81636, -93.52127","2025-05-18 12:16",10,44.816361,-93.521269,TRUE,FALSE,TRUE,"S239824641"
"346","fragul","Franklin's Gull","Leucophaeus pipixcan","L569284","Wagon Train RA","2025-05-18 12:16",2,40.6295879,-96.5819263,TRUE,FALSE,FALSE,"S239865723"
"347","fragul","Franklin's Gull","Leucophaeus pipixcan","L368434","Current Lake","2025-05-18 12:15",NA,44.1639819,-95.9412003,TRUE,FALSE,FALSE,"S239981608"
"348","fragul","Franklin's Gull","Leucophaeus pipixcan","L692747","Sterling (town)","2025-05-18 12:11",1,40.6273731,-103.2124329,TRUE,FALSE,FALSE,"S239945169"
"349","fragul","Franklin's Gull","Leucophaeus pipixcan","L352958","Fish Springs NWR","2025-05-18 12:05",20,39.865343,-113.3936175,TRUE,FALSE,FALSE,"S239956352"
"350","fragul","Franklin's Gull","Leucophaeus pipixcan","L5434427","Lake Hefner--N. Lake Hefner Dr.","2025-05-18 11:59",1,35.5816048,-97.6025682,TRUE,FALSE,FALSE,"S239814400"
"351","fragul","Franklin's Gull","Leucophaeus pipixcan","L45504720","South Dakota 50, Yankton, South Dakota, US (42.909, -97.506)","2025-05-18 11:39",1,42.908821,-97.5064249,TRUE,FALSE,TRUE,"S240439585"
"352","fragul","Franklin's Gull","Leucophaeus pipixcan","L10285441","East Hershey WMA","2025-05-18 11:28",1,41.1254426,-100.8965659,TRUE,FALSE,FALSE,"S239939769"
"353","fragul","Franklin's Gull","Leucophaeus pipixcan","L125099","Cheyenne Bottoms WA","2025-05-18 11:21",2,38.4634203,-98.6551076,TRUE,FALSE,FALSE,"S239838790"
"354","fragul","Franklin's Gull","Leucophaeus pipixcan","L4790485","Medina River Greenway--Mitchell Lake Trailhead","2025-05-18 11:20",1,29.2823283,-98.4795892,TRUE,FALSE,FALSE,"S239819287"
"355","fragul","Franklin's Gull","Leucophaeus pipixcan","L282520","Lagerman Agricultural Preserve--Lagerman Reservoir","2025-05-18 11:15",2,40.1348086,-105.1888925,TRUE,FALSE,FALSE,"S239826682"
"356","fragul","Franklin's Gull","Leucophaeus pipixcan","L45400627","75050–75240 US-189, Kemmerer US-WY 42.08781, -110.15551","2025-05-18 11:09",14,42.087809,-110.155508,TRUE,FALSE,TRUE,"S239916364"
"357","fragul","Franklin's Gull","Leucophaeus pipixcan","L8393357","Lake Thunderbird SP--East Sentinel","2025-05-18 10:59",3,35.2296133,-97.3010085,TRUE,FALSE,FALSE,"S240768450"
"358","fragul","Franklin's Gull","Leucophaeus pipixcan","L21031942","North Frontier Road","2025-05-18 10:58",120,44.4047906,-100.388482,TRUE,FALSE,TRUE,"S239853788"
"359","fragul","Franklin's Gull","Leucophaeus pipixcan","L376063","Fargo--Trefoil Park","2025-05-18 10:56",2,46.8924605,-96.7719077,TRUE,FALSE,FALSE,"S239916413"
"360","fragul","Franklin's Gull","Leucophaeus pipixcan","L45499925","W 1100 S, Brigham City US-UT 41.48617, -112.04315","2025-05-18 10:55",1,41.486172,-112.043148,TRUE,FALSE,TRUE,"S240414173"
"361","fragul","Franklin's Gull","Leucophaeus pipixcan","L45499941","I-15 N, Willard US-UT 41.34523, -112.03917","2025-05-18 10:46",75,41.345231,-112.039166,TRUE,FALSE,TRUE,"S240414274"
"362","fragul","Franklin's Gull","Leucophaeus pipixcan","L7832143","Fox Creek West","2025-05-18 10:45",2,43.65557,-111.178593,TRUE,FALSE,FALSE,"S239809485"
"363","fragul","Franklin's Gull","Leucophaeus pipixcan","L971438","Blue Springs Lake--Fleming Park Wetland","2025-05-18 10:37",2,39.0205174,-94.3396425,TRUE,FALSE,FALSE,"S239792673"
"364","fragul","Franklin's Gull","Leucophaeus pipixcan","L2782504","Bergstrom farm belt across from Larson home","2025-05-18 10:31",1,48.9356686,-101.4079285,TRUE,FALSE,TRUE,"S239793253"
"365","fragul","Franklin's Gull","Leucophaeus pipixcan","L594020","Cottonwood Reservoir ","2025-05-18 10:29",2,46.037731,-110.6865692,TRUE,FALSE,FALSE,"S239914978"
"366","fragul","Franklin's Gull","Leucophaeus pipixcan","L45363944","I-90 W, Kimball US-SD 43.73810, -98.80619","2025-05-18 10:26",2,43.738101,-98.806186,TRUE,FALSE,TRUE,"S239751468"
"367","fragul","Franklin's Gull","Leucophaeus pipixcan","L1289215","Fairfax WTP","2025-05-18 10:24",16,44.512602,-94.705249,TRUE,FALSE,FALSE,"S239756874"
"368","fragul","Franklin's Gull","Leucophaeus pipixcan","L45373101","1315 South 4500 West, Syracuse, Utah, US (41.095, -112.113)","2025-05-18 10:22",3,41.0951578,-112.1127127,TRUE,FALSE,TRUE,"S239792612"
"369","fragul","Franklin's Gull","Leucophaeus pipixcan","L45378645","706 W 3700 S, Syracuse US-UT 41.06086, -112.04141","2025-05-18 10:20",57,41.060864,-112.04141,TRUE,FALSE,TRUE,"S239817813"
"370","fragul","Franklin's Gull","Leucophaeus pipixcan","L45354247","7179 Richardson Rd, Groveport US-OH 39.83255, -82.86892","2025-05-18 10:12",2,39.832554,-82.868924,TRUE,TRUE,TRUE,"S239704608"
"371","fragul","Franklin's Gull","Leucophaeus pipixcan","L33775772","Warner Wetlands Loop, Plush US-OR 42.47677, -119.84277","2025-05-18 10:09",2,42.476771,-119.842765,TRUE,FALSE,TRUE,"S239861711"
"372","fragul","Franklin's Gull","Leucophaeus pipixcan","L356819","Steamboat Lake SP","2025-05-18 10:04",1,40.7957441,-106.9602081,TRUE,FALSE,FALSE,"S240378711"
"373","fragul","Franklin's Gull","Leucophaeus pipixcan","L33775752","97637, Plush US-OR 42.47266, -119.84270","2025-05-18 10:00",10,42.472657,-119.842696,TRUE,FALSE,TRUE,"S239861392"
"374","fragul","Franklin's Gull","Leucophaeus pipixcan","L1748185","Ada Hayden Heritage Park (general location)","2025-05-18 09:59",2,42.0728262,-93.6245656,TRUE,FALSE,FALSE,"S239827653"
"375","fragul","Franklin's Gull","Leucophaeus pipixcan","L45365291","Lieberg Lake","2025-05-18 09:56",200,44.153751,-94.308217,TRUE,FALSE,TRUE,"S239756942"
"376","fragul","Franklin's Gull","Leucophaeus pipixcan","L33775735","97637, Plush US-OR 42.46585, -119.84136","2025-05-18 09:54",6,42.465847,-119.841362,TRUE,FALSE,TRUE,"S239861121"
"377","fragul","Franklin's Gull","Leucophaeus pipixcan","L6209920","Cheyenne Bottoms WA--Outlet Canal","2025-05-18 09:53",1,38.4449523,-98.6348881,TRUE,FALSE,FALSE,"S239839042"
"378","fragul","Franklin's Gull","Leucophaeus pipixcan","L45174845","Warner Wetlands Trail, Plush US-OR 42.45979, -119.83926","2025-05-18 09:48",3,42.459789,-119.839256,TRUE,FALSE,TRUE,"S239860636"
"379","fragul","Franklin's Gull","Leucophaeus pipixcan","L1663154","Lavon Lake--Brockdale Pk area","2025-05-18 09:46",7,33.0733474,-96.5445026,TRUE,FALSE,FALSE,"S239825538"
"380","fragul","Franklin's Gull","Leucophaeus pipixcan","L13132340","Hillsdale State Park, Paola US-KS 38.64892, -94.91797","2025-05-18 09:45",2,38.64892,-94.917973,TRUE,FALSE,TRUE,"S239748505"
"381","fragul","Franklin's Gull","Leucophaeus pipixcan","L41567004","Mud Lake","2025-05-18 09:44",45,44.474425,-94.515737,TRUE,FALSE,TRUE,"S239732492"
"382","fragul","Franklin's Gull","Leucophaeus pipixcan","L191995","Waubay NWR","2025-05-18 09:39",3,45.424995,-97.326035,TRUE,FALSE,FALSE,"S240029129"
"383","fragul","Franklin's Gull","Leucophaeus pipixcan","L1430664","Clark Canyon Reservoir--Red Rock Rd.","2025-05-18 09:34",6,44.9393419,-112.848165,TRUE,FALSE,FALSE,"S239853211"
"384","fragul","Franklin's Gull","Leucophaeus pipixcan","L2207702","Medicine Lake NWR--Causeway","2025-05-18 09:31",1,48.4815367,-104.4975944,TRUE,FALSE,FALSE,"S239763902"
"385","fragul","Franklin's Gull","Leucophaeus pipixcan","L45500021","I-15 N, North Salt Lake US-UT 40.82627, -111.91591","2025-05-18 09:28",3,40.826274,-111.915907,TRUE,FALSE,TRUE,"S240414730"
"386","fragul","Franklin's Gull","Leucophaeus pipixcan","L45407945","3602 Marble St, Port Bolivar US-TX 29.39655, -94.71658","2025-05-18 09:26",1,29.396546,-94.716577,TRUE,FALSE,TRUE,"S239952123"
"387","fragul","Franklin's Gull","Leucophaeus pipixcan","L16100113","Lake Campbell--south end","2025-05-18 09:25",10,44.1934333,-96.8620859,TRUE,FALSE,FALSE,"S239750781"
"388","fragul","Franklin's Gull","Leucophaeus pipixcan","L272183","Wyoming Hereford Ranch","2025-05-18 09:18",1,41.1267713,-104.6983874,TRUE,FALSE,FALSE,"S240559863"
"389","fragul","Franklin's Gull","Leucophaeus pipixcan","L1304693","Walnut Woods Metro Park","2025-05-18 09:15",2,39.839208,-82.8690523,TRUE,TRUE,FALSE,"S239791543"
"390","fragul","Franklin's Gull","Leucophaeus pipixcan","L43169108","Lake North Drive, Columbus, Nebraska, US (41.487, -97.359)","2025-05-18 09:15",1,41.4873809,-97.3588148,TRUE,FALSE,TRUE,"S240024801"
"391","fragul","Franklin's Gull","Leucophaeus pipixcan","L1250404","Cameron STP","2025-05-18 09:00",1,35.8557817,-111.4169669,TRUE,FALSE,FALSE,"S240029666"
"392","fragul","Franklin's Gull","Leucophaeus pipixcan","L1132807","Pender WTP","2025-05-18 08:53",9,42.1061986,-96.6966605,TRUE,FALSE,FALSE,"S239688979"
"393","fragul","Franklin's Gull","Leucophaeus pipixcan","L1859404","Lake Thunderbird--Twin Bridges","2025-05-18 08:50",4,35.2257594,-97.3035433,TRUE,FALSE,TRUE,"S239906311"
"394","fragul","Franklin's Gull","Leucophaeus pipixcan","L272215","Wyoming Hereford Ranch Reservoir #1","2025-05-18 08:45",9,41.1167222,-104.7379491,TRUE,FALSE,FALSE,"S240549432"
"395","fragul","Franklin's Gull","Leucophaeus pipixcan","L289812","Canyon of the Eagles (HOTE 020)","2025-05-18 08:38",6,30.8773,-98.438,TRUE,FALSE,FALSE,"S239811175"
"396","fragul","Franklin's Gull","Leucophaeus pipixcan","L9351577","Malheur National Wildlife Refuge, Princeton US-OR (43.2660,-118.8456)","2025-05-18 08:35",11,43.266026,-118.845604,TRUE,FALSE,TRUE,"S240030094"
"397","fragul","Franklin's Gull","Leucophaeus pipixcan","L45372125","Flooded Field E of Straits Drain on Township Rd.","2025-05-18 08:35",2,42.0387285,-121.7888921,TRUE,FALSE,TRUE,"S239788217"
"398","fragul","Franklin's Gull","Leucophaeus pipixcan","L6471374","Quivira NWR--Big Salt Marsh--Wildlife Drive","2025-05-18 08:33",35,38.1856615,-98.5338718,TRUE,FALSE,FALSE,"S239771580"
"399","fragul","Franklin's Gull","Leucophaeus pipixcan","L26024964","Bismarck--Bill Mills Nature Trail","2025-05-18 08:33",2,46.7946121,-100.8108191,TRUE,FALSE,FALSE,"S239707650"
"400","fragul","Franklin's Gull","Leucophaeus pipixcan","L189326","Home","2025-05-18 08:30",4,42.7796,-96.888985,TRUE,FALSE,TRUE,"S239947200"
"401","fragul","Franklin's Gull","Leucophaeus pipixcan","L603615","Wingwatchers Lake Ewauna Nature Trail","2025-05-18 08:09",1,42.2158372,-121.788817,TRUE,FALSE,FALSE,"S239807074"
"402","fragul","Franklin's Gull","Leucophaeus pipixcan","L2130833","Haw Branch Estate","2025-05-18 08:00",6,33.3294526,-96.6949224,TRUE,FALSE,TRUE,"S239760994"
"403","fragul","Franklin's Gull","Leucophaeus pipixcan","L2206236","Hefner-Overholser Trail","2025-05-18 07:45",3,35.5445185,-97.6506042,TRUE,FALSE,FALSE,"S239769334"
"404","fragul","Franklin's Gull","Leucophaeus pipixcan","L13379760","White Rock Lake-- T&P Hill/Boomerang Boathouse","2025-05-18 07:45",40,32.8254888,-96.7287776,TRUE,FALSE,FALSE,"S239994509"
"405","fragul","Franklin's Gull","Leucophaeus pipixcan","L45358055","Goose Lake Rd, Westby (48.8443,-104.0561)","2025-05-18 07:45",1,48.844276,-104.056141,TRUE,FALSE,TRUE,"S239723585"
"406","fragul","Franklin's Gull","Leucophaeus pipixcan","L7171047","Perry Lake-Dam Swim Beach","2025-05-18 07:39",1,39.1198061,-95.4092646,TRUE,FALSE,TRUE,"S239646333"
"407","fragul","Franklin's Gull","Leucophaeus pipixcan","L386716","Lakeshore SP/Harbor Island","2025-05-18 07:38",1,43.0316941,-87.8950024,TRUE,TRUE,FALSE,"S239669613"
"408","fragul","Franklin's Gull","Leucophaeus pipixcan","L25234296","(45.249336, -112.6222661) - Laknar Lane, Dillon","2025-05-18 07:32",5,45.249336,-112.6222661,TRUE,FALSE,TRUE,"S239702850"
"409","fragul","Franklin's Gull","Leucophaeus pipixcan","L303677","Lake Hefner","2025-05-18 07:28",3,35.568035,-97.5955439,TRUE,FALSE,FALSE,"S239693203"
"410","fragul","Franklin's Gull","Leucophaeus pipixcan","L915750","Hwy. 205--Burns to Malheur NWR","2025-05-18 07:27",NA,43.5291357,-119.0210724,TRUE,FALSE,FALSE,"S240012735"
"411","fragul","Franklin's Gull","Leucophaeus pipixcan","L2074515","Bolivar Flats Shorebird Survey Start","2025-05-18 07:24",1,29.3794826,-94.7245502,TRUE,FALSE,FALSE,"S240640185"
"412","fragul","Franklin's Gull","Leucophaeus pipixcan","L7400967","Runholt's Slough and Marsh","2025-05-18 07:18",60,44.5924661,-95.6916475,TRUE,FALSE,FALSE,"S239644813"
"413","fragul","Franklin's Gull","Leucophaeus pipixcan","L2073467","Salt Plains NWR--Eagle Roost Nature Trail","2025-05-18 07:16",25,36.783717,-98.18573,TRUE,FALSE,FALSE,"S239699881"
"414","fragul","Franklin's Gull","Leucophaeus pipixcan","L5811136","Luverne WMA","2025-05-18 07:15",1,47.2538052,-97.9972222,TRUE,FALSE,FALSE,"S239688960"
"415","fragul","Franklin's Gull","Leucophaeus pipixcan","L17172394","Smithville Lake--Crows Creek Picnic Area","2025-05-18 07:03",7,39.389829,-94.531119,TRUE,FALSE,FALSE,"S239749835"
"416","fragul","Franklin's Gull","Leucophaeus pipixcan","L1329001","Boomer Lake Park","2025-05-18 07:01",1,36.1510847,-97.0636046,TRUE,FALSE,FALSE,"S239684981"
"417","fragul","Franklin's Gull","Leucophaeus pipixcan","L45354930","Twin Coves Campground","2025-05-18 06:59",1,40.766894,-111.386781,TRUE,FALSE,TRUE,"S239708251"
"418","fragul","Franklin's Gull","Leucophaeus pipixcan","L3990295","Tamarac NWR","2025-05-18 06:40",3,46.9587766,-95.6546974,TRUE,FALSE,FALSE,"S240018341"
"419","fragul","Franklin's Gull","Leucophaeus pipixcan","L736489","Old Hickory Lake--Snow Bunting Peninsula (Old Hickory Pointe)","2025-05-18 06:36",1,36.287648,-86.657371,TRUE,TRUE,FALSE,"S239646341"
"420","fragul","Franklin's Gull","Leucophaeus pipixcan","L284174","Choke Canyon SP--Calliham Unit (McMullen Co.)(CTC 082)","2025-05-18 06:30",80,28.4717282,-98.3394384,TRUE,TRUE,FALSE,"S239697075"
"421","fragul","Franklin's Gull","Leucophaeus pipixcan","L1470457","Smithville Lake--Dam","2025-05-18 06:27",110,39.390881,-94.5545417,TRUE,FALSE,FALSE,"S239616636"
"422","fragul","Franklin's Gull","Leucophaeus pipixcan","L35405969","River's Bend Wildlife Area/Ron Wilmot River Access","2025-05-18 06:10",100,42.7931868,-96.5916029,TRUE,FALSE,FALSE,"S240849843"
"423","fragul","Franklin's Gull","Leucophaeus pipixcan","L4318590","Bowdoin NWR--first 5 mi. Auto Tour Route","2025-05-18 06:10",2,48.3915524,-107.7287149,TRUE,FALSE,FALSE,"S239691905"
"424","fragul","Franklin's Gull","Leucophaeus pipixcan","L21058450","Lakeshore state park","2025-05-18 05:49",1,43.033002,-87.895004,TRUE,TRUE,TRUE,"S240395439"
"425","fragul","Franklin's Gull","Leucophaeus pipixcan","L9979022","5276 North Oneida Narrows Road, Preston, Idaho, US (42.191, -111.786)","2025-05-18 04:39",20,42.1907928,-111.7858056,TRUE,FALSE,TRUE,"S240048671"
"426","fragul","Franklin's Gull","Leucophaeus pipixcan","L1302021","Westby--Noelle Meyer Memorial Park","2025-05-17 20:28",2,48.8678766,-104.0553117,TRUE,FALSE,FALSE,"S239491586"
"427","fragul","Franklin's Gull","Leucophaeus pipixcan","L158902","McKenzie Slough","2025-05-17 20:19",37,46.7942788,-100.4157696,TRUE,FALSE,FALSE,"S239493989"
"428","fragul","Franklin's Gull","Leucophaeus pipixcan","L150986","East Landfill Kalmar Reservoir","2025-05-17 18:22",15,44.048904,-92.574585,TRUE,FALSE,FALSE,"S239445811"
"429","fragul","Franklin's Gull","Leucophaeus pipixcan","L4950051","Hyrum SP -- West End of Hyrum Reservoir","2025-05-17 17:56",5,41.6270558,-111.8695843,TRUE,FALSE,FALSE,"S239457833"
"430","fragul","Franklin's Gull","Leucophaeus pipixcan","L45303430","3225 East Lakeside Road, Jamestown, North Dakota, US (46.946, -98.702)","2025-05-17 17:54",2,46.9461354,-98.7019429,TRUE,FALSE,TRUE,"S239445149"
"431","fragul","Franklin's Gull","Leucophaeus pipixcan","L887381","Fort Stevens SP--South Jetty/Parking Area C","2025-05-17 17:45",2,46.2286726,-124.0217721,TRUE,TRUE,FALSE,"S239505190"
"432","fragul","Franklin's Gull","Leucophaeus pipixcan","L6008992","Newport Colony Lake","2025-05-17 17:23",300,45.6607767,-97.9210898,TRUE,FALSE,FALSE,"S240610901"
"433","fragul","Franklin's Gull","Leucophaeus pipixcan","L888474","Walden Reservoir--SE side","2025-05-17 17:22",25,40.7251123,-106.2990332,TRUE,FALSE,FALSE,"S239484370"
"434","fragul","Franklin's Gull","Leucophaeus pipixcan","L166564","Long Bridge/Head of the bay, Ashland","2025-05-17 17:21",1,46.58829,-90.945175,TRUE,TRUE,FALSE,"S239469333"
"435","fragul","Franklin's Gull","Leucophaeus pipixcan","L45306904","Jordan River Trail","2025-05-17 16:57",1,40.7015143,-111.926604,TRUE,FALSE,TRUE,"S239464057"
"436","fragul","Franklin's Gull","Leucophaeus pipixcan","L6218891","Hillsboro--Woodland Park","2025-05-17 16:47",12,47.4083267,-97.0568812,TRUE,FALSE,FALSE,"S239430229"
"437","fragul","Franklin's Gull","Leucophaeus pipixcan","L886113","Trempealeau NWR--Visitor Center","2025-05-17 16:39",3,44.0448213,-91.5357685,TRUE,FALSE,FALSE,"S239405765"
"438","fragul","Franklin's Gull","Leucophaeus pipixcan","L26864293","Poindexter Slough FAS","2025-05-17 16:27",10,45.1827162,-112.6781838,TRUE,FALSE,FALSE,"S239440685"
"439","fragul","Franklin's Gull","Leucophaeus pipixcan","L45298841","5200–6060 N 4800 W, Smithfield US-UT 41.84350, -111.95139","2025-05-17 16:26",500,41.843504,-111.951387,TRUE,FALSE,TRUE,"S239422033"
"440","fragul","Franklin's Gull","Leucophaeus pipixcan","L7936867","Bear River Migratory Bird Refuge, Corinne US-UT (41.4795,-112.2672)","2025-05-17 16:08",30,41.479471,-112.267162,TRUE,FALSE,TRUE,"S239474687"
"441","fragul","Franklin's Gull","Leucophaeus pipixcan","L3732373","Fountain Grove CA (Linn Co.)","2025-05-17 16:07",3,39.7220872,-93.34126,TRUE,FALSE,FALSE,"S239440769"
"442","fragul","Franklin's Gull","Leucophaeus pipixcan","L42150275","Barker Road","2025-05-17 15:53",1,44.9584106,-107.2758481,TRUE,FALSE,TRUE,"S239474432"
"443","fragul","Franklin's Gull","Leucophaeus pipixcan","L353612","Bountiful Landfill","2025-05-17 15:50",2,40.9120942,-111.9193835,TRUE,FALSE,FALSE,"S239483126"
"444","fragul","Franklin's Gull","Leucophaeus pipixcan","L5804482","Logan--2400 W Fields","2025-05-17 15:40",2,41.7846891,-111.8922544,TRUE,FALSE,FALSE,"S239418438"
"445","fragul","Franklin's Gull","Leucophaeus pipixcan","L45312649","476th Avenue, Elk Point, South Dakota, US (42.64, -96.688)","2025-05-17 15:32",5,42.6404427,-96.6884011,TRUE,FALSE,TRUE,"S239492251"
"446","fragul","Franklin's Gull","Leucophaeus pipixcan","L1069901","Jordan River Parkway--3300 S to 4500 S (incl. General Holm Park)","2025-05-17 15:32",1,40.6874721,-111.9216621,TRUE,FALSE,FALSE,"S239430165"
"447","fragul","Franklin's Gull","Leucophaeus pipixcan","L286222","McElroy Transient Lake (park ONLY along gravel field entrance at south end of lake. Do not go around owners buildings or equipment or walk through crops. Do not walk onto the property west of Hwy. 884)","2025-05-17 15:30",1,36.8646144,-86.5103606,TRUE,TRUE,FALSE,"S239617488"
"448","fragul","Franklin's Gull","Leucophaeus pipixcan","L11107076","Rytter farm","2025-05-17 15:30",2,48.6172675,-102.0586347,TRUE,FALSE,TRUE,"S239414191"
"449","fragul","Franklin's Gull","Leucophaeus pipixcan","L2604168","Hillsdale SP--Antioch Boat Launch","2025-05-17 15:27",1,38.6945414,-94.9470878,TRUE,FALSE,FALSE,"S239391836"
"450","fragul","Franklin's Gull","Leucophaeus pipixcan","L6432380","Island Lake","2025-05-17 15:23",2,44.3816616,-96.0116243,TRUE,FALSE,FALSE,"S239382473"
"451","fragul","Franklin's Gull","Leucophaeus pipixcan","L295650","Fountain Grove CA (Livingston Co.)","2025-05-17 15:20",1,39.7011429,-93.3053291,TRUE,FALSE,FALSE,"S239393919"
"452","fragul","Franklin's Gull","Leucophaeus pipixcan","L29259663","3542–4642 W 7000 N, Smithfield US-UT (41.8594,-111.9266)","2025-05-17 15:19",6,41.859355,-111.92664,TRUE,FALSE,TRUE,"S239430744"
"453","fragul","Franklin's Gull","Leucophaeus pipixcan","L1078201","Ross Barnett Reservoir--Madison County","2025-05-17 15:14",2,32.4447015,-90.0599728,TRUE,TRUE,FALSE,"S239446837"
"454","fragul","Franklin's Gull","Leucophaeus pipixcan","L27638141","33299–33573 W 231st St, Spring Hill US-KS 38.71056, -94.97383","2025-05-17 15:05",3,38.710565,-94.97383,TRUE,FALSE,TRUE,"S239375969"
"455","fragul","Franklin's Gull","Leucophaeus pipixcan","L45308979","Middle Lawen Lane, Noname Slough","2025-05-17 15:04",8,43.4277028,-118.802302,TRUE,FALSE,TRUE,"S239474878"
"456","fragul","Franklin's Gull","Leucophaeus pipixcan","L45287223","1392 County Road 3 Southeast, Osakis, Minnesota, US (45.877, -95.166)","2025-05-17 15:00",NA,45.8773929,-95.1659258,TRUE,FALSE,TRUE,"S239368951"
"457","fragul","Franklin's Gull","Leucophaeus pipixcan","L1661325","Angostura Rec.  Area","2025-05-17 14:53",2,43.3169281,-103.4094809,TRUE,FALSE,FALSE,"S239442598"
"458","fragul","Franklin's Gull","Leucophaeus pipixcan","L45291634","802 Poplar Cir, Rexburg US-ID 43.81693, -111.80719","2025-05-17 14:52",25,43.816927,-111.807186,TRUE,FALSE,TRUE,"S239389152"
"459","fragul","Franklin's Gull","Leucophaeus pipixcan","L871331","Hyde Park Lane","2025-05-17 14:47",10,41.7946723,-111.8736076,TRUE,FALSE,FALSE,"S239403867"
"460","fragul","Franklin's Gull","Leucophaeus pipixcan","L1153249","American Falls Reservoir Overlook at Crystal Spring Rd.","2025-05-17 14:45",3,43.0446643,-112.6841068,TRUE,FALSE,FALSE,"S239400153"
"461","fragul","Franklin's Gull","Leucophaeus pipixcan","L45288751","476th Ave, Elk Point US-SD 42.64040, -96.68837","2025-05-17 14:43",8,42.640395,-96.688371,TRUE,FALSE,TRUE,"S239375653"
"462","fragul","Franklin's Gull","Leucophaeus pipixcan","L5201677","Yard","2025-05-17 14:39",14,47.1891219,-111.6126287,TRUE,FALSE,TRUE,"S239391200"
"463","fragul","Franklin's Gull","Leucophaeus pipixcan","L45288659","476th Ave, Elk Point US-SD 42.64032, -96.68826","2025-05-17 14:34",8,42.64032,-96.688255,TRUE,FALSE,TRUE,"S239375274"
"464","fragul","Franklin's Gull","Leucophaeus pipixcan","L140450","Lower Latham Reservoir area","2025-05-17 14:34",4,40.3345066,-104.6397114,TRUE,FALSE,FALSE,"S239865381"
"465","fragul","Franklin's Gull","Leucophaeus pipixcan","L45504366","32769 477th Avenue, Elk Point, South Dakota, US (42.639, -96.665)","2025-05-17 14:27",6,42.63896,-96.6651568,TRUE,FALSE,TRUE,"S240437745"
"466","fragul","Franklin's Gull","Leucophaeus pipixcan","L2029553","Gibson Park","2025-05-17 14:20",30,47.5123036,-111.3043338,TRUE,FALSE,FALSE,"S239433221"
"467","fragul","Franklin's Gull","Leucophaeus pipixcan","L45298860","Dry Valley Road, Helper, Utah, US (39.773, -111.175)","2025-05-17 14:19",4,39.773249,-111.175268,TRUE,TRUE,TRUE,"S239422133"
"468","fragul","Franklin's Gull","Leucophaeus pipixcan","L4965105","My House - Chippewa Road West Valley","2025-05-17 14:17",3,40.6947326,-112.0121478,TRUE,FALSE,TRUE,"S240169787"
"469","fragul","Franklin's Gull","Leucophaeus pipixcan","L734223","Smith Grove WMA","2025-05-17 14:10",2,47.1637389,-100.9817072,TRUE,FALSE,FALSE,"S239495199"
"470","fragul","Franklin's Gull","Leucophaeus pipixcan","L1086587","Manitowoc Lakefront","2025-05-17 14:00",2,44.0927942,-87.6501703,TRUE,TRUE,FALSE,"S239484947"
"471","fragul","Franklin's Gull","Leucophaeus pipixcan","L20229639","14632 80th Street Northwest, Pennock, Minnesota, US (45.265, -95.152)","2025-05-17 13:52",30,45.2647526,-95.1522647,TRUE,FALSE,TRUE,"S239342061"
"472","fragul","Franklin's Gull","Leucophaeus pipixcan","L3590839","Kramper Lake","2025-05-17 13:49",1,42.3832744,-96.5770769,TRUE,FALSE,FALSE,"S239888332"
"473","fragul","Franklin's Gull","Leucophaeus pipixcan","L1471763","Potter Swamp Rd.","2025-05-17 13:46",10,43.5044624,-119.0820007,TRUE,FALSE,FALSE,"S239394938"
"474","fragul","Franklin's Gull","Leucophaeus pipixcan","L5790353","Lubenow WPA","2025-05-17 13:41",1,45.3202274,-96.0482779,TRUE,FALSE,FALSE,"S239371312"
"475","fragul","Franklin's Gull","Leucophaeus pipixcan","L587796","Jumbo Reservoir (Sedgwick Co)","2025-05-17 13:34",2,40.9294667,-102.6425171,TRUE,FALSE,FALSE,"S239430806"
"476","fragul","Franklin's Gull","Leucophaeus pipixcan","L211504","Red Rock Lakes NWR--Lower","2025-05-17 13:34",45,44.6444638,-111.8869394,TRUE,FALSE,FALSE,"S239405360"
"477","fragul","Franklin's Gull","Leucophaeus pipixcan","L45293392","93517, Bridgeport US-CA 38.30443, -119.21646","2025-05-17 13:25",3,38.304427,-119.216462,TRUE,TRUE,TRUE,"S239397256"
"478","fragul","Franklin's Gull","Leucophaeus pipixcan","L325696","Branched Oak SRA","2025-05-17 13:22",2,40.9704362,-96.8676911,TRUE,FALSE,FALSE,"S239401598"
"479","fragul","Franklin's Gull","Leucophaeus pipixcan","L11107192","Lake Yankton","2025-05-17 13:21",12,44.244749,-95.865318,TRUE,FALSE,FALSE,"S239331976"
"480","fragul","Franklin's Gull","Leucophaeus pipixcan","L45278390","Reis Pond Hwy 141, Coon Rapids Iowa","2025-05-17 13:17",2,41.857816,-94.663823,TRUE,FALSE,TRUE,"S239330593"
"481","fragul","Franklin's Gull","Leucophaeus pipixcan","L7476664","Ladd Marsh WMA--Schoolhouse Pond","2025-05-17 13:15",1,45.270481,-117.9520051,TRUE,FALSE,FALSE,"S239481889"
"482","fragul","Franklin's Gull","Leucophaeus pipixcan","L45286256","Croydon City Park  US-UT (41.0683,-111.5127)","2025-05-17 13:14",4,41.068344,-111.512694,TRUE,FALSE,TRUE,"S239364673"
"483","fragul","Franklin's Gull","Leucophaeus pipixcan","L360125","St. Olaf College Natural Lands","2025-05-17 13:11",1,44.4645538,-93.1909704,TRUE,FALSE,FALSE,"S239374666"
"484","fragul","Franklin's Gull","Leucophaeus pipixcan","L127945","Bosque del Apache NWR","2025-05-17 13:04",1,33.802,-106.88,TRUE,FALSE,FALSE,"S239429023"
"485","fragul","Franklin's Gull","Leucophaeus pipixcan","L15073201","Long Bridge Rd, Ashland US-WI 46.58858, -90.94533","2025-05-17 12:53",2,46.588581,-90.945328,TRUE,TRUE,TRUE,"S239393988"
"486","fragul","Franklin's Gull","Leucophaeus pipixcan","L2327422","Salt Lake (Burleigh Co.)","2025-05-17 12:51",1,47.3063691,-100.2715158,TRUE,FALSE,FALSE,"S239314531"
"487","fragul","Franklin's Gull","Leucophaeus pipixcan","L45314227","Utah Lake shore -- marsh south of Lehi Center St","2025-05-17 12:50",1,40.3604045,-111.8506472,TRUE,FALSE,TRUE,"S239503496"
"488","fragul","Franklin's Gull","Leucophaeus pipixcan","L45209317","Spillway Road wetland","2025-05-17 12:46",10,45.0058444,-112.8532717,TRUE,FALSE,TRUE,"S239360861"
"489","fragul","Franklin's Gull","Leucophaeus pipixcan","L211505","Red Rock Lakes NWR--Upper","2025-05-17 12:38",50,44.591557,-111.7328195,TRUE,FALSE,FALSE,"S239405645"
"490","fragul","Franklin's Gull","Leucophaeus pipixcan","L45288183","64801–64817 Lawen Rd, Burns US-OR (43.3962,-118.8037)","2025-05-17 12:37",7,43.396181,-118.803672,TRUE,FALSE,TRUE,"S239372970"
"491","fragul","Franklin's Gull","Leucophaeus pipixcan","L24913529","Ruh-Red Rd. (sagebrush habitat only)","2025-05-17 12:33",2,43.381245,-118.9416723,TRUE,FALSE,FALSE,"S239408146"
"492","fragul","Franklin's Gull","Leucophaeus pipixcan","L11792272","SMSC (restricted access)","2025-05-17 12:32",13,44.7616711,-93.4601847,TRUE,FALSE,FALSE,"S239303589"
"493","fragul","Franklin's Gull","Leucophaeus pipixcan","L273251","Long Branch SP and Lake","2025-05-17 12:28",4,39.7563593,-92.5144121,TRUE,FALSE,FALSE,"S239332397"
"494","fragul","Franklin's Gull","Leucophaeus pipixcan","L45284526","Lawen Ln, Burns US-OR 43.38536, -118.82963","2025-05-17 12:28",1,43.385356,-118.829632,TRUE,FALSE,TRUE,"S239356725"
"495","fragul","Franklin's Gull","Leucophaeus pipixcan","L151133","Ogden Bay WMA","2025-05-17 12:25",4,41.1884,-112.16137,TRUE,FALSE,FALSE,"S239368638"
"496","fragul","Franklin's Gull","Leucophaeus pipixcan","L45289618","Amalga Gun Club","2025-05-17 12:22",NA,41.8594624,-111.9310996,TRUE,FALSE,TRUE,"S239379636"
"497","fragul","Franklin's Gull","Leucophaeus pipixcan","L45282409","Utah Lake SP Campground","2025-05-17 12:18",2,40.241626,-111.734834,TRUE,FALSE,TRUE,"S239347896"
"498","fragul","Franklin's Gull","Leucophaeus pipixcan","L45271019","8111–8149 39th St NE, Saint Michael US-ND 47.97823, -98.83830","2025-05-17 12:16",5,47.978225,-98.838297,TRUE,FALSE,TRUE,"S239299883"
"499","fragul","Franklin's Gull","Leucophaeus pipixcan","L45276334","Richardson Rd Skypond 39.83443, -82.87294","2025-05-17 12:13",1,39.834427,-82.872939,TRUE,TRUE,TRUE,"S239321873"
"500","fragul","Franklin's Gull","Leucophaeus pipixcan","L45268016","7020 County Highway 19, Owatonna, Minnesota, US (44.092, -93.093)","2025-05-17 12:05",32,44.0918307,-93.0934001,TRUE,FALSE,TRUE,"S239287290"
"501","fragul","Franklin's Gull","Leucophaeus pipixcan","L1758020","Lost Creek--Croydon","2025-05-17 12:00",NA,41.0690585,-111.5140689,TRUE,FALSE,FALSE,"S239445863"
"502","fragul","Franklin's Gull","Leucophaeus pipixcan","L5663560","Judith Gap (Town)","2025-05-17 11:59",1,46.67765,-109.752454,TRUE,FALSE,FALSE,"S239336174"
"503","fragul","Franklin's Gull","Leucophaeus pipixcan","L45275257","Judith Gap Ponds","2025-05-17 11:57",1,46.670595,-109.751926,TRUE,FALSE,TRUE,"S239317569"
"504","fragul","Franklin's Gull","Leucophaeus pipixcan","L41823131","Resevoir Road, Lucas, Kansas, US (38.954, -98.664)","2025-05-17 11:53",30,38.9535842,-98.6636821,TRUE,FALSE,TRUE,"S239303843"
"505","fragul","Franklin's Gull","Leucophaeus pipixcan","L45208786","Clark Canyon Reservoir--access north of Horse Prairie Creek","2025-05-17 11:43",2,44.9782311,-112.9187859,TRUE,FALSE,TRUE,"S239319312"
"506","fragul","Franklin's Gull","Leucophaeus pipixcan","L45284246","Missouri River sandbar 790.1","2025-05-17 11:36",30,42.796552,-97.155686,TRUE,FALSE,TRUE,"S239355537"
"507","fragul","Franklin's Gull","Leucophaeus pipixcan","L45272527","Red Rock Pass Rd, Island Park US-ID 44.60233, -111.49698","2025-05-17 11:34",10,44.602329,-111.496985,TRUE,FALSE,TRUE,"S239306183"
"508","fragul","Franklin's Gull","Leucophaeus pipixcan","L12866836","My Neighborhood West Jordan","2025-05-17 11:33",2,40.628288,-111.965822,TRUE,FALSE,TRUE,"S239357176"
"509","fragul","Franklin's Gull","Leucophaeus pipixcan","L1776456","Lavon Lake--Clear Lake Park","2025-05-17 11:28",2,33.0575251,-96.48564,TRUE,FALSE,FALSE,"S239279054"
"510","fragul","Franklin's Gull","Leucophaeus pipixcan","L474833","Great Lakes Naval Training Center (restricted access)","2025-05-17 11:23",1,42.3081334,-87.8343201,TRUE,TRUE,FALSE,"S239667151"
"511","fragul","Franklin's Gull","Leucophaeus pipixcan","L2079264","Henefer Ponds","2025-05-17 11:23",4,41.0310193,-111.5092134,TRUE,FALSE,FALSE,"S239308736"
"512","fragul","Franklin's Gull","Leucophaeus pipixcan","L45275650","Corinne Trail bottomlands","2025-05-17 11:17",1,45.0102693,-113.0183986,TRUE,FALSE,TRUE,"S239319178"
"513","fragul","Franklin's Gull","Leucophaeus pipixcan","L14707956","Resevoir Road, Dorrance, Kansas, US (38.947, -98.657)","2025-05-17 11:12",68,38.9470648,-98.6569583,TRUE,FALSE,TRUE,"S239277328"
"514","fragul","Franklin's Gull","Leucophaeus pipixcan","L3156434","Bosque del Apache NWR--Flight Deck","2025-05-17 11:10",1,33.8049577,-106.8843985,TRUE,FALSE,FALSE,"S239377717"
"515","fragul","Franklin's Gull","Leucophaeus pipixcan","L296096","Henefer","2025-05-17 11:00",NA,41.01665,-111.49876,TRUE,FALSE,TRUE,"S239441058"
"516","fragul","Franklin's Gull","Leucophaeus pipixcan","L13805684","Loess Bluffs NWR","2025-05-17 10:49",125,40.083843,-95.249641,TRUE,FALSE,TRUE,"S239373536"
"517","fragul","Franklin's Gull","Leucophaeus pipixcan","L35325277","Lansing Puddles","2025-05-17 10:43",1,43.757371,-92.969965,TRUE,FALSE,TRUE,"S239483361"
"518","fragul","Franklin's Gull","Leucophaeus pipixcan","L15568437","Farmington Bay Waterfowl Mgt Area","2025-05-17 10:25",6,40.9615985,-111.9287753,TRUE,FALSE,TRUE,"S239285366"
"519","fragul","Franklin's Gull","Leucophaeus pipixcan","L45254266","South Dakota 10, Lake City, South Dakota, US (45.749, -97.528)","2025-05-17 10:18",150,45.748623,-97.5284931,TRUE,FALSE,TRUE,"S239227228"
"520","fragul","Franklin's Gull","Leucophaeus pipixcan","L45257459","30679 Quine Ave, Worthington US-MN 43.54663, -95.59385","2025-05-17 10:17",4,43.546634,-95.59385,TRUE,FALSE,TRUE,"S239241702"
"521","fragul","Franklin's Gull","Leucophaeus pipixcan","L925450","Hebgen Lake--Grayling Arm","2025-05-17 10:16",35,44.7972567,-111.1744959,TRUE,TRUE,FALSE,"S239306864"
"522","fragul","Franklin's Gull","Leucophaeus pipixcan","L45257123","30764–30998 Quine Ave, Worthington US-MN (43.5464,-95.5937)","2025-05-17 10:16",7,43.546399,-95.593736,TRUE,FALSE,TRUE,"S239240284"
"523","fragul","Franklin's Gull","Leucophaeus pipixcan","L1170953","Discovery Island/Legion Beach","2025-05-17 10:09",2,44.3676278,-100.3628111,TRUE,FALSE,FALSE,"S239241976"
"524","fragul","Franklin's Gull","Leucophaeus pipixcan","L19403224","Quine Avenue Marsh","2025-05-17 10:05",6,43.5560138,-95.5943978,TRUE,FALSE,FALSE,"S239253064"
"525","fragul","Franklin's Gull","Leucophaeus pipixcan","L1377050","Legacy Parkway & Preserve","2025-05-17 10:03",20,40.8855511,-111.9414568,TRUE,FALSE,FALSE,"S239315902"
"526","fragul","Franklin's Gull","Leucophaeus pipixcan","L30906027","Fehr Farm","2025-05-17 09:58",4,47.236902,-98.4511,TRUE,FALSE,TRUE,"S239255921"
"527","fragul","Franklin's Gull","Leucophaeus pipixcan","L2452618","Red Rock Reservoir--Marina Cove Recreation Area","2025-05-17 09:55",24,41.4024369,-93.0095994,TRUE,FALSE,FALSE,"S239216999"
"528","fragul","Franklin's Gull","Leucophaeus pipixcan","L45263309","6581 Montana 16, Medicine Lake, Montana, US (48.476, -104.496)","2025-05-17 09:48",6,48.4762342,-104.496486,TRUE,FALSE,TRUE,"S239267207"
"529","fragul","Franklin's Gull","Leucophaeus pipixcan","L1283464","Grapevine Lake—Oak Grove Park—Acorn Woods","2025-05-17 09:42",2,32.9609301,-97.0799589,TRUE,FALSE,FALSE,"S239238205"
"530","fragul","Franklin's Gull","Leucophaeus pipixcan","L42691149","Awesome place","2025-05-17 09:40",2,47.940487,-108.218537,TRUE,FALSE,TRUE,"S239268141"
"531","fragul","Franklin's Gull","Leucophaeus pipixcan","L3136919","Hillsdale Lake - Antioch Marsh (South) Grassland","2025-05-17 09:34",100,38.7093025,-94.9663353,TRUE,FALSE,TRUE,"S239315002"
"532","fragul","Franklin's Gull","Leucophaeus pipixcan","L281327","Swan Lake NWR","2025-05-17 09:33",25,39.613988,-93.2222444,TRUE,FALSE,FALSE,"S239313979"
"533","fragul","Franklin's Gull","Leucophaeus pipixcan","L6069521","Dog Walk ... Rocky Point Road - 42.484x-122.084","2025-05-17 09:32",1,42.4836576,-122.0843638,TRUE,FALSE,TRUE,"S239296939"
"534","fragul","Franklin's Gull","Leucophaeus pipixcan","L4196645","Webb City WWTP","2025-05-17 09:30",1,37.1761462,-94.4742143,TRUE,FALSE,FALSE,"S239263550"
"535","fragul","Franklin's Gull","Leucophaeus pipixcan","L2453460","Red Rock Reservoir--Visitor Center/South Overlook Recreation Area","2025-05-17 09:28",25,41.3662378,-92.9900622,TRUE,FALSE,FALSE,"S239199079"
"536","fragul","Franklin's Gull","Leucophaeus pipixcan","L45285371","Diamond Ln., approx. 0.6 mi. W of Diamond","2025-05-17 09:23",1,43.0085572,-118.6733359,TRUE,FALSE,TRUE,"S239360680"
"537","fragul","Franklin's Gull","Leucophaeus pipixcan","L29392643","Clear Lake","2025-05-17 09:18",20,45.5568148,-96.0732465,TRUE,FALSE,FALSE,"S239242419"
"538","fragul","Franklin's Gull","Leucophaeus pipixcan","L30026021","140th Street, Creston, Iowa, US (41.1, -94.295)","2025-05-17 09:17",18,41.0997393,-94.2927679,TRUE,FALSE,TRUE,"S239275975"
"539","fragul","Franklin's Gull","Leucophaeus pipixcan","L45246140","7320 Eagle Creek Boulevard, Shakopee, Minnesota, US (44.771, -93.457)","2025-05-17 09:17",1,44.7707761,-93.4571656,TRUE,FALSE,TRUE,"S239187965"
"540","fragul","Franklin's Gull","Leucophaeus pipixcan","L2883702","Kinney Creek Trail","2025-05-17 09:15",1,42.7608537,-112.3951793,TRUE,FALSE,FALSE,"S239275877"
"541","fragul","Franklin's Gull","Leucophaeus pipixcan","L45273423","Bosque del Apache National Wildlife Refuge, Socorro US-NM (33.8032,-106.8883)","2025-05-17 09:11",1,33.80318,-106.888255,TRUE,FALSE,TRUE,"S239310004"
"542","fragul","Franklin's Gull","Leucophaeus pipixcan","L31103260","Windmill Dr. Bird Haven","2025-05-17 09:10",5,43.449339,-111.960406,TRUE,FALSE,TRUE,"S239222450"
"543","fragul","Franklin's Gull","Leucophaeus pipixcan","L247312","Freezout Lake WMA","2025-05-17 09:05",3,47.6657859,-112.0112392,TRUE,FALSE,FALSE,"S239280748"
"544","fragul","Franklin's Gull","Leucophaeus pipixcan","L1358840","Bosque del Apache NWR--North Loop (formerly Farm Loop)","2025-05-17 09:01",1,33.8151614,-106.8722406,TRUE,FALSE,FALSE,"S239339546"
"545","fragul","Franklin's Gull","Leucophaeus pipixcan","L4242299","Northrock Pasture","2025-05-17 09:00",20,38.073716,-97.2405739,TRUE,FALSE,TRUE,"S239219645"
"546","fragul","Franklin's Gull","Leucophaeus pipixcan","L1720548","Little Mountain Rail Trail","2025-05-17 08:38",5,41.3342779,-112.0635964,TRUE,FALSE,FALSE,"S239253440"
"547","fragul","Franklin's Gull","Leucophaeus pipixcan","L20241659","El Dorado SP Dam","2025-05-17 08:34",500,37.8333887,-96.8007042,TRUE,FALSE,TRUE,"S239191452"
"548","fragul","Franklin's Gull","Leucophaeus pipixcan","L29741894","Chichaqua Bottoms Greenbelt--Lane Unit","2025-05-17 08:27",1,41.777741,-93.384309,TRUE,FALSE,FALSE,"S239198817"
"549","fragul","Franklin's Gull","Leucophaeus pipixcan","L253234","Lake Park (general)","2025-05-17 08:23",1,43.0710451,-87.8694027,TRUE,TRUE,FALSE,"S239191484"
"550","fragul","Franklin's Gull","Leucophaeus pipixcan","L45242413","Victor WPA","2025-05-17 08:21",22,46.823077,-100.4350489,TRUE,FALSE,TRUE,"S239169652"
"551","fragul","Franklin's Gull","Leucophaeus pipixcan","L45263618","12550–12598 RT-48, Rosendale US-MO 40.04428, -94.81425","2025-05-17 08:16",59,40.044276,-94.814247,TRUE,FALSE,TRUE,"S239268675"
"552","fragul","Franklin's Gull","Leucophaeus pipixcan","L5040588","Edson Fichter Nature Area","2025-05-17 08:13",2,42.8219236,-112.4039555,TRUE,FALSE,FALSE,"S239227455"
"553","fragul","Franklin's Gull","Leucophaeus pipixcan","L17866122","Centennial Park — Worthington","2025-05-17 08:12",NA,43.624914,-95.615721,TRUE,FALSE,FALSE,"S239154260"
"554","fragul","Franklin's Gull","Leucophaeus pipixcan","L519330","Newton Reservoir -- South End Access","2025-05-17 08:10",4,41.8956649,-111.9734287,TRUE,FALSE,FALSE,"S239245199"
"555","fragul","Franklin's Gull","Leucophaeus pipixcan","L158589","Lake Helena WMA","2025-05-17 08:07",4,46.701,-111.9584,TRUE,FALSE,FALSE,"S239393050"
"556","fragul","Franklin's Gull","Leucophaeus pipixcan","L298015","Old Cedar Ave. Bridge","2025-05-17 08:02",4,44.8306236,-93.2436534,TRUE,FALSE,FALSE,"S239209431"
"557","fragul","Franklin's Gull","Leucophaeus pipixcan","L675704","Lake Travis--Bob Wentz Windy Point Pk","2025-05-17 07:59",2,30.4128174,-97.9008651,TRUE,FALSE,FALSE,"S239320701"
"558","fragul","Franklin's Gull","Leucophaeus pipixcan","L4629436","Trapper Park","2025-05-17 07:59",9,41.7065615,-111.8743372,TRUE,FALSE,FALSE,"S239316234"
"559","fragul","Franklin's Gull","Leucophaeus pipixcan","L1145817","Myron Grove","2025-05-17 07:51",1,42.7726288,-97.1213293,TRUE,FALSE,FALSE,"S239433382"
"560","fragul","Franklin's Gull","Leucophaeus pipixcan","L158901","Patterson Lake Recreation Area","2025-05-17 07:45",2,46.8666813,-102.8518689,TRUE,FALSE,FALSE,"S239398076"
"561","fragul","Franklin's Gull","Leucophaeus pipixcan","L5765319","Cherry Creek SP--Pelican Point area","2025-05-17 07:31",2,39.6364436,-104.8418274,TRUE,FALSE,FALSE,"S239183794"
"562","fragul","Franklin's Gull","Leucophaeus pipixcan","L45285804","Foley Drive Loop to Silvies Cyn mouth","2025-05-17 07:30",243,43.6111538,-119.0592264,TRUE,FALSE,TRUE,"S239362735"
