"","speciesCode","comName","sciName","locId","locName","obsDt","howMany","lat","lng","obsValid","obsReviewed","locationPrivate","subId"
"1","rudduc","Ruddy Duck","Oxyura jamaicensis","L10662202","Manistee River access at Coster Rd.","2025-06-30 17:30",1,44.5271607,-85.2749813,TRUE,FALSE,FALSE,"S255723431"
"2","rudduc","Ruddy Duck","Oxyura jamaicensis","L568336","Gaylord WTP","2025-06-30 17:22",34,44.5410429,-94.2100811,TRUE,FALSE,FALSE,"S255736427"
"3","rudduc","Ruddy Duck","Oxyura jamaicensis","L48831563","876th Road, Bassett, Nebraska, US (42.521, -99.476)","2025-06-30 16:16",1,42.5214104,-99.4758933,TRUE,FALSE,TRUE,"S255724238"
"4","rudduc","Ruddy Duck","Oxyura jamaicensis","L512907","Lake Nettie NWR","2025-06-30 16:12",5,47.6178137,-101.0141372,TRUE,FALSE,FALSE,"S255723487"
"5","rudduc","Ruddy Duck","Oxyura jamaicensis","L226227","Monterey--El Estero Lake and/or Monterey cemeteries","2025-06-30 14:47",1,36.5972737,-121.8844593,TRUE,FALSE,FALSE,"S255730740"
"6","rudduc","Ruddy Duck","Oxyura jamaicensis","L18831454","Bootleg Lake WMA","2025-06-30 14:34",12,43.687378,-95.079851,TRUE,FALSE,FALSE,"S255698663"
"7","rudduc","Ruddy Duck","Oxyura jamaicensis","L271485","Arcata Marsh--Oxidation Ponds","2025-06-30 14:12",1,40.8511728,-124.0891591,TRUE,FALSE,FALSE,"S255728294"
"8","rudduc","Ruddy Duck","Oxyura jamaicensis","L109145","Jamaica Bay Wildlife Refuge--West Pond","2025-06-30 13:58",20,40.6188482,-73.8307995,TRUE,TRUE,FALSE,"S255687283"
"9","rudduc","Ruddy Duck","Oxyura jamaicensis","L165048","Farmington Bay WMA","2025-06-30 13:55",22,40.955141,-111.9191396,TRUE,FALSE,FALSE,"S255721164"
"10","rudduc","Ruddy Duck","Oxyura jamaicensis","L421073","Beck & Alkali Lakes","2025-06-30 13:44",2,44.5096973,-109.0376973,TRUE,FALSE,FALSE,"S255702455"
"11","rudduc","Ruddy Duck","Oxyura jamaicensis","L5602571","ACGC High School Ponds and Campus","2025-06-30 13:29",2,45.1394412,-94.6835661,TRUE,FALSE,FALSE,"S255676600"
"12","rudduc","Ruddy Duck","Oxyura jamaicensis","L500360","Don Edwards NWR (ALA Co.)","2025-06-30 13:25",1,37.5316305,-122.0733619,TRUE,FALSE,FALSE,"S255751591"
"13","rudduc","Ruddy Duck","Oxyura jamaicensis","L165104","Laguna Grande Park","2025-06-30 13:18",2,36.6034126,-121.8568645,TRUE,FALSE,FALSE,"S255720970"
"14","rudduc","Ruddy Duck","Oxyura jamaicensis","L934420","Dewald Slough--31st Ave. & 44th St.","2025-06-30 13:18",6,46.7793112,-99.8041326,TRUE,FALSE,FALSE,"S255679903"
"15","rudduc","Ruddy Duck","Oxyura jamaicensis","L657546","Lower Klamath NWR--Auto Tour Route","2025-06-30 13:06",1,41.9717075,-121.7260158,TRUE,FALSE,FALSE,"S255735761"
"16","rudduc","Ruddy Duck","Oxyura jamaicensis","L5213487","Hillside Playa","2025-06-30 12:34",2,35.1407276,-101.9540405,TRUE,FALSE,TRUE,"S255712860"
"17","rudduc","Ruddy Duck","Oxyura jamaicensis","L9861160","Buffalo Thunder Casino Ponds (view from parking lot only)","2025-06-30 12:23",5,35.8591521,-105.994053,TRUE,FALSE,FALSE,"S255698232"
"18","rudduc","Ruddy Duck","Oxyura jamaicensis","L48821103","6705 U S Highway No 12, Maple Plain, Minnesota, US (45.011, -93.695)","2025-06-30 12:17",1,45.0108341,-93.6953773,TRUE,FALSE,TRUE,"S255678989"
"19","rudduc","Ruddy Duck","Oxyura jamaicensis","L159714","Manitowoc Impoundment","2025-06-30 12:12",1,44.1001088,-87.6486295,TRUE,FALSE,FALSE,"S255679479"
"20","rudduc","Ruddy Duck","Oxyura jamaicensis","L29459162","Smith WPA","2025-06-30 12:11",2,45.6635165,-96.02319,TRUE,FALSE,FALSE,"S255658728"
"21","rudduc","Ruddy Duck","Oxyura jamaicensis","L1414701","Laguna Madre","2025-06-30 12:03",1,36.6054787,-104.6393876,TRUE,FALSE,FALSE,"S255685076"
"22","rudduc","Ruddy Duck","Oxyura jamaicensis","L233071","Amado WTP","2025-06-30 11:56",2,31.7306042,-111.0544619,TRUE,FALSE,FALSE,"S255714776"
"23","rudduc","Ruddy Duck","Oxyura jamaicensis","L48835200","Forest Service Road 520, Creede US-CO 37.76963, -107.18188","2025-06-30 11:54",1,37.769625,-107.181881,TRUE,FALSE,TRUE,"S255740365"
"24","rudduc","Ruddy Duck","Oxyura jamaicensis","L1783628","Mallard Pond","2025-06-30 11:49",2,38.9409964,-104.5784371,TRUE,FALSE,FALSE,"S255749605"
"25","rudduc","Ruddy Duck","Oxyura jamaicensis","L164961","Bear River MBR--Auto Tour Loop","2025-06-30 11:37",9,41.4692291,-112.2947788,TRUE,FALSE,FALSE,"S255712634"
"26","rudduc","Ruddy Duck","Oxyura jamaicensis","L48813440","Bahr WPA","2025-06-30 11:35",5,45.6508051,-96.0058747,TRUE,FALSE,TRUE,"S255648164"
"27","rudduc","Ruddy Duck","Oxyura jamaicensis","L737714","Playa near Holbrook Reservoir (near Rds FF & 26) (distance <0.25 mi.)","2025-06-30 11:16",20,38.0542416,-103.5977268,TRUE,FALSE,FALSE,"S255655016"
"28","rudduc","Ruddy Duck","Oxyura jamaicensis","L11819492","Rocky Mountain Arsenal NWR--Havana Ponds and Trail","2025-06-30 11:15",3,39.8056448,-104.8574796,TRUE,FALSE,FALSE,"S255682620"
"29","rudduc","Ruddy Duck","Oxyura jamaicensis","L39646630","The Meadows in Riverbend","2025-06-30 11:14",1,35.545864,-97.665133,TRUE,TRUE,TRUE,"S255635835"
"30","rudduc","Ruddy Duck","Oxyura jamaicensis","L4330604","San Francisquito Creek Trail--Palo Alto Airport (SCL Co.)","2025-06-30 11:13",1,37.4626363,-122.1209228,TRUE,FALSE,FALSE,"S255707559"
"31","rudduc","Ruddy Duck","Oxyura jamaicensis","L48325727","Spit Lake Wallula, by Burbank US-WA 46.17815, -119.00125","2025-06-30 11:05",2,46.178149,-119.001252,TRUE,FALSE,TRUE,"S255678498"
"32","rudduc","Ruddy Duck","Oxyura jamaicensis","L48811448","Miller WPA","2025-06-30 11:01",2,45.6435445,-95.9991837,TRUE,FALSE,TRUE,"S255640062"
"33","rudduc","Ruddy Duck","Oxyura jamaicensis","L48814226","17902–18098 SD-79, Newell US-SD 44.80555, -103.42540","2025-06-30 10:54",1,44.805553,-103.425399,TRUE,FALSE,TRUE,"S255651270"
"34","rudduc","Ruddy Duck","Oxyura jamaicensis","L30187193","Woodward WTP (view from road)","2025-06-30 10:53",5,41.877406,-93.92299,TRUE,FALSE,FALSE,"S255629643"
"35","rudduc","Ruddy Duck","Oxyura jamaicensis","L109301","Monte Vista NWR","2025-06-30 10:37",9,37.4876656,-106.1308691,TRUE,FALSE,FALSE,"S255657009"
"36","rudduc","Ruddy Duck","Oxyura jamaicensis","L234239","Bruneau Sand Dunes SP","2025-06-30 10:37",1,42.8995926,-115.696493,TRUE,FALSE,FALSE,"S255674926"
"37","rudduc","Ruddy Duck","Oxyura jamaicensis","L7209244","Muddy Creek Wetlands","2025-06-30 10:37",18,41.3186888,-107.7732182,TRUE,FALSE,FALSE,"S255684749"
"38","rudduc","Ruddy Duck","Oxyura jamaicensis","L247318","Benton Lake NWR","2025-06-30 10:34",55,47.6641904,-111.3007221,TRUE,FALSE,FALSE,"S255699576"
"39","rudduc","Ruddy Duck","Oxyura jamaicensis","L131619","Holbrook Reservoir","2025-06-30 10:25",3,38.0627775,-103.6097217,TRUE,FALSE,FALSE,"S255646714"
"40","rudduc","Ruddy Duck","Oxyura jamaicensis","L1236105","La Grande Waste Water Treatment Ponds","2025-06-30 10:20",94,45.2869651,-118.0295563,TRUE,FALSE,FALSE,"S255715582"
"41","rudduc","Ruddy Duck","Oxyura jamaicensis","L10433887","AES Redondo Wetland","2025-06-30 10:08",3,33.8500956,-118.3931381,TRUE,FALSE,FALSE,"S255685092"
"42","rudduc","Ruddy Duck","Oxyura jamaicensis","L1774291","Burlington WTP","2025-06-30 10:07",1,39.2892875,-102.2579269,TRUE,FALSE,FALSE,"S255633401"
"43","rudduc","Ruddy Duck","Oxyura jamaicensis","L5676157","Rd-64 pond @ CA-43","2025-06-30 09:43",4,35.9246914,-119.4275971,TRUE,FALSE,FALSE,"S255647109"
"44","rudduc","Ruddy Duck","Oxyura jamaicensis","L515634","Arapaho NWR--Auto Loop","2025-06-30 09:21",18,40.6686604,-106.322937,TRUE,FALSE,FALSE,"S255640523"
"45","rudduc","Ruddy Duck","Oxyura jamaicensis","L351584","Ventura Settling Ponds","2025-06-30 09:18",6,34.2381312,-119.2615056,TRUE,FALSE,FALSE,"S255676637"
"46","rudduc","Ruddy Duck","Oxyura jamaicensis","L210223","Vasona Lake County Park","2025-06-30 09:03",6,37.2385116,-121.9709873,TRUE,FALSE,FALSE,"S255663974"
"47","rudduc","Ruddy Duck","Oxyura jamaicensis","L802533","Colville Valley--Colville STP","2025-06-30 08:52",4,48.5377498,-117.9169464,TRUE,FALSE,FALSE,"S255632569"
"48","rudduc","Ruddy Duck","Oxyura jamaicensis","L5987280","Crooked River Wetlands Complex","2025-06-30 08:51",2,44.3165109,-120.897857,TRUE,FALSE,FALSE,"S255666744"
"49","rudduc","Ruddy Duck","Oxyura jamaicensis","L164216","Crex Meadows SWA","2025-06-30 08:50",1,45.842964,-92.62031,TRUE,FALSE,FALSE,"S255695026"
"50","rudduc","Ruddy Duck","Oxyura jamaicensis","L48802237","87980 450th Avenue, Bassett, Nebraska, US (42.576, -99.48)","2025-06-30 08:37",1,42.5763873,-99.4802404,TRUE,FALSE,TRUE,"S255599636"
"51","rudduc","Ruddy Duck","Oxyura jamaicensis","L292857","Kah Tai Lagoon","2025-06-30 08:36",10,48.1114603,-122.7781165,TRUE,FALSE,FALSE,"S255638694"
"52","rudduc","Ruddy Duck","Oxyura jamaicensis","L192625","Santee Lakes","2025-06-30 08:26",6,32.8570948,-117.0071411,TRUE,FALSE,FALSE,"S255726465"
"53","rudduc","Ruddy Duck","Oxyura jamaicensis","L506053","Damonte Ranch Wetlands","2025-06-30 08:25",5,39.4275085,-119.7185326,TRUE,FALSE,FALSE,"S255632432"
"54","rudduc","Ruddy Duck","Oxyura jamaicensis","L757113","Bommer Canyon, Irvine","2025-06-30 08:24",3,33.6176928,-117.8015041,TRUE,FALSE,FALSE,"S255629016"
"55","rudduc","Ruddy Duck","Oxyura jamaicensis","L158902","McKenzie Slough","2025-06-30 08:14",1,46.7942788,-100.4157696,TRUE,FALSE,FALSE,"S255590304"
"56","rudduc","Ruddy Duck","Oxyura jamaicensis","L151122","Antelope Island SP--Causeway","2025-06-30 08:13",15,41.08841,-112.186714,TRUE,FALSE,FALSE,"S255673368"
"57","rudduc","Ruddy Duck","Oxyura jamaicensis","L517778","Deer Lagoon","2025-06-30 08:10",11,47.9938851,-122.4926662,TRUE,FALSE,FALSE,"S255667368"
"58","rudduc","Ruddy Duck","Oxyura jamaicensis","L165600","Peters Canyon Reg Park","2025-06-30 08:08",25,33.7780824,-117.7605691,TRUE,FALSE,FALSE,"S255651533"
"59","rudduc","Ruddy Duck","Oxyura jamaicensis","L48825181","46316–46356 Sanford Rd, Ronan US-MT 47.53725, -114.17725","2025-06-30 07:59",2,47.537246,-114.177254,TRUE,FALSE,TRUE,"S255696825"
"60","rudduc","Ruddy Duck","Oxyura jamaicensis","L470113","Atascadero Lake","2025-06-30 07:57",3,35.4646547,-120.6667256,TRUE,FALSE,FALSE,"S255640655"
"61","rudduc","Ruddy Duck","Oxyura jamaicensis","L2985176","Benkelman WTP and Republican crossing","2025-06-30 07:56",2,40.0466059,-101.5266752,TRUE,FALSE,FALSE,"S255595589"
"62","rudduc","Ruddy Duck","Oxyura jamaicensis","L109339","IRWD San Joaquin Marsh & Wildlife Sanctuary, Irvine","2025-06-30 07:47",2,33.6637274,-117.8426814,TRUE,FALSE,FALSE,"S255625052"
"63","rudduc","Ruddy Duck","Oxyura jamaicensis","L594360","Ceres WTP","2025-06-30 07:43",2,37.576,-120.970675,TRUE,FALSE,FALSE,"S255620810"
"64","rudduc","Ruddy Duck","Oxyura jamaicensis","L21729670","Hidden Valley Golf Course (limited access)","2025-06-30 07:34",1,39.4845347,-119.7290426,TRUE,FALSE,FALSE,"S255649071"
"65","rudduc","Ruddy Duck","Oxyura jamaicensis","L613438","Klamath Wildlife Area--Miller Island Unit","2025-06-30 07:33",7,42.1551736,-121.8082073,TRUE,FALSE,FALSE,"S255666154"
"66","rudduc","Ruddy Duck","Oxyura jamaicensis","L15193617","I-20 Wildlife Preserve, Midland US-TX 31.96275, -102.12089","2025-06-30 07:30",1,31.962751,-102.120885,TRUE,FALSE,TRUE,"S255679542"
"67","rudduc","Ruddy Duck","Oxyura jamaicensis","L264663","Kachina Wetlands","2025-06-30 07:27",6,35.1096843,-111.6895866,TRUE,FALSE,FALSE,"S255640794"
"68","rudduc","Ruddy Duck","Oxyura jamaicensis","L163561","San Jacinto Wildlife Area","2025-06-30 07:20",NA,33.8854488,-117.104104,TRUE,FALSE,FALSE,"S255714786"
"69","rudduc","Ruddy Duck","Oxyura jamaicensis","L448084","Woodland WTP","2025-06-30 07:15",50,38.6624345,-121.7173585,TRUE,FALSE,FALSE,"S255745353"
"70","rudduc","Ruddy Duck","Oxyura jamaicensis","L2161814","South Park Wildlife Habitat Management Area","2025-06-30 06:44",3,43.3965039,-110.7767773,TRUE,FALSE,FALSE,"S255622387"
"71","rudduc","Ruddy Duck","Oxyura jamaicensis","L573594","Tulare WTP","2025-06-30 06:44",20,36.1807372,-119.3752957,TRUE,FALSE,FALSE,"S255625883"
"72","rudduc","Ruddy Duck","Oxyura jamaicensis","L266875","Willcox--Lake Cochise and Twin Lakes Golf Course","2025-06-30 06:43",1,32.2298515,-109.8243175,TRUE,FALSE,FALSE,"S255706435"
"73","rudduc","Ruddy Duck","Oxyura jamaicensis","L2158992","Fedje Lake","2025-06-30 06:35",2,44.0814813,-94.3849182,TRUE,FALSE,FALSE,"S255591859"
"74","rudduc","Ruddy Duck","Oxyura jamaicensis","L290333","Arthur Pack Regional Park","2025-06-30 06:30",11,32.3733753,-111.0535231,TRUE,FALSE,FALSE,"S255630808"
"75","rudduc","Ruddy Duck","Oxyura jamaicensis","L152924","Sand Hollow Reservoir & SP","2025-06-30 06:28",2,37.1206326,-113.3835411,TRUE,FALSE,FALSE,"S255685335"
"76","rudduc","Ruddy Duck","Oxyura jamaicensis","L7714338","Howard Eaton Reservoir","2025-06-30 06:25",1,42.1522561,-79.7778654,TRUE,TRUE,FALSE,"S255582986"
"77","rudduc","Ruddy Duck","Oxyura jamaicensis","L300609","Salt River--Granite Reef Recreation Area","2025-06-30 05:37",1,33.5145045,-111.6815139,TRUE,FALSE,FALSE,"S255633335"
"78","rudduc","Ruddy Duck","Oxyura jamaicensis","L48779441","Carey, Idaho, US (43.477, -114.003)","2025-06-29 21:35",5,43.4774618,-114.0030952,TRUE,FALSE,TRUE,"S255479579"
"79","rudduc","Ruddy Duck","Oxyura jamaicensis","L43843582","I-94 W, Cleveland US-ND 46.88651, -99.10958","2025-06-29 20:59",1,46.886509,-99.109578,TRUE,FALSE,TRUE,"S255466722"
"80","rudduc","Ruddy Duck","Oxyura jamaicensis","L48778279","1098 97th Avenue Southeast, Wimbledon, North Dakota, US (47.255, -98.447)","2025-06-29 20:27",5,47.255057,-98.4469142,TRUE,FALSE,TRUE,"S255474041"
"81","rudduc","Ruddy Duck","Oxyura jamaicensis","L9523564","Horsehead Lake--Northwest","2025-06-29 20:20",150,47.0824103,-99.8193113,TRUE,FALSE,FALSE,"S255478502"
"82","rudduc","Ruddy Duck","Oxyura jamaicensis","L337164","McNary NWR--Headquarters/Quail Trail","2025-06-29 20:10",NA,46.2014931,-118.9934768,TRUE,FALSE,FALSE,"S255486762"
"83","rudduc","Ruddy Duck","Oxyura jamaicensis","L726903","Fort Stockton WTP","2025-06-29 19:58",3,30.912461,-102.8798819,TRUE,FALSE,FALSE,"S255496719"
"84","rudduc","Ruddy Duck","Oxyura jamaicensis","L15233266","Arizona Veterans Memorial","2025-06-29 19:36",1,35.0940865,-114.6341479,TRUE,FALSE,FALSE,"S255473765"
"85","rudduc","Ruddy Duck","Oxyura jamaicensis","L506672","Horicon NWR--Hwy. 49 (Fond du Lac Co.)","2025-06-29 19:35",2,43.6332176,-88.6409569,TRUE,FALSE,FALSE,"S255565822"
"86","rudduc","Ruddy Duck","Oxyura jamaicensis","L1048752","Lake Merced--Boathouse/Harding Park entrance drive","2025-06-29 18:38",3,37.7260074,-122.5005627,TRUE,FALSE,FALSE,"S255471243"
"87","rudduc","Ruddy Duck","Oxyura jamaicensis","L15886833","Beaver Creek Campground","2025-06-29 18:23",3,44.8560513,-111.3741589,TRUE,FALSE,FALSE,"S255461401"
"88","rudduc","Ruddy Duck","Oxyura jamaicensis","L140460","Big Johnson Reservoir & Bluestem Prairie Open Space","2025-06-29 18:03",2,38.7482319,-104.6943795,TRUE,FALSE,FALSE,"S255467224"
"89","rudduc","Ruddy Duck","Oxyura jamaicensis","L2318798","Medicine Lake NWR--Scenic Wildlife Loop","2025-06-29 18:00",10,48.5006247,-104.3254227,TRUE,FALSE,FALSE,"S255454378"
"90","rudduc","Ruddy Duck","Oxyura jamaicensis","L343249","Stanwood Water Treatment Plant","2025-06-29 17:37",1,48.2377017,-122.3611822,TRUE,FALSE,FALSE,"S255466943"
"91","rudduc","Ruddy Duck","Oxyura jamaicensis","L550103","Snake River--26/89/189/191 Bridge","2025-06-29 17:24",6,43.3849885,-110.745728,TRUE,FALSE,FALSE,"S255432715"
"92","rudduc","Ruddy Duck","Oxyura jamaicensis","L231604","Discovery Lake","2025-06-29 17:22",1,33.1232599,-117.178321,TRUE,FALSE,FALSE,"S255463935"
"93","rudduc","Ruddy Duck","Oxyura jamaicensis","L40363776","coyote point spit","2025-06-29 17:20",1,37.5863799,-122.3162842,TRUE,FALSE,TRUE,"S255465405"
"94","rudduc","Ruddy Duck","Oxyura jamaicensis","L14074261","AZ, Page, WTP","2025-06-29 16:58",1,36.9118911,-111.4874881,TRUE,FALSE,TRUE,"S255728047"
"95","rudduc","Ruddy Duck","Oxyura jamaicensis","L210723","Salt Lake","2025-06-29 16:36",21,44.9645052,-96.4437363,TRUE,FALSE,FALSE,"S255414235"
"96","rudduc","Ruddy Duck","Oxyura jamaicensis","L596210","EBMUD--Valle Vista Staging Area (permit required)","2025-06-29 16:30",1,37.821243,-122.1393013,TRUE,FALSE,FALSE,"S255466769"
"97","rudduc","Ruddy Duck","Oxyura jamaicensis","L279404","Las Vegas NWR","2025-06-29 16:09",41,35.548848,-105.1583862,TRUE,FALSE,FALSE,"S255477161"
"98","rudduc","Ruddy Duck","Oxyura jamaicensis","L563353","Walnut Canyon Lakes","2025-06-29 16:08",2,35.2032507,-111.5705988,TRUE,FALSE,FALSE,"S255446990"
"99","rudduc","Ruddy Duck","Oxyura jamaicensis","L383706","Pintail Lake","2025-06-29 16:00",1,34.3052296,-110.027647,TRUE,FALSE,FALSE,"S255485350"
"100","rudduc","Ruddy Duck","Oxyura jamaicensis","L2689586","Ripon WTP West--including adjacent river trail","2025-06-29 15:50",2,37.724134,-121.141995,TRUE,TRUE,FALSE,"S255429374"
"101","rudduc","Ruddy Duck","Oxyura jamaicensis","L5988406","Fern Ridge WMA--Fisher Butte Unit north (dikes around Pond 4, 5, 6, and west edge of 3)","2025-06-29 15:43",1,44.0667313,-123.263855,TRUE,FALSE,FALSE,"S255485042"
"102","rudduc","Ruddy Duck","Oxyura jamaicensis","L6326941","Lexington St. Pond and wetlands","2025-06-29 15:41",12,45.9902219,-112.5300783,TRUE,FALSE,FALSE,"S255405888"
"103","rudduc","Ruddy Duck","Oxyura jamaicensis","L48777110","Lawen Ln, Burns US-OR 43.38472, -118.83080","2025-06-29 15:39",1,43.384723,-118.830799,TRUE,FALSE,TRUE,"S255469550"
"104","rudduc","Ruddy Duck","Oxyura jamaicensis","L1276677","Cullen Park","2025-06-29 15:33",3,41.7046822,-83.4769642,TRUE,FALSE,FALSE,"S255469824"
"105","rudduc","Ruddy Duck","Oxyura jamaicensis","L2182908","North Ottawa Impoundment","2025-06-29 15:20",30,45.9856315,-96.2471008,TRUE,FALSE,FALSE,"S255447574"
"106","rudduc","Ruddy Duck","Oxyura jamaicensis","L950549","Lubec Lake","2025-06-29 15:20",2,48.3787726,-113.2790537,TRUE,FALSE,FALSE,"S255703248"
"107","rudduc","Ruddy Duck","Oxyura jamaicensis","L636725","Sesachacha Pond","2025-06-29 15:15",4,41.297606,-69.9805927,TRUE,TRUE,FALSE,"S255381123"
"108","rudduc","Ruddy Duck","Oxyura jamaicensis","L1647633","Phillips Bros. catfish ponds (restricted access)","2025-06-29 15:13",7,32.9676398,-90.3794594,TRUE,FALSE,FALSE,"S255433538"
"109","rudduc","Ruddy Duck","Oxyura jamaicensis","L165143","Jamaica Bay Wildlife Refuge","2025-06-29 15:00",5,40.6170296,-73.8244561,TRUE,FALSE,FALSE,"S255430813"
"110","rudduc","Ruddy Duck","Oxyura jamaicensis","L9976538","Creston Sewage Ponds","2025-06-29 14:47",8,47.7621521,-118.5259544,TRUE,FALSE,TRUE,"S255464377"
"111","rudduc","Ruddy Duck","Oxyura jamaicensis","L48764903","Arapaho National Wildlife Refuge, Walden US-CO 40.67906, -106.30642","2025-06-29 14:17",16,40.679062,-106.306416,TRUE,FALSE,TRUE,"S255414007"
"112","rudduc","Ruddy Duck","Oxyura jamaicensis","L48758021","19th Ave NE, Emerado US-ND 47.94756, -97.34138","2025-06-29 14:15",6,47.947564,-97.341383,TRUE,FALSE,TRUE,"S255386223"
"113","rudduc","Ruddy Duck","Oxyura jamaicensis","L3387810","Chinese Gardens","2025-06-29 14:13",1,48.1389146,-122.7809393,TRUE,FALSE,TRUE,"S255416647"
"114","rudduc","Ruddy Duck","Oxyura jamaicensis","L48764906","Arapaho National Wildlife Refuge, Walden US-CO 40.67899, -106.30125","2025-06-29 14:10",16,40.678987,-106.301246,TRUE,FALSE,TRUE,"S255414023"
"115","rudduc","Ruddy Duck","Oxyura jamaicensis","L6471374","Quivira NWR--Big Salt Marsh--Wildlife Drive","2025-06-29 14:02",45,38.1856615,-98.5338718,TRUE,FALSE,FALSE,"S255376697"
"116","rudduc","Ruddy Duck","Oxyura jamaicensis","L3006451","US-NY-Savannah-400 E Rd","2025-06-29 13:59",1,43.008677,-76.758371,TRUE,FALSE,TRUE,"S255348054"
"117","rudduc","Ruddy Duck","Oxyura jamaicensis","L283154","Key Pittman WMA--Nesbitt Lake","2025-06-29 13:44",8,37.5673377,-115.2254677,TRUE,FALSE,FALSE,"S255409246"
"118","rudduc","Ruddy Duck","Oxyura jamaicensis","L2999612","Playa del Rey/Ballona area","2025-06-29 13:42",2,33.9634551,-118.4519934,TRUE,FALSE,FALSE,"S255415914"
"119","rudduc","Ruddy Duck","Oxyura jamaicensis","L5654189","Split Pond N of Browning","2025-06-29 13:34",1,48.5874782,-113.0154803,TRUE,FALSE,FALSE,"S255490419"
"120","rudduc","Ruddy Duck","Oxyura jamaicensis","L48537179","Bonelli Bluffs RV Resort","2025-06-29 13:33",1,34.089877,-117.794829,TRUE,FALSE,TRUE,"S255426189"
"121","rudduc","Ruddy Duck","Oxyura jamaicensis","L7862034","Swanson Lakes","2025-06-29 13:23",1,47.6234853,-118.5488432,TRUE,FALSE,TRUE,"S255454870"
"122","rudduc","Ruddy Duck","Oxyura jamaicensis","L989047","South Richmond Marshes (Stege, Hoffman) and Meeker Slough","2025-06-29 13:14",1,37.9090901,-122.3329122,TRUE,FALSE,FALSE,"S255427282"
"123","rudduc","Ruddy Duck","Oxyura jamaicensis","L454527","Wagon Mound Waterfowl Area","2025-06-29 12:58",5,36.0307765,-104.7024536,TRUE,FALSE,FALSE,"S255367313"
"124","rudduc","Ruddy Duck","Oxyura jamaicensis","L695607","Owens Lake--westside delta ponds (T36s)","2025-06-29 12:49",15,36.5135522,-117.9787226,TRUE,FALSE,FALSE,"S255406368"
"125","rudduc","Ruddy Duck","Oxyura jamaicensis","L48743597","4144 U.S. Highway 385, Hereford, Texas, US (34.888, -102.404)","2025-06-29 12:47",4,34.8877948,-102.4043926,TRUE,FALSE,TRUE,"S255329586"
"126","rudduc","Ruddy Duck","Oxyura jamaicensis","L1874705","Bench Rd.","2025-06-29 12:45",2,45.820296,-111.5760183,TRUE,FALSE,FALSE,"S255441021"
"127","rudduc","Ruddy Duck","Oxyura jamaicensis","L109471","Ano Nuevo SP--Visitors Center, Elephant Seals and trails","2025-06-29 12:38",3,37.1174022,-122.3188162,TRUE,FALSE,FALSE,"S255459990"
"128","rudduc","Ruddy Duck","Oxyura jamaicensis","L3667367","Wahibo Marsh","2025-06-29 12:25",1,44.8676921,-93.8159573,TRUE,FALSE,FALSE,"S255332659"
"129","rudduc","Ruddy Duck","Oxyura jamaicensis","L152119","Iroquois NWR--Cayuga Overlook","2025-06-29 12:15",2,43.1189663,-78.4430695,TRUE,FALSE,FALSE,"S255297813"
"130","rudduc","Ruddy Duck","Oxyura jamaicensis","L375292","Chowchilla WTP","2025-06-29 12:12",3,37.1021177,-120.2621412,TRUE,FALSE,FALSE,"S255365834"
"131","rudduc","Ruddy Duck","Oxyura jamaicensis","L5859756","Byholt Marsh WMA","2025-06-29 12:06",5,45.0658823,-95.7127424,TRUE,FALSE,FALSE,"S255316285"
"132","rudduc","Ruddy Duck","Oxyura jamaicensis","L343450","Benson STP","2025-06-29 11:34",2,31.9815,-110.2924,TRUE,FALSE,FALSE,"S255349333"
"133","rudduc","Ruddy Duck","Oxyura jamaicensis","L272215","Wyoming Hereford Ranch Reservoir #1","2025-06-29 11:28",4,41.1167222,-104.7379491,TRUE,FALSE,FALSE,"S255332224"
"134","rudduc","Ruddy Duck","Oxyura jamaicensis","L686411","Wood River Wetland","2025-06-29 11:21",2,42.5807466,-121.9327068,TRUE,FALSE,FALSE,"S255377638"
"135","rudduc","Ruddy Duck","Oxyura jamaicensis","L48767876","Schoolhouse Pond point count","2025-06-29 11:20",7,45.271355,-117.9435172,TRUE,FALSE,TRUE,"S255429118"
"136","rudduc","Ruddy Duck","Oxyura jamaicensis","L48777496","89445, Winnemucca US-NV 41.51326, -119.07001","2025-06-29 11:17",4,41.513261,-119.07001,TRUE,FALSE,TRUE,"S255470998"
"137","rudduc","Ruddy Duck","Oxyura jamaicensis","L139900","Floyd Lamb Park at Tule Springs","2025-06-29 11:09",1,36.3249025,-115.266594,TRUE,FALSE,FALSE,"S255337668"
"138","rudduc","Ruddy Duck","Oxyura jamaicensis","L6211040","South Fork SRA--Southwest Meadows & Riparian area","2025-06-29 11:00",20,40.6480855,-115.7370633,TRUE,FALSE,FALSE,"S255355861"
"139","rudduc","Ruddy Duck","Oxyura jamaicensis","L48736139","Winkler Lake And CR 153","2025-06-29 11:00",6,44.7703885,-93.8286457,TRUE,FALSE,TRUE,"S255300027"
"140","rudduc","Ruddy Duck","Oxyura jamaicensis","L48777523","Krumbo Reservoir Rd, Princeton US-OR 42.96077, -118.84774","2025-06-29 10:50",5,42.960775,-118.84774,TRUE,FALSE,TRUE,"S255471111"
"141","rudduc","Ruddy Duck","Oxyura jamaicensis","L37656863","Moscow Lake WPA","2025-06-29 10:48",19,48.720365,-98.715627,TRUE,FALSE,TRUE,"S255299437"
"142","rudduc","Ruddy Duck","Oxyura jamaicensis","L725880","Dechambeau Ponds","2025-06-29 10:44",12,38.0506527,-119.0841529,TRUE,FALSE,FALSE,"S255429197"
"143","rudduc","Ruddy Duck","Oxyura jamaicensis","L2285815","Dailey Lake","2025-06-29 10:36",10,45.261783,-110.8158302,TRUE,FALSE,FALSE,"S255465672"
"144","rudduc","Ruddy Duck","Oxyura jamaicensis","L493044","Philomath Sewage Ponds (restricted access)","2025-06-29 10:34",4,44.5185755,-123.3444586,TRUE,FALSE,FALSE,"S255361599"
"145","rudduc","Ruddy Duck","Oxyura jamaicensis","L48756992","CR 2500 x FM 1294 Playa","2025-06-29 10:30",2,33.6943441,-101.8200879,TRUE,FALSE,TRUE,"S255382614"
"146","rudduc","Ruddy Duck","Oxyura jamaicensis","L597658","Malibu Lagoon--State Beach including Lagoon","2025-06-29 10:11",5,34.0333857,-118.6822987,TRUE,FALSE,FALSE,"S255353104"
"147","rudduc","Ruddy Duck","Oxyura jamaicensis","L12968236","Bolsa Chica Ecological Reserve-Backside (restricted access)","2025-06-29 10:10",1,33.7025628,-118.035571,TRUE,FALSE,FALSE,"S255370589"
"148","rudduc","Ruddy Duck","Oxyura jamaicensis","L1092125","Sedona Wetlands Preserve","2025-06-29 09:56",7,34.829,-111.8964,TRUE,FALSE,FALSE,"S255388423"
"149","rudduc","Ruddy Duck","Oxyura jamaicensis","L41174947","San Elijo Lagoon Ecological Reserve, Encinitas US-CA 33.01273, -117.27453","2025-06-29 09:55",1,33.012732,-117.274526,TRUE,FALSE,TRUE,"S255329598"
"150","rudduc","Ruddy Duck","Oxyura jamaicensis","L249812","Blacks Creek Bird Reserve","2025-06-29 09:48",5,43.4584433,-116.1426544,TRUE,FALSE,FALSE,"S255296192"
"151","rudduc","Ruddy Duck","Oxyura jamaicensis","L607744","Los Capitancillos Ponds","2025-06-29 09:48",2,37.238187,-121.8899632,TRUE,FALSE,FALSE,"S255353980"
"152","rudduc","Ruddy Duck","Oxyura jamaicensis","L48724962","6420 U.S. Highway 2, Churchs Ferry, North Dakota, US (48.277, -99.259)","2025-06-29 09:43",2,48.277419,-99.2589608,TRUE,FALSE,TRUE,"S255253653"
"153","rudduc","Ruddy Duck","Oxyura jamaicensis","L257950","M Street Marsh/Emerald Downs","2025-06-29 09:38",1,47.3284365,-122.2431564,TRUE,FALSE,FALSE,"S255362667"
"154","rudduc","Ruddy Duck","Oxyura jamaicensis","L157588","Camas Centennial Marsh","2025-06-29 09:31",3,43.26451,-114.99878,TRUE,FALSE,FALSE,"S255327568"
"155","rudduc","Ruddy Duck","Oxyura jamaicensis","L299772","Yellowstone NP--Floating Island Lake","2025-06-29 09:24",1,44.9423636,-110.4497081,TRUE,FALSE,FALSE,"S255379547"
"156","rudduc","Ruddy Duck","Oxyura jamaicensis","L336013","Lake Los Carneros Park","2025-06-29 09:20",6,34.44322,-119.84975,TRUE,FALSE,FALSE,"S255317235"
"157","rudduc","Ruddy Duck","Oxyura jamaicensis","L2971798","Yellowstone NP--Little America area","2025-06-29 09:18",2,44.9047666,-110.3635883,TRUE,FALSE,FALSE,"S255451169"
"158","rudduc","Ruddy Duck","Oxyura jamaicensis","L5050325","Santa Maria Country Club (restricted access)","2025-06-29 09:06",2,34.905972,-120.442061,TRUE,FALSE,FALSE,"S255340409"
"159","rudduc","Ruddy Duck","Oxyura jamaicensis","L1340258","Axemann Rd. Pond","2025-06-29 09:02",1,40.8727154,-77.7596732,TRUE,TRUE,FALSE,"S255214834"
"160","rudduc","Ruddy Duck","Oxyura jamaicensis","L998470","Don Edwards NWR--Ravenswood Salt Pond SF2","2025-06-29 09:00",1,37.4887844,-122.1341944,TRUE,FALSE,FALSE,"S255441031"
"161","rudduc","Ruddy Duck","Oxyura jamaicensis","L209342","Henderson Bird Viewing Preserve","2025-06-29 08:58",NA,36.0749791,-115.0021416,TRUE,FALSE,FALSE,"S255334074"
"162","rudduc","Ruddy Duck","Oxyura jamaicensis","L1540547","Jamaica Bay Wildlife Refuge--Terrapin Point, Brooklyn","2025-06-29 08:56",25,40.6157648,-73.8349968,TRUE,TRUE,FALSE,"S255216517"
"163","rudduc","Ruddy Duck","Oxyura jamaicensis","L2169526","Albany WTP","2025-06-29 08:52",20,45.6161987,-94.5830154,TRUE,FALSE,FALSE,"S255239013"
"164","rudduc","Ruddy Duck","Oxyura jamaicensis","L164929","Bolsa Chica Ecological Reserve","2025-06-29 08:48",1,33.7026531,-118.050735,TRUE,FALSE,FALSE,"S255349905"
"165","rudduc","Ruddy Duck","Oxyura jamaicensis","L247311","Lee Metcalf NWR","2025-06-29 08:42",6,46.5553628,-114.0762529,TRUE,FALSE,FALSE,"S255320360"
"166","rudduc","Ruddy Duck","Oxyura jamaicensis","L208918","Sweetwater Wetlands","2025-06-29 08:40",1,32.2790144,-111.0216061,TRUE,FALSE,FALSE,"S255320757"
"167","rudduc","Ruddy Duck","Oxyura jamaicensis","L1466666","Broadview Pond and (town)","2025-06-29 08:39",40,46.1056555,-108.8812958,TRUE,FALSE,FALSE,"S255299702"
"168","rudduc","Ruddy Duck","Oxyura jamaicensis","L4146258","Fountain Creek Regional Park--Area 3","2025-06-29 08:37",1,38.7148491,-104.7224307,TRUE,FALSE,FALSE,"S255305909"
"169","rudduc","Ruddy Duck","Oxyura jamaicensis","L715898","Whelan Lake Bird Sanctuary (permission required)","2025-06-29 08:33",7,33.2424922,-117.3364091,TRUE,FALSE,FALSE,"S255338660"
"170","rudduc","Ruddy Duck","Oxyura jamaicensis","L265647","Maxwell NWR","2025-06-29 08:31",27,36.5688651,-104.5815831,TRUE,FALSE,FALSE,"S255732807"
"171","rudduc","Ruddy Duck","Oxyura jamaicensis","L48778919","Maxwell National Wildlife Refuge, Maxwell US-NM 36.55143, -104.59982","2025-06-29 08:31",27,36.551434,-104.59982,TRUE,FALSE,TRUE,"S255477048"
"172","rudduc","Ruddy Duck","Oxyura jamaicensis","L279204","Sunnyvale WPCP (please use a more specific hotspot where possible)","2025-06-29 08:30",50,37.4198391,-122.0144261,TRUE,FALSE,FALSE,"S255334722"
"173","rudduc","Ruddy Duck","Oxyura jamaicensis","L608435","Chautauqua NWR--Eagle Bluff","2025-06-29 08:22",3,40.3747335,-89.9800786,TRUE,TRUE,FALSE,"S255247186"
"174","rudduc","Ruddy Duck","Oxyura jamaicensis","L3858879","Baskett Slough NWR--South Slough transect path","2025-06-29 08:14",30,44.9562801,-123.2571548,TRUE,FALSE,FALSE,"S255365888"
"175","rudduc","Ruddy Duck","Oxyura jamaicensis","L15843354","Oneida Reformatory Rd. Pond","2025-06-29 08:12",13,44.5599916,-88.1981507,TRUE,TRUE,FALSE,"S255253295"
"176","rudduc","Ruddy Duck","Oxyura jamaicensis","L48728075","LAAB10","2025-06-29 08:08",1,42.5642115,-120.1953308,TRUE,FALSE,TRUE,"S255267412"
"177","rudduc","Ruddy Duck","Oxyura jamaicensis","L15963475","IRWD San Joaquin Marsh","2025-06-29 08:05",4,33.660325,-117.841798,TRUE,FALSE,TRUE,"S255308810"
"178","rudduc","Ruddy Duck","Oxyura jamaicensis","L9520641","Star Valley Pond, Star Valley US-AZ (34.2425,-111.2492)","2025-06-29 08:05",3,34.242502,-111.249195,TRUE,FALSE,TRUE,"S255424722"
"179","rudduc","Ruddy Duck","Oxyura jamaicensis","L248057","Pte. Mouillee SGA (permit required Sep 1-Dec 15)","2025-06-29 08:04",4,42.0146112,-83.2001495,TRUE,FALSE,FALSE,"S255296438"
"180","rudduc","Ruddy Duck","Oxyura jamaicensis","L1315333","Thermalito Afterbay--causeway & north access","2025-06-29 08:04",6,39.4935929,-121.6813946,TRUE,FALSE,FALSE,"S255286084"
"181","rudduc","Ruddy Duck","Oxyura jamaicensis","L129042","Parker Canyon Lake","2025-06-29 08:00",1,31.4253006,-110.4540024,TRUE,FALSE,FALSE,"S255355044"
"182","rudduc","Ruddy Duck","Oxyura jamaicensis","L167924","Rocky Mountain Arsenal NWR","2025-06-29 08:00",4,39.8209707,-104.8680639,TRUE,FALSE,FALSE,"S255476459"
"183","rudduc","Ruddy Duck","Oxyura jamaicensis","L1156220","Thousand Acre Marsh","2025-06-29 07:56",1,39.5470076,-75.5847359,TRUE,TRUE,FALSE,"S255436475"
"184","rudduc","Ruddy Duck","Oxyura jamaicensis","L1028345","Bristlecone Pond","2025-06-29 07:53",2,48.4381627,-120.2398789,TRUE,FALSE,TRUE,"S255305642"
"185","rudduc","Ruddy Duck","Oxyura jamaicensis","L48726815","Burbank Slough Wildlife Trail, Burbank US-WA 46.20639, -118.99351","2025-06-29 07:50",100,46.206394,-118.993508,TRUE,FALSE,TRUE,"S255261819"
"186","rudduc","Ruddy Duck","Oxyura jamaicensis","L518546","Malheur NWR--Narrows","2025-06-29 07:40",10,43.2873151,-118.9591885,TRUE,FALSE,FALSE,"S255293902"
"187","rudduc","Ruddy Duck","Oxyura jamaicensis","L46248381","S US Highway 85 (Private Property)Newcastle US-WY","2025-06-29 07:35",2,43.740436,-104.187768,TRUE,FALSE,TRUE,"S255409157"
"188","rudduc","Ruddy Duck","Oxyura jamaicensis","L1610140","Whitefish River Trail","2025-06-29 07:30",2,48.3883501,-114.3321571,TRUE,FALSE,FALSE,"S255326886"
"189","rudduc","Ruddy Duck","Oxyura jamaicensis","L11285473","Pacific Press Pond","2025-06-29 07:19",10,43.5958672,-116.5308099,TRUE,FALSE,TRUE,"S255243499"
"190","rudduc","Ruddy Duck","Oxyura jamaicensis","L297806","Santa Clara River Estuary","2025-06-29 07:15",8,34.2316739,-119.2627716,TRUE,FALSE,FALSE,"S255305193"
"191","rudduc","Ruddy Duck","Oxyura jamaicensis","L2172224","Ralston Reservoir","2025-06-29 07:14",2,44.7142939,-108.8918495,TRUE,FALSE,FALSE,"S255252434"
"192","rudduc","Ruddy Duck","Oxyura jamaicensis","L7040125","Black Earth Creek Natural Resource Area (Black Earth Creek Headwaters)","2025-06-29 07:10",2,43.0990503,-89.549617,TRUE,FALSE,FALSE,"S255216173"
"193","rudduc","Ruddy Duck","Oxyura jamaicensis","L200627","Horseshoe Lake State Park","2025-06-29 07:09",1,38.7039503,-90.0724398,TRUE,TRUE,FALSE,"S255239153"
"194","rudduc","Ruddy Duck","Oxyura jamaicensis","L20404134","Palo Alto Baylands Nature Preserve, Palo Alto US-CA (37.4591,-122.1055)","2025-06-29 07:09",1,37.459127,-122.105518,TRUE,FALSE,TRUE,"S255363808"
"195","rudduc","Ruddy Duck","Oxyura jamaicensis","L282520","Lagerman Agricultural Preserve--Lagerman Reservoir","2025-06-29 07:09",2,40.1348086,-105.1888925,TRUE,FALSE,FALSE,"S255229771"
"196","rudduc","Ruddy Duck","Oxyura jamaicensis","L370829","Salton Sea--W Bowles Rd. - west end","2025-06-29 07:02",2,33.1178563,-115.6789112,TRUE,FALSE,FALSE,"S255305700"
"197","rudduc","Ruddy Duck","Oxyura jamaicensis","L209446","Goose Pond","2025-06-29 06:57",6,43.3183381,-89.3661599,TRUE,FALSE,FALSE,"S255287688"
"198","rudduc","Ruddy Duck","Oxyura jamaicensis","L954210","Mayfield Slough","2025-06-29 06:57",2,37.450843,-122.1023512,TRUE,FALSE,FALSE,"S255268282"
"199","rudduc","Ruddy Duck","Oxyura jamaicensis","L759446","Crittenden Marsh (Stevens Creek Nature Study Area)","2025-06-29 06:49",3,37.4309097,-122.0660019,TRUE,FALSE,FALSE,"S255277917"
"200","rudduc","Ruddy Duck","Oxyura jamaicensis","L350281","El Rio Open Space Preserve","2025-06-29 06:49",5,32.392141,-111.1384898,TRUE,FALSE,FALSE,"S255289017"
"201","rudduc","Ruddy Duck","Oxyura jamaicensis","L264669","Ashurst Lake","2025-06-29 06:49",12,35.0206708,-111.4031728,TRUE,FALSE,FALSE,"S255241970"
"202","rudduc","Ruddy Duck","Oxyura jamaicensis","L272916","Indian Creek Reservoir","2025-06-29 06:46",1,38.7460172,-119.7780132,TRUE,FALSE,FALSE,"S255272364"
"203","rudduc","Ruddy Duck","Oxyura jamaicensis","L275227","Piute Ponds (permit required)","2025-06-29 06:45",51,34.7901193,-118.1181776,TRUE,FALSE,FALSE,"S255444294"
"204","rudduc","Ruddy Duck","Oxyura jamaicensis","L468267","Irvine Lake","2025-06-29 06:40",1,33.7737252,-117.7176476,TRUE,FALSE,FALSE,"S255298455"
"205","rudduc","Ruddy Duck","Oxyura jamaicensis","L355540","Diamond Lake (Dayton)","2025-06-29 06:27",1,45.19837,-93.50344,TRUE,FALSE,FALSE,"S255205436"
"206","rudduc","Ruddy Duck","Oxyura jamaicensis","L1384919","Philomath Sewage Ponds--northwest pond","2025-06-29 06:25",2,44.5243,-123.34667,TRUE,FALSE,TRUE,"S255660486"
"207","rudduc","Ruddy Duck","Oxyura jamaicensis","L8633868","Runner Slough","2025-06-29 06:19",27,46.8773585,-99.1244197,TRUE,FALSE,FALSE,"S255177720"
"208","rudduc","Ruddy Duck","Oxyura jamaicensis","L1384917","Philomath Sewage Ponds--central pond","2025-06-29 06:16",2,44.5215399,-123.3464885,TRUE,FALSE,TRUE,"S255660483"
"209","rudduc","Ruddy Duck","Oxyura jamaicensis","L480168","Veterans Oasis Park","2025-06-29 06:12",3,33.2347837,-111.7695838,TRUE,FALSE,FALSE,"S255353214"
"210","rudduc","Ruddy Duck","Oxyura jamaicensis","L160935","Ballona Freshwater Marsh","2025-06-29 06:11",6,33.9701285,-118.4305573,TRUE,FALSE,FALSE,"S255259253"
"211","rudduc","Ruddy Duck","Oxyura jamaicensis","L48623588","DCFS (NEON plots)—E of 62nd Ave.","2025-06-29 06:07",7,47.203756,-99.179447,TRUE,FALSE,TRUE,"S255226726"
"212","rudduc","Ruddy Duck","Oxyura jamaicensis","L1738842","Private Property ""N"" No Public Access","2025-06-29 05:56",500,36.133862,-119.7026658,TRUE,FALSE,FALSE,"S255254262"
"213","rudduc","Ruddy Duck","Oxyura jamaicensis","L129046","Parker River NWR","2025-06-29 05:29",1,42.7639008,-70.8022995,TRUE,FALSE,FALSE,"S255188442"
"214","rudduc","Ruddy Duck","Oxyura jamaicensis","L129095","Sierra Vista EOP","2025-06-29 05:23",6,31.5627101,-110.2027562,TRUE,FALSE,FALSE,"S255322982"
"215","rudduc","Ruddy Duck","Oxyura jamaicensis","L3602679","Crystalaire Country Club (private property)","2025-06-29 05:16",2,34.4711394,-117.8460073,TRUE,FALSE,FALSE,"S255388798"
"216","rudduc","Ruddy Duck","Oxyura jamaicensis","L41284110","Laguna Coast Wilderness Park, Laguna Beach US-CA 33.60081, -117.75172","2025-06-29 04:54",1,33.600807,-117.751716,TRUE,FALSE,TRUE,"S255240242"
"217","rudduc","Ruddy Duck","Oxyura jamaicensis","L152122","Palo Alto Baylands","2025-06-28 19:58",1,37.459167,-122.10445,TRUE,FALSE,FALSE,"S255073292"
"218","rudduc","Ruddy Duck","Oxyura jamaicensis","L15859395","Alden Lane/Old Oak Road Trail","2025-06-28 19:53",2,37.655847,-121.802495,TRUE,FALSE,FALSE,"S255072656"
"219","rudduc","Ruddy Duck","Oxyura jamaicensis","L25312833","Shorter loop to small pond","2025-06-28 19:51",4,35.7107532,-106.0713311,TRUE,FALSE,TRUE,"S255063847"
"220","rudduc","Ruddy Duck","Oxyura jamaicensis","L9551185","Alsop Lake","2025-06-28 19:49",1,41.3937405,-105.7882591,TRUE,FALSE,FALSE,"S255079570"
"221","rudduc","Ruddy Duck","Oxyura jamaicensis","L5786158","Ebey Waterfront Trail, Marysville","2025-06-28 19:35",2,48.0458046,-122.1758652,TRUE,FALSE,FALSE,"S255074160"
"222","rudduc","Ruddy Duck","Oxyura jamaicensis","L2101935","Fensterman Slough","2025-06-28 19:22",14,43.5553326,-97.0096152,TRUE,FALSE,FALSE,"S255053041"
"223","rudduc","Ruddy Duck","Oxyura jamaicensis","L1452233","Whitman Co. Quarry","2025-06-28 19:17",7,47.1660985,-117.7378609,TRUE,FALSE,FALSE,"S255723004"
"224","rudduc","Ruddy Duck","Oxyura jamaicensis","L4660115","Henrys Lake Drive","2025-06-28 19:04",1,44.6683904,-111.4259491,TRUE,FALSE,FALSE,"S255065993"
"225","rudduc","Ruddy Duck","Oxyura jamaicensis","L18243950","Fort Boise Observation Tower","2025-06-28 18:55",1,43.821631,-117.00893,TRUE,FALSE,TRUE,"S255063511"
"226","rudduc","Ruddy Duck","Oxyura jamaicensis","L232858","Byxbee Park","2025-06-28 18:54",NA,37.4510644,-122.1055913,TRUE,FALSE,FALSE,"S255069047"
"227","rudduc","Ruddy Duck","Oxyura jamaicensis","L4344479","Lee Metcalf NWR--Kenai Trail","2025-06-28 18:53",9,46.5603357,-114.073416,TRUE,FALSE,FALSE,"S255069812"
"228","rudduc","Ruddy Duck","Oxyura jamaicensis","L43589973","4 Corner Slough, Kensal US-ND (47.2982,-98.6792)","2025-06-28 18:52",NA,47.298167,-98.679223,TRUE,FALSE,TRUE,"S255037391"
"229","rudduc","Ruddy Duck","Oxyura jamaicensis","L152642","Glacial Park Conservation Area","2025-06-28 18:30",1,42.4222,-88.3197,TRUE,TRUE,FALSE,"S255486865"
"230","rudduc","Ruddy Duck","Oxyura jamaicensis","L1012572","Marina Lagoon","2025-06-28 18:27",1,37.5352917,-122.2777838,TRUE,FALSE,FALSE,"S255055177"
"231","rudduc","Ruddy Duck","Oxyura jamaicensis","L3167360","Benicia SRA--Nature Trail","2025-06-28 18:26",2,38.069717,-122.1871734,TRUE,FALSE,FALSE,"S255055604"
"232","rudduc","Ruddy Duck","Oxyura jamaicensis","L966521","Lawen Marshes","2025-06-28 18:20",15,43.40224,-118.84859,TRUE,FALSE,FALSE,"S255090553"
"233","rudduc","Ruddy Duck","Oxyura jamaicensis","L1525422","Nicollet WTP","2025-06-28 18:12",6,44.2612243,-94.1851213,TRUE,FALSE,FALSE,"S255385487"
"234","rudduc","Ruddy Duck","Oxyura jamaicensis","L48684247","Mono Lake Tufa State Natural Reserve, Lee Vining US-CA 38.04944, -119.08247","2025-06-28 18:10",2,38.04944,-119.082467,TRUE,FALSE,TRUE,"S255056929"
"235","rudduc","Ruddy Duck","Oxyura jamaicensis","L281286","Ute Creek Bridge","2025-06-28 18:09",1,35.4019114,-103.5086554,TRUE,FALSE,FALSE,"S255060925"
"236","rudduc","Ruddy Duck","Oxyura jamaicensis","L6073262","Chase Lake NWR--Headquarters","2025-06-28 18:01",6,47.1368209,-99.2446295,TRUE,FALSE,FALSE,"S255036954"
"237","rudduc","Ruddy Duck","Oxyura jamaicensis","L48688940","Dechambeau ponds","2025-06-28 17:21",2,38.050695,-119.083363,TRUE,FALSE,TRUE,"S255076706"
"238","rudduc","Ruddy Duck","Oxyura jamaicensis","L158809","Horsehead Lake WMA","2025-06-28 16:59",90,47.0535923,-99.8160667,TRUE,FALSE,FALSE,"S255145633"
"239","rudduc","Ruddy Duck","Oxyura jamaicensis","L29460336","Hormann WPA","2025-06-28 16:52",6,45.6778408,-96.5754109,TRUE,FALSE,FALSE,"S255003108"
"240","rudduc","Ruddy Duck","Oxyura jamaicensis","L3192446","Lee Metcalf NWR--Wildfowl Lane Dr.","2025-06-28 16:51",1,46.5552601,-114.0834045,TRUE,FALSE,FALSE,"S255040484"
"241","rudduc","Ruddy Duck","Oxyura jamaicensis","L931168","Big Bear Lake--Stanfield Cutoff","2025-06-28 16:41",1,34.2588481,-116.8838024,TRUE,FALSE,FALSE,"S255028441"
"242","rudduc","Ruddy Duck","Oxyura jamaicensis","L486316","Tahoe Keys","2025-06-28 16:00",1,38.9362124,-120.013361,TRUE,FALSE,FALSE,"S255056092"
"243","rudduc","Ruddy Duck","Oxyura jamaicensis","L3278590","Groton Wetlands","2025-06-28 15:58",NA,45.4429753,-98.0747767,TRUE,FALSE,FALSE,"S255159082"
"244","rudduc","Ruddy Duck","Oxyura jamaicensis","L791371","Lake Merced--Concrete Bridge area","2025-06-28 15:49",3,37.7126918,-122.4879456,TRUE,FALSE,FALSE,"S255026636"
"245","rudduc","Ruddy Duck","Oxyura jamaicensis","L272853","Sprague WTP","2025-06-28 15:45",25,47.3017565,-117.9651468,TRUE,FALSE,FALSE,"S255055614"
"246","rudduc","Ruddy Duck","Oxyura jamaicensis","L335151","Salinas WTP (no public access)","2025-06-28 15:30",4,36.6608009,-121.7180536,TRUE,FALSE,FALSE,"S255073225"
"247","rudduc","Ruddy Duck","Oxyura jamaicensis","L2866101","Long Lake NWR--C Dike","2025-06-28 15:28",62,46.6916678,-100.1845517,TRUE,FALSE,FALSE,"S254994441"
"248","rudduc","Ruddy Duck","Oxyura jamaicensis","L593502","Eagle Lake--Christie Day Use Area","2025-06-28 15:16",4,40.5681082,-120.836252,TRUE,FALSE,FALSE,"S255009320"
"249","rudduc","Ruddy Duck","Oxyura jamaicensis","L39181919","Lake Los Carneros, Goleta US-CA 34.44343, -119.84817","2025-06-28 14:49",4,34.44343,-119.848169,TRUE,FALSE,TRUE,"S255026005"
"250","rudduc","Ruddy Duck","Oxyura jamaicensis","L48661995","4565 83rd Street Northwest, Donnybrook, North Dakota, US (48.619, -101.705)","2025-06-28 14:42",2,48.6187037,-101.7046347,TRUE,FALSE,TRUE,"S254968450"
"251","rudduc","Ruddy Duck","Oxyura jamaicensis","L837268","Sacramento NWR--Auto Route & Visitor Center","2025-06-28 14:39",15,39.4284385,-122.1564999,TRUE,FALSE,FALSE,"S255023031"
"252","rudduc","Ruddy Duck","Oxyura jamaicensis","L31781538","EW 5 Rd. Lake","2025-06-28 14:30",1,36.934353,-100.508579,TRUE,FALSE,FALSE,"S255320187"
"253","rudduc","Ruddy Duck","Oxyura jamaicensis","L288287","Lake Temescal","2025-06-28 14:13",1,37.8467336,-122.2303775,TRUE,FALSE,FALSE,"S255019574"
"254","rudduc","Ruddy Duck","Oxyura jamaicensis","L30147475","Le Roy WTP","2025-06-28 14:06",7,43.5116209,-92.4840273,TRUE,TRUE,FALSE,"S255303973"
"255","rudduc","Ruddy Duck","Oxyura jamaicensis","L737394","Cheraw (town)","2025-06-28 13:46",6,38.1067367,-103.5131192,TRUE,FALSE,FALSE,"S254976453"
"256","rudduc","Ruddy Duck","Oxyura jamaicensis","L272840","Andree Clark Bird Refuge","2025-06-28 13:45",1,34.4215353,-119.6572856,TRUE,FALSE,FALSE,"S255065185"
"257","rudduc","Ruddy Duck","Oxyura jamaicensis","L33394873","Benton Lake NWR","2025-06-28 13:43",4,47.6941317,-111.346384,TRUE,FALSE,TRUE,"S254982202"
"258","rudduc","Ruddy Duck","Oxyura jamaicensis","L267156","Christopher Columbus Park (soon to be Danny Lopez Park)","2025-06-28 13:40",2,32.2856814,-111.0346556,TRUE,FALSE,FALSE,"S255000911"
"259","rudduc","Ruddy Duck","Oxyura jamaicensis","L41735098","58027, Enderlin US-ND 46.68708, -97.54729","2025-06-28 13:34",3,46.687084,-97.547291,TRUE,FALSE,TRUE,"S254950553"
"260","rudduc","Ruddy Duck","Oxyura jamaicensis","L2191941","Hwy. 205--Substation Pond","2025-06-28 13:34",2,43.4971413,-119.0183258,TRUE,FALSE,FALSE,"S255003562"
"261","rudduc","Ruddy Duck","Oxyura jamaicensis","L384938","San Diego Zoo Safari Park","2025-06-28 12:59",20,33.0973669,-116.9981978,TRUE,FALSE,FALSE,"S254981328"
"262","rudduc","Ruddy Duck","Oxyura jamaicensis","L48656565","3001–3335 30th St SE, Dawson US-ND 46.98106, -99.80327","2025-06-28 12:57",1,46.981065,-99.803269,TRUE,FALSE,TRUE,"S254948737"
"263","rudduc","Ruddy Duck","Oxyura jamaicensis","L279820","Muskegon Wastewater System","2025-06-28 12:57",6,43.2511023,-86.037524,TRUE,FALSE,FALSE,"S255066012"
"264","rudduc","Ruddy Duck","Oxyura jamaicensis","L48653219","U.S. 87, Tahoka, Texas, US (33.017, -101.807)","2025-06-28 12:55",4,33.0167906,-101.8066679,TRUE,FALSE,TRUE,"S254936604"
"265","rudduc","Ruddy Duck","Oxyura jamaicensis","L1399845","Optima ""Reservoir""","2025-06-28 12:55",2,36.6617501,-101.1348049,TRUE,FALSE,TRUE,"S255307845"
"266","rudduc","Ruddy Duck","Oxyura jamaicensis","L1165694","Bolsa Chica--walkbridge/inner bay","2025-06-28 12:44",2,33.6965128,-118.0451372,TRUE,FALSE,FALSE,"S255068485"
"267","rudduc","Ruddy Duck","Oxyura jamaicensis","L189487","Arcata Marsh and Wildlife Sanctuary","2025-06-28 12:43",3,40.857361,-124.094612,TRUE,FALSE,FALSE,"S255003158"
"268","rudduc","Ruddy Duck","Oxyura jamaicensis","L48651190","3501–3537 30th St SE, Dawson US-ND 46.98091, -99.74939","2025-06-28 12:39",8,46.980914,-99.749386,TRUE,FALSE,TRUE,"S254928906"
"269","rudduc","Ruddy Duck","Oxyura jamaicensis","L48653654","4500–4586 140th Ave SE, Alice US-ND 46.75615, -97.53550","2025-06-28 12:39",1,46.756147,-97.535504,TRUE,FALSE,TRUE,"S254938312"
"270","rudduc","Ruddy Duck","Oxyura jamaicensis","L577740","San Elijo Lagoon--east","2025-06-28 12:19",1,33.0108355,-117.2505125,TRUE,FALSE,FALSE,"S254979251"
"271","rudduc","Ruddy Duck","Oxyura jamaicensis","L208487","Oso Flaco Lake (not for beach/ocean)","2025-06-28 12:05",14,35.0302072,-120.6207848,TRUE,FALSE,FALSE,"S255073659"
"272","rudduc","Ruddy Duck","Oxyura jamaicensis","L389007","Richard W. DeKorte Park","2025-06-28 11:57",7,40.7833,-74.1025167,TRUE,FALSE,FALSE,"S254962775"
"273","rudduc","Ruddy Duck","Oxyura jamaicensis","L1351558","Somers--Farm Rd. and Slough","2025-06-28 11:56",2,48.117358,-114.1809702,TRUE,FALSE,FALSE,"S254946446"
"274","rudduc","Ruddy Duck","Oxyura jamaicensis","L2430444","San Lorenzo Creek","2025-06-28 11:50",1,37.6721361,-122.1596432,TRUE,FALSE,FALSE,"S255216031"
"275","rudduc","Ruddy Duck","Oxyura jamaicensis","L526215","James T. Slavin Conservation Area","2025-06-28 11:37",50,47.5355731,-117.4245787,TRUE,FALSE,FALSE,"S254972924"
"276","rudduc","Ruddy Duck","Oxyura jamaicensis","L4110180","Joseph D. Grant CP--Grant Lake","2025-06-28 11:30",8,37.3436434,-121.7172099,TRUE,FALSE,FALSE,"S254977538"
"277","rudduc","Ruddy Duck","Oxyura jamaicensis","L48656971","Pond on N 395th Ave, Tonopah US-AZ (33.4951,-112.9026)","2025-06-28 11:28",2,33.495088,-112.902587,TRUE,FALSE,TRUE,"S254950086"
"278","rudduc","Ruddy Duck","Oxyura jamaicensis","L756102","Crescent Lake","2025-06-28 11:15",4,33.9086052,-109.4197083,TRUE,FALSE,FALSE,"S255456177"
"279","rudduc","Ruddy Duck","Oxyura jamaicensis","L2488537","Newark Reservoir (Remick Lake), Case Rd., Phelps","2025-06-28 11:12",3,42.9367694,-77.0934784,TRUE,FALSE,FALSE,"S255060992"
"280","rudduc","Ruddy Duck","Oxyura jamaicensis","L2481845","Upper San Leandro Reservoir--east fork","2025-06-28 11:09",1,37.7988063,-122.1173769,TRUE,FALSE,FALSE,"S255077000"
"281","rudduc","Ruddy Duck","Oxyura jamaicensis","L661934","Pearrygin Lake SP","2025-06-28 10:38",8,48.4927198,-120.1521492,TRUE,FALSE,FALSE,"S254926587"
"282","rudduc","Ruddy Duck","Oxyura jamaicensis","L861798","Ankeny NWR--Pintail Marsh","2025-06-28 10:28",2,44.7762488,-123.0898891,TRUE,FALSE,FALSE,"S254973891"
"283","rudduc","Ruddy Duck","Oxyura jamaicensis","L92448","Edwin B. Forsythe NWR--Wildlife Drive (8-mile auto tour loop only)","2025-06-28 10:24",1,39.464298,-74.417612,TRUE,FALSE,FALSE,"S254937719"
"284","rudduc","Ruddy Duck","Oxyura jamaicensis","L1760343","Lake Jocelyn","2025-06-28 10:16",1,34.3919961,-119.4772805,TRUE,FALSE,FALSE,"S254987240"
"285","rudduc","Ruddy Duck","Oxyura jamaicensis","L1625371","Roberts Sewage Pond and Slough","2025-06-28 10:09",3,43.7136996,-112.1209315,TRUE,FALSE,FALSE,"S254901680"
"286","rudduc","Ruddy Duck","Oxyura jamaicensis","L578606","Honey Lake Wildlife Area--Fleming Unit","2025-06-28 10:04",2,40.3537678,-120.3021079,TRUE,FALSE,FALSE,"S254947218"
"287","rudduc","Ruddy Duck","Oxyura jamaicensis","L1511527","Bucklin Reservoirs","2025-06-28 09:59",8,42.3878141,-107.4039645,TRUE,FALSE,FALSE,"S254891861"
"288","rudduc","Ruddy Duck","Oxyura jamaicensis","L29840060","St. Leo WMA","2025-06-28 09:54",2,44.7767877,-96.0536207,TRUE,FALSE,FALSE,"S255200854"
"289","rudduc","Ruddy Duck","Oxyura jamaicensis","L982925","Brockman's Hummingbird Feeding Station","2025-06-28 09:51",2,42.2188,-114.37586,TRUE,FALSE,FALSE,"S255040507"
"290","rudduc","Ruddy Duck","Oxyura jamaicensis","L757199","Sinlahekin Wildlife Area--Forde Lake","2025-06-28 09:44",3,48.7370593,-119.6662617,TRUE,FALSE,FALSE,"S255387391"
"291","rudduc","Ruddy Duck","Oxyura jamaicensis","L267398","Shiawassee NWR--Wildlife Drive","2025-06-28 09:38",2,43.3596344,-84.0304756,TRUE,FALSE,FALSE,"S254941094"
"292","rudduc","Ruddy Duck","Oxyura jamaicensis","L447435","Hatfield Lake","2025-06-28 09:30",30,44.1232081,-121.198554,TRUE,FALSE,FALSE,"S255006308"
"293","rudduc","Ruddy Duck","Oxyura jamaicensis","L668827","Presidio--Mountain Lake Park","2025-06-28 09:25",1,37.7874472,-122.4695413,TRUE,FALSE,FALSE,"S254949131"
"294","rudduc","Ruddy Duck","Oxyura jamaicensis","L109181","Kootenai NWR","2025-06-28 09:23",NA,48.7166667,-116.4,TRUE,FALSE,FALSE,"S254992033"
"295","rudduc","Ruddy Duck","Oxyura jamaicensis","L1255452","Las Vegas NWR--Headquarters Hedgerow","2025-06-28 09:22",6,35.549374,-105.16795,TRUE,FALSE,FALSE,"S254982138"
"296","rudduc","Ruddy Duck","Oxyura jamaicensis","L2263572","San Joaquin Wildlife Sanctuary--Fledgling Loop Trail","2025-06-28 09:15",NA,33.6609892,-117.8437141,TRUE,FALSE,FALSE,"S255314641"
"297","rudduc","Ruddy Duck","Oxyura jamaicensis","L109133","Edwin B. Forsythe NWR (formerly Brig)","2025-06-28 09:11",11,39.465,-74.4477778,TRUE,TRUE,FALSE,"S255040371"
"298","rudduc","Ruddy Duck","Oxyura jamaicensis","L2421349","A St. ponds","2025-06-28 09:10",2,34.9298363,-120.4626539,TRUE,FALSE,FALSE,"S254904057"
"299","rudduc","Ruddy Duck","Oxyura jamaicensis","L48644315","Murphy Lake","2025-06-28 09:05",12,48.019385,-119.45765,TRUE,FALSE,TRUE,"S254903607"
"300","rudduc","Ruddy Duck","Oxyura jamaicensis","L159550","Lake Ilo NWR","2025-06-28 08:59",8,47.3437922,-102.659793,TRUE,FALSE,FALSE,"S255001108"
"301","rudduc","Ruddy Duck","Oxyura jamaicensis","L48665168","The Club At Las Campanas, Sunrise Course","2025-06-28 08:55",2,35.718416,-106.057297,TRUE,FALSE,TRUE,"S254980313"
"302","rudduc","Ruddy Duck","Oxyura jamaicensis","L14597027","Horizon City RO Ponds","2025-06-28 08:46",13,31.680525,-106.15563,TRUE,FALSE,FALSE,"S254903818"
"303","rudduc","Ruddy Duck","Oxyura jamaicensis","L3009856","Valley City WMA","2025-06-28 08:45",1,47.0145038,-97.9599057,TRUE,FALSE,FALSE,"S254996329"
"304","rudduc","Ruddy Duck","Oxyura jamaicensis","L298649","Lake Apopka Wildlife Drive","2025-06-28 08:37",2,28.6691945,-81.5598149,TRUE,TRUE,FALSE,"S254890427"
"305","rudduc","Ruddy Duck","Oxyura jamaicensis","L1312278","Arco Ponds","2025-06-28 08:34",2,46.1624744,-112.7791214,TRUE,FALSE,FALSE,"S254972944"
"306","rudduc","Ruddy Duck","Oxyura jamaicensis","L48626894","2701–2799 53rd Ave SE, Woodworth US-ND 47.01270, -99.37561","2025-06-28 08:32",2,47.012705,-99.375606,TRUE,FALSE,TRUE,"S254831908"
"307","rudduc","Ruddy Duck","Oxyura jamaicensis","L731042","Sinlahekin Wildlife Area","2025-06-28 08:30",4,48.7656942,-119.6545887,TRUE,FALSE,FALSE,"S255052202"
"308","rudduc","Ruddy Duck","Oxyura jamaicensis","L2261976","Laguna Mtns.--mile 19 pullout","2025-06-28 08:28",6,32.860055,-116.4625274,TRUE,FALSE,FALSE,"S254946643"
"309","rudduc","Ruddy Duck","Oxyura jamaicensis","L7384521","UBIF official use only mountain lake","2025-06-28 08:23",2,37.788036,-122.470979,TRUE,FALSE,FALSE,"S254891161"
"310","rudduc","Ruddy Duck","Oxyura jamaicensis","L48626485","2601–2699 53rd Ave SE, Woodworth US-ND 47.02933, -99.37564","2025-06-28 08:14",2,47.029325,-99.375638,TRUE,FALSE,TRUE,"S254829812"
"311","rudduc","Ruddy Duck","Oxyura jamaicensis","L10232413","Mason Valley WMA--North Pond","2025-06-28 08:01",20,39.12161,-119.104458,TRUE,FALSE,FALSE,"S254877882"
"312","rudduc","Ruddy Duck","Oxyura jamaicensis","L22305228","Prado Regional Park, Chino US-CA 33.94621, -117.65131","2025-06-28 08:00",1,33.946213,-117.651307,TRUE,FALSE,TRUE,"S254948322"
"313","rudduc","Ruddy Duck","Oxyura jamaicensis","L24939028","Prado Regional Park, Chino US-CA 33.94621, -117.65132","2025-06-28 08:00",1,33.946205,-117.651321,TRUE,FALSE,TRUE,"S254924676"
"314","rudduc","Ruddy Duck","Oxyura jamaicensis","L15483293","Wingfield Trail & Ponds","2025-06-28 07:53",1,39.6116265,-119.6738979,TRUE,FALSE,FALSE,"S254931723"
"315","rudduc","Ruddy Duck","Oxyura jamaicensis","L761141","San Elijo Lagoon--west","2025-06-28 07:46",2,33.0087881,-117.2720733,TRUE,FALSE,FALSE,"S254918740"
"316","rudduc","Ruddy Duck","Oxyura jamaicensis","L521507","Ell Pond, Melrose","2025-06-28 07:45",3,42.4619666,-71.0664368,TRUE,TRUE,FALSE,"S254954769"
"317","rudduc","Ruddy Duck","Oxyura jamaicensis","L1096204","Palo Alto Flood Control Basin","2025-06-28 07:45",5,37.4397696,-122.1014071,TRUE,FALSE,FALSE,"S254961336"
"318","rudduc","Ruddy Duck","Oxyura jamaicensis","L13347786","Santa Rita Ranch (restricted access)","2025-06-28 07:43",2,35.5256285,-120.8427921,TRUE,FALSE,FALSE,"S254940200"
"319","rudduc","Ruddy Duck","Oxyura jamaicensis","L574876","Walter E. Long Lake (HOTE-036)","2025-06-28 07:29",3,30.2836775,-97.6080322,TRUE,FALSE,FALSE,"S254837239"
"320","rudduc","Ruddy Duck","Oxyura jamaicensis","L776812","Sunnyvale WPCP--West Pond","2025-06-28 07:28",NA,37.426752,-122.0223999,TRUE,FALSE,FALSE,"S254926340"
"321","rudduc","Ruddy Duck","Oxyura jamaicensis","L931995","Waterville Plateau -- 6 and N","2025-06-28 07:22",1,47.701762,-119.4513202,TRUE,FALSE,FALSE,"S254864059"
"322","rudduc","Ruddy Duck","Oxyura jamaicensis","L7871857","Mud Creek","2025-06-28 07:20",2,40.3413365,-121.2043347,TRUE,FALSE,FALSE,"S254898408"
"323","rudduc","Ruddy Duck","Oxyura jamaicensis","L2317509","Lake Bertha","2025-06-28 07:16",1,46.770672,-97.4933078,TRUE,FALSE,FALSE,"S254818561"
"324","rudduc","Ruddy Duck","Oxyura jamaicensis","L140473","Cherry Creek SP","2025-06-28 07:16",1,39.6402646,-104.8538589,TRUE,FALSE,FALSE,"S254837403"
"325","rudduc","Ruddy Duck","Oxyura jamaicensis","L160563","Mitchell Lake Audubon Center (HOTE 103)","2025-06-28 07:15",7,29.3105956,-98.4996938,TRUE,FALSE,FALSE,"S254868493"
"326","rudduc","Ruddy Duck","Oxyura jamaicensis","L201225","Prescott--Willow Lake","2025-06-28 07:10",2,34.605,-112.438,TRUE,FALSE,FALSE,"S254936139"
"327","rudduc","Ruddy Duck","Oxyura jamaicensis","L23854342","Owens Lake--east ponds (T23s to T28s) and Sulfate Rd.","2025-06-28 07:05",8,36.4690174,-117.8938632,TRUE,FALSE,FALSE,"S254874182"
"328","rudduc","Ruddy Duck","Oxyura jamaicensis","L3572935","Swan Lake Nature Study Area (IBA)--Boardwalk","2025-06-28 07:01",10,39.6531916,-119.856496,TRUE,FALSE,FALSE,"S254872646"
"329","rudduc","Ruddy Duck","Oxyura jamaicensis","L1979614","Tule Lake NWR--Auto Tour and Sump 1A","2025-06-28 06:53",6,41.8776136,-121.5273285,TRUE,FALSE,FALSE,"S254894499"
"330","rudduc","Ruddy Duck","Oxyura jamaicensis","L1511808","Oak Grove Park (Ripon)--excluding city WTP","2025-06-28 06:50",1,37.7261331,-121.1213478,TRUE,FALSE,FALSE,"S254903410"
"331","rudduc","Ruddy Duck","Oxyura jamaicensis","L348472","Logan City Polishing Ponds","2025-06-28 06:44",7,41.7731387,-111.8971309,TRUE,FALSE,FALSE,"S254894530"
"332","rudduc","Ruddy Duck","Oxyura jamaicensis","L12352960","The Golf Club at Dove Mountain","2025-06-28 06:22",4,32.4707987,-111.1045311,TRUE,FALSE,TRUE,"S254908206"
"333","rudduc","Ruddy Duck","Oxyura jamaicensis","L519082","Jameson Lake","2025-06-28 06:16",2,47.6739343,-119.6310711,TRUE,FALSE,FALSE,"S254849126"
"334","rudduc","Ruddy Duck","Oxyura jamaicensis","L7202022","Tule Lake NWR--photo blind","2025-06-28 06:03",6,41.9075272,-121.5628383,TRUE,FALSE,FALSE,"S254837425"
"335","rudduc","Ruddy Duck","Oxyura jamaicensis","L1743855","Lake Elsinore--south levee and back basin","2025-06-28 06:00",5,33.6427729,-117.3317176,TRUE,FALSE,FALSE,"S255065183"
"336","rudduc","Ruddy Duck","Oxyura jamaicensis","L48615439","2932–2992 55th Ave SE, Medina US-ND 46.97355, -99.29944","2025-06-28 05:46",28,46.973548,-99.299442,TRUE,FALSE,TRUE,"S254774765"
"337","rudduc","Ruddy Duck","Oxyura jamaicensis","L247953","Sweetwater Reservoir","2025-06-28 05:45",1,32.6909342,-116.9966808,TRUE,FALSE,FALSE,"S254914374"
"338","rudduc","Ruddy Duck","Oxyura jamaicensis","L8926707","Legacy Nature Preserve(restricted access)","2025-06-28 05:39",1,40.8621604,-111.9529441,TRUE,FALSE,TRUE,"S254882985"
"339","rudduc","Ruddy Duck","Oxyura jamaicensis","L367627","Salton Sea--Young Rd. (west end)","2025-06-28 05:31",42,33.1330196,-115.6666589,TRUE,FALSE,FALSE,"S254972516"
"340","rudduc","Ruddy Duck","Oxyura jamaicensis","L139835","Lake Erie Metropark","2025-06-28 05:18",1,42.0691986,-83.1941986,TRUE,FALSE,FALSE,"S254800723"
"341","rudduc","Ruddy Duck","Oxyura jamaicensis","L48688151","Starr Nelson Rd","2025-06-27 20:00",2,38.7956985,-108.1746476,TRUE,FALSE,TRUE,"S255073377"
"342","rudduc","Ruddy Duck","Oxyura jamaicensis","L48598719","5346 Ninepipe Road, Charlo, Montana, US (47.453, -114.14)","2025-06-27 19:34",10,47.4530994,-114.1396655,TRUE,FALSE,TRUE,"S254705415"
"343","rudduc","Ruddy Duck","Oxyura jamaicensis","L48597181","Sesachacha Woods","2025-06-27 18:52",2,41.2955009,-69.9899738,TRUE,TRUE,TRUE,"S254699070"
"344","rudduc","Ruddy Duck","Oxyura jamaicensis","L611277","Vasona Lake CP--lake area","2025-06-27 18:47",6,37.2453957,-121.9695711,TRUE,FALSE,FALSE,"S254709432"
"345","rudduc","Ruddy Duck","Oxyura jamaicensis","L48600709","Nine pipe WR","2025-06-27 18:35",8,47.426864,-114.106975,TRUE,FALSE,TRUE,"S254713344"
"346","rudduc","Ruddy Duck","Oxyura jamaicensis","L213999","Laguna Niguel Regional Park","2025-06-27 18:01",5,33.5494066,-117.709837,TRUE,FALSE,FALSE,"S254710521"
"347","rudduc","Ruddy Duck","Oxyura jamaicensis","L682050","Lake Sherwood","2025-06-27 17:39",4,34.1384655,-118.8731647,TRUE,FALSE,FALSE,"S254696247"
"348","rudduc","Ruddy Duck","Oxyura jamaicensis","L791811","University of Mary--Wastewater Lagoons","2025-06-27 17:27",7,46.7164667,-100.7479306,TRUE,FALSE,FALSE,"S254668305"
"349","rudduc","Ruddy Duck","Oxyura jamaicensis","L1299729","West Valley Ponds","2025-06-27 16:22",3,48.2745105,-114.3729973,TRUE,FALSE,FALSE,"S254672902"
"350","rudduc","Ruddy Duck","Oxyura jamaicensis","L589213","Modoc NWR","2025-06-27 15:58",24,41.4575229,-120.5219078,TRUE,FALSE,FALSE,"S254692935"
"351","rudduc","Ruddy Duck","Oxyura jamaicensis","L776809","Sunnyvale WPCP--East Pond","2025-06-27 15:45",18,37.4286605,-122.0139885,TRUE,FALSE,FALSE,"S254698912"
"352","rudduc","Ruddy Duck","Oxyura jamaicensis","L8248393","Broadway Waste Water Treatment Facility-Restricted Access","2025-06-27 15:37",8,38.631571,-78.754408,TRUE,TRUE,TRUE,"S254632457"
"353","rudduc","Ruddy Duck","Oxyura jamaicensis","L592967","Ridgefield NWR--River 'S' Unit","2025-06-27 15:19",1,45.7990694,-122.7490082,TRUE,FALSE,FALSE,"S254663348"
"354","rudduc","Ruddy Duck","Oxyura jamaicensis","L720858","Scholz Lake","2025-06-27 14:49",15,35.1985004,-112.0097351,TRUE,FALSE,FALSE,"S254673750"
"355","rudduc","Ruddy Duck","Oxyura jamaicensis","L4402668","Hydes Lake","2025-06-27 14:39",2,44.8180723,-93.8768864,TRUE,FALSE,TRUE,"S254629819"
"356","rudduc","Ruddy Duck","Oxyura jamaicensis","L1830327","Eagle Lake--Hwy 139 shoreline","2025-06-27 14:36",3,40.6909662,-120.6698193,TRUE,FALSE,FALSE,"S254685286"
"357","rudduc","Ruddy Duck","Oxyura jamaicensis","L3720700","Horsehead Lake--North (22nd St)","2025-06-27 13:57",7,47.0966291,-99.7982339,TRUE,FALSE,FALSE,"S254643391"
"358","rudduc","Ruddy Duck","Oxyura jamaicensis","L48581038","2611–2699 22nd St SE, Tuttle US-ND 47.09701, -99.93692","2025-06-27 13:47",3,47.09701,-99.936923,TRUE,FALSE,TRUE,"S254632489"
"359","rudduc","Ruddy Duck","Oxyura jamaicensis","L589164","Butte Valley Wildlife Area--Meiss Lake","2025-06-27 13:30",NA,41.8585643,-122.0679764,TRUE,FALSE,FALSE,"S254864500"
"360","rudduc","Ruddy Duck","Oxyura jamaicensis","L20113296","Stone Lake - No Public Access","2025-06-27 13:15",2,36.7104718,-106.88349,TRUE,FALSE,TRUE,"S254689381"
"361","rudduc","Ruddy Duck","Oxyura jamaicensis","L855316","Ormond Beach and lagoon","2025-06-27 12:57",8,34.1385855,-119.1868941,TRUE,FALSE,FALSE,"S254732337"
"362","rudduc","Ruddy Duck","Oxyura jamaicensis","L352139","University of Idaho Dairy","2025-06-27 12:52",1,46.7361761,-117.0282786,TRUE,FALSE,FALSE,"S254637956"
"363","rudduc","Ruddy Duck","Oxyura jamaicensis","L1185840","Swan Lake (Fremont Co.)","2025-06-27 12:52",1,44.2902201,-111.4612341,TRUE,FALSE,FALSE,"S254617665"
"364","rudduc","Ruddy Duck","Oxyura jamaicensis","L129047","Parker River NWR--Hellcat Dike","2025-06-27 12:45",1,42.7408429,-70.796873,TRUE,FALSE,FALSE,"S254694490"
"365","rudduc","Ruddy Duck","Oxyura jamaicensis","L621817","Silver Lake Reservoir (LA Co.)","2025-06-27 11:32",1,34.0992965,-118.2647324,TRUE,FALSE,FALSE,"S255086501"
"366","rudduc","Ruddy Duck","Oxyura jamaicensis","L594012","Shoreline Park--Shoreline Lake area","2025-06-27 11:30",1,37.432341,-122.0918369,TRUE,FALSE,FALSE,"S254621760"
"367","rudduc","Ruddy Duck","Oxyura jamaicensis","L1788110","Laguna Mtns.--Big Laguna & Meadow","2025-06-27 11:20",2,32.8776961,-116.4607005,TRUE,FALSE,FALSE,"S254625603"
"368","rudduc","Ruddy Duck","Oxyura jamaicensis","L340372","Hollister Industrial Ponds","2025-06-27 11:12",2,36.8446517,-121.4196586,TRUE,FALSE,FALSE,"S255317118"
"369","rudduc","Ruddy Duck","Oxyura jamaicensis","L503394","I-80 -- Exit 99 Ponds","2025-06-27 11:09",3,40.6972975,-112.262462,TRUE,FALSE,FALSE,"S254591167"
"370","rudduc","Ruddy Duck","Oxyura jamaicensis","L11766984","Carson Co.—FM2373 Playa","2025-06-27 11:08",1,35.197832,-101.5429081,TRUE,FALSE,FALSE,"S254578030"
"371","rudduc","Ruddy Duck","Oxyura jamaicensis","L12332761","Lake Ogallala Platte / Canal diversion","2025-06-27 10:59",1,41.2105607,-101.6343739,TRUE,FALSE,FALSE,"S254616182"
"372","rudduc","Ruddy Duck","Oxyura jamaicensis","L3238235","Diamond Creek Pond","2025-06-27 10:54",30,39.44254,-119.7564054,TRUE,FALSE,FALSE,"S254617396"
"373","rudduc","Ruddy Duck","Oxyura jamaicensis","L614015","Malheur NWR--Buena Vista Ponds","2025-06-27 10:54",2,43.0672732,-118.8632083,TRUE,FALSE,FALSE,"S254618830"
"374","rudduc","Ruddy Duck","Oxyura jamaicensis","L48596032","Towac WTP","2025-06-27 10:45",5,37.185095,-108.701,TRUE,FALSE,TRUE,"S254694466"
"375","rudduc","Ruddy Duck","Oxyura jamaicensis","L728334","McKay Creek NWR--McKay Reservoir","2025-06-27 10:39",1,45.5902094,-118.7934837,TRUE,FALSE,FALSE,"S254635948"
"376","rudduc","Ruddy Duck","Oxyura jamaicensis","L34341809","Modoc National Wildlife Refuge, Alturas US-CA 41.46817, -120.51466","2025-06-27 10:39",12,41.468175,-120.514661,TRUE,FALSE,TRUE,"S254631306"
"377","rudduc","Ruddy Duck","Oxyura jamaicensis","L1110433","McKay Creek NWR","2025-06-27 10:38",1,45.5944377,-118.7966709,TRUE,FALSE,FALSE,"S254637523"
"378","rudduc","Ruddy Duck","Oxyura jamaicensis","L2609622","Creston Wetland","2025-06-27 10:27",9,48.200033,-114.1397095,TRUE,FALSE,FALSE,"S254590291"
"379","rudduc","Ruddy Duck","Oxyura jamaicensis","L434119","Martis Creek Lake (PLA Co.)","2025-06-27 10:23",2,39.3153083,-120.1177311,TRUE,FALSE,FALSE,"S254592935"
"380","rudduc","Ruddy Duck","Oxyura jamaicensis","L42597108","321 Rocky Lake Rd, Colville US-WA 48.51749, -117.88395","2025-06-27 10:20",12,48.517487,-117.883945,TRUE,FALSE,TRUE,"S254590482"
"381","rudduc","Ruddy Duck","Oxyura jamaicensis","L46698111","Baylands","2025-06-27 10:07",8,37.4545389,-122.102025,TRUE,FALSE,TRUE,"S254606213"
"382","rudduc","Ruddy Duck","Oxyura jamaicensis","L8610808","Gering WTP","2025-06-27 09:58",1,41.8323132,-103.6429405,TRUE,FALSE,FALSE,"S254669135"
"383","rudduc","Ruddy Duck","Oxyura jamaicensis","L282089","Laguna Lake","2025-06-27 09:48",1,35.2656069,-120.6903817,TRUE,FALSE,FALSE,"S254663252"
"384","rudduc","Ruddy Duck","Oxyura jamaicensis","L8162225","Silver Lake","2025-06-27 09:32",10,39.6431136,-119.9123849,TRUE,FALSE,FALSE,"S254617863"
"385","rudduc","Ruddy Duck","Oxyura jamaicensis","L159573","Baskett Slough NWR","2025-06-27 09:03",5,44.9614021,-123.257246,TRUE,FALSE,FALSE,"S254657165"
"386","rudduc","Ruddy Duck","Oxyura jamaicensis","L159619","Malheur NWR--Headquarters","2025-06-27 08:59",2,43.2658741,-118.8448941,TRUE,FALSE,FALSE,"S254590543"
"387","rudduc","Ruddy Duck","Oxyura jamaicensis","L6550725","Swan Lake Nature Study Area (IBA)--Fleetwood Dr Pumphouse","2025-06-27 08:48",15,39.6500322,-119.8445847,TRUE,FALSE,FALSE,"S254617830"
"388","rudduc","Ruddy Duck","Oxyura jamaicensis","L2837420","Hamilton Wetlands","2025-06-27 08:45",5,38.0578151,-122.5078261,TRUE,FALSE,FALSE,"S254629875"
"389","rudduc","Ruddy Duck","Oxyura jamaicensis","L344663","Madera WTP","2025-06-27 08:38",10,36.9417288,-120.1645947,TRUE,FALSE,FALSE,"S254587832"
"390","rudduc","Ruddy Duck","Oxyura jamaicensis","L152696","Orland Grassland","2025-06-27 08:30",1,41.5758,-87.8605,TRUE,TRUE,FALSE,"S254567782"
"391","rudduc","Ruddy Duck","Oxyura jamaicensis","L216132","Coyote Hills Regional Park","2025-06-27 08:30",5,37.553764,-122.0875025,TRUE,FALSE,FALSE,"S254636204"
"392","rudduc","Ruddy Duck","Oxyura jamaicensis","L272214","Windy Gap Reservoir","2025-06-27 08:13",2,40.1085377,-105.9818839,TRUE,FALSE,FALSE,"S254546053"
"393","rudduc","Ruddy Duck","Oxyura jamaicensis","L25873065","Lear Blvd Ponds and Wetlands","2025-06-27 08:08",4,39.6469011,-119.8509521,TRUE,FALSE,FALSE,"S254617605"
"394","rudduc","Ruddy Duck","Oxyura jamaicensis","L4678149","Buzzard Lake (Okanogan Co.)","2025-06-27 07:57",14,48.3609668,-119.7177225,TRUE,FALSE,FALSE,"S254625495"
"395","rudduc","Ruddy Duck","Oxyura jamaicensis","L573269","Westlake Pond","2025-06-27 07:40",2,36.9762268,-122.0459175,TRUE,FALSE,FALSE,"S254961488"
"396","rudduc","Ruddy Duck","Oxyura jamaicensis","L619767","Echo Park","2025-06-27 07:34",1,34.0743105,-118.2607627,TRUE,FALSE,FALSE,"S254660699"
"397","rudduc","Ruddy Duck","Oxyura jamaicensis","L160183","Chautauqua NWR","2025-06-27 07:29",5,40.377205,-89.99195,TRUE,TRUE,FALSE,"S254583413"
"398","rudduc","Ruddy Duck","Oxyura jamaicensis","L41398482","Zia Reservoir","2025-06-27 07:20",2,35.5286156,-106.7578337,TRUE,TRUE,FALSE,"S254538383"
"399","rudduc","Ruddy Duck","Oxyura jamaicensis","L467098","Whittier Narrows Rec Area","2025-06-27 07:15",1,34.0399274,-118.0631545,TRUE,FALSE,FALSE,"S255066336"
"400","rudduc","Ruddy Duck","Oxyura jamaicensis","L16770637","Big Johnson reservoir","2025-06-27 07:15",5,38.745404,-104.695329,TRUE,FALSE,TRUE,"S254580257"
"401","rudduc","Ruddy Duck","Oxyura jamaicensis","L131620","Cheraw Lake","2025-06-27 06:47",21,38.1007663,-103.5127017,TRUE,FALSE,FALSE,"S254512594"
"402","rudduc","Ruddy Duck","Oxyura jamaicensis","L1384918","Philomath Sewage Ponds--northeast pond","2025-06-27 06:34",1,44.524156,-123.34548,TRUE,FALSE,TRUE,"S254927930"
"403","rudduc","Ruddy Duck","Oxyura jamaicensis","L830335","Plum Island (please use more refined location)","2025-06-27 06:30",1,42.7987508,-70.8114526,TRUE,FALSE,FALSE,"S254698317"
"404","rudduc","Ruddy Duck","Oxyura jamaicensis","L48625058","Presidio, San Francisco US-CA (37.7879,-122.4775)","2025-06-27 06:08",1,37.787898,-122.47751,TRUE,FALSE,TRUE,"S254822952"
"405","rudduc","Ruddy Duck","Oxyura jamaicensis","L48568216","BSS SHP-B","2025-06-27 05:52",12,41.039661,-112.007764,TRUE,FALSE,TRUE,"S254583085"
"406","rudduc","Ruddy Duck","Oxyura jamaicensis","L474581","Black Rush Lake WPA","2025-06-27 05:49",3,44.3378464,-95.8991432,TRUE,FALSE,FALSE,"S254539937"
"407","rudduc","Ruddy Duck","Oxyura jamaicensis","L7945235","455th Avenue, Lidgerwood, South Dakota, US","2025-06-26 20:36",11,45.8945584,-97.104426,TRUE,FALSE,TRUE,"S255074504"
"408","rudduc","Ruddy Duck","Oxyura jamaicensis","L25046614","Three pond loop","2025-06-26 19:50",2,35.711131,-106.072097,TRUE,FALSE,TRUE,"S254420982"
"409","rudduc","Ruddy Duck","Oxyura jamaicensis","L140453","Lake Ogallala","2025-06-26 19:24",5,41.2150002,-101.6624985,TRUE,FALSE,FALSE,"S254434378"
"410","rudduc","Ruddy Duck","Oxyura jamaicensis","L9705448","8168 3rd Avenue Northwest, Wyndmere, North Dakota, US (46.229, -97.135)","2025-06-26 19:23",18,46.2286753,-97.1351835,TRUE,FALSE,TRUE,"S255074215"
"411","rudduc","Ruddy Duck","Oxyura jamaicensis","L20113315","J8 - No Public Access","2025-06-26 19:20",4,36.7938306,-106.8804469,TRUE,FALSE,TRUE,"S254420768"
"412","rudduc","Ruddy Duck","Oxyura jamaicensis","L3782882","Hwy 37 pullout","2025-06-26 19:04",1,38.1353024,-122.3446257,TRUE,FALSE,FALSE,"S254432475"
"413","rudduc","Ruddy Duck","Oxyura jamaicensis","L6563470","Rillito Cemex Plant (restricted access)","2025-06-26 18:56",2,32.4209906,-111.1651331,TRUE,FALSE,FALSE,"S254416633"
"414","rudduc","Ruddy Duck","Oxyura jamaicensis","L11002552","Woodland Regional Park Preserve","2025-06-26 18:10",8,38.64209,-121.7254663,TRUE,FALSE,FALSE,"S254414868"
"415","rudduc","Ruddy Duck","Oxyura jamaicensis","L22314617","Towaoc WTP (restricted access)","2025-06-26 18:09",15,37.187191,-108.700847,TRUE,FALSE,TRUE,"S254408636"
"416","rudduc","Ruddy Duck","Oxyura jamaicensis","L48529733","Starbucks / pond","2025-06-26 18:02",1,48.393442,-114.335057,TRUE,FALSE,TRUE,"S254406092"
"417","rudduc","Ruddy Duck","Oxyura jamaicensis","L3002399","Laurel Sewage Pond","2025-06-26 18:01",10,37.619064,-118.8779034,TRUE,FALSE,FALSE,"S254422745"
"418","rudduc","Ruddy Duck","Oxyura jamaicensis","L560859","Russell Lakes SWA","2025-06-26 17:59",2,37.9427084,-106.1422205,TRUE,FALSE,FALSE,"S254418998"
"419","rudduc","Ruddy Duck","Oxyura jamaicensis","L2300607","Stewart's Pond","2025-06-26 16:19",25,40.3245862,-104.709084,TRUE,FALSE,FALSE,"S254381222"
"420","rudduc","Ruddy Duck","Oxyura jamaicensis","L4685426","Latah County Landfill--Front Ponds","2025-06-26 16:05",6,46.7141939,-116.8997133,TRUE,FALSE,FALSE,"S254533054"
"421","rudduc","Ruddy Duck","Oxyura jamaicensis","L17228649","Santa Ana River wash (Redlands/Highland)","2025-06-26 15:41",4,34.086764,-117.1714676,TRUE,FALSE,FALSE,"S254386282"
"422","rudduc","Ruddy Duck","Oxyura jamaicensis","L48522647","Frenchglen Hwy, Princeton US-OR 43.28166, -118.96605","2025-06-26 14:32",6,43.281656,-118.966055,TRUE,FALSE,TRUE,"S254373198"
"423","rudduc","Ruddy Duck","Oxyura jamaicensis","L1222792","Okanogan Highlands--Fields Lake","2025-06-26 14:30",2,48.9374283,-119.1289401,TRUE,FALSE,FALSE,"S254406474"
"424","rudduc","Ruddy Duck","Oxyura jamaicensis","L1676457","Hwy DM & I ponds (east of I-94)","2025-06-26 14:30",2,43.2759012,-89.3866575,TRUE,FALSE,FALSE,"S254405955"
"425","rudduc","Ruddy Duck","Oxyura jamaicensis","L7491373","Garner Valley--State Hwy. 74 at Servo Creek","2025-06-26 14:12",1,33.6675286,-116.6699787,TRUE,TRUE,FALSE,"S254716062"
"426","rudduc","Ruddy Duck","Oxyura jamaicensis","L2325081","Summit Reservoir","2025-06-26 14:12",1,37.4214353,-108.3839035,TRUE,FALSE,FALSE,"S254371928"
"427","rudduc","Ruddy Duck","Oxyura jamaicensis","L158903","Long Lake NWR","2025-06-26 14:03",5,46.6698025,-100.2278475,TRUE,FALSE,FALSE,"S254347279"
"428","rudduc","Ruddy Duck","Oxyura jamaicensis","L1617572","Okanogan Highlands--Baker Lake","2025-06-26 14:00",2,48.8810933,-119.1274904,TRUE,FALSE,FALSE,"S254404928"
"429","rudduc","Ruddy Duck","Oxyura jamaicensis","L21274560","Vandenberg SFB--Punchbowl Pond (restricted access)","2025-06-26 13:55",15,34.7669069,-120.520483,TRUE,FALSE,FALSE,"S254363743"
"430","rudduc","Ruddy Duck","Oxyura jamaicensis","L48512298","11445–11699 Knauer Ln, Cologne US-MN 44.79054, -93.82834","2025-06-26 13:40",8,44.790541,-93.828338,TRUE,FALSE,TRUE,"S254327645"
"431","rudduc","Ruddy Duck","Oxyura jamaicensis","L829793","Swan Falls Park","2025-06-26 12:39",1,43.2432645,-116.377058,TRUE,FALSE,FALSE,"S254387490"
"432","rudduc","Ruddy Duck","Oxyura jamaicensis","L48515210","Plover Pond","2025-06-26 12:29",2,38.093283,-103.527708,TRUE,FALSE,TRUE,"S254338945"
"433","rudduc","Ruddy Duck","Oxyura jamaicensis","L4682750","Bear Lake NWR--Salt Meadow Unit","2025-06-26 12:12",NA,42.2057796,-111.3359852,TRUE,FALSE,FALSE,"S254333326"
"434","rudduc","Ruddy Duck","Oxyura jamaicensis","L2764357","Cameron Lake Road Farmhouse","2025-06-26 11:59",6,48.1427642,-119.560132,TRUE,FALSE,FALSE,"S254336788"
"435","rudduc","Ruddy Duck","Oxyura jamaicensis","L48515445","Strahl Canyon Road, Grand Coulee, Washington, US (47.976, -119.16)","2025-06-26 11:52",1,47.9759621,-119.1602239,TRUE,FALSE,TRUE,"S254339853"
"436","rudduc","Ruddy Duck","Oxyura jamaicensis","L48525910","Bodega Bay,","2025-06-26 11:15",1,38.32891,-123.0506739,TRUE,FALSE,TRUE,"S254391072"
"437","rudduc","Ruddy Duck","Oxyura jamaicensis","L2137091","Bench Road--lower","2025-06-26 11:12",1,45.8537283,-111.555469,TRUE,FALSE,FALSE,"S254310084"
"438","rudduc","Ruddy Duck","Oxyura jamaicensis","L35968225","Turnbull NWR--W. Blackhorse Lake boardwalk","2025-06-26 11:07",3,47.4246126,-117.5450914,TRUE,FALSE,FALSE,"S254320373"
"439","rudduc","Ruddy Duck","Oxyura jamaicensis","L17766755","Stevens Creek Tidal Marsh","2025-06-26 10:38",3,37.432818,-122.0695349,TRUE,FALSE,FALSE,"S254351961"
"440","rudduc","Ruddy Duck","Oxyura jamaicensis","L4647937","Cedar Point Biological Station","2025-06-26 10:13",4,41.2095019,-101.6477233,TRUE,FALSE,FALSE,"S254297652"
"441","rudduc","Ruddy Duck","Oxyura jamaicensis","L285737","Chico Basin Ranch (Pueblo Co) (mandatory registration required at www.aikenaudubon.com)","2025-06-26 09:54",4,38.48682,-104.43801,TRUE,FALSE,FALSE,"S254357425"
"442","rudduc","Ruddy Duck","Oxyura jamaicensis","L2774775","Parker River NWR--Hellcat Dunes Loop","2025-06-26 09:52",1,42.7445579,-70.7955307,TRUE,FALSE,FALSE,"S254268564"
"443","rudduc","Ruddy Duck","Oxyura jamaicensis","L2873515","Baskett Slough NWR--Hwy 22 Overlook","2025-06-26 09:42",7,44.9524592,-123.2691262,TRUE,FALSE,FALSE,"S254428678"
"444","rudduc","Ruddy Duck","Oxyura jamaicensis","L28651938","601–799 W Navajo Dr, Kanab US-UT 37.01649, -112.54328","2025-06-26 09:42",15,37.016486,-112.543283,TRUE,TRUE,TRUE,"S254295575"
"445","rudduc","Ruddy Duck","Oxyura jamaicensis","L3116444","Springs Preserve","2025-06-26 09:32",1,36.1718465,-115.1900196,TRUE,FALSE,FALSE,"S254301440"
"446","rudduc","Ruddy Duck","Oxyura jamaicensis","L44937720","Lakeside RV Park","2025-06-26 09:24",2,36.1325371,-115.9585047,TRUE,FALSE,TRUE,"S254378963"
"447","rudduc","Ruddy Duck","Oxyura jamaicensis","L34390944","Ash Creek Wildlife Area, Adin US-CA 41.15392, -121.08639","2025-06-26 09:14",4,41.153924,-121.086391,TRUE,FALSE,TRUE,"S254323314"
"448","rudduc","Ruddy Duck","Oxyura jamaicensis","L48506784","27907–28397 S Valley Rd, Lima US-MT 44.59219, -111.74570","2025-06-26 09:07",2,44.592192,-111.745702,TRUE,FALSE,TRUE,"S254306454"
"449","rudduc","Ruddy Duck","Oxyura jamaicensis","L868854","Carson City WWTP Wetlands","2025-06-26 09:04",18,39.1638915,-119.7365785,TRUE,FALSE,FALSE,"S254322848"
"450","rudduc","Ruddy Duck","Oxyura jamaicensis","L268122","Lake Merritt","2025-06-26 09:00",1,37.8035451,-122.2567177,TRUE,FALSE,FALSE,"S254363438"
"451","rudduc","Ruddy Duck","Oxyura jamaicensis","L259782","Parker River NWR--Bill Forward Pool","2025-06-26 08:57",1,42.7368477,-70.7942462,TRUE,FALSE,FALSE,"S254372268"
"452","rudduc","Ruddy Duck","Oxyura jamaicensis","L48658067","Co Nelson1/ND1","2025-06-26 08:55",NA,48.1530206,-98.3367649,TRUE,FALSE,TRUE,"S254393235"
"453","rudduc","Ruddy Duck","Oxyura jamaicensis","L594020","Cottonwood Reservoir ","2025-06-26 08:53",2,46.037731,-110.6865692,TRUE,FALSE,FALSE,"S254716401"
"454","rudduc","Ruddy Duck","Oxyura jamaicensis","L776548","Salt Pond A2E","2025-06-26 08:37",3,37.4367028,-122.0636845,TRUE,FALSE,FALSE,"S254308142"
"455","rudduc","Ruddy Duck","Oxyura jamaicensis","L48689483","Cottonwood Reservoir, Wilsall US-MT (46.0400,-110.6885)","2025-06-26 08:30",1,46.039962,-110.688506,TRUE,FALSE,TRUE,"S255079607"
"456","rudduc","Ruddy Duck","Oxyura jamaicensis","L267812","San Jacinto Wildlife Area--Mystic Lake","2025-06-26 08:24",2,33.8839706,-117.0884961,TRUE,FALSE,FALSE,"S254347468"
"457","rudduc","Ruddy Duck","Oxyura jamaicensis","L6806746","Rocky Mountain Arsenal NWR-- East Auto Tour","2025-06-26 08:18",1,39.8179101,-104.8280454,TRUE,FALSE,FALSE,"S254272830"
"458","rudduc","Ruddy Duck","Oxyura jamaicensis","L275505","Rochester WTP (CLOSED ON WEEKENDS,  weekdays closes at 2:00 pm)","2025-06-26 08:15",1,43.2645499,-70.967921,TRUE,TRUE,FALSE,"S254407230"
"459","rudduc","Ruddy Duck","Oxyura jamaicensis","L600290","Fairview Park, Costa Mesa","2025-06-26 08:12",1,33.662014,-117.9413974,TRUE,FALSE,FALSE,"S254287832"
"460","rudduc","Ruddy Duck","Oxyura jamaicensis","L129123","Portal--Willow Tank","2025-06-26 08:12",1,31.8145008,-109.0595016,TRUE,FALSE,FALSE,"S254282808"
"461","rudduc","Ruddy Duck","Oxyura jamaicensis","L387148","Mojave Narrows Regional Park","2025-06-26 08:03",2,34.5129928,-117.2708559,TRUE,FALSE,FALSE,"S254324697"
"462","rudduc","Ruddy Duck","Oxyura jamaicensis","L3091619","Des Lacs NWR--Lower Des Lacs Lake","2025-06-26 08:00",10,48.607187,-102.0095084,TRUE,FALSE,FALSE,"S254263967"
"463","rudduc","Ruddy Duck","Oxyura jamaicensis","L165219","Sepulveda Basin--Lake Balboa","2025-06-26 07:49",1,34.1813289,-118.4951341,TRUE,FALSE,FALSE,"S254319271"
"464","rudduc","Ruddy Duck","Oxyura jamaicensis","L9164533","6D","2025-06-26 07:47",2,40.736744,-112.182341,TRUE,FALSE,TRUE,"S254265543"
"465","rudduc","Ruddy Duck","Oxyura jamaicensis","L48497164","97721, Princeton US-OR 42.77624, -118.43940","2025-06-26 07:38",3,42.776237,-118.4394,TRUE,FALSE,TRUE,"S254267776"
"466","rudduc","Ruddy Duck","Oxyura jamaicensis","L730351","Charleston Slough/Coast Casey Forebay","2025-06-26 07:18",8,37.4359191,-122.098918,TRUE,FALSE,FALSE,"S254392646"
"467","rudduc","Ruddy Duck","Oxyura jamaicensis","L278720","Holloman Lakes","2025-06-26 07:01",5,32.807442,-106.1226013,TRUE,FALSE,FALSE,"S254378259"
"468","rudduc","Ruddy Duck","Oxyura jamaicensis","L344959","Ruby Lake NWR","2025-06-26 07:00",NA,40.1012816,-115.5080474,TRUE,FALSE,FALSE,"S255312261"
"469","rudduc","Ruddy Duck","Oxyura jamaicensis","L421283","S-Line Reservoir","2025-06-26 06:55",2,39.4849652,-118.730278,TRUE,FALSE,FALSE,"S254253981"
"470","rudduc","Ruddy Duck","Oxyura jamaicensis","L3135598","Laguna Coast Wilderness Park--Laguna Lakes","2025-06-26 06:36",1,33.6107558,-117.7590415,TRUE,FALSE,FALSE,"S254280197"
"471","rudduc","Ruddy Duck","Oxyura jamaicensis","L266967","Great Western Reservoir (closed to public)","2025-06-26 06:33",18,39.8968365,-105.1522923,TRUE,FALSE,FALSE,"S254267600"
"472","rudduc","Ruddy Duck","Oxyura jamaicensis","L130766","Hornsby Bend (HOTE 037)","2025-06-26 06:19",1,30.2181988,-97.6458054,TRUE,FALSE,FALSE,"S254263748"
"473","rudduc","Ruddy Duck","Oxyura jamaicensis","L31672712","Pond behind the Mountain Mall","2025-06-26 06:11",1,48.393556,-114.334848,TRUE,FALSE,TRUE,"S254351628"
"474","rudduc","Ruddy Duck","Oxyura jamaicensis","L159297","Craney Island Disposal Area (restricted access)","2025-06-26 05:55",4,36.9065,-76.37,TRUE,FALSE,FALSE,"S254313580"
"475","rudduc","Ruddy Duck","Oxyura jamaicensis","L48473525","108 N Entrance Rd, Gardiner US-MT 45.00482, -110.70351","2025-06-25 21:00",1,45.004816,-110.703506,TRUE,FALSE,TRUE,"S254155401"
"476","rudduc","Ruddy Duck","Oxyura jamaicensis","L16320310","Gallup Municipal Golf Course","2025-06-25 20:36",2,35.514058,-108.718186,TRUE,FALSE,FALSE,"S254152564"
"477","rudduc","Ruddy Duck","Oxyura jamaicensis","L20225196","Warm Lake boat launch","2025-06-25 19:55",8,44.652451,-115.665449,TRUE,FALSE,TRUE,"S254368430"
"478","rudduc","Ruddy Duck","Oxyura jamaicensis","L867979","Santa Ana River--Pacific Coast Hwy to Hamilton Ave.","2025-06-25 19:49",1,33.6434831,-117.9534341,TRUE,FALSE,FALSE,"S254157003"
"479","rudduc","Ruddy Duck","Oxyura jamaicensis","L900558","Almira STP","2025-06-25 19:10",1,47.7112054,-118.9224529,TRUE,FALSE,FALSE,"S254153950"
"480","rudduc","Ruddy Duck","Oxyura jamaicensis","L271616","County V Ponds (Dane Co.)","2025-06-25 19:10",1,43.2478432,-89.4291109,TRUE,FALSE,FALSE,"S254131781"
"481","rudduc","Ruddy Duck","Oxyura jamaicensis","L2194576","Pennal Gulch","2025-06-25 19:09",3,44.536228,-114.1846472,TRUE,FALSE,FALSE,"S254424153"
"482","rudduc","Ruddy Duck","Oxyura jamaicensis","L526453","Hwy DM & Wibu Rd. Ponds","2025-06-25 18:58",5,43.2757047,-89.403002,TRUE,FALSE,FALSE,"S254131835"
"483","rudduc","Ruddy Duck","Oxyura jamaicensis","L20043514","Declo Wastewater Treatment Ponds","2025-06-25 18:31",2,42.5523304,-113.6303676,TRUE,FALSE,FALSE,"S254134959"
"484","rudduc","Ruddy Duck","Oxyura jamaicensis","L714407","Burns (town)","2025-06-25 18:27",3,43.5897042,-119.0549755,TRUE,FALSE,FALSE,"S254146686"
"485","rudduc","Ruddy Duck","Oxyura jamaicensis","L868859","Paradise Park","2025-06-25 18:17",1,39.5433508,-119.7768545,TRUE,FALSE,FALSE,"S254150997"
"486","rudduc","Ruddy Duck","Oxyura jamaicensis","L7797854","Don Edwards NWR--Env. Ed. Ctr. (EEC) and nearby upland areas","2025-06-25 17:36",2,37.438916,-121.959456,TRUE,FALSE,FALSE,"S254144990"
"487","rudduc","Ruddy Duck","Oxyura jamaicensis","L2753168","Cornerstone Park","2025-06-25 17:25",NA,36.0369429,-115.0544178,TRUE,FALSE,FALSE,"S255038949"
"488","rudduc","Ruddy Duck","Oxyura jamaicensis","L769765","Carr Lake upper","2025-06-25 17:00",NA,36.6892977,-121.6232121,TRUE,FALSE,FALSE,"S254161631"
"489","rudduc","Ruddy Duck","Oxyura jamaicensis","L752929","Hotchkiss Ln. and Eagen Ln.--Pond","2025-06-25 16:08",1,43.5569458,-119.0611339,TRUE,FALSE,FALSE,"S254120041"
"490","rudduc","Ruddy Duck","Oxyura jamaicensis","L823517","Pacific Press Pond","2025-06-25 15:48",2,43.5954046,-116.5307808,TRUE,FALSE,FALSE,"S254142192"
"491","rudduc","Ruddy Duck","Oxyura jamaicensis","L1615277","Turnbull NWR--Pine Lakes Loop Trail and Winslow Pool","2025-06-25 15:14",2,47.4125974,-117.5383435,TRUE,FALSE,FALSE,"S254384423"
"492","rudduc","Ruddy Duck","Oxyura jamaicensis","L3059897","Christmas Valley (town)","2025-06-25 14:55",4,43.2415347,-120.682394,TRUE,FALSE,FALSE,"S254111771"
"493","rudduc","Ruddy Duck","Oxyura jamaicensis","L48474612","Las Campanas CC, Sunset Course, Santa Fe","2025-06-25 14:40",2,35.714434,-106.057778,TRUE,FALSE,TRUE,"S254160092"
"494","rudduc","Ruddy Duck","Oxyura jamaicensis","L573127","Horicon NWR--Old Marsh Rd.","2025-06-25 13:46",1,43.6159453,-88.6473083,TRUE,FALSE,FALSE,"S254162699"
"495","rudduc","Ruddy Duck","Oxyura jamaicensis","L2135666","Grass Lake","2025-06-25 13:30",1,44.8937621,-93.2971966,TRUE,FALSE,FALSE,"S254048918"
"496","rudduc","Ruddy Duck","Oxyura jamaicensis","L2412856","Mallette's Pond (from NM-518)","2025-06-25 13:18",2,35.6463145,-105.2286879,TRUE,FALSE,FALSE,"S254098823"
"497","rudduc","Ruddy Duck","Oxyura jamaicensis","L48463698","Schoolhouse Pond","2025-06-25 12:15",8,45.270263,-117.943146,TRUE,FALSE,TRUE,"S254112004"
"498","rudduc","Ruddy Duck","Oxyura jamaicensis","L2139421","Arapaho NWR--Fox Lake","2025-06-25 12:10",4,40.6811913,-106.2410975,TRUE,FALSE,FALSE,"S254067127"
"499","rudduc","Ruddy Duck","Oxyura jamaicensis","L13487482","1602 Stewart Street, Anaconda, Montana, US (46.107, -112.812)","2025-06-25 11:58",1,46.107197,-112.8117699,TRUE,FALSE,TRUE,"S254040696"
"500","rudduc","Ruddy Duck","Oxyura jamaicensis","L4824219","Kiowa Marsh--Main Marsh","2025-06-25 11:29",1,42.457754,-95.106825,TRUE,FALSE,FALSE,"S254035088"
"501","rudduc","Ruddy Duck","Oxyura jamaicensis","L44830620","Safari Park","2025-06-25 11:15",NA,33.10032,-117.002074,TRUE,FALSE,TRUE,"S254135241"
"502","rudduc","Ruddy Duck","Oxyura jamaicensis","L48441850","Parker River National Wildlife Refuge, Newbury US-MA 42.73802, -70.79299","2025-06-25 11:07",1,42.738015,-70.792991,TRUE,FALSE,TRUE,"S254016047"
"503","rudduc","Ruddy Duck","Oxyura jamaicensis","L1114665","Shugru Reservoir","2025-06-25 11:00",1,40.3520306,-120.5619854,TRUE,FALSE,FALSE,"S254040319"
"504","rudduc","Ruddy Duck","Oxyura jamaicensis","L1254749","Browns Lake","2025-06-25 10:39",3,46.9576129,-113.0110359,TRUE,FALSE,FALSE,"S254035965"
"505","rudduc","Ruddy Duck","Oxyura jamaicensis","L48442657","Montana 3, Billings, Montana, US","2025-06-25 10:36",1,45.8313592,-108.6369903,TRUE,FALSE,TRUE,"S254020007"
"506","rudduc","Ruddy Duck","Oxyura jamaicensis","L470891","Hayward Regional Shoreline--Winton Ave. access and parking area","2025-06-25 10:35",5,37.6465875,-122.1467042,TRUE,FALSE,FALSE,"S254071486"
"507","rudduc","Ruddy Duck","Oxyura jamaicensis","L48465229","217–299 County Road C22C, Las Vegas US-NM (35.5164,-105.1715)","2025-06-25 10:17",2,35.516359,-105.171463,TRUE,FALSE,TRUE,"S254117719"
"508","rudduc","Ruddy Duck","Oxyura jamaicensis","L1517390","Corral de Tierra--lower (MP 0-3 & Calera Cyn)","2025-06-25 10:15",6,36.5567141,-121.7326232,TRUE,FALSE,FALSE,"S255603800"
"509","rudduc","Ruddy Duck","Oxyura jamaicensis","L845075","San Pablo Bay NWR","2025-06-25 09:58",1,38.1149858,-122.3007917,TRUE,FALSE,FALSE,"S254025168"
"510","rudduc","Ruddy Duck","Oxyura jamaicensis","L27640835","Parker River National Wildlife Refuge, Newbury US-MA 42.77649, -70.80720","2025-06-25 09:51",1,42.776486,-70.807204,TRUE,FALSE,TRUE,"S254014592"
"511","rudduc","Ruddy Duck","Oxyura jamaicensis","L14964298","Parker River National Wildlife Refuge, Newbury US-MA 42.78815, -70.80923","2025-06-25 09:50",1,42.788146,-70.809231,TRUE,FALSE,TRUE,"S254023362"
"512","rudduc","Ruddy Duck","Oxyura jamaicensis","L4418957","Pacheco Pond","2025-06-25 09:38",2,38.0767948,-122.5309896,TRUE,FALSE,FALSE,"S254084182"
"513","rudduc","Ruddy Duck","Oxyura jamaicensis","L571710","Blackfoot WPA","2025-06-25 09:35",3,46.9663054,-112.9723835,TRUE,FALSE,FALSE,"S254035716"
"514","rudduc","Ruddy Duck","Oxyura jamaicensis","L46293681","County Road 197, Crosbyton, Texas, US (33.573, -101.255)","2025-06-25 09:33",1,33.5728055,-101.2553082,TRUE,FALSE,TRUE,"S253987681"
"515","rudduc","Ruddy Duck","Oxyura jamaicensis","L271298","Shiawassee NWR--Ferguson Bayou Trail","2025-06-25 09:21",2,43.3391937,-84.0257978,TRUE,FALSE,FALSE,"S253995132"
"516","rudduc","Ruddy Duck","Oxyura jamaicensis","L35376835","348 Polpis Road, Nantucket, Massachusetts, US (41.292, -69.988)Caines Pond","2025-06-25 09:15",5,41.2916149,-69.9880864,TRUE,TRUE,TRUE,"S253964387"
"517","rudduc","Ruddy Duck","Oxyura jamaicensis","L32262320","Carl Hayden Property","2025-06-25 09:05",7,46.9259843,-114.1417856,TRUE,FALSE,TRUE,"S254045883"
"518","rudduc","Ruddy Duck","Oxyura jamaicensis","L109287","Adobe Creek Reservoir (Blue Lake)--Bent Co","2025-06-25 08:41",8,38.25,-103.25,TRUE,FALSE,FALSE,"S254028037"
"519","rudduc","Ruddy Duck","Oxyura jamaicensis","L279302","Santa Clara Valley Water District","2025-06-25 08:35",2,37.2480176,-121.8728828,TRUE,FALSE,FALSE,"S254020040"
"520","rudduc","Ruddy Duck","Oxyura jamaicensis","L6657722","Ballona Discovery Park","2025-06-25 08:29",5,33.9692922,-118.4237981,TRUE,FALSE,FALSE,"S254013386"
"521","rudduc","Ruddy Duck","Oxyura jamaicensis","L48086727","Cowdrey vicinity","2025-06-25 08:26",2,40.8593007,-106.3128667,TRUE,FALSE,TRUE,"S253984169"
"522","rudduc","Ruddy Duck","Oxyura jamaicensis","L642434","Dorris Reservoir","2025-06-25 08:08",3,41.4881604,-120.4800224,TRUE,FALSE,FALSE,"S254626868"
"523","rudduc","Ruddy Duck","Oxyura jamaicensis","L11222417","Bear Lake NWR--general (please consider using a more specific hotspot)","2025-06-25 07:41",18,42.2615256,-111.3411677,TRUE,FALSE,FALSE,"S254084022"
"524","rudduc","Ruddy Duck","Oxyura jamaicensis","L48406713","BRMBR Unit 5","2025-06-25 07:24",NA,41.4229883,-112.127182,TRUE,FALSE,TRUE,"S254286572"
"525","rudduc","Ruddy Duck","Oxyura jamaicensis","L9443819","Summer Lake Wildlife Area--East Link and Gull Island","2025-06-25 07:18",7,42.955722,-120.714412,TRUE,FALSE,FALSE,"S254027281"
"526","rudduc","Ruddy Duck","Oxyura jamaicensis","L789339","Payson--Green Valley Park","2025-06-25 07:06",1,34.2309111,-111.343646,TRUE,FALSE,FALSE,"S253975312"
"527","rudduc","Ruddy Duck","Oxyura jamaicensis","L4978588","Uniontown Sewage Ponds","2025-06-25 07:02",2,46.5434544,-117.0759022,TRUE,FALSE,FALSE,"S255721796"
"528","rudduc","Ruddy Duck","Oxyura jamaicensis","L247316","Ninepipe NWR","2025-06-25 07:00",8,47.4379957,-114.1184238,TRUE,FALSE,FALSE,"S253988289"
"529","rudduc","Ruddy Duck","Oxyura jamaicensis","L241530","Smith Reservoir SWA","2025-06-25 06:58",12,37.3919965,-105.534457,TRUE,FALSE,FALSE,"S254011604"
"530","rudduc","Ruddy Duck","Oxyura jamaicensis","L169447","Riverlands Migratory Bird Sanctuary","2025-06-25 06:52",1,38.8719313,-90.1843917,TRUE,TRUE,FALSE,"S254001119"
"531","rudduc","Ruddy Duck","Oxyura jamaicensis","L5971101","Mormon Lake--Fulton Pond","2025-06-25 06:45",1,34.9049917,-111.4549781,TRUE,FALSE,FALSE,"S254093477"
"532","rudduc","Ruddy Duck","Oxyura jamaicensis","L109463","Lake Hodges--Del Dios area (west end)","2025-06-25 06:41",2,33.063,-117.119,TRUE,FALSE,FALSE,"S254068910"
"533","rudduc","Ruddy Duck","Oxyura jamaicensis","L2262861","McArthur Lake WMA","2025-06-25 06:34",8,48.5197881,-116.4488554,TRUE,FALSE,FALSE,"S254109702"
"534","rudduc","Ruddy Duck","Oxyura jamaicensis","L10821068","Sweetwater Wetlands Park, Tucson US-AZ 32.27974, -111.02128","2025-06-25 06:27",1,32.279736,-111.021281,TRUE,FALSE,TRUE,"S254008238"
"535","rudduc","Ruddy Duck","Oxyura jamaicensis","L483728","Calispell Lake","2025-06-25 05:46",2,48.2758815,-117.3339844,TRUE,FALSE,FALSE,"S254030755"
"536","rudduc","Ruddy Duck","Oxyura jamaicensis","L8425656","Lake McConaughy--Cedar Vue Campground","2025-06-25 05:16",1,41.2938688,-101.9358952,TRUE,FALSE,FALSE,"S254097700"
"537","rudduc","Ruddy Duck","Oxyura jamaicensis","L1112318","Stonegate Ave. at Hoopa Rd. pond","2025-06-24 19:31",1,38.5395223,-121.5380573,TRUE,FALSE,FALSE,"S253861094"
"538","rudduc","Ruddy Duck","Oxyura jamaicensis","L48775051","Lagerman Trail, Longmont US-CO 40.13533, -105.19076","2025-06-24 19:18",8,40.135333,-105.190762,TRUE,FALSE,TRUE,"S255461330"
"539","rudduc","Ruddy Duck","Oxyura jamaicensis","L43099336","Arthur Pack Regional Park, Tucson US-AZ 32.37263, -111.06124","2025-06-24 18:55",8,32.372629,-111.061237,TRUE,FALSE,TRUE,"S253869439"
"540","rudduc","Ruddy Duck","Oxyura jamaicensis","L365439","Pastorius Reservoir","2025-06-24 18:53",2,37.1999797,-107.8119278,TRUE,FALSE,FALSE,"S253853121"
"541","rudduc","Ruddy Duck","Oxyura jamaicensis","L18308515","James T Slavin Conservation Area--Quail trail","2025-06-24 18:34",NA,47.5322121,-117.4240208,TRUE,FALSE,FALSE,"S253862091"
"542","rudduc","Ruddy Duck","Oxyura jamaicensis","L129807","Lake Ontelaunee (IBA)","2025-06-24 18:28",3,40.4502182,-75.9296875,TRUE,TRUE,FALSE,"S253819854"
"543","rudduc","Ruddy Duck","Oxyura jamaicensis","L272471","Governor Nelson SP","2025-06-24 18:00",1,43.1362275,-89.436626,TRUE,FALSE,FALSE,"S253935457"
"544","rudduc","Ruddy Duck","Oxyura jamaicensis","L444656","Summer Lake Wildlife Area","2025-06-24 18:00",5,42.950819,-120.7639503,TRUE,FALSE,FALSE,"S253873748"
"545","rudduc","Ruddy Duck","Oxyura jamaicensis","L500900","Dry Falls Interpretive Center","2025-06-24 17:56",1,47.6071179,-119.3640518,TRUE,FALSE,FALSE,"S253848269"
"546","rudduc","Ruddy Duck","Oxyura jamaicensis","L764283","Boundary Creek WMA","2025-06-24 17:32",2,48.9975643,-116.5518093,TRUE,FALSE,FALSE,"S253864424"
"547","rudduc","Ruddy Duck","Oxyura jamaicensis","L473317","Quail Lake","2025-06-24 17:28",7,34.7701368,-118.7521648,TRUE,FALSE,FALSE,"S254159960"
"548","rudduc","Ruddy Duck","Oxyura jamaicensis","L48402967","Narrows-Princeton Road, Princeton, Oregon, US (43.267, -118.889)","2025-06-24 17:12",22,43.2666735,-118.8886297,TRUE,FALSE,TRUE,"S253849604"
"549","rudduc","Ruddy Duck","Oxyura jamaicensis","L15083993","Colville Sewage Ponds.  555 Louis Perras Road, Colville, Washington, US (48.54, -117.914)","2025-06-24 17:10",5,48.5402046,-117.913821,TRUE,FALSE,TRUE,"S253872010"
"550","rudduc","Ruddy Duck","Oxyura jamaicensis","L694875","Emily Renzel Wetlands","2025-06-24 17:05",1,37.4425693,-122.1150649,TRUE,FALSE,FALSE,"S253842719"
"551","rudduc","Ruddy Duck","Oxyura jamaicensis","L48402965","Narrows-Princeton Road, Princeton, Oregon, US (43.267, -118.889)","2025-06-24 17:03",1,43.2666735,-118.8886297,TRUE,FALSE,TRUE,"S253832760"
"552","rudduc","Ruddy Duck","Oxyura jamaicensis","L299523","Joseph D. Grant County Park (please use a more specific hotspot where possible)","2025-06-24 16:49",1,37.3404469,-121.7176861,TRUE,FALSE,FALSE,"S253857553"
"553","rudduc","Ruddy Duck","Oxyura jamaicensis","L3017692","Ray Lake Marsh","2025-06-24 16:41",8,42.9631122,-108.8365746,TRUE,FALSE,FALSE,"S253820071"
"554","rudduc","Ruddy Duck","Oxyura jamaicensis","L3177238","Myrtle Point Marsh","2025-06-24 16:40",1,43.0584156,-124.138577,TRUE,FALSE,FALSE,"S253828958"
"555","rudduc","Ruddy Duck","Oxyura jamaicensis","L443105","Ball Creek Ranch Preserve","2025-06-24 16:30",10,48.8169527,-116.4104462,TRUE,FALSE,FALSE,"S253828618"
"556","rudduc","Ruddy Duck","Oxyura jamaicensis","L25931775","Bassway Gravel Ponds","2025-06-24 16:24",4,40.681787,-98.9428543,TRUE,FALSE,FALSE,"S253804322"
"557","rudduc","Ruddy Duck","Oxyura jamaicensis","L1219633","Crescent Lake NWR","2025-06-24 16:10",1,41.7609727,-102.4375534,TRUE,FALSE,FALSE,"S254089777"
"558","rudduc","Ruddy Duck","Oxyura jamaicensis","L48394491","720th Ave, Ortonville US-MN 45.26555, -96.41373","2025-06-24 16:00",1,45.265546,-96.41373,TRUE,FALSE,TRUE,"S253799433"
"559","rudduc","Ruddy Duck","Oxyura jamaicensis","L553070","K-Mart Wetlands","2025-06-24 15:41",6,46.6114816,-112.0117673,TRUE,FALSE,FALSE,"S253824708"
"560","rudduc","Ruddy Duck","Oxyura jamaicensis","L44410684","Upper Elm lake Prairie Pothole","2025-06-24 15:27",1,42.7768014,-93.6762749,TRUE,FALSE,TRUE,"S253787249"
"561","rudduc","Ruddy Duck","Oxyura jamaicensis","L1284489","Russell WTP","2025-06-24 15:22",4,38.8724752,-98.8408506,TRUE,FALSE,FALSE,"S253791549"
"562","rudduc","Ruddy Duck","Oxyura jamaicensis","L711849","Curtz Lake","2025-06-24 15:19",2,38.7247467,-119.7883558,TRUE,FALSE,FALSE,"S254341975"
"563","rudduc","Ruddy Duck","Oxyura jamaicensis","L3556249","Harmon Reservoir","2025-06-24 15:04",20,39.4732392,-118.6377901,TRUE,FALSE,FALSE,"S253817540"
"564","rudduc","Ruddy Duck","Oxyura jamaicensis","L12924924","Pickford Sewage Lagoons (from road only; no access)","2025-06-24 14:57",1,46.1723786,-84.3559368,TRUE,TRUE,FALSE,"S253768413"
"565","rudduc","Ruddy Duck","Oxyura jamaicensis","L207365","Eastern Point--General Area","2025-06-24 14:37",3,42.5847513,-70.6572351,TRUE,FALSE,FALSE,"S253779228"
"566","rudduc","Ruddy Duck","Oxyura jamaicensis","L150986","East Landfill Kalmar Reservoir","2025-06-24 14:35",3,44.048904,-92.574585,TRUE,FALSE,FALSE,"S253785194"
"567","rudduc","Ruddy Duck","Oxyura jamaicensis","L384807","Prado Regional Park","2025-06-24 14:22",3,33.9463861,-117.6506138,TRUE,FALSE,FALSE,"S253815072"
"568","rudduc","Ruddy Duck","Oxyura jamaicensis","L5911572","Lamesteer NWR","2025-06-24 13:34",1,46.7938149,-104.14545,TRUE,FALSE,FALSE,"S253779781"
"569","rudduc","Ruddy Duck","Oxyura jamaicensis","L281058","Arapaho NWR","2025-06-24 13:32",32,40.6404523,-106.2767773,TRUE,FALSE,FALSE,"S253865115"
"570","rudduc","Ruddy Duck","Oxyura jamaicensis","L28266513","Provo River Delta","2025-06-24 13:29",1,40.2458762,-111.7205421,TRUE,FALSE,FALSE,"S253780945"
"571","rudduc","Ruddy Duck","Oxyura jamaicensis","L165393","Sprague Lake (Adams Co.)","2025-06-24 13:18",3,47.244205,-118.06957,TRUE,FALSE,FALSE,"S253802322"
"572","rudduc","Ruddy Duck","Oxyura jamaicensis","L598208","Stillwater NWR","2025-06-24 13:01",30,39.5779555,-118.4623889,TRUE,FALSE,FALSE,"S253787740"
"573","rudduc","Ruddy Duck","Oxyura jamaicensis","L158883","Des Lacs NWR","2025-06-24 13:00",4,48.6691025,-102.0971815,TRUE,FALSE,FALSE,"S253972181"
"574","rudduc","Ruddy Duck","Oxyura jamaicensis","L48404595","Malibu Point","2025-06-24 13:00",10,34.0311095,-118.6822128,TRUE,FALSE,TRUE,"S253845844"
"575","rudduc","Ruddy Duck","Oxyura jamaicensis","L4675579","Sheep Creek Reservoir (Duck Valley Reservation)","2025-06-24 12:44",2,41.8665529,-116.2618352,TRUE,FALSE,FALSE,"S253841972"
"576","rudduc","Ruddy Duck","Oxyura jamaicensis","L9034845","Rocky Mountain Arsenal NWR--Wildlife Drive","2025-06-24 12:33",1,39.8537552,-104.8238524,TRUE,FALSE,FALSE,"S253822090"
"577","rudduc","Ruddy Duck","Oxyura jamaicensis","L33860539","Lucy Evans Nature Center, Baylands","2025-06-24 12:15",1,37.4603484,-122.1057833,TRUE,FALSE,TRUE,"S253809947"
"578","rudduc","Ruddy Duck","Oxyura jamaicensis","L48425015","Private Property - Central City","2025-06-24 12:10",4,41.08915,-98.000832,TRUE,FALSE,TRUE,"S253939620"
"579","rudduc","Ruddy Duck","Oxyura jamaicensis","L1178205","Osakis Sewage Ponds","2025-06-24 12:05",3,45.8526891,-95.1670074,TRUE,FALSE,FALSE,"S253781189"
"580","rudduc","Ruddy Duck","Oxyura jamaicensis","L280702","Gila Bend Sewage Ponds","2025-06-24 11:57",10,32.97,-112.75,TRUE,FALSE,FALSE,"S253769584"
"581","rudduc","Ruddy Duck","Oxyura jamaicensis","L2093003","Fairview Park Wetlands","2025-06-24 11:55",1,33.6664968,-117.940979,TRUE,FALSE,FALSE,"S253781831"
"582","rudduc","Ruddy Duck","Oxyura jamaicensis","L48390244","Lead Lake, Fallon, Nevada, US (39.616, -118.52)","2025-06-24 11:41",200,39.6159425,-118.5203258,TRUE,FALSE,TRUE,"S253787982"
"583","rudduc","Ruddy Duck","Oxyura jamaicensis","L559015","Lander--Water Treatment Ponds","2025-06-24 11:30",4,42.8463472,-108.7231493,TRUE,FALSE,FALSE,"S253754108"
"584","rudduc","Ruddy Duck","Oxyura jamaicensis","L778997","State Hwy 51 at Snake River (Elmore Co. side)","2025-06-24 11:27",6,42.9393567,-115.7510519,TRUE,FALSE,FALSE,"S253841571"
"585","rudduc","Ruddy Duck","Oxyura jamaicensis","L48379786","Dawson Neighborhood Park, Longmont US-CO 40.19034, -105.15035","2025-06-24 11:21",1,40.190345,-105.150346,TRUE,FALSE,TRUE,"S253746245"
"586","rudduc","Ruddy Duck","Oxyura jamaicensis","L29460256","Robin Hood WPA","2025-06-24 11:12",5,45.6204227,-96.7035049,TRUE,FALSE,FALSE,"S253760605"
"587","rudduc","Ruddy Duck","Oxyura jamaicensis","L878741","Soscol Water Recycling Facility","2025-06-24 11:10",6,38.2340171,-122.2826385,TRUE,FALSE,FALSE,"S253780901"
"588","rudduc","Ruddy Duck","Oxyura jamaicensis","L1509264","Okanogan Highlands--Timentwa Rd.","2025-06-24 11:08",17,48.1944738,-119.4507579,TRUE,FALSE,FALSE,"S253849565"
"589","rudduc","Ruddy Duck","Oxyura jamaicensis","L5615765","Woodstock State WMA","2025-06-24 11:00",1,44.099451,-96.0822708,TRUE,FALSE,TRUE,"S253768149"
"590","rudduc","Ruddy Duck","Oxyura jamaicensis","L4381523","Duley Lake","2025-06-24 10:34",26,48.1677896,-119.4953299,TRUE,FALSE,FALSE,"S253849492"
"591","rudduc","Ruddy Duck","Oxyura jamaicensis","L48384529","S Ridgefield Wildlife Refuge Rd, Ridgefield US-WA 45.80673, -122.73740","2025-06-24 10:31",2,45.806725,-122.737397,TRUE,FALSE,TRUE,"S253765133"
"592","rudduc","Ruddy Duck","Oxyura jamaicensis","L29523974","Ballona Freshwater Marsh","2025-06-24 10:30",2,33.975331,-118.432494,TRUE,FALSE,TRUE,"S254310979"
"593","rudduc","Ruddy Duck","Oxyura jamaicensis","L13756145","Lake Cunningham, San Jose","2025-06-24 10:12",10,37.3382542,-121.8120726,TRUE,FALSE,TRUE,"S253788415"
"594","rudduc","Ruddy Duck","Oxyura jamaicensis","L859161","Lake Leavitt","2025-06-24 09:40",80,40.3721341,-120.5120459,TRUE,FALSE,FALSE,"S254645078"
"595","rudduc","Ruddy Duck","Oxyura jamaicensis","L1739531","Cat Island Causeway (restricted access)","2025-06-24 09:30",8,44.5660227,-88.0053408,TRUE,FALSE,FALSE,"S253902376"
"596","rudduc","Ruddy Duck","Oxyura jamaicensis","L11284391","Anderson Reservoirs","2025-06-24 09:30",1,39.0334978,-108.1273277,TRUE,FALSE,FALSE,"S253776270"
"597","rudduc","Ruddy Duck","Oxyura jamaicensis","L295710","Los Gatos Creek County Park and Oka Ponds","2025-06-24 09:17",1,37.2664712,-121.9515038,TRUE,FALSE,FALSE,"S253759706"
"598","rudduc","Ruddy Duck","Oxyura jamaicensis","L464247","Harriett M. Wieder Regional Park, Huntington Beach","2025-06-24 09:16",4,33.6849473,-118.0223304,TRUE,FALSE,FALSE,"S253756007"
"599","rudduc","Ruddy Duck","Oxyura jamaicensis","L7748782","Metz WMA","2025-06-24 09:13",11,45.6062724,-96.7608862,TRUE,FALSE,FALSE,"S253707482"
