"","speciesCode","comName","sciName","locId","locName","obsDt","howMany","lat","lng","obsValid","obsReviewed","locationPrivate","subId"
"1","rensap","Red-naped Sapsucker","Sphyrapicus nuchalis","L3891443","Custer SP--Legion Lake Lodge","2025-06-03 16:04",1,43.7618466,-103.4627607,TRUE,FALSE,FALSE,"S246439457"
"2","rensap","Red-naped Sapsucker","Sphyrapicus nuchalis","L46768127","220 Apgar Loop Rd, West Glacier US-MT 48.52719, -113.99383","2025-06-03 14:56",1,48.527191,-113.993834,TRUE,FALSE,TRUE,"S246450131"
"3","rensap","Red-naped Sapsucker","Sphyrapicus nuchalis","L721531","Wenas Campground","2025-06-03 14:10",1,46.9053628,-120.8048487,TRUE,FALSE,FALSE,"S246456071"
"4","rensap","Red-naped Sapsucker","Sphyrapicus nuchalis","L24481287","Windstar Ranch","2025-06-03 13:14",1,39.302401,-106.9733,TRUE,FALSE,TRUE,"S246439729"
"5","rensap","Red-naped Sapsucker","Sphyrapicus nuchalis","L2396292","Glacier NP--Camas Creek Trail","2025-06-03 12:15",1,48.6277181,-114.0220785,TRUE,FALSE,FALSE,"S246420977"
"6","rensap","Red-naped Sapsucker","Sphyrapicus nuchalis","L247311","Lee Metcalf NWR","2025-06-03 12:05",1,46.5553628,-114.0762529,TRUE,FALSE,FALSE,"S246387989"
"7","rensap","Red-naped Sapsucker","Sphyrapicus nuchalis","L2749898","Black Hills NF--Ward/Long Draw","2025-06-03 11:55",1,44.2462589,-103.8477365,TRUE,FALSE,FALSE,"S246434049"
"8","rensap","Red-naped Sapsucker","Sphyrapicus nuchalis","L787900","Black Hills NF--Hanna  Campground","2025-06-03 11:34",1,44.2747969,-103.8506269,TRUE,FALSE,FALSE,"S246380896"
"9","rensap","Red-naped Sapsucker","Sphyrapicus nuchalis","L46758507","Nelson & Beaver Creek Road Intersection","2025-06-03 11:32",1,46.816211,-111.8094177,TRUE,FALSE,TRUE,"S246402508"
"10","rensap","Red-naped Sapsucker","Sphyrapicus nuchalis","L738581","Mt. Spokane SP--Summit Trails/CCC Cabin","2025-06-03 11:31",2,47.9181253,-117.1255875,TRUE,FALSE,FALSE,"S246432056"
"11","rensap","Red-naped Sapsucker","Sphyrapicus nuchalis","L2177411","Heyburn SP--Plummer Marsh Area","2025-06-03 10:43",1,47.3553969,-116.7803979,TRUE,FALSE,FALSE,"S246377449"
"12","rensap","Red-naped Sapsucker","Sphyrapicus nuchalis","L46753959","39.014201, -107.718233","2025-06-03 10:10",1,39.0142015,-107.7182336,TRUE,FALSE,TRUE,"S246382290"
"13","rensap","Red-naped Sapsucker","Sphyrapicus nuchalis","L9410179","Hall Ranch","2025-06-03 10:05",2,45.1254529,-117.702347,TRUE,FALSE,TRUE,"S246437577"
"14","rensap","Red-naped Sapsucker","Sphyrapicus nuchalis","L46750490","7710–7798 W Taneum Rd, Thorp US-WA 47.08841, -120.80716","2025-06-03 09:55",1,47.088407,-120.807157,TRUE,FALSE,TRUE,"S246364628"
"15","rensap","Red-naped Sapsucker","Sphyrapicus nuchalis","L46759650","Chimney Park Trail, Albany County, Wyoming, US (41.072, -106.107)","2025-06-03 09:33",1,41.071717,-106.1071937,TRUE,FALSE,TRUE,"S246407756"
"16","rensap","Red-naped Sapsucker","Sphyrapicus nuchalis","L46741412","Auto selected 47.08647, -120.76505","2025-06-03 09:26",1,47.086472,-120.765052,TRUE,FALSE,TRUE,"S246352559"
"17","rensap","Red-naped Sapsucker","Sphyrapicus nuchalis","L30803771","Upper Number 2 Canyon Trailhead (Martin Ranch)","2025-06-03 09:16",1,47.397042,-120.436463,TRUE,FALSE,FALSE,"S246377402"
"18","rensap","Red-naped Sapsucker","Sphyrapicus nuchalis","L1563742","Ponderosa SP--Lily Marsh","2025-06-03 09:09",1,44.9482318,-116.0760927,TRUE,FALSE,FALSE,"S246365816"
"19","rensap","Red-naped Sapsucker","Sphyrapicus nuchalis","L46743490","Fern Lake Rd, Estes Park US-CO 40.35738, -105.61937","2025-06-03 09:02",1,40.357382,-105.619367,TRUE,FALSE,TRUE,"S246334352"
"20","rensap","Red-naped Sapsucker","Sphyrapicus nuchalis","L2237829","Ponderosa SP--Lily Marsh Trail","2025-06-03 08:57",1,44.9467283,-116.0748053,TRUE,FALSE,FALSE,"S246363125"
"21","rensap","Red-naped Sapsucker","Sphyrapicus nuchalis","L46760609","White River National Forest, Rifle US-CO 39.42036, -107.77502","2025-06-03 08:56",1,39.42036,-107.775018,TRUE,FALSE,TRUE,"S246412318"
"22","rensap","Red-naped Sapsucker","Sphyrapicus nuchalis","L2932669","Catherine Creek State Park","2025-06-03 08:55",1,45.1512571,-117.7369165,TRUE,FALSE,FALSE,"S246428595"
"23","rensap","Red-naped Sapsucker","Sphyrapicus nuchalis","L1008375","Spearfish Canyon--Roughlock Falls","2025-06-03 08:50",2,44.3506788,-103.9417036,TRUE,FALSE,FALSE,"S246380289"
"24","rensap","Red-naped Sapsucker","Sphyrapicus nuchalis","L292948","Taneum Road","2025-06-03 08:36",1,47.1135549,-120.7995801,TRUE,FALSE,FALSE,"S246353029"
"25","rensap","Red-naped Sapsucker","Sphyrapicus nuchalis","L45243437","Ladyslipper","2025-06-03 08:17",1,43.568622,-111.100065,TRUE,FALSE,TRUE,"S246325890"
"26","rensap","Red-naped Sapsucker","Sphyrapicus nuchalis","L20441807","Brush Creek Cabin","2025-06-03 08:13",1,39.332454,-107.840987,TRUE,FALSE,TRUE,"S246446895"
"27","rensap","Red-naped Sapsucker","Sphyrapicus nuchalis","L6072439","Big Meadows Reservoir","2025-06-03 07:25",1,37.5382651,-106.8033528,TRUE,FALSE,FALSE,"S246326209"
"28","rensap","Red-naped Sapsucker","Sphyrapicus nuchalis","L13128071","Lander Trail New Fork River Crossing Historical Park","2025-06-03 07:18",1,42.6142412,-109.8553321,TRUE,FALSE,FALSE,"S246368490"
"29","rensap","Red-naped Sapsucker","Sphyrapicus nuchalis","L2191787","Glen Lake Rotary Park--Trails east of the river","2025-06-03 07:14",1,45.7062552,-111.0325441,TRUE,FALSE,FALSE,"S246299542"
"30","rensap","Red-naped Sapsucker","Sphyrapicus nuchalis","L8646579","Home","2025-06-03 07:10",1,39.2280075,-106.9321307,TRUE,FALSE,TRUE,"S246261963"
"31","rensap","Red-naped Sapsucker","Sphyrapicus nuchalis","L978821","Bridger-Teton NF--Cache Creek Canyon","2025-06-03 07:00",1,43.4650366,-110.7306433,TRUE,FALSE,FALSE,"S246409004"
"32","rensap","Red-naped Sapsucker","Sphyrapicus nuchalis","L2327189","Rocky Mountain Biological Laboratory","2025-06-03 06:36",2,38.9572308,-106.9891119,TRUE,FALSE,FALSE,"S246451380"
"33","rensap","Red-naped Sapsucker","Sphyrapicus nuchalis","L44554675","4 way intersection","2025-06-03 06:31",1,47.914091,-108.511335,TRUE,FALSE,TRUE,"S246251999"
"34","rensap","Red-naped Sapsucker","Sphyrapicus nuchalis","L24394157","Lof Way, Private Residence, Clark, Colorado, US","2025-06-03 06:06",2,40.8534018,-106.9700294,TRUE,FALSE,TRUE,"S246297694"
"35","rensap","Red-naped Sapsucker","Sphyrapicus nuchalis","L46732848","731 Washington Ave N, Ketchum US-ID 43.68256, -114.36842","2025-06-03 05:48",1,43.682564,-114.368419,TRUE,FALSE,TRUE,"S246284674"
"36","rensap","Red-naped Sapsucker","Sphyrapicus nuchalis","L2885137","Howell Canyon Rd.","2025-06-03 05:41",1,42.3364393,-113.5582924,TRUE,FALSE,FALSE,"S246308470"
"37","rensap","Red-naped Sapsucker","Sphyrapicus nuchalis","L32168511","Bridger-Teton NF—Bailey Trail","2025-06-03 05:10",1,43.086694,-110.464724,TRUE,FALSE,TRUE,"S246444764"
"38","rensap","Red-naped Sapsucker","Sphyrapicus nuchalis","L46728183","Rattlesnake Road","2025-06-03 04:49",1,43.7236838,-118.8015899,TRUE,FALSE,TRUE,"S246259251"
"39","rensap","Red-naped Sapsucker","Sphyrapicus nuchalis","L46709295","Big Ridge 25-INC Trail, Salina US-UT (39.0031,-111.3803)","2025-06-02 21:11",1,39.003068,-111.380294,TRUE,FALSE,TRUE,"S246160965"
"40","rensap","Red-naped Sapsucker","Sphyrapicus nuchalis","L4687291","Lump Gulch Informal Camp Ground","2025-06-02 20:19",1,46.486456,-112.0458269,TRUE,FALSE,TRUE,"S246158954"
"41","rensap","Red-naped Sapsucker","Sphyrapicus nuchalis","L32226971","Wayne's House","2025-06-02 19:59",1,48.8569839,-114.926174,TRUE,FALSE,TRUE,"S246153008"
"42","rensap","Red-naped Sapsucker","Sphyrapicus nuchalis","L982925","Brockman's Hummingbird Feeding Station","2025-06-02 18:34",1,42.2188,-114.37586,TRUE,FALSE,FALSE,"S246154633"
"43","rensap","Red-naped Sapsucker","Sphyrapicus nuchalis","L20286561","Salmon Fly Campground","2025-06-02 17:43",2,45.6248975,-112.6879763,TRUE,FALSE,FALSE,"S246128582"
"44","rensap","Red-naped Sapsucker","Sphyrapicus nuchalis","L3865132","Cooke Canyon","2025-06-02 17:40",1,47.0824773,-120.3858608,TRUE,FALSE,FALSE,"S246460724"
"45","rensap","Red-naped Sapsucker","Sphyrapicus nuchalis","L46710744","Pullout Before Fish Hatchery","2025-06-02 15:52",1,40.700078,-105.704996,TRUE,FALSE,TRUE,"S246168109"
"46","rensap","Red-naped Sapsucker","Sphyrapicus nuchalis","L982736","Wallowa Lake SP","2025-06-02 15:10",1,45.2814092,-117.2131348,TRUE,FALSE,FALSE,"S246106660"
"47","rensap","Red-naped Sapsucker","Sphyrapicus nuchalis","L4716847","Kent's Lake Road (Kent's Lake)","2025-06-02 15:00",1,38.24681,-112.47378,TRUE,FALSE,TRUE,"S246163252"
"48","rensap","Red-naped Sapsucker","Sphyrapicus nuchalis","L5088647","Skookum Creek Campground","2025-06-02 14:39",1,48.29439,-117.22768,TRUE,FALSE,FALSE,"S246145341"
"49","rensap","Red-naped Sapsucker","Sphyrapicus nuchalis","L13453149","eagle pass trail","2025-06-02 14:30",1,47.4425085,-114.0951227,TRUE,FALSE,TRUE,"S246105584"
"50","rensap","Red-naped Sapsucker","Sphyrapicus nuchalis","L46705872","Cunningham Gulch Road, Silverton","2025-06-02 14:22",1,37.8341214,-107.5939684,TRUE,FALSE,TRUE,"S246144452"
"51","rensap","Red-naped Sapsucker","Sphyrapicus nuchalis","L2271195","Staunton SP (Jefferson Co)","2025-06-02 13:50",1,39.5174412,-105.3884554,TRUE,FALSE,FALSE,"S246170886"
"52","rensap","Red-naped Sapsucker","Sphyrapicus nuchalis","L3015768","NF-290--north end","2025-06-02 13:26",1,43.0117734,-120.8060932,TRUE,FALSE,FALSE,"S246139167"
"53","rensap","Red-naped Sapsucker","Sphyrapicus nuchalis","L2256829","Ponderosa State Park--North Beach Unit","2025-06-02 13:22",1,44.9943956,-116.0644412,TRUE,FALSE,FALSE,"S246051914"
"54","rensap","Red-naped Sapsucker","Sphyrapicus nuchalis","L46672126","Prima Vista House - Estes Park","2025-06-02 13:15",1,40.325804,-105.55189,TRUE,FALSE,TRUE,"S246143934"
"55","rensap","Red-naped Sapsucker","Sphyrapicus nuchalis","L510423","Hot Sulphur Springs (town) and Pioneer Park","2025-06-02 12:55",1,40.0766266,-106.1021805,TRUE,FALSE,FALSE,"S246090846"
"56","rensap","Red-naped Sapsucker","Sphyrapicus nuchalis","L12917991","5 Wild Horse Trail, Sandpoint US-ID 48.37339, -116.45586","2025-06-02 12:54",1,48.373386,-116.455856,TRUE,FALSE,TRUE,"S246047955"
"57","rensap","Red-naped Sapsucker","Sphyrapicus nuchalis","L439026","Kelly Island Trails","2025-06-02 12:07",1,46.8628907,-114.0966225,TRUE,FALSE,FALSE,"S246030105"
"58","rensap","Red-naped Sapsucker","Sphyrapicus nuchalis","L46702340","Unnamed Road, Council, Idaho, US (45.02, -116.603)","2025-06-02 12:06",1,45.0204056,-116.6034642,TRUE,FALSE,TRUE,"S246123872"
"59","rensap","Red-naped Sapsucker","Sphyrapicus nuchalis","L16672804","Bennett Peak CG","2025-06-02 12:01",1,41.2709647,-106.5904686,TRUE,FALSE,FALSE,"S246043427"
"60","rensap","Red-naped Sapsucker","Sphyrapicus nuchalis","L109291","Box Canyon Falls Park","2025-06-02 11:45",1,38.0178885,-107.6781124,TRUE,FALSE,FALSE,"S246112212"
"61","rensap","Red-naped Sapsucker","Sphyrapicus nuchalis","L1235919","Triple Tree Trail","2025-06-02 11:20",1,45.6111705,-111.0013533,TRUE,FALSE,FALSE,"S246032864"
"62","rensap","Red-naped Sapsucker","Sphyrapicus nuchalis","L6124281","Falls Campground","2025-06-02 11:06",1,43.4326331,-111.3624973,TRUE,FALSE,FALSE,"S246144911"
"63","rensap","Red-naped Sapsucker","Sphyrapicus nuchalis","L9683092","Turnbull NWR--Auto Tour Route","2025-06-02 10:57",1,47.4262878,-117.5384159,TRUE,FALSE,FALSE,"S246065725"
"64","rensap","Red-naped Sapsucker","Sphyrapicus nuchalis","L34569031","Corral Creek","2025-06-02 10:41",1,41.2598441,-106.5739146,TRUE,FALSE,TRUE,"S246043184"
"65","rensap","Red-naped Sapsucker","Sphyrapicus nuchalis","L33184063","Cedar Creek","2025-06-02 09:53",1,48.5804467,-120.4792324,TRUE,FALSE,FALSE,"S246105901"
"66","rensap","Red-naped Sapsucker","Sphyrapicus nuchalis","L25734690","Little Bear Road (to FS gate)","2025-06-02 09:43",2,45.5330691,-111.1571422,TRUE,FALSE,FALSE,"S246081296"
"67","rensap","Red-naped Sapsucker","Sphyrapicus nuchalis","L2840761","River's Edge Park","2025-06-02 09:39",1,48.3745537,-114.1740417,TRUE,FALSE,FALSE,"S245979254"
"68","rensap","Red-naped Sapsucker","Sphyrapicus nuchalis","L46691767","Kendall skyline Road to Godman","2025-06-02 09:30",2,46.2220811,-117.7758229,TRUE,FALSE,TRUE,"S246069603"
"69","rensap","Red-naped Sapsucker","Sphyrapicus nuchalis","L7051811","Strawberry Lookout & McClellan Creek Rds","2025-06-02 09:10",1,46.4940849,-111.9000678,TRUE,FALSE,TRUE,"S246155484"
"70","rensap","Red-naped Sapsucker","Sphyrapicus nuchalis","L2199729","Glacier NP--Oxbow Trail","2025-06-02 09:00",1,48.5274056,-114.0015864,TRUE,FALSE,FALSE,"S245939746"
"71","rensap","Red-naped Sapsucker","Sphyrapicus nuchalis","L4620308","Scout Mountain Campground","2025-06-02 08:49",1,42.6953885,-112.3596802,TRUE,FALSE,FALSE,"S246263236"
"72","rensap","Red-naped Sapsucker","Sphyrapicus nuchalis","L7709925","Beaver Ranch Park","2025-06-02 08:49",1,39.5064701,-105.2983205,TRUE,FALSE,FALSE,"S245986692"
"73","rensap","Red-naped Sapsucker","Sphyrapicus nuchalis","L46677683","Beaver Ranch Park","2025-06-02 08:45",1,39.505807,-105.30137,TRUE,FALSE,TRUE,"S246003921"
"74","rensap","Red-naped Sapsucker","Sphyrapicus nuchalis","L1173410","Ducks Unlimited Warm Springs Ponds","2025-06-02 08:28",2,46.1809001,-112.8020382,TRUE,FALSE,FALSE,"S246146192"
"75","rensap","Red-naped Sapsucker","Sphyrapicus nuchalis","L15027503","Blackfoot-Clearwater WMA","2025-06-02 08:06",1,47.0087353,-113.3824353,TRUE,FALSE,FALSE,"S245947269"
"76","rensap","Red-naped Sapsucker","Sphyrapicus nuchalis","L9008781","Game Creek","2025-06-02 08:01",2,43.4112512,-110.710051,TRUE,FALSE,TRUE,"S246068471"
"77","rensap","Red-naped Sapsucker","Sphyrapicus nuchalis","L46674633","Fourmile-East Divide Trail, Glenwood Springs US-CO 39.39221, -107.39066","2025-06-02 07:50",5,39.392213,-107.390656,TRUE,FALSE,TRUE,"S245990475"
"78","rensap","Red-naped Sapsucker","Sphyrapicus nuchalis","L4654624","Little Wenatchee River Road","2025-06-02 07:35",2,47.846903,-120.8375883,TRUE,FALSE,FALSE,"S246043537"
"79","rensap","Red-naped Sapsucker","Sphyrapicus nuchalis","L906119","Bannack SP","2025-06-02 07:24",2,45.1618835,-112.9987031,TRUE,FALSE,FALSE,"S246077519"
"80","rensap","Red-naped Sapsucker","Sphyrapicus nuchalis","L11684217","Sylvan Bay","2025-06-02 06:44",1,42.95189,-109.781986,TRUE,FALSE,TRUE,"S246038772"
"81","rensap","Red-naped Sapsucker","Sphyrapicus nuchalis","L11704704","Custer SP--Little Devil's Tower Trail 4","2025-06-02 06:32",1,43.8475603,-103.5436726,TRUE,FALSE,FALSE,"S245986339"
"82","rensap","Red-naped Sapsucker","Sphyrapicus nuchalis","L3565964","MPG Ranch--Clubhouse Floodplain (restricted access)","2025-06-02 06:30",2,46.6929895,-114.0447164,TRUE,FALSE,FALSE,"S246005895"
"83","rensap","Red-naped Sapsucker","Sphyrapicus nuchalis","L553399","Depuy's Breach Dam","2025-06-02 06:21",1,45.5803087,-110.577575,TRUE,FALSE,TRUE,"S245968223"
"84","rensap","Red-naped Sapsucker","Sphyrapicus nuchalis","L46742148","Moon Lake Group Camp B","2025-06-02 05:23",1,40.568397,-110.505117,TRUE,FALSE,TRUE,"S246328299"
"85","rensap","Red-naped Sapsucker","Sphyrapicus nuchalis","L32869112","Upper Hoback River Rd—Uppermost Reaches","2025-06-02 05:20",1,43.038711,-110.489107,TRUE,FALSE,TRUE,"S246071869"
"86","rensap","Red-naped Sapsucker","Sphyrapicus nuchalis","L29561834","1655 Montford Rd, Kalispell US-MT 48.16728, -114.19935","2025-06-01 19:49",1,48.16728,-114.199353,TRUE,FALSE,TRUE,"S245775358"
"87","rensap","Red-naped Sapsucker","Sphyrapicus nuchalis","L46656980","Deadline Ridge, Idaho, US (42.152, -114.282)","2025-06-01 19:36",4,42.1523913,-114.2823781,TRUE,FALSE,TRUE,"S245905744"
"88","rensap","Red-naped Sapsucker","Sphyrapicus nuchalis","L22923422","Yard","2025-06-01 19:10",1,37.396607,-107.84097,TRUE,FALSE,TRUE,"S245757373"
"89","rensap","Red-naped Sapsucker","Sphyrapicus nuchalis","L7442093","Lower South Crestone Creek Trail","2025-06-01 18:59",1,37.9853735,-105.6798935,TRUE,FALSE,FALSE,"S245760496"
"90","rensap","Red-naped Sapsucker","Sphyrapicus nuchalis","L46657302","Deadline Ridge, Idaho, US (42.166, -114.277)","2025-06-01 18:43",2,42.1656796,-114.2773455,TRUE,FALSE,TRUE,"S245907332"
"91","rensap","Red-naped Sapsucker","Sphyrapicus nuchalis","L46685501","Grizzly Creek Trail, Bondurant US-WY (43.0314,-110.5322)","2025-06-01 18:38",1,43.031437,-110.532157,TRUE,FALSE,TRUE,"S246038693"
"92","rensap","Red-naped Sapsucker","Sphyrapicus nuchalis","L46672974","Mirror lake highway, pull out spot","2025-06-01 18:20",2,40.8450013,-110.8465186,TRUE,FALSE,TRUE,"S245983471"
"93","rensap","Red-naped Sapsucker","Sphyrapicus nuchalis","L26029551","55 Lump Gulch Road, Clancy, Montana, US (46.487, -112.045)","2025-06-01 18:02",1,46.4866818,-112.0446287,TRUE,FALSE,TRUE,"S245740478"
"94","rensap","Red-naped Sapsucker","Sphyrapicus nuchalis","L11742415","Piper Creek, Swan Valley, Montana","2025-06-01 15:44",1,47.671837,-113.818221,TRUE,FALSE,TRUE,"S246386144"
"95","rensap","Red-naped Sapsucker","Sphyrapicus nuchalis","L28099259","Road 779","2025-06-01 15:30",1,39.6743407,-106.5365514,TRUE,FALSE,TRUE,"S245752123"
"96","rensap","Red-naped Sapsucker","Sphyrapicus nuchalis","L2990483","Travelers Rest SP","2025-06-01 15:19",1,46.7496534,-114.0872455,TRUE,FALSE,FALSE,"S245692432"
"97","rensap","Red-naped Sapsucker","Sphyrapicus nuchalis","L46519479","1360 County Road 53, Granby, Colorado, US (39.987, -105.93)","2025-06-01 14:12",1,39.9869944,-105.9295649,TRUE,FALSE,TRUE,"S245648206"
"98","rensap","Red-naped Sapsucker","Sphyrapicus nuchalis","L388970","Umptanum Road (Kittitas Co.)","2025-06-01 14:11",1,46.9117689,-120.6026745,TRUE,FALSE,FALSE,"S245727006"
"99","rensap","Red-naped Sapsucker","Sphyrapicus nuchalis","L7529941","Upper Hoback Rd (Forest Rd 30700)","2025-06-01 14:04",2,43.123897,-110.420242,TRUE,FALSE,FALSE,"S246038887"
"100","rensap","Red-naped Sapsucker","Sphyrapicus nuchalis","L9408142","Craig Mountain WMA--Benton Meadows","2025-06-01 13:45",1,46.1248672,-116.8108402,TRUE,FALSE,FALSE,"S245728693"
"101","rensap","Red-naped Sapsucker","Sphyrapicus nuchalis","L912702","Vigilante Campground","2025-06-01 13:10",1,46.7662647,-111.6502762,TRUE,FALSE,FALSE,"S245671898"
"102","rensap","Red-naped Sapsucker","Sphyrapicus nuchalis","L19311095","Ferndale Road--SE of Vega SP","2025-06-01 13:00",1,39.2116668,-107.7689191,TRUE,FALSE,FALSE,"S245697556"
"103","rensap","Red-naped Sapsucker","Sphyrapicus nuchalis","L6007242","908 S Adams Ave, Red Lodge US-MT (45.1772,-109.2503)","2025-06-01 12:57",1,45.177242,-109.25026,TRUE,FALSE,TRUE,"S245684239"
"104","rensap","Red-naped Sapsucker","Sphyrapicus nuchalis","L746456","Lake Coeur d'Alene--Mica Bay","2025-06-01 12:50",1,47.5975109,-116.858139,TRUE,FALSE,FALSE,"S245757746"
"105","rensap","Red-naped Sapsucker","Sphyrapicus nuchalis","L34218497","Summer Home","2025-06-01 10:59",1,45.12946,-115.324276,TRUE,FALSE,TRUE,"S245565669"
"106","rensap","Red-naped Sapsucker","Sphyrapicus nuchalis","L14735981","Cle Elum Boat Launch","2025-06-01 10:45",1,47.1714526,-120.8576775,TRUE,FALSE,FALSE,"S245602513"
"107","rensap","Red-naped Sapsucker","Sphyrapicus nuchalis","L587909","Rocky Mountain NP--Alluvial Fan/Fan Lake area","2025-06-01 10:33",1,40.4102611,-105.6351221,TRUE,FALSE,FALSE,"S245782577"
"108","rensap","Red-naped Sapsucker","Sphyrapicus nuchalis","L4477759","McCarthy Crk Res.  Boulder MT - 46.233x-112.057 ","2025-06-01 10:32",1,46.2328733,-112.0567444,TRUE,FALSE,TRUE,"S245575610"
"109","rensap","Red-naped Sapsucker","Sphyrapicus nuchalis","L661934","Pearrygin Lake SP","2025-06-01 10:26",1,48.4927198,-120.1521492,TRUE,FALSE,FALSE,"S245637779"
"110","rensap","Red-naped Sapsucker","Sphyrapicus nuchalis","L2353750","Power Park","2025-06-01 10:25",1,46.907058,-113.967537,TRUE,FALSE,FALSE,"S245593091"
"111","rensap","Red-naped Sapsucker","Sphyrapicus nuchalis","L19518037","Camas Creek Rd - FS 7200-122","2025-06-01 10:10",1,47.4660261,-120.5798534,TRUE,FALSE,TRUE,"S245712793"
"112","rensap","Red-naped Sapsucker","Sphyrapicus nuchalis","L15242365","Moose Creek Road--Upper","2025-06-01 10:09",1,45.7419553,-112.6734135,TRUE,FALSE,TRUE,"S245737929"
"113","rensap","Red-naped Sapsucker","Sphyrapicus nuchalis","L6456303","2663 Selkirk Rd, Sandpoint US-ID (48.3929,-116.4798)","2025-06-01 10:00",1,48.392895,-116.47976,TRUE,FALSE,TRUE,"S245905456"
"114","rensap","Red-naped Sapsucker","Sphyrapicus nuchalis","L9799136","American Legion Park","2025-06-01 09:58",1,42.867314,-109.868476,TRUE,FALSE,FALSE,"S245557795"
"115","rensap","Red-naped Sapsucker","Sphyrapicus nuchalis","L2944546","Vega State Park","2025-06-01 09:50",1,39.2137018,-107.8002548,TRUE,FALSE,TRUE,"S245759922"
"116","rensap","Red-naped Sapsucker","Sphyrapicus nuchalis","L1371380","Mount Ellis North Flank","2025-06-01 09:50",1,45.6248332,-110.9620242,TRUE,FALSE,FALSE,"S245605082"
"117","rensap","Red-naped Sapsucker","Sphyrapicus nuchalis","L5616274","Lolo Pass Visitor Center Area","2025-06-01 09:43",2,46.6352474,-114.5802116,TRUE,FALSE,FALSE,"S245656982"
"118","rensap","Red-naped Sapsucker","Sphyrapicus nuchalis","L20584519","Pacheco Canyon","2025-06-01 09:19",1,35.7842821,-105.8853437,TRUE,FALSE,TRUE,"S245528848"
"119","rensap","Red-naped Sapsucker","Sphyrapicus nuchalis","L19406587","White Bridge Road, Boulder, Montana, US (46.175, -112.03)","2025-06-01 09:04",1,46.1749718,-112.0295828,TRUE,FALSE,TRUE,"S245529586"
"120","rensap","Red-naped Sapsucker","Sphyrapicus nuchalis","L24778084","Black Rock Desert—Frog Pond","2025-06-01 09:00",1,40.745908,-119.170822,TRUE,FALSE,TRUE,"S245769529"
"121","rensap","Red-naped Sapsucker","Sphyrapicus nuchalis","L575126","Pueblo Mountain Park","2025-06-01 08:56",1,38.0463506,-105.0026894,TRUE,FALSE,FALSE,"S245563081"
"122","rensap","Red-naped Sapsucker","Sphyrapicus nuchalis","L6136876","Rocky Mountain NP--Endovalley Picnic Area","2025-06-01 08:50",1,40.4133327,-105.6588435,TRUE,FALSE,FALSE,"S245707344"
"123","rensap","Red-naped Sapsucker","Sphyrapicus nuchalis","L46581322","Forest Service Guard Starion, Bondurant US-WY 43.21663, -110.42197","2025-06-01 08:48",5,43.216633,-110.421974,TRUE,FALSE,TRUE,"S245545777"
"124","rensap","Red-naped Sapsucker","Sphyrapicus nuchalis","L1112229","Jelm Access Area","2025-06-01 08:47",1,41.0794644,-106.0121387,TRUE,FALSE,FALSE,"S245514280"
"125","rensap","Red-naped Sapsucker","Sphyrapicus nuchalis","L46700594","Rudeen Ranch (Private Property)","2025-06-01 08:38",1,42.676217,-112.748378,TRUE,FALSE,TRUE,"S246114490"
"126","rensap","Red-naped Sapsucker","Sphyrapicus nuchalis","L19942336","Newhall Property, 59715, Bozeman US-MT 45.73619, -110.93420","2025-06-01 08:37",2,45.736187,-110.934205,TRUE,FALSE,TRUE,"S245561830"
"127","rensap","Red-naped Sapsucker","Sphyrapicus nuchalis","L32802593","Rocky Mountain Mennonite Camp","2025-06-01 08:35",2,38.891139,-105.13679,TRUE,FALSE,TRUE,"S245495377"
"128","rensap","Red-naped Sapsucker","Sphyrapicus nuchalis","L439024","Maclay Flat Rec. Area","2025-06-01 08:34",1,46.8356532,-114.103961,TRUE,FALSE,FALSE,"S245536356"
"129","rensap","Red-naped Sapsucker","Sphyrapicus nuchalis","L46606322","5731 West 7800 North, Smithfield, Utah, US (41.876, -111.979)","2025-06-01 08:29",1,41.8760781,-111.9793548,TRUE,FALSE,TRUE,"S245649236"
"130","rensap","Red-naped Sapsucker","Sphyrapicus nuchalis","L15397799","Apgar Village, Glacier NP","2025-06-01 08:22",2,48.526756,-113.993933,TRUE,FALSE,FALSE,"S245504625"
"131","rensap","Red-naped Sapsucker","Sphyrapicus nuchalis","L1532005","Cut Off Rd.","2025-06-01 08:05",1,46.918134,-113.0035627,TRUE,FALSE,FALSE,"S245642299"
"132","rensap","Red-naped Sapsucker","Sphyrapicus nuchalis","L955859","Grand Teton NP--Christian Pond","2025-06-01 08:00",1,43.8759247,-110.565784,TRUE,FALSE,FALSE,"S245754529"
"133","rensap","Red-naped Sapsucker","Sphyrapicus nuchalis","L46588284","W Cow Creek, Hamilton US-MT","2025-06-01 07:49",1,46.322034,-114.229044,TRUE,FALSE,TRUE,"S245574738"
"134","rensap","Red-naped Sapsucker","Sphyrapicus nuchalis","L37144993","Prospector trail, east segment, Clark, Colorado, US (40.842, -106.968)","2025-06-01 07:47",5,40.8418452,-106.967954,TRUE,FALSE,TRUE,"S245575189"
"135","rensap","Red-naped Sapsucker","Sphyrapicus nuchalis","L46417277","973 West Cow Creek Road, Hamilton, Montana, US (46.322, -114.229)","2025-06-01 07:45",2,46.32212,-114.2290073,TRUE,FALSE,TRUE,"S245572884"
"136","rensap","Red-naped Sapsucker","Sphyrapicus nuchalis","L9439457","Clearwater River Hiking and Canoe Trails","2025-06-01 07:42",4,47.2159591,-113.5265333,TRUE,FALSE,FALSE,"S245674261"
"137","rensap","Red-naped Sapsucker","Sphyrapicus nuchalis","L46665878","Cow Creek, Steamboat Springs US-CO 40.42748, -106.89533","2025-06-01 07:28",1,40.427478,-106.895327,TRUE,FALSE,TRUE,"S245949047"
"138","rensap","Red-naped Sapsucker","Sphyrapicus nuchalis","L46582891","5295 Lavoie Ln, Missoula US-MT 46.92085, -114.18718","2025-06-01 07:25",2,46.920849,-114.187182,TRUE,FALSE,TRUE,"S245552420"
"139","rensap","Red-naped Sapsucker","Sphyrapicus nuchalis","L46569178","McGinnis Creek Road, Columbia Falls US-MT 48.52523, -114.15820","2025-06-01 07:20",1,48.525231,-114.158199,TRUE,FALSE,TRUE,"S245492597"
"140","rensap","Red-naped Sapsucker","Sphyrapicus nuchalis","L555865","Grand Teton NP--Teton Science School","2025-06-01 07:15",1,43.6700291,-110.5983031,TRUE,FALSE,FALSE,"S245517553"
"141","rensap","Red-naped Sapsucker","Sphyrapicus nuchalis","L2496903","Rist Canyon Rd--mile 9 to Stove Prairie Rd","2025-06-01 07:06",2,40.6235148,-105.3312144,TRUE,FALSE,FALSE,"S245722517"
"142","rensap","Red-naped Sapsucker","Sphyrapicus nuchalis","L4083740","Collins' feeders","2025-06-01 07:05",1,45.6589988,-111.1674001,TRUE,FALSE,TRUE,"S245435383"
"143","rensap","Red-naped Sapsucker","Sphyrapicus nuchalis","L46598584","Race start","2025-06-01 07:05",1,44.235474,-103.797668,TRUE,FALSE,TRUE,"S245618079"
"144","rensap","Red-naped Sapsucker","Sphyrapicus nuchalis","L2514380","Rockefeller Preserve","2025-06-01 06:59",1,43.6275643,-110.7754469,TRUE,FALSE,FALSE,"S245614647"
"145","rensap","Red-naped Sapsucker","Sphyrapicus nuchalis","L5827589","Indian Creek","2025-06-01 06:59",2,38.9777936,-105.2630782,TRUE,FALSE,TRUE,"S245505833"
"146","rensap","Red-naped Sapsucker","Sphyrapicus nuchalis","L15651815","55 Myer Creek Road, Twisp, Washington, US (48.388, -120.255)","2025-06-01 06:50",2,48.3878416,-120.2554662,TRUE,FALSE,TRUE,"S245495064"
"147","rensap","Red-naped Sapsucker","Sphyrapicus nuchalis","L7455969","Deayne Ranch","2025-06-01 06:45",1,45.9615323,-113.0497456,TRUE,FALSE,TRUE,"S246077367"
"148","rensap","Red-naped Sapsucker","Sphyrapicus nuchalis","L191057","Rocky Mountain NP--Cow Creek","2025-06-01 06:33",2,40.42682,-105.524994,TRUE,FALSE,FALSE,"S245614502"
"149","rensap","Red-naped Sapsucker","Sphyrapicus nuchalis","L9642805","North Michigan Creek Reservoir","2025-06-01 06:31",1,40.5539892,-105.99999,TRUE,FALSE,FALSE,"S245717573"
"150","rensap","Red-naped Sapsucker","Sphyrapicus nuchalis","L28235628","Pioneer Park and CG","2025-06-01 06:10",1,40.0742212,-106.1094221,TRUE,FALSE,FALSE,"S245468775"
"151","rensap","Red-naped Sapsucker","Sphyrapicus nuchalis","L46604404","Granite Creek Trailhead Area","2025-06-01 06:02",3,43.349322,-110.437074,TRUE,FALSE,TRUE,"S245641674"
"152","rensap","Red-naped Sapsucker","Sphyrapicus nuchalis","L46633849","Grand Mesa Uncompahgre and Gunnison National Forests, Gunnison US-CO 38.34912, -106.82001","2025-06-01 06:02",1,38.349116,-106.820007,TRUE,FALSE,TRUE,"S245781949"
"153","rensap","Red-naped Sapsucker","Sphyrapicus nuchalis","L2689078","Red Rock Lakes NWR--Lakeview","2025-06-01 06:00",1,44.6009393,-111.810565,TRUE,FALSE,FALSE,"S246079391"
"154","rensap","Red-naped Sapsucker","Sphyrapicus nuchalis","L4146099","Anaconda, MT Sunnyside Road","2025-06-01 05:56",3,46.1229563,-112.9839788,TRUE,FALSE,TRUE,"S245615805"
"155","rensap","Red-naped Sapsucker","Sphyrapicus nuchalis","L46624715","Corral Creek Campground","2025-06-01 05:40",2,41.260735,-106.573769,TRUE,FALSE,TRUE,"S245737192"
"156","rensap","Red-naped Sapsucker","Sphyrapicus nuchalis","L211505","Red Rock Lakes NWR--Upper","2025-06-01 05:23",2,44.591557,-111.7328195,TRUE,FALSE,FALSE,"S245521777"
"157","rensap","Red-naped Sapsucker","Sphyrapicus nuchalis","L46332737","Granite Creek - Highline Trailhead Area","2025-06-01 05:20",2,43.348395,-110.441087,TRUE,FALSE,TRUE,"S245707317"
"158","rensap","Red-naped Sapsucker","Sphyrapicus nuchalis","L31869069","Upper Cliff Creek Rd","2025-06-01 05:10",2,43.184417,-110.517736,TRUE,FALSE,TRUE,"S245653403"
"159","rensap","Red-naped Sapsucker","Sphyrapicus nuchalis","L24114705","Jerry's Haven trail","2025-06-01 04:52",1,41.180243,-105.2439379,TRUE,FALSE,TRUE,"S245427456"
"160","rensap","Red-naped Sapsucker","Sphyrapicus nuchalis","L46606896","Augusta Ranger Station Road","2025-05-31 20:30",1,47.462975,-112.717355,TRUE,FALSE,TRUE,"S245651662"
"161","rensap","Red-naped Sapsucker","Sphyrapicus nuchalis","L46522150","24024 US-16, Hill City US-SD 43.92502, -103.57934","2025-05-31 20:19",1,43.925023,-103.579342,TRUE,FALSE,TRUE,"S245262744"
"162","rensap","Red-naped Sapsucker","Sphyrapicus nuchalis","L46523797","8 Dreamcatcher, Red Lodge, Montana, US (45.261, -109.226)","2025-05-31 20:18",1,45.2610807,-109.2255845,TRUE,FALSE,TRUE,"S245269937"
"163","rensap","Red-naped Sapsucker","Sphyrapicus nuchalis","L1741281","Rocky Mountain NP--Moraine Park Visitor Center","2025-05-31 19:12",1,40.3583447,-105.5830658,TRUE,FALSE,FALSE,"S245254553"
"164","rensap","Red-naped Sapsucker","Sphyrapicus nuchalis","L31416655","Randall reservoir Taos New Mexico","2025-05-31 17:40",1,36.3800793,-105.5624372,TRUE,FALSE,TRUE,"S245241628"
"165","rensap","Red-naped Sapsucker","Sphyrapicus nuchalis","L20378120","Upper Rio Peñasco","2025-05-31 17:21",1,32.829461,-105.772547,TRUE,FALSE,TRUE,"S245405939"
"166","rensap","Red-naped Sapsucker","Sphyrapicus nuchalis","L7666349","Snowmass Village--Ditch Trail","2025-05-31 16:10",2,39.2049065,-106.971463,TRUE,FALSE,FALSE,"S245215227"
"167","rensap","Red-naped Sapsucker","Sphyrapicus nuchalis","L870372","Great Basin NP--Strawberry Creek","2025-05-31 15:32",3,39.0525183,-114.3123901,TRUE,FALSE,FALSE,"S245207664"
"168","rensap","Red-naped Sapsucker","Sphyrapicus nuchalis","L4292444","Chief Looking Glass FAS","2025-05-31 15:28",1,46.6618638,-114.0541577,TRUE,FALSE,FALSE,"S245197220"
"169","rensap","Red-naped Sapsucker","Sphyrapicus nuchalis","L46508850","Hyde Park Rd Meteor Impact Pulloff","2025-05-31 14:49",1,35.728331,-105.862198,TRUE,FALSE,TRUE,"S245201270"
"170","rensap","Red-naped Sapsucker","Sphyrapicus nuchalis","L29607806","Grasshopper Subdivision - General","2025-05-31 14:32",3,45.4175405,-113.1012213,TRUE,FALSE,TRUE,"S245230964"
"171","rensap","Red-naped Sapsucker","Sphyrapicus nuchalis","L46682136","Beaver ponds before Hart Lake","2025-05-31 13:59",2,48.212922,-120.832706,TRUE,FALSE,TRUE,"S246023508"
"172","rensap","Red-naped Sapsucker","Sphyrapicus nuchalis","L46516675","Deer Spring","2025-05-31 13:57",1,38.366022,-109.223882,TRUE,FALSE,TRUE,"S245237013"
"173","rensap","Red-naped Sapsucker","Sphyrapicus nuchalis","L5923775","Mesa Nature Trail","2025-05-31 13:47",2,44.18411,-111.322006,TRUE,FALSE,FALSE,"S245167335"
"174","rensap","Red-naped Sapsucker","Sphyrapicus nuchalis","L37426493","Grand Teton NP--Bug Canyon and Grand View Loop","2025-05-31 12:46",1,43.903287,-110.557184,TRUE,FALSE,TRUE,"S245284612"
"175","rensap","Red-naped Sapsucker","Sphyrapicus nuchalis","L3077132","Grand Teton NP--Whitegrass Ranch/Death Canyon Burn","2025-05-31 12:01",1,43.6533107,-110.7762408,TRUE,FALSE,FALSE,"S245132825"
"176","rensap","Red-naped Sapsucker","Sphyrapicus nuchalis","L2878994","Picacho Peak Trails","2025-05-31 12:00",1,35.68248,-105.8907527,TRUE,FALSE,FALSE,"S245224439"
"177","rensap","Red-naped Sapsucker","Sphyrapicus nuchalis","L46521463","Elk Pass Trail, Augusta","2025-05-31 11:56",1,47.324895,-112.60563,TRUE,FALSE,TRUE,"S245259569"
"178","rensap","Red-naped Sapsucker","Sphyrapicus nuchalis","L19708762","Blacksnake Ridge Road, Walla Walla, Washington, US (46.024, -118.024)","2025-05-31 11:37",1,46.0240417,-118.0238518,TRUE,FALSE,TRUE,"S245241241"
"179","rensap","Red-naped Sapsucker","Sphyrapicus nuchalis","L17458633","Blacksnake Ridge Rd","2025-05-31 11:37",1,46.0796438,-118.0975146,TRUE,FALSE,FALSE,"S245241243"
"180","rensap","Red-naped Sapsucker","Sphyrapicus nuchalis","L46484801","Miller Divide Trail, Missoula US-MT 46.74385, -113.84889","2025-05-31 11:29",1,46.743852,-113.848886,TRUE,FALSE,TRUE,"S245102141"
"181","rensap","Red-naped Sapsucker","Sphyrapicus nuchalis","L1588243","Tower Street Open Space Park","2025-05-31 11:26",3,46.870963,-114.0631281,TRUE,FALSE,FALSE,"S245109768"
"182","rensap","Red-naped Sapsucker","Sphyrapicus nuchalis","L7553096","Willow Creek Horse Camp","2025-05-31 11:14",1,43.8961297,-103.5376024,TRUE,FALSE,FALSE,"S245116642"
"183","rensap","Red-naped Sapsucker","Sphyrapicus nuchalis","L46488171","Lower Boyer","2025-05-31 10:35",1,47.022793,-114.289347,TRUE,FALSE,TRUE,"S245123169"
"184","rensap","Red-naped Sapsucker","Sphyrapicus nuchalis","L46504857","Lower Houle Creek-Private","2025-05-31 10:35",1,47.0202696,-114.2880982,TRUE,FALSE,TRUE,"S245115982"
"185","rensap","Red-naped Sapsucker","Sphyrapicus nuchalis","L46492346","Miller Divide Trail, Missoula US-MT","2025-05-31 10:28",1,46.736158,-113.852084,TRUE,FALSE,TRUE,"S245133202"
"186","rensap","Red-naped Sapsucker","Sphyrapicus nuchalis","L30386918","7213–7299 W 3200 S, Rexburg US-ID 43.78262, -111.93219","2025-05-31 10:20",1,43.782623,-111.932194,TRUE,FALSE,TRUE,"S245079680"
"187","rensap","Red-naped Sapsucker","Sphyrapicus nuchalis","L46664840","Upper Salamander Flat, Provo, Utah, US (40.44, -111.627)","2025-05-31 10:11",1,40.4397062,-111.6273556,TRUE,FALSE,TRUE,"S245944269"
"188","rensap","Red-naped Sapsucker","Sphyrapicus nuchalis","L25957727","Salamander Flat Trail Head Campground","2025-05-31 10:03",1,40.439776,-111.626713,TRUE,FALSE,FALSE,"S245133063"
"189","rensap","Red-naped Sapsucker","Sphyrapicus nuchalis","L22311758","My house","2025-05-31 09:52",1,39.007319,-105.343766,TRUE,FALSE,TRUE,"S245118853"
"190","rensap","Red-naped Sapsucker","Sphyrapicus nuchalis","L46470340","Black Hills Trailside Park Resort","2025-05-31 09:51",1,43.925214,-103.578807,TRUE,FALSE,TRUE,"S245042093"
"191","rensap","Red-naped Sapsucker","Sphyrapicus nuchalis","L4337429","Bass Creek FAS","2025-05-31 09:48",1,46.568572,-114.099588,TRUE,FALSE,FALSE,"S245093053"
"192","rensap","Red-naped Sapsucker","Sphyrapicus nuchalis","L1574003","Glacier NP--Beaver Pond Loop Trail","2025-05-31 09:42",1,48.7353764,-113.4377469,TRUE,FALSE,FALSE,"S245091409"
"193","rensap","Red-naped Sapsucker","Sphyrapicus nuchalis","L562342","Biscuit Ridge Road","2025-05-31 09:41",1,46.0822806,-118.0446625,TRUE,FALSE,FALSE,"S245122567"
"194","rensap","Red-naped Sapsucker","Sphyrapicus nuchalis","L8183609","Medicine Bow NF--Little Laramie Trail System","2025-05-31 09:40",1,41.3412213,-106.1601454,TRUE,FALSE,FALSE,"S245792894"
"195","rensap","Red-naped Sapsucker","Sphyrapicus nuchalis","L2677908","Limestone Creek","2025-05-31 09:38",1,45.6042564,-110.9763911,TRUE,FALSE,TRUE,"S245134011"
"196","rensap","Red-naped Sapsucker","Sphyrapicus nuchalis","L46497461","I83 Rd, Long Gulch section, Crawford US-CO 38.49375, -107.54928","2025-05-31 09:36",1,38.493754,-107.549279,TRUE,FALSE,TRUE,"S245154433"
"197","rensap","Red-naped Sapsucker","Sphyrapicus nuchalis","L46492814","Upper Blue Creek Drainage","2025-05-31 09:27",2,46.5986346,-112.2023066,TRUE,FALSE,TRUE,"S245135098"
"198","rensap","Red-naped Sapsucker","Sphyrapicus nuchalis","L3963498","Curt Gowdy SP--Granite Springs Reservoir","2025-05-31 09:22",1,41.1774427,-105.2322757,TRUE,FALSE,FALSE,"S245072158"
"199","rensap","Red-naped Sapsucker","Sphyrapicus nuchalis","L17475975","The Ranch","2025-05-31 09:17",1,39.5788239,-105.3373371,TRUE,FALSE,TRUE,"S245050847"
"200","rensap","Red-naped Sapsucker","Sphyrapicus nuchalis","L160032","Cibola NF--Ojo Redondo Campground","2025-05-31 09:11",1,35.158367,-108.108696,TRUE,FALSE,FALSE,"S245265323"
"201","rensap","Red-naped Sapsucker","Sphyrapicus nuchalis","L15291261","Logan State Park","2025-05-31 09:10",2,48.0330004,-115.0670028,TRUE,FALSE,TRUE,"S245292873"
"202","rensap","Red-naped Sapsucker","Sphyrapicus nuchalis","L12292793","Central City Water Treatment Plant","2025-05-31 08:55",1,39.8063438,-105.5346161,TRUE,FALSE,TRUE,"S245263858"
"203","rensap","Red-naped Sapsucker","Sphyrapicus nuchalis","L6608949","Alta - Private","2025-05-31 08:42",1,43.780236,-111.032709,TRUE,FALSE,TRUE,"S245010098"
"204","rensap","Red-naped Sapsucker","Sphyrapicus nuchalis","L15836236","South Park, Wyoming, US (43.389, -110.756)","2025-05-31 08:40",1,43.3890985,-110.7563855,TRUE,FALSE,TRUE,"S245061759"
"205","rensap","Red-naped Sapsucker","Sphyrapicus nuchalis","L39787209","603 Two Creeks Dr, Snowmass Village US-CO 39.20972, -106.92404","2025-05-31 08:34",1,39.209724,-106.924044,TRUE,FALSE,TRUE,"S245005964"
"206","rensap","Red-naped Sapsucker","Sphyrapicus nuchalis","L1236887","Grand Teton NP--Emma Matilda Lake","2025-05-31 08:22",2,43.8892331,-110.531044,TRUE,FALSE,FALSE,"S245284562"
"207","rensap","Red-naped Sapsucker","Sphyrapicus nuchalis","L46488632","Lion Gulch Trail, Gunnison US-CO 38.54903, -107.22269","2025-05-31 08:22",1,38.549031,-107.222688,TRUE,FALSE,TRUE,"S245117773"
"208","rensap","Red-naped Sapsucker","Sphyrapicus nuchalis","L1626161","Umtanum Cr. trail upper end","2025-05-31 08:15",1,46.8977925,-120.6408946,TRUE,FALSE,FALSE,"S245271709"
"209","rensap","Red-naped Sapsucker","Sphyrapicus nuchalis","L1206720","Tally Lake Campground","2025-05-31 08:13",1,48.4128526,-114.5826817,TRUE,FALSE,FALSE,"S245114361"
"210","rensap","Red-naped Sapsucker","Sphyrapicus nuchalis","L6816166","Sinks Canyon SP--Fairfield Hill Trail","2025-05-31 08:05",2,42.7376402,-108.8519481,TRUE,FALSE,FALSE,"S245107109"
"211","rensap","Red-naped Sapsucker","Sphyrapicus nuchalis","L46504305","Vallecito Creek Trail","2025-05-31 08:04",1,37.4754064,-107.5479605,TRUE,FALSE,TRUE,"S245182301"
"212","rensap","Red-naped Sapsucker","Sphyrapicus nuchalis","L46422231","I83 Rd, Crawford US-CO 38.52983, -107.51962","2025-05-31 07:58",1,38.529829,-107.519618,TRUE,FALSE,TRUE,"S245152708"
"213","rensap","Red-naped Sapsucker","Sphyrapicus nuchalis","L332338","State Forest SP--Moose Visitor Center","2025-05-31 07:56",2,40.5114352,-106.0102069,TRUE,FALSE,FALSE,"S245211646"
"214","rensap","Red-naped Sapsucker","Sphyrapicus nuchalis","L32553153","York Road before Vigilante - Green-tailed Towhee Spot","2025-05-31 07:55",1,46.762927,-111.671064,TRUE,FALSE,TRUE,"S245123832"
"215","rensap","Red-naped Sapsucker","Sphyrapicus nuchalis","L983731","Difficult Campground","2025-05-31 07:50",1,39.1427759,-106.7739773,TRUE,FALSE,FALSE,"S245084585"
"216","rensap","Red-naped Sapsucker","Sphyrapicus nuchalis","L449534","Zion NP--Lava Point (NO Blue Springs Reservoir birds)","2025-05-31 07:50",3,37.383304,-113.0295539,TRUE,FALSE,FALSE,"S245260228"
"217","rensap","Red-naped Sapsucker","Sphyrapicus nuchalis","L7916323","(42.8381,-108.8155)","2025-05-31 07:48",1,42.838061,-108.815488,TRUE,FALSE,TRUE,"S245003808"
"218","rensap","Red-naped Sapsucker","Sphyrapicus nuchalis","L46476465","11599 Elk Meadows Road, Lolo, Montana, US (46.753, -114.289)","2025-05-31 07:47",1,46.7527451,-114.2890845,TRUE,FALSE,TRUE,"S245067363"
"219","rensap","Red-naped Sapsucker","Sphyrapicus nuchalis","L935839","Beaver Pond Trail (Okanogan Co.)","2025-05-31 07:46",2,48.4673444,-120.2625275,TRUE,FALSE,FALSE,"S246016530"
"220","rensap","Red-naped Sapsucker","Sphyrapicus nuchalis","L3084031","Upper Los Alamos Canyon","2025-05-31 07:40",1,35.879071,-106.3344222,TRUE,FALSE,FALSE,"S245044271"
"221","rensap","Red-naped Sapsucker","Sphyrapicus nuchalis","L32227019","Dunlap Hay Ranch","2025-05-31 07:38",2,48.752572,-114.8974534,TRUE,FALSE,TRUE,"S245036040"
"222","rensap","Red-naped Sapsucker","Sphyrapicus nuchalis","L46394829","Auto selected 47.37146, -114.25898","2025-05-31 07:32",3,47.371456,-114.258979,TRUE,FALSE,TRUE,"S245154074"
"223","rensap","Red-naped Sapsucker","Sphyrapicus nuchalis","L46602730","Big Creel Ranch (restricted access)","2025-05-31 07:12",1,46.454349,-114.14104,TRUE,FALSE,TRUE,"S245635015"
"224","rensap","Red-naped Sapsucker","Sphyrapicus nuchalis","L6008467","US-Montana-Missoula-5500 La Voie Lane - 46.921x-114.187","2025-05-31 07:03",1,46.9210234,-114.1870952,TRUE,FALSE,TRUE,"S245085816"
"225","rensap","Red-naped Sapsucker","Sphyrapicus nuchalis","L46459706","Ft Missoula Bitterroot River, Missoula, Montana, US (46.842, -114.065)","2025-05-31 07:01",NA,46.8416454,-114.064912,TRUE,FALSE,TRUE,"S244995299"
"226","rensap","Red-naped Sapsucker","Sphyrapicus nuchalis","L32683602","2977 Mittower Road, Victor, Montana, Big Creek Ranch","2025-05-31 07:00",1,46.4545167,-114.1409821,TRUE,FALSE,TRUE,"S245715947"
"227","rensap","Red-naped Sapsucker","Sphyrapicus nuchalis","L2232174","Santa Fe NF--Aspen Vista trail","2025-05-31 06:59",1,35.7653882,-105.7958722,TRUE,FALSE,FALSE,"S245008095"
"228","rensap","Red-naped Sapsucker","Sphyrapicus nuchalis","L483728","Calispell Lake","2025-05-31 06:53",1,48.2758815,-117.3339844,TRUE,FALSE,FALSE,"S245187185"
"229","rensap","Red-naped Sapsucker","Sphyrapicus nuchalis","L5913160","Little devils tower trail","2025-05-31 06:35",3,43.845092,-103.544327,TRUE,FALSE,TRUE,"S244942772"
"230","rensap","Red-naped Sapsucker","Sphyrapicus nuchalis","L46293946","Valle Grande N Tr, near Deer Trail","2025-05-31 06:32",1,36.39179,-105.299904,TRUE,FALSE,TRUE,"S244955693"
"231","rensap","Red-naped Sapsucker","Sphyrapicus nuchalis","L37998779","Tie Hack Trail, Fairplay, Colorado, US (39.185, -106.05)","2025-05-31 06:32",1,39.1850278,-106.0502657,TRUE,FALSE,TRUE,"S245025692"
"232","rensap","Red-naped Sapsucker","Sphyrapicus nuchalis","L46492147","17215 Rist Canyon Rd, Bellvue US-CO 40.62008, -105.34797","2025-05-31 06:30",2,40.620075,-105.347975,TRUE,FALSE,TRUE,"S245132313"
"233","rensap","Red-naped Sapsucker","Sphyrapicus nuchalis","L2161814","South Park Wildlife Habitat Management Area","2025-05-31 06:30",1,43.3965039,-110.7767773,TRUE,FALSE,FALSE,"S245143628"
"234","rensap","Red-naped Sapsucker","Sphyrapicus nuchalis","L46026972","Willow Creek Drive","2025-05-31 06:09",NA,46.077201,-112.901032,TRUE,FALSE,TRUE,"S245021854"
"235","rensap","Red-naped Sapsucker","Sphyrapicus nuchalis","L14573353","Zortman (town)","2025-05-31 05:58",2,47.916793,-108.523006,TRUE,FALSE,TRUE,"S244958359"
"236","rensap","Red-naped Sapsucker","Sphyrapicus nuchalis","L582649","Grand Teton NP--Phelps Lake area","2025-05-31 05:48",1,43.6430942,-110.7963467,TRUE,FALSE,FALSE,"S245102956"
"237","rensap","Red-naped Sapsucker","Sphyrapicus nuchalis","L2961895","Reuter Campground","2025-05-31 05:37",1,44.4255666,-104.4238941,TRUE,FALSE,FALSE,"S244906549"
"238","rensap","Red-naped Sapsucker","Sphyrapicus nuchalis","L738970","Mt. Spokane SP--XC Ski Trails","2025-05-31 05:25",3,47.9030449,-117.1000099,TRUE,FALSE,FALSE,"S244990545"
"239","rensap","Red-naped Sapsucker","Sphyrapicus nuchalis","L7482754","Monument Ridge--Clark Draw Rd","2025-05-31 05:20",2,43.1665938,-110.409894,TRUE,FALSE,FALSE,"S245262885"
"240","rensap","Red-naped Sapsucker","Sphyrapicus nuchalis","L7529934","Bridger-Teton NF - Horse Pasture Draw","2025-05-31 05:10",3,43.1354,-110.413629,TRUE,FALSE,TRUE,"S245710769"
"241","rensap","Red-naped Sapsucker","Sphyrapicus nuchalis","L46652195","Ochoco Ranger Station Rd.--44.39611, -120.42783","2025-05-31 05:03",1,44.396111,-120.427832,TRUE,FALSE,TRUE,"S245877719"
"242","rensap","Red-naped Sapsucker","Sphyrapicus nuchalis","L1658189","Ochoco Ranger Station","2025-05-30 18:50",1,44.396391,-120.4248582,TRUE,FALSE,FALSE,"S245880623"
"243","rensap","Red-naped Sapsucker","Sphyrapicus nuchalis","L9660609","Tenmile Environmental Trail #375","2025-05-30 18:31",1,46.5342846,-112.2487371,TRUE,FALSE,FALSE,"S244795272"
"244","rensap","Red-naped Sapsucker","Sphyrapicus nuchalis","L4785491","Glacier NP--Saint Mary Campground","2025-05-30 17:24",2,48.753709,-113.442264,TRUE,FALSE,FALSE,"S244767527"
"245","rensap","Red-naped Sapsucker","Sphyrapicus nuchalis","L46282820","Whitegrass (private)","2025-05-30 17:18",2,43.6569932,-110.7737504,TRUE,FALSE,TRUE,"S244751123"
"246","rensap","Red-naped Sapsucker","Sphyrapicus nuchalis","L376860","Three Island Crossing SP","2025-05-30 17:00",1,42.9391454,-115.3184223,TRUE,FALSE,FALSE,"S245616269"
"247","rensap","Red-naped Sapsucker","Sphyrapicus nuchalis","L807570","Rocky Mountain NP--Fall River Visitor Center area","2025-05-30 16:56",1,40.4018627,-105.5869871,TRUE,FALSE,FALSE,"S244741165"
"248","rensap","Red-naped Sapsucker","Sphyrapicus nuchalis","L7625638","Mount Roosevelt","2025-05-30 16:33",3,44.397534,-103.7556223,TRUE,FALSE,FALSE,"S244796996"
"249","rensap","Red-naped Sapsucker","Sphyrapicus nuchalis","L33087786","Home","2025-05-30 15:17",1,38.300277,-111.424452,TRUE,FALSE,TRUE,"S244714817"
"250","rensap","Red-naped Sapsucker","Sphyrapicus nuchalis","L1610140","Whitefish River Trail","2025-05-30 14:36",1,48.3883501,-114.3321571,TRUE,FALSE,FALSE,"S244746479"
"251","rensap","Red-naped Sapsucker","Sphyrapicus nuchalis","L27330243","Home *Private Property*","2025-05-30 14:13",1,39.505285,-105.523156,TRUE,FALSE,TRUE,"S244989600"
"252","rensap","Red-naped Sapsucker","Sphyrapicus nuchalis","L2879602","Larch Camp Road","2025-05-30 14:13",1,46.8163514,-113.9554397,TRUE,FALSE,FALSE,"S244702895"
"253","rensap","Red-naped Sapsucker","Sphyrapicus nuchalis","L2400030","State Forest SP--Ranger Lakes Campground area","2025-05-30 14:08",1,40.5030389,-105.9695546,TRUE,FALSE,FALSE,"S244761642"
"254","rensap","Red-naped Sapsucker","Sphyrapicus nuchalis","L1560072","Wenas--Lower Dry Creek","2025-05-30 13:36",1,46.9028178,-120.8125748,TRUE,FALSE,FALSE,"S246017661"
"255","rensap","Red-naped Sapsucker","Sphyrapicus nuchalis","L24317808","South Fork","2025-05-30 13:00",2,43.607872,-111.557979,TRUE,FALSE,TRUE,"S244781952"
"256","rensap","Red-naped Sapsucker","Sphyrapicus nuchalis","L26052222","Masonic Rd, Bridgeport US-CA 38.35375, -119.12078","2025-05-30 12:43",1,38.353747,-119.12078,TRUE,TRUE,TRUE,"S244785426"
"257","rensap","Red-naped Sapsucker","Sphyrapicus nuchalis","L46399372","Rock Creek Rd.","2025-05-30 12:10",1,44.4343359,-106.8193851,TRUE,FALSE,TRUE,"S244712652"
"258","rensap","Red-naped Sapsucker","Sphyrapicus nuchalis","L1554039","State Forest SP","2025-05-30 11:54",3,40.5509829,-106.0342026,TRUE,FALSE,FALSE,"S244650912"
"259","rensap","Red-naped Sapsucker","Sphyrapicus nuchalis","L45280700","Homestead Meadows Project Area, Colorado, US (40.325, -105.459)","2025-05-30 11:48",1,40.3250712,-105.458672,TRUE,FALSE,TRUE,"S244747815"
"260","rensap","Red-naped Sapsucker","Sphyrapicus nuchalis","L46387530","Columbine Trail, Salida US-CO 38.46335, -105.96166","2025-05-30 11:25",2,38.463345,-105.961662,TRUE,FALSE,TRUE,"S244659332"
"261","rensap","Red-naped Sapsucker","Sphyrapicus nuchalis","L7959902","Bandelier NM--Frey Trail","2025-05-30 10:54",2,35.7877636,-106.2732546,TRUE,FALSE,FALSE,"S244789865"
"262","rensap","Red-naped Sapsucker","Sphyrapicus nuchalis","L26276443","Kingston Rd","2025-05-30 10:30",2,38.9226504,-105.2387272,TRUE,FALSE,TRUE,"S245122433"
"263","rensap","Red-naped Sapsucker","Sphyrapicus nuchalis","L46376602","2430-2438 Montana 83, Montana, US (47.11, -113.43)","2025-05-30 10:26",1,47.1097233,-113.4302644,TRUE,FALSE,TRUE,"S244615239"
"264","rensap","Red-naped Sapsucker","Sphyrapicus nuchalis","L1512457","Deer Creek Road--Upper","2025-05-30 10:26",1,46.838006,-113.9087862,TRUE,FALSE,TRUE,"S244703013"
"265","rensap","Red-naped Sapsucker","Sphyrapicus nuchalis","L1766904","McCabe Lane Wetlands","2025-05-30 10:25",1,38.5157289,-106.9935485,TRUE,FALSE,FALSE,"S244634088"
"266","rensap","Red-naped Sapsucker","Sphyrapicus nuchalis","L46397486","Shoshone National Forest, Cody US-WY 44.94791, -109.72821","2025-05-30 10:13",1,44.947908,-109.728212,TRUE,FALSE,TRUE,"S244698868"
"267","rensap","Red-naped Sapsucker","Sphyrapicus nuchalis","L266043","Ponderosa SP--General","2025-05-30 09:37",1,44.9346623,-116.080558,TRUE,FALSE,FALSE,"S244762838"
"268","rensap","Red-naped Sapsucker","Sphyrapicus nuchalis","L7479631","County Road 50, Brush Creek to Spruce Camp Ground","2025-05-30 09:13",1,38.0253661,-107.1699752,TRUE,FALSE,TRUE,"S244764286"
"269","rensap","Red-naped Sapsucker","Sphyrapicus nuchalis","L1235897","Sourdough Nature Trail","2025-05-30 09:00",1,45.6398026,-111.0306966,TRUE,FALSE,FALSE,"S244614544"
"270","rensap","Red-naped Sapsucker","Sphyrapicus nuchalis","L46379835","8000 CR-317, Crested Butte US-CO 38.95614, -106.98792","2025-05-30 08:33",1,38.956141,-106.98792,TRUE,FALSE,TRUE,"S244629274"
"271","rensap","Red-naped Sapsucker","Sphyrapicus nuchalis","L4050435","Cow Creek Trail RMNP","2025-05-30 08:33",1,40.4290476,-105.5076098,TRUE,FALSE,TRUE,"S244589651"
"272","rensap","Red-naped Sapsucker","Sphyrapicus nuchalis","L46395175","N Lame Johnny Rd, Custer US-SD (43.7188,-103.4815)","2025-05-30 08:30",1,43.718799,-103.481547,TRUE,FALSE,TRUE,"S244687656"
"273","rensap","Red-naped Sapsucker","Sphyrapicus nuchalis","L598822","Little Spokane River NA--Indian Painted Rocks","2025-05-30 08:30",1,47.7819044,-117.4968481,TRUE,FALSE,FALSE,"S244647305"
"274","rensap","Red-naped Sapsucker","Sphyrapicus nuchalis","L12366931","1775 Wood Rd, Snowmass","2025-05-30 08:03",1,39.2009067,-106.9521204,TRUE,FALSE,TRUE,"S246047920"
"275","rensap","Red-naped Sapsucker","Sphyrapicus nuchalis","L9445082","Custer SP--Cathedral Spires Tr.","2025-05-30 07:59",1,43.8427005,-103.5350275,TRUE,FALSE,FALSE,"S244561596"
"276","rensap","Red-naped Sapsucker","Sphyrapicus nuchalis","L11529435","Fort Missoula grounds","2025-05-30 07:50",1,46.8435647,-114.0615454,TRUE,FALSE,TRUE,"S244619083"
"277","rensap","Red-naped Sapsucker","Sphyrapicus nuchalis","L36037268","Private","2025-05-30 07:44",1,45.82949,-109.85581,TRUE,FALSE,TRUE,"S244631033"
"278","rensap","Red-naped Sapsucker","Sphyrapicus nuchalis","L46467047","Sylvan Lake State Park-Colorado, Eagle US-CO 39.49662, -106.75205","2025-05-30 07:29",2,39.496616,-106.752054,TRUE,FALSE,TRUE,"S245028716"
"279","rensap","Red-naped Sapsucker","Sphyrapicus nuchalis","L1239025","Grand Teton NP--Jenny Lake Loop Trail","2025-05-30 06:53",1,43.7622611,-110.7438183,TRUE,FALSE,FALSE,"S244625745"
"280","rensap","Red-naped Sapsucker","Sphyrapicus nuchalis","L10456205","Upper Sand Hollow Rd, Anaconda US-MT","2025-05-30 06:53",5,46.23244,-112.677599,TRUE,FALSE,TRUE,"S244755044"
"281","rensap","Red-naped Sapsucker","Sphyrapicus nuchalis","L28972826","Horseshoe Yurt","2025-05-30 06:42",2,43.716221,-111.322447,TRUE,FALSE,TRUE,"S244584102"
"282","rensap","Red-naped Sapsucker","Sphyrapicus nuchalis","L22651109","168 Grove Avenue, Chama, New Mexico, US (36.907, -106.581)","2025-05-30 06:39",1,36.9073068,-106.5812337,TRUE,FALSE,TRUE,"S244520478"
"283","rensap","Red-naped Sapsucker","Sphyrapicus nuchalis","L6194468","Custer SP -- Bismark Lake","2025-05-30 06:23",1,43.7761294,-103.5138273,TRUE,FALSE,FALSE,"S244509913"
"284","rensap","Red-naped Sapsucker","Sphyrapicus nuchalis","L1626905","Nespelem--Park City Loop Rd.","2025-05-30 06:20",3,48.2477758,-118.9754628,TRUE,FALSE,FALSE,"S244609863"
"285","rensap","Red-naped Sapsucker","Sphyrapicus nuchalis","L158592","Spring Meadow Lake","2025-05-30 05:42",1,46.6108,-112.0749,TRUE,FALSE,FALSE,"S244590199"
"286","rensap","Red-naped Sapsucker","Sphyrapicus nuchalis","L46352727","Cold Creek Road, Condon, Montana, US (47.584, -113.759)","2025-05-30 05:30",2,47.5841587,-113.7585062,TRUE,FALSE,TRUE,"S244501599"
"287","rensap","Red-naped Sapsucker","Sphyrapicus nuchalis","L46349897","Loon Lake, Ferndale US-MT","2025-05-30 05:17",1,48.025555,-113.989922,TRUE,FALSE,TRUE,"S244486259"
"288","rensap","Red-naped Sapsucker","Sphyrapicus nuchalis","L1546625","Medicine Bow NF--Happy Jack Trailhead and Old Ski Hill","2025-05-30 03:00",1,41.2546731,-105.4219283,TRUE,FALSE,FALSE,"S244921155"
"289","rensap","Red-naped Sapsucker","Sphyrapicus nuchalis","L46332094","300–398 W Los Ranchitos Dr, Durango US-CO (37.3541,-107.6928)","2025-05-29 20:10",1,37.354081,-107.692772,TRUE,FALSE,TRUE,"S244402655"
"290","rensap","Red-naped Sapsucker","Sphyrapicus nuchalis","L1215654","Mirror Lake Hwy--North Slope of Uinta Mtns","2025-05-29 18:29",1,40.848809,-110.8462143,TRUE,FALSE,FALSE,"S244628460"
"291","rensap","Red-naped Sapsucker","Sphyrapicus nuchalis","L46327393","Antelope Springs Rd, Moose US-WY 43.70505, -110.62117","2025-05-29 18:08",1,43.705051,-110.62117,TRUE,FALSE,TRUE,"S244415992"
"292","rensap","Red-naped Sapsucker","Sphyrapicus nuchalis","L20269018","Near Home on Middle Fork Ranch *PRIVATE*","2025-05-29 16:34",2,39.2222841,-105.9781981,TRUE,FALSE,TRUE,"S244359983"
"293","rensap","Red-naped Sapsucker","Sphyrapicus nuchalis","L911024","Castle Rock SP--Steins Creek Picnic Area","2025-05-29 14:44",1,42.1252,-113.66846,TRUE,FALSE,FALSE,"S244348682"
"294","rensap","Red-naped Sapsucker","Sphyrapicus nuchalis","L24588182","Grand Staircase-Escalante NM--Lower Calf Creek Falls","2025-05-29 14:05",1,37.8291551,-111.4201118,TRUE,FALSE,FALSE,"S244382585"
"295","rensap","Red-naped Sapsucker","Sphyrapicus nuchalis","L46322778","Glade Creek Trail, Alta, Wyoming, US (43.998, -110.71)","2025-05-29 13:58",1,43.9980214,-110.7101155,TRUE,FALSE,TRUE,"S244353049"
"296","rensap","Red-naped Sapsucker","Sphyrapicus nuchalis","L720854","Aspendell","2025-05-29 13:22",2,37.23806,-118.5975,TRUE,FALSE,FALSE,"S245438036"
"297","rensap","Red-naped Sapsucker","Sphyrapicus nuchalis","L33270717","Bond Lake Trail","2025-05-29 13:00",1,45.4391294,-112.8764776,TRUE,FALSE,FALSE,"S244606338"
"298","rensap","Red-naped Sapsucker","Sphyrapicus nuchalis","L168158","Vega SP","2025-05-29 12:52",1,39.22338,-107.79534,TRUE,FALSE,FALSE,"S244721428"
"299","rensap","Red-naped Sapsucker","Sphyrapicus nuchalis","L46329056","Red Rock Pass","2025-05-29 12:33",2,44.599175,-111.525828,TRUE,FALSE,TRUE,"S244388169"
"300","rensap","Red-naped Sapsucker","Sphyrapicus nuchalis","L46530586","Lake Sabrina Campground","2025-05-29 12:12",2,37.21814,-118.606774,TRUE,FALSE,TRUE,"S245304383"
"301","rensap","Red-naped Sapsucker","Sphyrapicus nuchalis","L4708559","Bill Frome Memorial County RV Park","2025-05-29 12:09",1,44.6500608,-111.4373697,TRUE,FALSE,FALSE,"S244388092"
"302","rensap","Red-naped Sapsucker","Sphyrapicus nuchalis","L46304199","Auto selected 36.25783, -105.13486","2025-05-29 12:00",1,36.257825,-105.134858,TRUE,FALSE,TRUE,"S244258268"
"303","rensap","Red-naped Sapsucker","Sphyrapicus nuchalis","L789321","Santa Fe NF--Aspen Picnic Area","2025-05-29 11:33",1,35.7772181,-105.8109623,TRUE,FALSE,FALSE,"S244363762"
"304","rensap","Red-naped Sapsucker","Sphyrapicus nuchalis","L46303482","Moose Creek Road lower, 45.72130, -112.69123","2025-05-29 11:31",1,45.721295,-112.691231,TRUE,FALSE,TRUE,"S244255100"
"305","rensap","Red-naped Sapsucker","Sphyrapicus nuchalis","L46469558","Forest Service Road 162, Manhattan US-NV 38.46544, -116.67498","2025-05-29 11:20",1,38.46544,-116.674976,TRUE,FALSE,TRUE,"S245038910"
"306","rensap","Red-naped Sapsucker","Sphyrapicus nuchalis","L20566034","Skyles Trailhead","2025-05-29 11:14",1,48.4110127,-114.4105287,TRUE,FALSE,FALSE,"S244264965"
"307","rensap","Red-naped Sapsucker","Sphyrapicus nuchalis","L4692255","Old La Veta Pass Rd (Costilla Co)","2025-05-29 11:10",2,37.593464,-105.204438,TRUE,FALSE,FALSE,"S244256839"
"308","rensap","Red-naped Sapsucker","Sphyrapicus nuchalis","L1232926","Monte Cristo CG","2025-05-29 11:00",1,41.4609587,-111.4960611,TRUE,FALSE,FALSE,"S244254756"
"309","rensap","Red-naped Sapsucker","Sphyrapicus nuchalis","L15577015","Mission Canyon","2025-05-29 10:54",2,47.958337,-108.642596,TRUE,FALSE,FALSE,"S244270773"
"310","rensap","Red-naped Sapsucker","Sphyrapicus nuchalis","L1215645","Monte Cristo Rd -- Lower (Rich Co.)","2025-05-29 10:40",2,41.4979668,-111.2616348,TRUE,FALSE,FALSE,"S244251702"
"311","rensap","Red-naped Sapsucker","Sphyrapicus nuchalis","L45732425","Story Mill Trail","2025-05-29 10:15",1,45.697976,-111.021271,TRUE,FALSE,TRUE,"S244234282"
"312","rensap","Red-naped Sapsucker","Sphyrapicus nuchalis","L46315277","Doe Creek Trail, Grand Lake US-CO 40.12992, -105.84424","2025-05-29 10:13",1,40.129919,-105.844241,TRUE,FALSE,TRUE,"S244311117"
"313","rensap","Red-naped Sapsucker","Sphyrapicus nuchalis","L3958585","Lake Como","2025-05-29 09:55",1,46.0593551,-114.2473841,TRUE,FALSE,FALSE,"S244403452"
"314","rensap","Red-naped Sapsucker","Sphyrapicus nuchalis","L44155894","4897 U.S. 93, Stevensville, Montana, US (46.575, -114.093)","2025-05-29 09:54",1,46.574744,-114.0925389,TRUE,FALSE,TRUE,"S244224572"
"315","rensap","Red-naped Sapsucker","Sphyrapicus nuchalis","L3835081","Humbug Spires--Moose Creek Trail","2025-05-29 09:16",3,45.744303,-112.669645,TRUE,FALSE,FALSE,"S244256344"
"316","rensap","Red-naped Sapsucker","Sphyrapicus nuchalis","L6346540","Colville home","2025-05-29 09:12",1,48.617508,-117.547845,TRUE,FALSE,TRUE,"S244518378"
"317","rensap","Red-naped Sapsucker","Sphyrapicus nuchalis","L33944614","Moccasin Lake Ranch","2025-05-29 08:33",1,48.432419,-120.1970647,TRUE,FALSE,TRUE,"S244246325"
"318","rensap","Red-naped Sapsucker","Sphyrapicus nuchalis","L639354","CO-Routt Skyline Trail","2025-05-29 08:23",1,40.4772477,-106.7942333,TRUE,FALSE,TRUE,"S244292758"
"319","rensap","Red-naped Sapsucker","Sphyrapicus nuchalis","L46302574","Elk Island","2025-05-29 08:16",2,44.994095,-116.418528,TRUE,FALSE,TRUE,"S244251067"
"320","rensap","Red-naped Sapsucker","Sphyrapicus nuchalis","L30658531","Hoskins Lake","2025-05-29 08:15",2,48.8900494,-115.6379452,TRUE,FALSE,TRUE,"S244270670"
"321","rensap","Red-naped Sapsucker","Sphyrapicus nuchalis","L4686166","Story Mill Community Park","2025-05-29 08:05",2,45.6976446,-111.022429,TRUE,FALSE,FALSE,"S244225712"
"322","rensap","Red-naped Sapsucker","Sphyrapicus nuchalis","L46305517","Mike","2025-05-29 08:05",3,43.934551,-111.751401,TRUE,FALSE,TRUE,"S244264582"
"323","rensap","Red-naped Sapsucker","Sphyrapicus nuchalis","L46351702","Cathedral Spires / Little Devil's Tower Black Elk","2025-05-29 08:04",3,43.8431089,-103.5351583,TRUE,FALSE,TRUE,"S244912279"
"324","rensap","Red-naped Sapsucker","Sphyrapicus nuchalis","L5878297","West Elkhorn Canyon","2025-05-29 08:00",2,42.249389,-112.483937,TRUE,FALSE,TRUE,"S244370393"
"325","rensap","Red-naped Sapsucker","Sphyrapicus nuchalis","L46331137","CR 3207 and 802.2B, Gunnison","2025-05-29 07:54",2,38.498143,-106.566398,TRUE,FALSE,TRUE,"S244398418"
"326","rensap","Red-naped Sapsucker","Sphyrapicus nuchalis","L33718598","Murie Ranch Road, Jackson, Wyoming, US (43.655, -110.72)","2025-05-29 07:49",1,43.655257,-110.720226,TRUE,FALSE,TRUE,"S244187474"
"327","rensap","Red-naped Sapsucker","Sphyrapicus nuchalis","L46253721","Whit Lake Trail","2025-05-29 07:34",2,44.80945,-111.129034,TRUE,FALSE,TRUE,"S244226430"
"328","rensap","Red-naped Sapsucker","Sphyrapicus nuchalis","L8545153","cathy benavidez yard","2025-05-29 07:31",1,35.6523513,-105.3010437,TRUE,FALSE,TRUE,"S244539578"
"329","rensap","Red-naped Sapsucker","Sphyrapicus nuchalis","L1223571","Diamondfield Jack Campground and Picnic Area","2025-05-29 07:30",1,42.1713873,-114.279356,TRUE,FALSE,FALSE,"S244286670"
"330","rensap","Red-naped Sapsucker","Sphyrapicus nuchalis","L46673786","Custer SP--Needle's Eye Tunnel","2025-05-29 07:23",2,43.8420173,-103.5452021,TRUE,FALSE,TRUE,"S245986839"
"331","rensap","Red-naped Sapsucker","Sphyrapicus nuchalis","L46298926","Canoe Trail Return, Seeley Lake US-MT 47.21465, -113.52085","2025-05-29 06:59",1,47.214651,-113.520852,TRUE,FALSE,TRUE,"S244235212"
"332","rensap","Red-naped Sapsucker","Sphyrapicus nuchalis","L325223","Rocky Mountain NP--Upper Beaver Meadows","2025-05-29 06:52",1,40.3730498,-105.6140614,TRUE,FALSE,FALSE,"S244389876"
"333","rensap","Red-naped Sapsucker","Sphyrapicus nuchalis","L610738","Manitou Lake","2025-05-29 06:46",3,39.0901133,-105.097661,TRUE,FALSE,FALSE,"S244203599"
"334","rensap","Red-naped Sapsucker","Sphyrapicus nuchalis","L3544677","Dutchman Pond","2025-05-29 06:40",2,46.1807515,-112.8508973,TRUE,FALSE,FALSE,"S244255474"
"335","rensap","Red-naped Sapsucker","Sphyrapicus nuchalis","L1311243","Stumptown Road","2025-05-29 06:39",5,46.1464807,-113.0207348,TRUE,FALSE,TRUE,"S244310802"
"336","rensap","Red-naped Sapsucker","Sphyrapicus nuchalis","L25180173","Idaho Panhandle National Forest, Calder US-ID 47.10843, -115.91267","2025-05-29 06:35",1,47.108433,-115.912672,TRUE,FALSE,TRUE,"S244361306"
"337","rensap","Red-naped Sapsucker","Sphyrapicus nuchalis","L923712","Camp Creek Campground","2025-05-29 06:35",2,47.9225687,-108.5127354,TRUE,FALSE,FALSE,"S244139489"
"338","rensap","Red-naped Sapsucker","Sphyrapicus nuchalis","L46327269","Dixie National Forest, Panguitch US-UT 37.76135, -112.65622","2025-05-29 06:33",1,37.76135,-112.656222,TRUE,FALSE,TRUE,"S244378604"
"339","rensap","Red-naped Sapsucker","Sphyrapicus nuchalis","L1642907","Custer SP--Harney Peak Trail 9 from Sylvan Lake","2025-05-29 06:20",4,43.8548762,-103.5378718,TRUE,FALSE,FALSE,"S244338810"
"340","rensap","Red-naped Sapsucker","Sphyrapicus nuchalis","L37519313","218 Alturas Dr, Hailey US-ID 43.58829, -114.34274","2025-05-28 19:58",1,43.588291,-114.342737,TRUE,FALSE,TRUE,"S244025836"
"341","rensap","Red-naped Sapsucker","Sphyrapicus nuchalis","L7051852","D&J Home Area","2025-05-28 19:45",1,46.5089096,-111.9024176,TRUE,FALSE,TRUE,"S244029255"
"342","rensap","Red-naped Sapsucker","Sphyrapicus nuchalis","L46256038","CM Ranch (private)","2025-05-28 19:18",1,43.494037,-109.593091,TRUE,FALSE,TRUE,"S244032734"
"343","rensap","Red-naped Sapsucker","Sphyrapicus nuchalis","L9832385","Lorry Thomas Urban Wildlife Area","2025-05-28 19:08",1,46.1401041,-112.9810258,TRUE,FALSE,FALSE,"S244096497"
"344","rensap","Red-naped Sapsucker","Sphyrapicus nuchalis","L6077087","CSU Mountain Campus","2025-05-28 19:00",1,40.570545,-105.5913591,TRUE,FALSE,FALSE,"S244022157"
"345","rensap","Red-naped Sapsucker","Sphyrapicus nuchalis","L46243806","W Mountain Rd, Cascade US-ID 44.61744, -116.13873","2025-05-28 16:03",1,44.617444,-116.138731,TRUE,FALSE,TRUE,"S243968861"
"346","rensap","Red-naped Sapsucker","Sphyrapicus nuchalis","L4720167","Bannack SP--Campground","2025-05-28 15:15",4,45.1646924,-113.0042764,TRUE,FALSE,FALSE,"S243966721"
"347","rensap","Red-naped Sapsucker","Sphyrapicus nuchalis","L39243011","Neighborhood","2025-05-28 13:00",1,38.8610592,-104.8534306,TRUE,FALSE,TRUE,"S243933511"
"348","rensap","Red-naped Sapsucker","Sphyrapicus nuchalis","L1642973","Custer SP--Sylvan Lake Day Use Area","2025-05-28 12:19",3,43.8463267,-103.5596875,TRUE,FALSE,FALSE,"S244060120"
"349","rensap","Red-naped Sapsucker","Sphyrapicus nuchalis","L7459279","Bowman Lake","2025-05-28 12:17",1,48.8368953,-114.1890478,TRUE,FALSE,FALSE,"S244015030"
"350","rensap","Red-naped Sapsucker","Sphyrapicus nuchalis","L46245611","Hershey 1045, Hulett US-WY (44.5232,-104.5081)","2025-05-28 12:09",1,44.523204,-104.508122,TRUE,FALSE,TRUE,"S243979249"
"351","rensap","Red-naped Sapsucker","Sphyrapicus nuchalis","L2954467","Grand Mesa NF--Forest Rd 400, Fruita Picnic Area","2025-05-28 11:46",1,38.8682778,-108.7628152,TRUE,FALSE,FALSE,"S244001223"
"352","rensap","Red-naped Sapsucker","Sphyrapicus nuchalis","L25496813","PINEBROOK 3","2025-05-28 11:00",1,40.7432245,-111.5876241,TRUE,FALSE,TRUE,"S243933124"
"353","rensap","Red-naped Sapsucker","Sphyrapicus nuchalis","L7460836","Crow Peak Trail","2025-05-28 10:50",1,44.466971,-103.948055,TRUE,FALSE,FALSE,"S243940025"
"354","rensap","Red-naped Sapsucker","Sphyrapicus nuchalis","L19563121","Cabin","2025-05-28 10:02",1,38.7317307,-106.7727057,TRUE,FALSE,TRUE,"S243980432"
"355","rensap","Red-naped Sapsucker","Sphyrapicus nuchalis","L46237900","Hill City Road upper section","2025-05-28 09:47",3,43.237009,-115.31962,TRUE,FALSE,TRUE,"S243938371"
"356","rensap","Red-naped Sapsucker","Sphyrapicus nuchalis","L46245560","Hershey 1044, Sundance US-WY (44.5327,-104.5108)","2025-05-28 09:44",1,44.532732,-104.510768,TRUE,FALSE,TRUE,"S243979004"
"357","rensap","Red-naped Sapsucker","Sphyrapicus nuchalis","L10026481","Blacktail Creek Trail","2025-05-28 09:30",1,48.9579183,-115.530653,TRUE,FALSE,TRUE,"S243940519"
"358","rensap","Red-naped Sapsucker","Sphyrapicus nuchalis","L44114855","Mountain Vue Home","2025-05-28 09:13",1,39.514284,-105.530245,TRUE,FALSE,TRUE,"S243838793"
"359","rensap","Red-naped Sapsucker","Sphyrapicus nuchalis","L33245917","Sandia Crest Scenic Highway MM 10 Hairpin","2025-05-28 09:10",1,35.2104283,-106.4281718,TRUE,FALSE,TRUE,"S243888716"
"360","rensap","Red-naped Sapsucker","Sphyrapicus nuchalis","L339968","Rocky Mountain NP--Moraine Park","2025-05-28 09:00",1,40.3549822,-105.6050062,TRUE,FALSE,FALSE,"S244392820"
"361","rensap","Red-naped Sapsucker","Sphyrapicus nuchalis","L46245357","Forest Service Road 847, Hulett US-WY (44.5377,-104.5695)","2025-05-28 08:56",1,44.537676,-104.569487,TRUE,FALSE,TRUE,"S243977873"
"362","rensap","Red-naped Sapsucker","Sphyrapicus nuchalis","L363576","Rocky Mountain NP--Ouzel Falls","2025-05-28 08:43",2,40.1988777,-105.6009427,TRUE,FALSE,FALSE,"S243970392"
"363","rensap","Red-naped Sapsucker","Sphyrapicus nuchalis","L676464","Daisy Mine Rd. Rice, Stevens C. NE WA (walk)","2025-05-28 08:35",1,48.3478073,-118.1503201,TRUE,FALSE,TRUE,"S243855881"
"364","rensap","Red-naped Sapsucker","Sphyrapicus nuchalis","L1556452","Cabbage Gulch","2025-05-28 08:30",1,46.0750248,-112.9240544,TRUE,FALSE,FALSE,"S243927594"
"365","rensap","Red-naped Sapsucker","Sphyrapicus nuchalis","L916518","CO-Routt Emerald Mtn Blackmer Dr","2025-05-28 08:30",3,40.4797123,-106.8424487,TRUE,FALSE,TRUE,"S243927382"
"366","rensap","Red-naped Sapsucker","Sphyrapicus nuchalis","L32265629","Hahns Peak Lake, Day Use Area, Clark, Colorado, US (40.835, -106.986)","2025-05-28 08:21",1,40.8349072,-106.9862274,TRUE,FALSE,TRUE,"S243829983"
"367","rensap","Red-naped Sapsucker","Sphyrapicus nuchalis","L46235675","Beaver Creek Trail, Rifle US-CO 39.41272, -107.82669","2025-05-28 08:09",4,39.412725,-107.826694,TRUE,FALSE,TRUE,"S243927678"
"368","rensap","Red-naped Sapsucker","Sphyrapicus nuchalis","L46242086","Nile Road Cliffs","2025-05-28 08:02",1,46.809082,-120.92427,TRUE,FALSE,TRUE,"S243959586"
"369","rensap","Red-naped Sapsucker","Sphyrapicus nuchalis","L14969909","River section, Beaver Springs Ranch, Summit Co US-UT 40.78530, -111.16171","2025-05-28 07:58",1,40.7861821,-111.1605493,TRUE,FALSE,TRUE,"S243859392"
"370","rensap","Red-naped Sapsucker","Sphyrapicus nuchalis","L46244913","Cruikshank Reservoir","2025-05-28 07:55",2,44.8994799,-116.0148942,TRUE,FALSE,TRUE,"S243975226"
"371","rensap","Red-naped Sapsucker","Sphyrapicus nuchalis","L18733811","Cat Creek Rd from Hwy 20 to Bennett Mountain Rd","2025-05-28 07:46",1,43.292571,-115.3221452,TRUE,FALSE,FALSE,"S243937900"
"372","rensap","Red-naped Sapsucker","Sphyrapicus nuchalis","L23686890","Elk Creek Highlands Bailey, CO","2025-05-28 07:39",2,39.509767,-105.521958,TRUE,FALSE,TRUE,"S243794746"
"373","rensap","Red-naped Sapsucker","Sphyrapicus nuchalis","L1340956","Sleven's Island","2025-05-28 07:37",1,46.8388648,-114.0594485,TRUE,FALSE,FALSE,"S243827026"
"374","rensap","Red-naped Sapsucker","Sphyrapicus nuchalis","L46254787","Boulder Creek Road--second 5 miles, Polson","2025-05-28 07:36",1,47.779779,-113.989204,TRUE,FALSE,TRUE,"S244026537"
"375","rensap","Red-naped Sapsucker","Sphyrapicus nuchalis","L2091641","Jasper Mountain (Walla Walla Co.)","2025-05-28 07:30",2,46.1596209,-118.0213165,TRUE,FALSE,FALSE,"S243971219"
"376","rensap","Red-naped Sapsucker","Sphyrapicus nuchalis","L2187747","Horse Creek Trailhead","2025-05-28 07:21",5,42.9502661,-110.3827286,TRUE,FALSE,TRUE,"S244017848"
"377","rensap","Red-naped Sapsucker","Sphyrapicus nuchalis","L46246367","Eightmile Road, Okanogan Co., WA","2025-05-28 07:05",2,48.741075,-120.292232,TRUE,FALSE,TRUE,"S243983406"
"378","rensap","Red-naped Sapsucker","Sphyrapicus nuchalis","L3745033","Northstar Preserve, East Aspen trail","2025-05-28 07:03",1,39.1741496,-106.7945445,TRUE,FALSE,FALSE,"S244385078"
"379","rensap","Red-naped Sapsucker","Sphyrapicus nuchalis","L1184713","Lewis Turner Campground","2025-05-28 07:02",6,41.8851862,-111.5721917,TRUE,FALSE,FALSE,"S243902885"
"380","rensap","Red-naped Sapsucker","Sphyrapicus nuchalis","L46217764","6143 Perkins Lake Rd, Moyie Springs US-ID 48.71854, -116.06522","2025-05-28 06:25",3,48.718542,-116.065222,TRUE,FALSE,TRUE,"S243844203"
"381","rensap","Red-naped Sapsucker","Sphyrapicus nuchalis","L46116984","377 Grizzly Dr, Seeley Lake US-MT 47.16212, -113.48944","2025-05-28 06:05",1,47.162123,-113.489438,TRUE,FALSE,TRUE,"S244295782"
"382","rensap","Red-naped Sapsucker","Sphyrapicus nuchalis","L20483058","Cabin","2025-05-28 05:58",1,39.877081,-105.511672,TRUE,FALSE,TRUE,"S243779217"
"383","rensap","Red-naped Sapsucker","Sphyrapicus nuchalis","L6112919","Orofino Campground","2025-05-28 05:46",1,46.2581676,-112.6095102,TRUE,FALSE,FALSE,"S243871892"
"384","rensap","Red-naped Sapsucker","Sphyrapicus nuchalis","L46181078","Forest Service Road 889, Walden, Colorado, US (40.989, -106.211)","2025-05-28 05:12",3,40.9894008,-106.2105882,TRUE,FALSE,TRUE,"S243750477"
"385","rensap","Red-naped Sapsucker","Sphyrapicus nuchalis","L46400180","Whits Lake","2025-05-27 20:10",1,44.807188,-111.138514,TRUE,FALSE,TRUE,"S244789329"
"386","rensap","Red-naped Sapsucker","Sphyrapicus nuchalis","L3002201","Haag Cove","2025-05-27 16:29",1,48.5632473,-118.1443977,TRUE,FALSE,FALSE,"S243646162"
"387","rensap","Red-naped Sapsucker","Sphyrapicus nuchalis","L19974742","May Creek Campground","2025-05-27 16:17",1,45.652679,-113.7820153,TRUE,FALSE,FALSE,"S243797182"
"388","rensap","Red-naped Sapsucker","Sphyrapicus nuchalis","L756344","Camas Meadows","2025-05-27 15:08",1,47.4724308,-120.5849934,TRUE,FALSE,FALSE,"S243629007"
"389","rensap","Red-naped Sapsucker","Sphyrapicus nuchalis","L46169518","Travis Creek Road Pullout, Clancy, Montana, US (46.505, -112.129)","2025-05-27 13:47",2,46.5046165,-112.1292741,TRUE,FALSE,TRUE,"S243596161"
"390","rensap","Red-naped Sapsucker","Sphyrapicus nuchalis","L46257080","Seymour Creek Rd","2025-05-27 13:24",1,45.944249,-113.148045,TRUE,FALSE,TRUE,"S244037724"
"391","rensap","Red-naped Sapsucker","Sphyrapicus nuchalis","L12177886","Big Cottonwood Canyon--Beartrap Fork to Desolation Lake","2025-05-27 13:23",1,40.648566,-111.608289,TRUE,FALSE,FALSE,"S243587801"
"392","rensap","Red-naped Sapsucker","Sphyrapicus nuchalis","L46159595","National Forest 318, Ririe, Idaho, US (43.661, -111.564)","2025-05-27 12:33",1,43.6612694,-111.5644002,TRUE,FALSE,TRUE,"S243549889"
"393","rensap","Red-naped Sapsucker","Sphyrapicus nuchalis","L5820799","Lake Ellen Road","2025-05-27 11:21",1,48.5087863,-118.2166886,TRUE,FALSE,FALSE,"S243546615"
"394","rensap","Red-naped Sapsucker","Sphyrapicus nuchalis","L25099352","Beaver Creek Picnic Area to Scenic Byway Trail","2025-05-27 10:50",1,40.6216369,-111.1459028,TRUE,FALSE,TRUE,"S243929602"
"395","rensap","Red-naped Sapsucker","Sphyrapicus nuchalis","L46207308","4660 Spurgin Road","2025-05-27 10:46",1,46.860972,-114.096699,TRUE,FALSE,TRUE,"S243792807"
"396","rensap","Red-naped Sapsucker","Sphyrapicus nuchalis","L2079310","Shoshone NF--Sinks Canyon","2025-05-27 10:34",1,42.7306221,-108.8528824,TRUE,FALSE,FALSE,"S243581007"
"397","rensap","Red-naped Sapsucker","Sphyrapicus nuchalis","L16484597","Fossil Butte NM, Aspen Nature Trail","2025-05-27 10:23",2,41.8684417,-110.7768797,TRUE,FALSE,FALSE,"S243540521"
"398","rensap","Red-naped Sapsucker","Sphyrapicus nuchalis","L46153893","2253 Eagle Ranch Rd, Eagle US-CO 39.63196, -106.80068","2025-05-27 10:22",1,39.631963,-106.800684,TRUE,FALSE,TRUE,"S243525262"
"399","rensap","Red-naped Sapsucker","Sphyrapicus nuchalis","L46155279","Betsy’s Home.","2025-05-27 10:03",1,39.320998,-107.207662,TRUE,FALSE,TRUE,"S243531147"
"400","rensap","Red-naped Sapsucker","Sphyrapicus nuchalis","L46156624","County Road 739A, Crested Butte US-CO 38.88973, -107.00588","2025-05-27 09:52",1,38.889729,-107.005884,TRUE,FALSE,TRUE,"S243537006"
"401","rensap","Red-naped Sapsucker","Sphyrapicus nuchalis","L889611","Grand Mesa--Mesa Lakes area","2025-05-27 09:51",2,39.0486918,-108.0912909,TRUE,FALSE,FALSE,"S243599769"
"402","rensap","Red-naped Sapsucker","Sphyrapicus nuchalis","L46154062","Auto selected 48.24517, -117.34249","2025-05-27 09:50",1,48.24517,-117.342494,TRUE,FALSE,TRUE,"S243526027"
"403","rensap","Red-naped Sapsucker","Sphyrapicus nuchalis","L32008062","Drummond Kiwanis Riverfront Park","2025-05-27 09:49",1,46.662355,-113.152177,TRUE,FALSE,FALSE,"S243510411"
"404","rensap","Red-naped Sapsucker","Sphyrapicus nuchalis","L2934708","Little Spring","2025-05-27 08:30",1,35.3750193,-111.7256355,TRUE,FALSE,FALSE,"S243511735"
"405","rensap","Red-naped Sapsucker","Sphyrapicus nuchalis","L14433980","Piney's place","2025-05-27 08:20",1,45.1744565,-109.2570642,TRUE,FALSE,TRUE,"S243690794"
"406","rensap","Red-naped Sapsucker","Sphyrapicus nuchalis","L17054445","Yard","2025-05-27 08:17",1,47.5632673,-120.6656638,TRUE,FALSE,TRUE,"S243545396"
"407","rensap","Red-naped Sapsucker","Sphyrapicus nuchalis","L6085147","Wild Basin entrance road--Hwy 7 to Wild Basin Ranger Station","2025-05-27 08:17",1,40.2159145,-105.547328,TRUE,FALSE,FALSE,"S243499656"
"408","rensap","Red-naped Sapsucker","Sphyrapicus nuchalis","L9094325","Glacier National Park, Upper McDonald Creek (48.6998,-113.8125)","2025-05-27 08:11",1,48.699769,-113.812533,TRUE,FALSE,TRUE,"S243619785"
"409","rensap","Red-naped Sapsucker","Sphyrapicus nuchalis","L15836007","Del Norte, Colorado, US (37.687, -106.456)","2025-05-27 07:56",1,37.6869155,-106.4555692,TRUE,FALSE,TRUE,"S243508292"
"410","rensap","Red-naped Sapsucker","Sphyrapicus nuchalis","L46114766","4 Ida Ct, Clinton US-MT 46.62182, -113.65139","2025-05-27 07:05",2,46.621819,-113.651389,TRUE,FALSE,TRUE,"S243446790"
"411","rensap","Red-naped Sapsucker","Sphyrapicus nuchalis","L31404360","Randall reservoir","2025-05-27 06:53",1,36.38008,-105.562356,TRUE,FALSE,TRUE,"S243465979"
"412","rensap","Red-naped Sapsucker","Sphyrapicus nuchalis","L46145746","Hauser Dam - Beaver Creek Rec Area","2025-05-27 06:50",1,46.76592,-111.8864655,TRUE,FALSE,TRUE,"S243488670"
"413","rensap","Red-naped Sapsucker","Sphyrapicus nuchalis","L571230","South Fork Canyon--Big Springs Park","2025-05-27 06:45",1,40.334,-111.52496,TRUE,FALSE,FALSE,"S243514595"
"414","rensap","Red-naped Sapsucker","Sphyrapicus nuchalis","L2830287","Drinking Horse Trail","2025-05-27 06:40",1,45.70549,-110.9743166,TRUE,FALSE,FALSE,"S243439084"
"415","rensap","Red-naped Sapsucker","Sphyrapicus nuchalis","L9435222","Bridge Creek Wildlife Preserve","2025-05-27 06:19",2,48.2293975,-118.7008616,TRUE,FALSE,FALSE,"S243613759"
"416","rensap","Red-naped Sapsucker","Sphyrapicus nuchalis","L46134588","Baulne Ranch","2025-05-27 06:10",1,48.0688174,-118.4055941,TRUE,FALSE,TRUE,"S243432056"
"417","rensap","Red-naped Sapsucker","Sphyrapicus nuchalis","L46247037","2230 Schoolhouse Lake Road, Troy, Montana, US (48.425, -115.847)","2025-05-26 19:46",2,48.4254574,-115.8470906,TRUE,FALSE,TRUE,"S243986961"
"418","rensap","Red-naped Sapsucker","Sphyrapicus nuchalis","L46114925","4527–4539 N County Road 103, Bellvue US-CO 40.64578, -105.85919","2025-05-26 19:21",2,40.645777,-105.859194,TRUE,FALSE,TRUE,"S243330451"
"419","rensap","Red-naped Sapsucker","Sphyrapicus nuchalis","L21976454","3079 South 2000 East, Driggs, Idaho, US (43.678, -111.061)","2025-05-26 19:13",1,43.67835,-111.06082,TRUE,FALSE,TRUE,"S243325593"
"420","rensap","Red-naped Sapsucker","Sphyrapicus nuchalis","L5903521","Powder Mtn area -- White Pine Basin Trail north of Brim Trail crossing","2025-05-26 18:55",1,41.346986,-111.7318073,TRUE,FALSE,TRUE,"S243344245"
"421","rensap","Red-naped Sapsucker","Sphyrapicus nuchalis","L46005383","2317 Snowmass Creek Rd, Snowmass US-CO 39.30220, -106.97357","2025-05-26 18:44",2,39.302202,-106.973574,TRUE,FALSE,TRUE,"S244651485"
"422","rensap","Red-naped Sapsucker","Sphyrapicus nuchalis","L45924600","John Lake House","2025-05-26 18:44",2,44.894304,-111.588595,TRUE,FALSE,TRUE,"S243309056"
"423","rensap","Red-naped Sapsucker","Sphyrapicus nuchalis","L1309888","Patterson Lake","2025-05-26 17:42",1,48.4584657,-120.245533,TRUE,FALSE,FALSE,"S243678502"
"424","rensap","Red-naped Sapsucker","Sphyrapicus nuchalis","L3896359","Mercer Woods (restricted access)","2025-05-26 17:20",1,41.2687972,-95.9721975,TRUE,TRUE,FALSE,"S243328608"
"425","rensap","Red-naped Sapsucker","Sphyrapicus nuchalis","L11529218","Hohnholz Lakes SWA & Campground","2025-05-26 17:04",1,40.9370529,-105.9707943,TRUE,FALSE,FALSE,"S243332526"
"426","rensap","Red-naped Sapsucker","Sphyrapicus nuchalis","L14622837","Bad Rock Wildlife Management Area","2025-05-26 16:16",1,48.3803778,-114.1584404,TRUE,FALSE,FALSE,"S243294493"
"427","rensap","Red-naped Sapsucker","Sphyrapicus nuchalis","L299762","Yellowstone NP--Mammoth Hot Springs area","2025-05-26 15:51",1,44.9734094,-110.7041482,TRUE,FALSE,FALSE,"S243288495"
"428","rensap","Red-naped Sapsucker","Sphyrapicus nuchalis","L46095019","Private Access, Anaconda US-MT 46.07722, -112.90090","2025-05-26 15:31",1,46.077223,-112.900905,TRUE,FALSE,TRUE,"S243225252"
"429","rensap","Red-naped Sapsucker","Sphyrapicus nuchalis","L420597","Headwaters Trail (west Moscow Mountain)","2025-05-26 14:40",1,46.8124553,-116.9748688,TRUE,FALSE,FALSE,"S243329526"
"430","rensap","Red-naped Sapsucker","Sphyrapicus nuchalis","L46183894","Long Gulch Trail","2025-05-26 14:30",2,43.0138601,-116.7342102,TRUE,FALSE,TRUE,"S243675950"
"431","rensap","Red-naped Sapsucker","Sphyrapicus nuchalis","L31695332","Bluebell Creek","2025-05-26 14:30",2,46.893104,-120.650603,TRUE,FALSE,FALSE,"S243336548"
"432","rensap","Red-naped Sapsucker","Sphyrapicus nuchalis","L23169541","Grand Mesa--Spruce Grove CG","2025-05-26 14:00",2,39.0490051,-108.0798731,TRUE,FALSE,FALSE,"S243252227"
"433","rensap","Red-naped Sapsucker","Sphyrapicus nuchalis","L3757424","Silvergate (town)","2025-05-26 13:20",1,45.0069737,-109.9895918,TRUE,FALSE,FALSE,"S243182718"
"434","rensap","Red-naped Sapsucker","Sphyrapicus nuchalis","L1654656","Spanish Creek Trail #407","2025-05-26 12:55",2,45.4394792,-111.3849771,TRUE,FALSE,FALSE,"S243273198"
"435","rensap","Red-naped Sapsucker","Sphyrapicus nuchalis","L46077185","Augusta Rodeo Grounds","2025-05-26 12:15",1,47.490177,-112.390436,TRUE,FALSE,TRUE,"S243145037"
"436","rensap","Red-naped Sapsucker","Sphyrapicus nuchalis","L46320785","Bear Lake Corridor - Rocky Mountain NP","2025-05-26 12:13",2,40.3110486,-105.6554191,TRUE,FALSE,TRUE,"S244344429"
"437","rensap","Red-naped Sapsucker","Sphyrapicus nuchalis","L3288906","Lee Metcalf NWR--Wildlife Viewing Area","2025-05-26 12:10",1,46.5399565,-114.0932965,TRUE,FALSE,FALSE,"S243163572"
"438","rensap","Red-naped Sapsucker","Sphyrapicus nuchalis","L46119010","Town of Truchas","2025-05-26 12:00",3,36.0390707,-105.7885551,TRUE,FALSE,TRUE,"S243351165"
"439","rensap","Red-naped Sapsucker","Sphyrapicus nuchalis","L4774032","Animas Overlook","2025-05-26 11:55",1,37.3625888,-107.8822996,TRUE,FALSE,FALSE,"S243158332"
"440","rensap","Red-naped Sapsucker","Sphyrapicus nuchalis","L3816538","Red Canyon Lodge (& General Area)","2025-05-26 11:51",1,40.8734643,-109.5407081,TRUE,FALSE,FALSE,"S243141998"
"441","rensap","Red-naped Sapsucker","Sphyrapicus nuchalis","L46090750","Reynolds Hill","2025-05-26 11:16",1,41.1626921,-105.3507607,TRUE,FALSE,TRUE,"S243205366"
"442","rensap","Red-naped Sapsucker","Sphyrapicus nuchalis","L46180861","ACES at Rock Bottom Ranch","2025-05-26 11:10",1,39.3920632,-107.1116781,TRUE,FALSE,TRUE,"S243664965"
"443","rensap","Red-naped Sapsucker","Sphyrapicus nuchalis","L33110163","Property","2025-05-26 11:02",1,39.701504,-111.2756,TRUE,FALSE,TRUE,"S243285050"
"444","rensap","Red-naped Sapsucker","Sphyrapicus nuchalis","L7058643","Conboy Lake NWR--Laurel Rd.","2025-05-26 10:59",1,45.9295839,-121.3803037,TRUE,FALSE,FALSE,"S243295439"
"445","rensap","Red-naped Sapsucker","Sphyrapicus nuchalis","L603410","National Elk Refuge","2025-05-26 10:50",1,43.4890331,-110.7488394,TRUE,FALSE,FALSE,"S243108792"
"446","rensap","Red-naped Sapsucker","Sphyrapicus nuchalis","L9571962","Michigan City Rd.","2025-05-26 10:27",1,40.593834,-111.63177,TRUE,FALSE,FALSE,"S243117487"
"447","rensap","Red-naped Sapsucker","Sphyrapicus nuchalis","L684883","Scout Mountain","2025-05-26 10:27",1,42.6864734,-112.3468781,TRUE,FALSE,FALSE,"S243121923"
"448","rensap","Red-naped Sapsucker","Sphyrapicus nuchalis","L14929054","Last Dollar Road","2025-05-26 10:21",1,38.0946257,-107.9136965,TRUE,FALSE,TRUE,"S243156818"
"449","rensap","Red-naped Sapsucker","Sphyrapicus nuchalis","L46074495","Lower Jones Ranch Trail--Payson Canyon","2025-05-26 10:08",1,39.9424085,-111.65756,TRUE,FALSE,TRUE,"S243132825"
"450","rensap","Red-naped Sapsucker","Sphyrapicus nuchalis","L2961768","Ute Pass Rd (Grand Co)","2025-05-26 10:07",1,39.8289801,-106.1036162,TRUE,FALSE,FALSE,"S243197947"
"451","rensap","Red-naped Sapsucker","Sphyrapicus nuchalis","L10995099","Rio Grande Trail--Jaffee Park to Gerbaz Way Bridge","2025-05-26 10:05",1,39.2795639,-106.889558,TRUE,FALSE,FALSE,"S243068257"
"452","rensap","Red-naped Sapsucker","Sphyrapicus nuchalis","L3757425","Yellowstone NP--Lamar Canyon","2025-05-26 09:59",1,44.9183824,-110.3037643,TRUE,FALSE,FALSE,"S243258038"
"453","rensap","Red-naped Sapsucker","Sphyrapicus nuchalis","L46138035","Swab Creek Road","2025-05-26 09:50",1,42.9246079,-111.0320225,TRUE,FALSE,TRUE,"S243450914"
"454","rensap","Red-naped Sapsucker","Sphyrapicus nuchalis","L46097419","Fortune Creek","2025-05-26 09:25",1,47.4778766,-121.0456902,TRUE,FALSE,TRUE,"S243248254"
"455","rensap","Red-naped Sapsucker","Sphyrapicus nuchalis","L2180223","Dell City area (FM1437, etc.)","2025-05-26 09:24",1,31.9462589,-105.1922008,TRUE,TRUE,FALSE,"S243566735"
"456","rensap","Red-naped Sapsucker","Sphyrapicus nuchalis","L45270724","Merna North Beaver Rd, Daniel","2025-05-26 09:15",1,42.990432,-110.352508,TRUE,FALSE,TRUE,"S243104853"
"457","rensap","Red-naped Sapsucker","Sphyrapicus nuchalis","L5926936","Coonsa Creek Area","2025-05-26 09:10",1,48.3736215,-113.2822746,TRUE,FALSE,FALSE,"S243103069"
"458","rensap","Red-naped Sapsucker","Sphyrapicus nuchalis","L1108204","Glacier NP--Howe Lake Trail","2025-05-26 09:08",2,48.6035074,-114.0151924,TRUE,FALSE,FALSE,"S243226594"
"459","rensap","Red-naped Sapsucker","Sphyrapicus nuchalis","L25372337","Lower Moose Creek","2025-05-26 08:30",1,45.7256981,-112.6827362,TRUE,FALSE,TRUE,"S243124674"
"460","rensap","Red-naped Sapsucker","Sphyrapicus nuchalis","L45965241","Lake at 12 mile","2025-05-26 08:19",1,39.121326,-106.092825,TRUE,FALSE,TRUE,"S243046388"
"461","rensap","Red-naped Sapsucker","Sphyrapicus nuchalis","L24235607","2501 Maiden Rock Road, Butte, Montana, US (45.701, -112.735)","2025-05-26 08:16",1,45.7014641,-112.7348848,TRUE,FALSE,TRUE,"S243122695"
"462","rensap","Red-naped Sapsucker","Sphyrapicus nuchalis","L6301935","Vulcan Mountain Road, Curlew","2025-05-26 08:11",2,48.9215405,-118.603549,TRUE,FALSE,FALSE,"S243063501"
"463","rensap","Red-naped Sapsucker","Sphyrapicus nuchalis","L11622083","Moose Creek Road--Lower","2025-05-26 08:02",1,45.7223443,-112.6891936,TRUE,FALSE,TRUE,"S243047225"
"464","rensap","Red-naped Sapsucker","Sphyrapicus nuchalis","L19627131","Route 235","2025-05-26 07:48",1,43.784786,-111.300402,TRUE,FALSE,TRUE,"S243036731"
"465","rensap","Red-naped Sapsucker","Sphyrapicus nuchalis","L46080662","Thunderer Cutoff Trail","2025-05-26 07:43",2,44.921235,-110.095524,TRUE,FALSE,TRUE,"S243159919"
"466","rensap","Red-naped Sapsucker","Sphyrapicus nuchalis","L46097706","Crystal Creek Trail, Curecanti National Recreation Area","2025-05-26 07:42",1,38.492828,-107.561397,TRUE,FALSE,TRUE,"S243238999"
"467","rensap","Red-naped Sapsucker","Sphyrapicus nuchalis","L4344479","Lee Metcalf NWR--Kenai Trail","2025-05-26 07:37",1,46.5603357,-114.073416,TRUE,FALSE,FALSE,"S242998801"
"468","rensap","Red-naped Sapsucker","Sphyrapicus nuchalis","L6008848","Riverside Park","2025-05-26 07:35",1,46.7749957,-114.0705697,TRUE,FALSE,FALSE,"S243011572"
"469","rensap","Red-naped Sapsucker","Sphyrapicus nuchalis","L2158756","Telluride Valley Floor","2025-05-26 07:34",1,37.9464988,-107.8479338,TRUE,FALSE,FALSE,"S243113075"
"470","rensap","Red-naped Sapsucker","Sphyrapicus nuchalis","L1270087","Glacier NP--Avalanche Lake Trail","2025-05-26 07:26",1,48.6602988,-113.7902927,TRUE,FALSE,FALSE,"S242943507"
"471","rensap","Red-naped Sapsucker","Sphyrapicus nuchalis","L219408","Cibola NF--Cienega Canyon Picnic Area","2025-05-26 07:24",1,35.167564,-106.3801861,TRUE,FALSE,FALSE,"S243152514"
"472","rensap","Red-naped Sapsucker","Sphyrapicus nuchalis","L3887446","Glen Lake Rotary Park","2025-05-26 07:14",1,45.7047752,-111.0375201,TRUE,FALSE,FALSE,"S242984268"
"473","rensap","Red-naped Sapsucker","Sphyrapicus nuchalis","L29881886","Aspen Glen","2025-05-26 07:11",1,39.44075,-107.2698,TRUE,FALSE,TRUE,"S243594682"
"474","rensap","Red-naped Sapsucker","Sphyrapicus nuchalis","L1877123","CCC Ponds","2025-05-26 07:08",1,42.8957267,-109.8352959,TRUE,FALSE,FALSE,"S242966445"
"475","rensap","Red-naped Sapsucker","Sphyrapicus nuchalis","L492302","Council Grove SP","2025-05-26 07:03",1,46.9129809,-114.1559194,TRUE,FALSE,FALSE,"S245649114"
"476","rensap","Red-naped Sapsucker","Sphyrapicus nuchalis","L46051123","Coronado Trail, Clifton, Arizona, US (33.446, -109.371)","2025-05-26 06:59",1,33.4461664,-109.3705472,TRUE,FALSE,TRUE,"S243030366"
"477","rensap","Red-naped Sapsucker","Sphyrapicus nuchalis","L1569757","Methow Valley--Big Valley Trail","2025-05-26 06:45",2,48.5288485,-120.304551,TRUE,FALSE,FALSE,"S243027586"
"478","rensap","Red-naped Sapsucker","Sphyrapicus nuchalis","L7530075","Chelan - Camas Natural Area","2025-05-26 06:30",1,47.4800861,-120.5852352,TRUE,FALSE,TRUE,"S243109104"
"479","rensap","Red-naped Sapsucker","Sphyrapicus nuchalis","L36173025","Gunnison, Colorado, US (38.319, -106.938)","2025-05-26 05:57",2,38.3192851,-106.9378873,TRUE,FALSE,TRUE,"S242974559"
"480","rensap","Red-naped Sapsucker","Sphyrapicus nuchalis","L503161","Nebo Loop (Utah Co.)","2025-05-26 05:30",1,39.9425154,-111.6724148,TRUE,FALSE,FALSE,"S242996623"
"481","rensap","Red-naped Sapsucker","Sphyrapicus nuchalis","L1509538","Little Payette Lake","2025-05-25 21:45",1,44.9229855,-116.0400592,TRUE,FALSE,FALSE,"S242803758"
"482","rensap","Red-naped Sapsucker","Sphyrapicus nuchalis","L46008898","SR-65, Morgan US-UT (40.8326,-111.6515)","2025-05-25 20:39",1,40.832627,-111.651477,TRUE,FALSE,TRUE,"S242808616"
"483","rensap","Red-naped Sapsucker","Sphyrapicus nuchalis","L14533952","Hiawatha Estates","2025-05-25 20:06",1,43.5202291,-114.3044297,TRUE,FALSE,TRUE,"S242790894"
"484","rensap","Red-naped Sapsucker","Sphyrapicus nuchalis","L824314","Wildernest (community)","2025-05-25 19:13",2,39.6208299,-106.0907221,TRUE,FALSE,FALSE,"S243791681"
"485","rensap","Red-naped Sapsucker","Sphyrapicus nuchalis","L16018079","RUNNOFT","2025-05-25 19:04",1,46.16887,-113.297434,TRUE,FALSE,TRUE,"S244044814"
"486","rensap","Red-naped Sapsucker","Sphyrapicus nuchalis","L2259093","Cameron Bridge FAS","2025-05-25 17:21",1,45.73971,-111.21802,TRUE,FALSE,FALSE,"S242738022"
"487","rensap","Red-naped Sapsucker","Sphyrapicus nuchalis","L36155656","Snow Mountain Ranch--Waterfall Trail (restricted access)","2025-05-25 15:52",1,39.9728357,-105.9587966,TRUE,FALSE,FALSE,"S242706194"
"488","rensap","Red-naped Sapsucker","Sphyrapicus nuchalis","L46092338","Teller City Camp","2025-05-25 15:27",1,40.4356457,-106.0259957,TRUE,FALSE,TRUE,"S243212520"
"489","rensap","Red-naped Sapsucker","Sphyrapicus nuchalis","L3662812","Dike Road at China Cap Dam","2025-05-25 15:26",1,42.8407991,-111.5995683,TRUE,FALSE,FALSE,"S242713910"
"490","rensap","Red-naped Sapsucker","Sphyrapicus nuchalis","L19514372","Lamb's Canyon Trail","2025-05-25 15:15",1,40.716363,-111.66098,TRUE,FALSE,TRUE,"S242796336"
"491","rensap","Red-naped Sapsucker","Sphyrapicus nuchalis","L4677647","Mica Peak Conservation Area","2025-05-25 14:46",1,47.5830682,-117.1206093,TRUE,FALSE,FALSE,"S242741473"
"492","rensap","Red-naped Sapsucker","Sphyrapicus nuchalis","L46058658","Sanford Creek","2025-05-25 14:31",1,38.8047029,-106.4756322,TRUE,FALSE,TRUE,"S243065390"
"493","rensap","Red-naped Sapsucker","Sphyrapicus nuchalis","L7639593","Snow King Mountain","2025-05-25 14:30",2,43.4673103,-110.7660484,TRUE,FALSE,FALSE,"S244925112"
"494","rensap","Red-naped Sapsucker","Sphyrapicus nuchalis","L1587323","North Fork Canyon, WY","2025-05-25 14:24",1,42.8753557,-108.8674587,TRUE,FALSE,TRUE,"S242703454"
"495","rensap","Red-naped Sapsucker","Sphyrapicus nuchalis","L26296995","Greenway Trail Big Wood River","2025-05-25 14:13",1,43.515045,-114.320011,TRUE,FALSE,TRUE,"S242708793"
"496","rensap","Red-naped Sapsucker","Sphyrapicus nuchalis","L32458490","Eagle Cove trail (38.5428,-106.9485)","2025-05-25 14:13",1,38.542816,-106.948481,TRUE,FALSE,TRUE,"S243326461"
"497","rensap","Red-naped Sapsucker","Sphyrapicus nuchalis","L29225446","Little Cottonwood Canyon--Alta's Albion Base","2025-05-25 14:05",1,40.5903919,-111.6286684,TRUE,FALSE,FALSE,"S242721385"
"498","rensap","Red-naped Sapsucker","Sphyrapicus nuchalis","L11931521","Connor Creek","2025-05-25 13:45",2,40.649652,-106.1743503,TRUE,FALSE,TRUE,"S242675271"
"499","rensap","Red-naped Sapsucker","Sphyrapicus nuchalis","L46004593","Swan River—Floating the bendy section","2025-05-25 12:56",4,48.076605,-113.99798,TRUE,FALSE,TRUE,"S242787808"
"500","rensap","Red-naped Sapsucker","Sphyrapicus nuchalis","L9889814","Three Dollar Bridge FAS","2025-05-25 12:36",1,44.8309305,-111.5145262,TRUE,FALSE,FALSE,"S242699320"
"501","rensap","Red-naped Sapsucker","Sphyrapicus nuchalis","L46159893","Aspen Campground","2025-05-25 12:36",1,45.4562228,-110.1969038,TRUE,FALSE,TRUE,"S243551034"
"502","rensap","Red-naped Sapsucker","Sphyrapicus nuchalis","L34142795","Boulder Creek Road, Polson US-MT 47.74971, -114.01005","2025-05-25 12:31",1,47.749706,-114.010052,TRUE,FALSE,TRUE,"S242788370"
"503","rensap","Red-naped Sapsucker","Sphyrapicus nuchalis","L16053823","Sangre de Cristo Seminary","2025-05-25 12:10",1,38.0573402,-105.5273082,TRUE,FALSE,TRUE,"S243615902"
"504","rensap","Red-naped Sapsucker","Sphyrapicus nuchalis","L163614","California City Central Park","2025-05-25 12:06",1,35.1289,-117.9454722,TRUE,TRUE,FALSE,"S242699002"
"505","rensap","Red-naped Sapsucker","Sphyrapicus nuchalis","L19929126","Santa Fe NF - Borrego Mesa North","2025-05-25 12:00",1,35.9895773,-105.7850618,TRUE,FALSE,TRUE,"S242789010"
"506","rensap","Red-naped Sapsucker","Sphyrapicus nuchalis","L46073800","Cedar Flats Trails, Flathead NF","2025-05-25 12:00",2,48.3972971,-114.1927528,TRUE,FALSE,TRUE,"S243138575"
"507","rensap","Red-naped Sapsucker","Sphyrapicus nuchalis","L33473961","Blue Box Trail, Maupin US-OR 45.21039, -121.71523","2025-05-25 11:59",1,45.210392,-121.715227,TRUE,FALSE,TRUE,"S242760062"
"508","rensap","Red-naped Sapsucker","Sphyrapicus nuchalis","L35997527","Wolf Creek Ranch (private property)","2025-05-25 11:30",1,48.481359,-120.280187,TRUE,FALSE,TRUE,"S242742537"
"509","rensap","Red-naped Sapsucker","Sphyrapicus nuchalis","L46069483","Arapaho valley Ranch Campground","2025-05-25 11:07",1,40.1185256,-105.7560142,TRUE,FALSE,TRUE,"S243111820"
"510","rensap","Red-naped Sapsucker","Sphyrapicus nuchalis","L37933725","Boise NF--Penny Springs CG","2025-05-25 11:05",2,44.71024,-115.69599,TRUE,FALSE,TRUE,"S242645131"
"511","rensap","Red-naped Sapsucker","Sphyrapicus nuchalis","L1360026","*Heron Crossing Farm","2025-05-25 10:53",2,46.8684256,-114.0812491,TRUE,FALSE,TRUE,"S242693370"
"512","rensap","Red-naped Sapsucker","Sphyrapicus nuchalis","L28802840","El Rito","2025-05-25 10:34",1,36.8116418,-105.56761,TRUE,FALSE,TRUE,"S242565572"
"513","rensap","Red-naped Sapsucker","Sphyrapicus nuchalis","L1525597","Harris Residence","2025-05-25 10:30",1,45.7280063,-111.0574815,TRUE,FALSE,TRUE,"S242918953"
"514","rensap","Red-naped Sapsucker","Sphyrapicus nuchalis","L46092401","Moose Meadow","2025-05-25 10:28",1,40.4385545,-106.0433271,TRUE,FALSE,TRUE,"S243212820"
"515","rensap","Red-naped Sapsucker","Sphyrapicus nuchalis","L6293448","Middle Point Ridge Trail","2025-05-25 10:09",1,46.135657,-117.7987622,TRUE,FALSE,FALSE,"S242802458"
"516","rensap","Red-naped Sapsucker","Sphyrapicus nuchalis","L280284","Frantz Lake SWA","2025-05-25 10:01",1,38.5435336,-106.0224427,TRUE,FALSE,FALSE,"S242588716"
"517","rensap","Red-naped Sapsucker","Sphyrapicus nuchalis","L46320016","Milner Pass and Surrounding Region - Rocky Mountains NP","2025-05-25 09:48",1,40.4200205,-105.8100618,TRUE,FALSE,TRUE,"S244341703"
"518","rensap","Red-naped Sapsucker","Sphyrapicus nuchalis","L950669","Cow Creek Rd. (burned 2005)","2025-05-25 09:19",1,46.3277279,-114.2543793,TRUE,FALSE,FALSE,"S242561950"
"519","rensap","Red-naped Sapsucker","Sphyrapicus nuchalis","L926231","CO-Routt Ferndale Picnic Area","2025-05-25 09:18",1,40.3611301,-106.7736769,TRUE,FALSE,TRUE,"S242690614"
"520","rensap","Red-naped Sapsucker","Sphyrapicus nuchalis","L45995128","Chewuck River Hipcamp","2025-05-25 09:13",1,48.559902,-120.179364,TRUE,FALSE,TRUE,"S242740838"
"521","rensap","Red-naped Sapsucker","Sphyrapicus nuchalis","L45948167","894 Twisp River Road, Winthrop, Washington, US (48.375, -120.303)","2025-05-25 09:12",1,48.3745515,-120.3026735,TRUE,FALSE,TRUE,"S242541434"
"522","rensap","Red-naped Sapsucker","Sphyrapicus nuchalis","L1027531","Glacier NP--Lower Lake McDonald","2025-05-25 09:12",1,48.5361012,-113.9835396,TRUE,FALSE,FALSE,"S243219529"
"523","rensap","Red-naped Sapsucker","Sphyrapicus nuchalis","L2213275","Sacajawea Center","2025-05-25 09:07",1,45.1651704,-113.8659954,TRUE,FALSE,FALSE,"S242567609"
"524","rensap","Red-naped Sapsucker","Sphyrapicus nuchalis","L3756089","Mirror Lake Hwy--Lower Soapstone Basin Road","2025-05-25 09:04",2,40.5785051,-111.0481396,TRUE,FALSE,FALSE,"S243514209"
"525","rensap","Red-naped Sapsucker","Sphyrapicus nuchalis","L45945367","8205 S Vicari Rd, Spokane US-WA 47.57295, -117.22416","2025-05-25 09:01",1,47.572953,-117.224163,TRUE,FALSE,TRUE,"S242529727"
"526","rensap","Red-naped Sapsucker","Sphyrapicus nuchalis","L40113893","40 N Hunt Creek Rd, Coolin US-ID 48.56620, -116.83063","2025-05-25 08:52",1,48.566197,-116.830632,TRUE,FALSE,TRUE,"S242511615"
"527","rensap","Red-naped Sapsucker","Sphyrapicus nuchalis","L5383410","Grizzly Gulch Dr","2025-05-25 08:38",2,46.5579355,-112.0980549,TRUE,FALSE,TRUE,"S242562562"
"528","rensap","Red-naped Sapsucker","Sphyrapicus nuchalis","L45883941","9 Squirrel Ln, Red Lodge US-MT 45.09840, -109.31447","2025-05-25 08:38",3,45.0984,-109.314474,TRUE,FALSE,TRUE,"S242480457"
"529","rensap","Red-naped Sapsucker","Sphyrapicus nuchalis","L7375489","Dakota Ridge and Nearby","2025-05-25 08:35",1,40.4417476,-106.8390884,TRUE,FALSE,TRUE,"S243663230"
"530","rensap","Red-naped Sapsucker","Sphyrapicus nuchalis","L46476018","Dixie National Forest, Boulder US-UT 37.99570, -111.49556","2025-05-25 08:31",1,37.995701,-111.495563,TRUE,FALSE,TRUE,"S245065787"
"531","rensap","Red-naped Sapsucker","Sphyrapicus nuchalis","L45885231","MT-200, Ovando US-MT 47.02188, -113.29167","2025-05-25 08:29",1,47.021882,-113.291674,TRUE,FALSE,TRUE,"S242480470"
"532","rensap","Red-naped Sapsucker","Sphyrapicus nuchalis","L1502605","Cherry River FAS","2025-05-25 08:21",1,45.7110534,-111.0505077,TRUE,FALSE,FALSE,"S242536205"
"533","rensap","Red-naped Sapsucker","Sphyrapicus nuchalis","L45303167","Grimes Creek Road, Boise, Idaho, US (43.752, -115.974)","2025-05-25 08:20",2,43.7524311,-115.9740575,TRUE,FALSE,TRUE,"S242755821"
"534","rensap","Red-naped Sapsucker","Sphyrapicus nuchalis","L3092740","Grand Teton NP--Jenny Lake CG & Visitor Center","2025-05-25 08:19",1,43.7521252,-110.7223606,TRUE,FALSE,FALSE,"S242492456"
"535","rensap","Red-naped Sapsucker","Sphyrapicus nuchalis","L3743791","North Wenas Road","2025-05-25 08:16",1,46.9045271,-120.7248603,TRUE,FALSE,FALSE,"S242657537"
"536","rensap","Red-naped Sapsucker","Sphyrapicus nuchalis","L1571268","Oak Creek Wildlife Area","2025-05-25 08:10",1,46.7263214,-120.8236595,TRUE,FALSE,FALSE,"S242674978"
"537","rensap","Red-naped Sapsucker","Sphyrapicus nuchalis","L45951970","Hematite Creek","2025-05-25 08:01",1,37.833565,-107.601018,TRUE,FALSE,TRUE,"S242557326"
"538","rensap","Red-naped Sapsucker","Sphyrapicus nuchalis","L46086902","81128, Chromo US-CO 36.99998, -106.86904","2025-05-25 07:45",1,36.999982,-106.86904,TRUE,FALSE,TRUE,"S243187360"
"539","rensap","Red-naped Sapsucker","Sphyrapicus nuchalis","L35154125","Grand Teton NP--RKO Rd","2025-05-25 07:42",1,43.8201274,-110.6048441,TRUE,FALSE,TRUE,"S242813108"
"540","rensap","Red-naped Sapsucker","Sphyrapicus nuchalis","L24094530","1403 Kenwood Dr, Missoula US-MT 46.85785, -114.09658","2025-05-25 07:38",1,46.857852,-114.096578,TRUE,FALSE,TRUE,"S242441431"
"541","rensap","Red-naped Sapsucker","Sphyrapicus nuchalis","L8166483","Camp Ida Haven (private)","2025-05-25 07:37",1,44.9536968,-116.052659,TRUE,FALSE,FALSE,"S242416815"
"542","rensap","Red-naped Sapsucker","Sphyrapicus nuchalis","L11013670","AM Yard Birds, private","2025-05-25 07:34",1,45.6722526,-110.9344734,TRUE,FALSE,TRUE,"S242424577"
"543","rensap","Red-naped Sapsucker","Sphyrapicus nuchalis","L29873983","Chevallier Dr. South - Ranch HQ - Little Sheep Cr.","2025-05-25 07:15",1,46.8308851,-112.2021777,TRUE,FALSE,FALSE,"S242529530"
"544","rensap","Red-naped Sapsucker","Sphyrapicus nuchalis","L46008144","Highland Road","2025-05-25 07:00",2,45.7920919,-112.567933,TRUE,FALSE,TRUE,"S242804256"
"545","rensap","Red-naped Sapsucker","Sphyrapicus nuchalis","L15886833","Beaver Creek Campground","2025-05-25 06:46",1,44.8560513,-111.3741589,TRUE,FALSE,FALSE,"S243223603"
"546","rensap","Red-naped Sapsucker","Sphyrapicus nuchalis","L1070526","Wilson Meadow","2025-05-25 06:35",1,35.3407545,-111.7345726,TRUE,FALSE,FALSE,"S242598099"
"547","rensap","Red-naped Sapsucker","Sphyrapicus nuchalis","L827453","Stehekin--Golden West/Lake Shore Trail","2025-05-25 06:34",1,48.3080894,-120.6557178,TRUE,FALSE,FALSE,"S243589071"
"548","rensap","Red-naped Sapsucker","Sphyrapicus nuchalis","L45885873","Pole Cr TH Campsite, East Helena, Montana, US (46.455, -111.735)","2025-05-25 06:30",1,46.4548615,-111.7351422,TRUE,FALSE,TRUE,"S242638613"
"549","rensap","Red-naped Sapsucker","Sphyrapicus nuchalis","L2961788","Williams Fork Reservoir","2025-05-25 06:11",1,40.0165063,-106.2103271,TRUE,FALSE,FALSE,"S242493033"
"550","rensap","Red-naped Sapsucker","Sphyrapicus nuchalis","L45948473","F South Springs Road, Idaho, US (42.146, -114.248)","2025-05-25 06:00",1,42.1457613,-114.2481466,TRUE,FALSE,TRUE,"S242544720"
"551","rensap","Red-naped Sapsucker","Sphyrapicus nuchalis","L4777691","Thompson Ridge Road (NF 4410)","2025-05-25 05:39",1,48.3974299,-120.2746099,TRUE,FALSE,FALSE,"S243068812"
"552","rensap","Red-naped Sapsucker","Sphyrapicus nuchalis","L752925","Malheur NF--Idlewild Campground","2025-05-25 05:28",1,43.7991715,-118.9912891,TRUE,FALSE,FALSE,"S242502378"
"553","rensap","Red-naped Sapsucker","Sphyrapicus nuchalis","L109181","Kootenai NWR","2025-05-25 04:45",2,48.7166667,-116.4,TRUE,FALSE,FALSE,"S242651702"
