"","speciesCode","comName","sciName","locId","locName","obsDt","howMany","lat","lng","obsValid","obsReviewed","locationPrivate","subId"
"1","cintea","Cinnamon Teal","Spatula cyanoptera","L419819","Palisades Reservoir wetlands","2025-07-01 16:37",2,43.1377098,-111.0321339,TRUE,FALSE,FALSE,"S256042848"
"2","cintea","Cinnamon Teal","Spatula cyanoptera","L351152","Luna Lake","2025-07-01 14:50",1,33.829,-109.09,TRUE,FALSE,FALSE,"S256035856"
"3","cintea","Cinnamon Teal","Spatula cyanoptera","L503332","NE Broomfield County Pond and Area","2025-07-01 14:46",13,40.031262,-104.9635935,TRUE,FALSE,TRUE,"S256038300"
"4","cintea","Cinnamon Teal","Spatula cyanoptera","L3572935","Swan Lake Nature Study Area (IBA)--Boardwalk","2025-07-01 14:24",13,39.6531916,-119.856496,TRUE,FALSE,FALSE,"S256031858"
"5","cintea","Cinnamon Teal","Spatula cyanoptera","L109339","IRWD San Joaquin Marsh & Wildlife Sanctuary, Irvine","2025-07-01 13:10",10,33.6637274,-117.8426814,TRUE,FALSE,FALSE,"S256022641"
"6","cintea","Cinnamon Teal","Spatula cyanoptera","L273165","South Fork SRA","2025-07-01 12:54",10,40.6776438,-115.7598495,TRUE,FALSE,FALSE,"S256022902"
"7","cintea","Cinnamon Teal","Spatula cyanoptera","L3192597","Damonte Ranch Wetlands--Veterans Pkwy Lake and Wetlands","2025-07-01 11:31",2,39.4202899,-119.7332203,TRUE,FALSE,FALSE,"S256017082"
"8","cintea","Cinnamon Teal","Spatula cyanoptera","L493044","Philomath Sewage Ponds (restricted access)","2025-07-01 11:10",12,44.5185755,-123.3444586,TRUE,FALSE,FALSE,"S256006505"
"9","cintea","Cinnamon Teal","Spatula cyanoptera","L37806146","San Elijo Lagoon","2025-07-01 11:10",5,33.0112992,-117.2759835,TRUE,FALSE,TRUE,"S255998597"
"10","cintea","Cinnamon Teal","Spatula cyanoptera","L506053","Damonte Ranch Wetlands","2025-07-01 10:56",12,39.4275085,-119.7185326,TRUE,FALSE,FALSE,"S256017117"
"11","cintea","Cinnamon Teal","Spatula cyanoptera","L730351","Charleston Slough/Coast Casey Forebay","2025-07-01 10:52",2,37.4359191,-122.098918,TRUE,FALSE,FALSE,"S256003557"
"12","cintea","Cinnamon Teal","Spatula cyanoptera","L4682665","Bear Lake NWR--Dingle Unit","2025-07-01 10:32",2,42.2321105,-111.3492626,TRUE,FALSE,FALSE,"S255990392"
"13","cintea","Cinnamon Teal","Spatula cyanoptera","L17587512","Teton Springs","2025-07-01 10:32",2,43.5755116,-111.1092815,TRUE,FALSE,FALSE,"S255979533"
"14","cintea","Cinnamon Teal","Spatula cyanoptera","L12452035","Toothaker HMU--Riek Rd","2025-07-01 10:21",2,46.13885,-119.005142,TRUE,FALSE,FALSE,"S256009010"
"15","cintea","Cinnamon Teal","Spatula cyanoptera","L247312","Freezout Lake WMA","2025-07-01 10:10",8,47.6657859,-112.0112392,TRUE,FALSE,FALSE,"S255957943"
"16","cintea","Cinnamon Teal","Spatula cyanoptera","L1340956","Sleven's Island","2025-07-01 09:32",1,46.8388648,-114.0594485,TRUE,FALSE,FALSE,"S255946861"
"17","cintea","Cinnamon Teal","Spatula cyanoptera","L7276896","National Elk Refuge--Bert's Bench","2025-07-01 09:18",2,43.486779,-110.7611743,TRUE,FALSE,FALSE,"S255923716"
"18","cintea","Cinnamon Teal","Spatula cyanoptera","L728336","Thief Valley Reservoir (Union Co.)","2025-07-01 09:15",4,45.0229344,-117.785368,TRUE,FALSE,FALSE,"S255959410"
"19","cintea","Cinnamon Teal","Spatula cyanoptera","L613438","Klamath Wildlife Area--Miller Island Unit","2025-07-01 09:07",4,42.1551736,-121.8082073,TRUE,FALSE,FALSE,"S255959466"
"20","cintea","Cinnamon Teal","Spatula cyanoptera","L189487","Arcata Marsh and Wildlife Sanctuary","2025-07-01 09:06",1,40.857361,-124.094612,TRUE,FALSE,FALSE,"S255984720"
"21","cintea","Cinnamon Teal","Spatula cyanoptera","L151122","Antelope Island SP--Causeway","2025-07-01 09:05",4,41.08841,-112.186714,TRUE,FALSE,FALSE,"S256017219"
"22","cintea","Cinnamon Teal","Spatula cyanoptera","L1173410","Ducks Unlimited Warm Springs Ponds","2025-07-01 08:52",1,46.1809001,-112.8020382,TRUE,FALSE,FALSE,"S255925745"
"23","cintea","Cinnamon Teal","Spatula cyanoptera","L518546","Malheur NWR--Narrows","2025-07-01 08:48",5,43.2873151,-118.9591885,TRUE,FALSE,FALSE,"S255939596"
"24","cintea","Cinnamon Teal","Spatula cyanoptera","L266875","Willcox--Lake Cochise and Twin Lakes Golf Course","2025-07-01 08:42",6,32.2298515,-109.8243175,TRUE,FALSE,FALSE,"S256030047"
"25","cintea","Cinnamon Teal","Spatula cyanoptera","L2191941","Hwy. 205--Substation Pond","2025-07-01 08:31",7,43.4971413,-119.0183258,TRUE,FALSE,FALSE,"S255936042"
"26","cintea","Cinnamon Teal","Spatula cyanoptera","L776809","Sunnyvale WPCP--East Pond","2025-07-01 08:25",2,37.4286605,-122.0139885,TRUE,FALSE,FALSE,"S256027154"
"27","cintea","Cinnamon Teal","Spatula cyanoptera","L7891405","Coyote Hills Regional Park--Bayview Trail","2025-07-01 08:20",2,37.5555213,-122.0973514,TRUE,FALSE,FALSE,"S255963855"
"28","cintea","Cinnamon Teal","Spatula cyanoptera","L1471763","Potter Swamp Rd.","2025-07-01 08:11",1,43.5044624,-119.0820007,TRUE,FALSE,FALSE,"S255924416"
"29","cintea","Cinnamon Teal","Spatula cyanoptera","L207664","Las Gallinas Valley Sanitary District","2025-07-01 08:03",2,38.0274109,-122.515583,TRUE,FALSE,FALSE,"S255996311"
"30","cintea","Cinnamon Teal","Spatula cyanoptera","L3753646","San Luis Rey River--Douglas to College (including M. B. Park)","2025-07-01 08:02",1,33.2417057,-117.3048326,TRUE,FALSE,FALSE,"S255947466"
"31","cintea","Cinnamon Teal","Spatula cyanoptera","L580373","Tualatin River NWR","2025-07-01 08:00",1,45.3811203,-122.8353667,TRUE,FALSE,FALSE,"S256011192"
"32","cintea","Cinnamon Teal","Spatula cyanoptera","L14726795","Sands Lake State Wildlife Area, Salida US-CO 38.54331, -106.00295","2025-07-01 07:28",1,38.543312,-106.002946,TRUE,FALSE,TRUE,"S255927444"
"33","cintea","Cinnamon Teal","Spatula cyanoptera","L39474607","Zia WTP (Restricted)","2025-07-01 07:23",1,35.500822,-106.724402,TRUE,FALSE,TRUE,"S255889404"
"34","cintea","Cinnamon Teal","Spatula cyanoptera","L622135","Bountiful Pond","2025-07-01 07:20",5,40.9057611,-111.9219303,TRUE,FALSE,FALSE,"S255937673"
"35","cintea","Cinnamon Teal","Spatula cyanoptera","L448084","Woodland WTP","2025-07-01 07:15",30,38.6624345,-121.7173585,TRUE,FALSE,FALSE,"S255977343"
"36","cintea","Cinnamon Teal","Spatula cyanoptera","L473873","Plaster Reservoir","2025-07-01 07:14",4,39.947253,-105.0286102,TRUE,FALSE,FALSE,"S255916063"
"37","cintea","Cinnamon Teal","Spatula cyanoptera","L2263572","San Joaquin Wildlife Sanctuary--Fledgling Loop Trail","2025-07-01 07:12",18,33.6609892,-117.8437141,TRUE,FALSE,FALSE,"S255941776"
"38","cintea","Cinnamon Teal","Spatula cyanoptera","L5123059","Kaibeto WTP","2025-07-01 07:09",1,36.5970278,-111.0830855,TRUE,FALSE,FALSE,"S255885596"
"39","cintea","Cinnamon Teal","Spatula cyanoptera","L4665721","Indreland Audubon Wetland Preserve","2025-07-01 07:08",2,45.681485,-111.0178714,TRUE,FALSE,FALSE,"S255925614"
"40","cintea","Cinnamon Teal","Spatula cyanoptera","L38167073","Salish Hills Drive 20 acre yard","2025-07-01 06:46",1,47.5541904,-114.300079,TRUE,FALSE,TRUE,"S255894112"
"41","cintea","Cinnamon Teal","Spatula cyanoptera","L4685426","Latah County Landfill--Front Ponds","2025-07-01 06:40",2,46.7141939,-116.8997133,TRUE,FALSE,FALSE,"S255930260"
"42","cintea","Cinnamon Teal","Spatula cyanoptera","L845398","Rio Grande Valley SP--Tingley Beach Bosque Trails","2025-07-01 06:36",12,35.0807861,-106.6717958,TRUE,FALSE,FALSE,"S255910390"
"43","cintea","Cinnamon Teal","Spatula cyanoptera","L41398482","Zia Reservoir","2025-07-01 06:15",1,35.5286156,-106.7578337,TRUE,FALSE,FALSE,"S255882802"
"44","cintea","Cinnamon Teal","Spatula cyanoptera","L5987280","Crooked River Wetlands Complex","2025-07-01 06:12",NA,44.3165109,-120.897857,TRUE,FALSE,FALSE,"S255919484"
"45","cintea","Cinnamon Teal","Spatula cyanoptera","L209342","Henderson Bird Viewing Preserve","2025-07-01 06:08",12,36.0749791,-115.0021416,TRUE,FALSE,FALSE,"S255915560"
"46","cintea","Cinnamon Teal","Spatula cyanoptera","L18239109","Silver Creek North and South Hwy 26","2025-06-30 20:59",2,43.2457549,-113.9953717,TRUE,FALSE,FALSE,"S255785576"
"47","cintea","Cinnamon Teal","Spatula cyanoptera","L988303","Bicknell Bottoms--400 W","2025-06-30 20:31",1,38.3098746,-111.5516138,TRUE,FALSE,FALSE,"S255787960"
"48","cintea","Cinnamon Teal","Spatula cyanoptera","L48863955","59917, Eureka US-MT (48.8238,-114.9640)","2025-06-30 20:15",1,48.823805,-114.963974,TRUE,FALSE,TRUE,"S255883356"
"49","cintea","Cinnamon Teal","Spatula cyanoptera","L1576429","Malheur NWR--Sodhouse Ln.","2025-06-30 19:36",2,43.2699566,-118.8691263,TRUE,FALSE,FALSE,"S255785942"
"50","cintea","Cinnamon Teal","Spatula cyanoptera","L339165","North Diversion Channel Outflow (East of Fourth Street Bridge only)","2025-06-30 19:25",3,35.2084325,-106.6051265,TRUE,FALSE,FALSE,"S255777490"
"51","cintea","Cinnamon Teal","Spatula cyanoptera","L5988406","Fern Ridge WMA--Fisher Butte Unit north (dikes around Pond 4, 5, 6, and west edge of 3)","2025-06-30 18:51",2,44.0667313,-123.263855,TRUE,FALSE,FALSE,"S255798657"
"52","cintea","Cinnamon Teal","Spatula cyanoptera","L168559","Provo Airport Dike","2025-06-30 18:47",6,40.2186598,-111.7285157,TRUE,FALSE,FALSE,"S255775175"
"53","cintea","Cinnamon Teal","Spatula cyanoptera","L9035928","Freezout Lake WMA--Pond 1","2025-06-30 18:44",4,47.7085989,-112.063156,TRUE,FALSE,FALSE,"S255794839"
"54","cintea","Cinnamon Teal","Spatula cyanoptera","L5979809","Farmington Bay WMA -- trails east of GSL Nature Center","2025-06-30 18:40",2,40.9625751,-111.9225526,TRUE,FALSE,TRUE,"S255794816"
"55","cintea","Cinnamon Teal","Spatula cyanoptera","L241530","Smith Reservoir SWA","2025-06-30 18:20",2,37.3919965,-105.534457,TRUE,FALSE,FALSE,"S255777374"
"56","cintea","Cinnamon Teal","Spatula cyanoptera","L1299729","West Valley Ponds","2025-06-30 17:48",NA,48.2745105,-114.3729973,TRUE,FALSE,FALSE,"S255761729"
"57","cintea","Cinnamon Teal","Spatula cyanoptera","L208918","Sweetwater Wetlands","2025-06-30 17:38",1,32.2790144,-111.0216061,TRUE,FALSE,FALSE,"S255763199"
"58","cintea","Cinnamon Teal","Spatula cyanoptera","L589213","Modoc NWR","2025-06-30 16:28",14,41.4575229,-120.5219078,TRUE,FALSE,FALSE,"S256016293"
"59","cintea","Cinnamon Teal","Spatula cyanoptera","L140460","Big Johnson Reservoir & Bluestem Prairie Open Space","2025-06-30 16:10",4,38.7482319,-104.6943795,TRUE,FALSE,FALSE,"S255783283"
"60","cintea","Cinnamon Teal","Spatula cyanoptera","L2396926","Alamosa NWR--Auto Tour Route","2025-06-30 16:10",2,37.4385003,-105.8016819,TRUE,FALSE,FALSE,"S255778102"
"61","cintea","Cinnamon Teal","Spatula cyanoptera","L212070","Glover Lane & GSL Nature Center","2025-06-30 15:42",1,40.9650238,-111.9299004,TRUE,FALSE,FALSE,"S255733029"
"62","cintea","Cinnamon Teal","Spatula cyanoptera","L1979614","Tule Lake NWR--Auto Tour and Sump 1A","2025-06-30 15:30",5,41.8776136,-121.5273285,TRUE,FALSE,FALSE,"S255802424"
"63","cintea","Cinnamon Teal","Spatula cyanoptera","L592967","Ridgefield NWR--River 'S' Unit","2025-06-30 14:19",3,45.7990694,-122.7490082,TRUE,FALSE,FALSE,"S255753201"
"64","cintea","Cinnamon Teal","Spatula cyanoptera","L271485","Arcata Marsh--Oxidation Ponds","2025-06-30 14:12",2,40.8511728,-124.0891591,TRUE,FALSE,FALSE,"S255728294"
"65","cintea","Cinnamon Teal","Spatula cyanoptera","L165048","Farmington Bay WMA","2025-06-30 13:55",2,40.955141,-111.9191396,TRUE,FALSE,FALSE,"S255721164"
"66","cintea","Cinnamon Teal","Spatula cyanoptera","L726903","Fort Stockton WTP","2025-06-30 13:48",1,30.912461,-102.8798819,TRUE,FALSE,FALSE,"S255694798"
"67","cintea","Cinnamon Teal","Spatula cyanoptera","L657546","Lower Klamath NWR--Auto Tour Route","2025-06-30 13:06",NA,41.9717075,-121.7260158,TRUE,FALSE,FALSE,"S255735761"
"68","cintea","Cinnamon Teal","Spatula cyanoptera","L8048098","North of Narrows a couple miles on 205","2025-06-30 12:44",3,43.3177015,-118.9761461,TRUE,FALSE,TRUE,"S255700514"
"69","cintea","Cinnamon Teal","Spatula cyanoptera","L5213487","Hillside Playa","2025-06-30 12:34",4,35.1407276,-101.9540405,TRUE,FALSE,TRUE,"S255712860"
"70","cintea","Cinnamon Teal","Spatula cyanoptera","L498314","Tualatin River NWR--Atfálat'i Unit","2025-06-30 12:11",6,45.3817834,-122.8312254,TRUE,FALSE,FALSE,"S255699691"
"71","cintea","Cinnamon Teal","Spatula cyanoptera","L131620","Cheraw Lake","2025-06-30 11:52",5,38.1007663,-103.5127017,TRUE,FALSE,FALSE,"S255676629"
"72","cintea","Cinnamon Teal","Spatula cyanoptera","L1783628","Mallard Pond","2025-06-30 11:49",2,38.9409964,-104.5784371,TRUE,FALSE,FALSE,"S255749605"
"73","cintea","Cinnamon Teal","Spatula cyanoptera","L837378","Peytonia Slough Ecological Reserve","2025-06-30 11:30",2,38.2310338,-122.0402527,TRUE,FALSE,FALSE,"S255792869"
"74","cintea","Cinnamon Teal","Spatula cyanoptera","L3017692","Ray Lake Marsh","2025-06-30 11:28",5,42.9631122,-108.8365746,TRUE,FALSE,FALSE,"S255992665"
"75","cintea","Cinnamon Teal","Spatula cyanoptera","L25239248","Los Alamitos Retarding Basin","2025-06-30 10:52",4,33.7546211,-118.0922973,TRUE,FALSE,FALSE,"S255671704"
"76","cintea","Cinnamon Teal","Spatula cyanoptera","L4121740","Bolsa Chica--Brightwater area","2025-06-30 10:43",6,33.7074915,-118.0453974,TRUE,FALSE,FALSE,"S255740727"
"77","cintea","Cinnamon Teal","Spatula cyanoptera","L109301","Monte Vista NWR","2025-06-30 10:37",3,37.4876656,-106.1308691,TRUE,FALSE,FALSE,"S255657009"
"78","cintea","Cinnamon Teal","Spatula cyanoptera","L7209244","Muddy Creek Wetlands","2025-06-30 10:37",6,41.3186888,-107.7732182,TRUE,FALSE,FALSE,"S255684749"
"79","cintea","Cinnamon Teal","Spatula cyanoptera","L247318","Benton Lake NWR","2025-06-30 10:34",18,47.6641904,-111.3007221,TRUE,FALSE,FALSE,"S255699576"
"80","cintea","Cinnamon Teal","Spatula cyanoptera","L1236105","La Grande Waste Water Treatment Ponds","2025-06-30 10:20",3,45.2869651,-118.0295563,TRUE,FALSE,FALSE,"S255715582"
"81","cintea","Cinnamon Teal","Spatula cyanoptera","L7982993","Hot Creek Geological Site","2025-06-30 10:00",4,37.6608212,-118.8286624,TRUE,FALSE,FALSE,"S255710656"
"82","cintea","Cinnamon Teal","Spatula cyanoptera","L484226","McNary NWR--Casey Pond","2025-06-30 09:58",4,46.1618205,-118.9552402,TRUE,FALSE,FALSE,"S255649350"
"83","cintea","Cinnamon Teal","Spatula cyanoptera","L11819492","Rocky Mountain Arsenal NWR--Havana Ponds and Trail","2025-06-30 09:47",2,39.8056448,-104.8574796,TRUE,FALSE,FALSE,"S255701881"
"84","cintea","Cinnamon Teal","Spatula cyanoptera","L2155703","CommonGround (Westerly) Wetlands","2025-06-30 09:37",4,39.7162984,-104.885788,TRUE,FALSE,FALSE,"S255645737"
"85","cintea","Cinnamon Teal","Spatula cyanoptera","L515634","Arapaho NWR--Auto Loop","2025-06-30 09:21",4,40.6686604,-106.322937,TRUE,FALSE,FALSE,"S255640523"
"86","cintea","Cinnamon Teal","Spatula cyanoptera","L1446284","downham pond","2025-06-30 09:00",12,42.8558261,-108.7437897,TRUE,FALSE,TRUE,"S255631435"
"87","cintea","Cinnamon Teal","Spatula cyanoptera","L375766","Toledo Pits ","2025-06-30 08:59",2,36.0543555,-119.4070315,TRUE,FALSE,FALSE,"S255637238"
"88","cintea","Cinnamon Teal","Spatula cyanoptera","L1295310","Bufferlands--Upper Beach Lake (limited access)","2025-06-30 08:53",2,38.4496454,-121.4852086,TRUE,FALSE,FALSE,"S255677636"
"89","cintea","Cinnamon Teal","Spatula cyanoptera","L216132","Coyote Hills Regional Park","2025-06-30 08:35",5,37.553764,-122.0875025,TRUE,FALSE,FALSE,"S255658058"
"90","cintea","Cinnamon Teal","Spatula cyanoptera","L1294688","Sacramento Reg Wastewater Treatment Plant (limited access)","2025-06-30 07:47",1,38.4407495,-121.4792633,TRUE,FALSE,FALSE,"S255619357"
"91","cintea","Cinnamon Teal","Spatula cyanoptera","L4905178","Yellowstone NP--Hellroaring Creek Trail","2025-06-30 07:41",3,44.9495226,-110.4499555,TRUE,FALSE,FALSE,"S255688782"
"92","cintea","Cinnamon Teal","Spatula cyanoptera","L1743855","Lake Elsinore--south levee and back basin","2025-06-30 07:25",8,33.6427729,-117.3317176,TRUE,FALSE,FALSE,"S255785276"
"93","cintea","Cinnamon Teal","Spatula cyanoptera","L163561","San Jacinto Wildlife Area","2025-06-30 07:20",3,33.8854488,-117.104104,TRUE,FALSE,FALSE,"S255714786"
"94","cintea","Cinnamon Teal","Spatula cyanoptera","L164961","Bear River MBR--Auto Tour Loop","2025-06-30 07:15",40,41.4692291,-112.2947788,TRUE,FALSE,FALSE,"S255617712"
"95","cintea","Cinnamon Teal","Spatula cyanoptera","L140473","Cherry Creek SP","2025-06-30 06:52",3,39.6402646,-104.8538589,TRUE,FALSE,FALSE,"S255645979"
"96","cintea","Cinnamon Teal","Spatula cyanoptera","L2161814","South Park Wildlife Habitat Management Area","2025-06-30 06:44",7,43.3965039,-110.7767773,TRUE,FALSE,FALSE,"S255622387"
"97","cintea","Cinnamon Teal","Spatula cyanoptera","L573594","Tulare WTP","2025-06-30 06:44",4,36.1807372,-119.3752957,TRUE,FALSE,FALSE,"S255625883"
"98","cintea","Cinnamon Teal","Spatula cyanoptera","L2494220","Pagosa Springs--San Juan River Walk","2025-06-30 06:30",2,37.2658234,-107.011106,TRUE,FALSE,FALSE,"S255625341"
"99","cintea","Cinnamon Teal","Spatula cyanoptera","L10989938","Keyhole SP--Brandenburg Loop, Beach CG, and Coulter Bay CG","2025-06-30 05:49",3,44.3698629,-104.7956075,TRUE,FALSE,FALSE,"S255575039"
"100","cintea","Cinnamon Teal","Spatula cyanoptera","L742936","Malheur NWR (general)","2025-06-30",NA,43.2053426,-118.9297485,TRUE,FALSE,FALSE,"S255913268"
"101","cintea","Cinnamon Teal","Spatula cyanoptera","L878382","Hayspur Fish Hatchery","2025-06-29 21:42",3,43.3398492,-114.1469193,TRUE,FALSE,FALSE,"S255479997"
"102","cintea","Cinnamon Teal","Spatula cyanoptera","L48779441","Carey, Idaho, US (43.477, -114.003)","2025-06-29 21:35",16,43.4774618,-114.0030952,TRUE,FALSE,TRUE,"S255479579"
"103","cintea","Cinnamon Teal","Spatula cyanoptera","L389873","Ashland Pond","2025-06-29 19:39",4,42.2151297,-122.7198815,TRUE,FALSE,FALSE,"S255476620"
"104","cintea","Cinnamon Teal","Spatula cyanoptera","L925450","Hebgen Lake--Grayling Arm","2025-06-29 19:33",2,44.7972567,-111.1744959,TRUE,FALSE,FALSE,"S255467094"
"105","cintea","Cinnamon Teal","Spatula cyanoptera","L44787720","BUFFALO LAKE","2025-06-29 19:00",2,34.882519,-102.129846,TRUE,FALSE,TRUE,"S255470119"
"106","cintea","Cinnamon Teal","Spatula cyanoptera","L9957821","Yellowstone NP--Madison Canyon turnout","2025-06-29 17:37",2,44.6398667,-110.8824894,TRUE,FALSE,FALSE,"S255457609"
"107","cintea","Cinnamon Teal","Spatula cyanoptera","L1532020","San Dieguito Lagoon--Southeast & Dust Devil Trails","2025-06-29 17:21",1,32.9696861,-117.2395813,TRUE,FALSE,FALSE,"S255466844"
"108","cintea","Cinnamon Teal","Spatula cyanoptera","L14074261","AZ, Page, WTP","2025-06-29 16:58",3,36.9118911,-111.4874881,TRUE,FALSE,TRUE,"S255728047"
"109","cintea","Cinnamon Teal","Spatula cyanoptera","L35254296","Chatfield State Park, Littleton US-CO 39.52105, -105.07721","2025-06-29 16:55",1,39.521054,-105.077214,TRUE,FALSE,TRUE,"S255442831"
"110","cintea","Cinnamon Teal","Spatula cyanoptera","L12939267","Bosque del Apache National Wildlife Refuge, Socorro US-NM 33.79967, -106.88914","2025-06-29 16:34",2,33.799673,-106.889136,TRUE,FALSE,TRUE,"S255450201"
"111","cintea","Cinnamon Teal","Spatula cyanoptera","L383742","Lake Hemet","2025-06-29 16:32",3,33.6666396,-116.6917992,TRUE,FALSE,FALSE,"S255458763"
"112","cintea","Cinnamon Teal","Spatula cyanoptera","L476174","Skagit Wildlife Area--Wylie Slough","2025-06-29 16:20",2,48.3246351,-122.3741287,TRUE,FALSE,FALSE,"S255476580"
"113","cintea","Cinnamon Teal","Spatula cyanoptera","L279404","Las Vegas NWR","2025-06-29 16:09",10,35.548848,-105.1583862,TRUE,FALSE,FALSE,"S255477161"
"114","cintea","Cinnamon Teal","Spatula cyanoptera","L3690518","Yellowstone NP--Hayden Valley--Trout Creek area","2025-06-29 16:05",NA,44.6465135,-110.4584098,TRUE,FALSE,FALSE,"S255646013"
"115","cintea","Cinnamon Teal","Spatula cyanoptera","L6326941","Lexington St. Pond and wetlands","2025-06-29 15:41",2,45.9902219,-112.5300783,TRUE,FALSE,FALSE,"S255405888"
"116","cintea","Cinnamon Teal","Spatula cyanoptera","L1627403","Yellowstone NP--Pelican Creek","2025-06-29 15:28",1,44.557846,-110.3626563,TRUE,FALSE,FALSE,"S255412364"
"117","cintea","Cinnamon Teal","Spatula cyanoptera","L351237","Show Low Lake","2025-06-29 15:00",4,34.1905296,-110.0027334,TRUE,FALSE,FALSE,"S255458694"
"118","cintea","Cinnamon Teal","Spatula cyanoptera","L9976538","Creston Sewage Ponds","2025-06-29 14:47",1,47.7621521,-118.5259544,TRUE,FALSE,TRUE,"S255464377"
"119","cintea","Cinnamon Teal","Spatula cyanoptera","L48764903","Arapaho National Wildlife Refuge, Walden US-CO 40.67906, -106.30642","2025-06-29 14:17",8,40.679062,-106.306416,TRUE,FALSE,TRUE,"S255414007"
"120","cintea","Cinnamon Teal","Spatula cyanoptera","L48761716","CA-41, Stratford US-CA 36.07239, -119.92734","2025-06-29 14:17",2,36.07239,-119.927339,TRUE,FALSE,TRUE,"S255401134"
"121","cintea","Cinnamon Teal","Spatula cyanoptera","L48764906","Arapaho National Wildlife Refuge, Walden US-CO 40.67899, -106.30125","2025-06-29 14:10",8,40.678987,-106.301246,TRUE,FALSE,TRUE,"S255414023"
"122","cintea","Cinnamon Teal","Spatula cyanoptera","L749035","Arapaho NWR--east side Hwy. 125 access","2025-06-29 13:43",4,40.65505,-106.27998,TRUE,FALSE,FALSE,"S255391403"
"123","cintea","Cinnamon Teal","Spatula cyanoptera","L1259871","Tahoe Marsh--via San Francisco Ave.","2025-06-29 13:12",2,38.9397508,-119.9931049,TRUE,FALSE,FALSE,"S255404486"
"124","cintea","Cinnamon Teal","Spatula cyanoptera","L4142809","Cabot-Forbes Path","2025-06-29 12:57",10,33.562862,-117.6755512,TRUE,FALSE,FALSE,"S255380625"
"125","cintea","Cinnamon Teal","Spatula cyanoptera","L695607","Owens Lake--westside delta ponds (T36s)","2025-06-29 12:49",30,36.5135522,-117.9787226,TRUE,FALSE,FALSE,"S255406368"
"126","cintea","Cinnamon Teal","Spatula cyanoptera","L157588","Camas Centennial Marsh","2025-06-29 12:21",3,43.26451,-114.99878,TRUE,FALSE,FALSE,"S255358689"
"127","cintea","Cinnamon Teal","Spatula cyanoptera","L888474","Walden Reservoir--SE side","2025-06-29 12:19",2,40.7251123,-106.2990332,TRUE,FALSE,FALSE,"S255380754"
"128","cintea","Cinnamon Teal","Spatula cyanoptera","L444656","Summer Lake Wildlife Area","2025-06-29 12:10",2,42.950819,-120.7639503,TRUE,FALSE,FALSE,"S255377757"
"129","cintea","Cinnamon Teal","Spatula cyanoptera","L166589","Big Lake","2025-06-29 11:40",2,45.88409,-109.046524,TRUE,FALSE,FALSE,"S255777559"
"130","cintea","Cinnamon Teal","Spatula cyanoptera","L159573","Baskett Slough NWR","2025-06-29 11:19",10,44.9614021,-123.257246,TRUE,FALSE,FALSE,"S255408019"
"131","cintea","Cinnamon Teal","Spatula cyanoptera","L271593","Flat Creek Wildlife Observation Point and Marshes","2025-06-29 11:15",3,43.4908574,-110.7611319,TRUE,FALSE,FALSE,"S255374516"
"132","cintea","Cinnamon Teal","Spatula cyanoptera","L7797854","Don Edwards NWR--Env. Ed. Ctr. (EEC) and nearby upland areas","2025-06-29 11:10",2,37.438916,-121.959456,TRUE,FALSE,FALSE,"S255342288"
"133","cintea","Cinnamon Teal","Spatula cyanoptera","L168162","Sweitzer Lake SP","2025-06-29 10:36",2,38.712734,-108.032265,TRUE,FALSE,FALSE,"S255333363"
"134","cintea","Cinnamon Teal","Spatula cyanoptera","L2145511","Cokeville Meadows NWR","2025-06-29 10:34",7,41.93089,-110.975647,TRUE,FALSE,FALSE,"S255395471"
"135","cintea","Cinnamon Teal","Spatula cyanoptera","L12968236","Bolsa Chica Ecological Reserve-Backside (restricted access)","2025-06-29 10:10",9,33.7025628,-118.035571,TRUE,FALSE,FALSE,"S255370589"
"136","cintea","Cinnamon Teal","Spatula cyanoptera","L1117941","Rio Fernando Wetlands (Fred Baca Park and adjacent Rio Fernando Park)","2025-06-29 10:00",2,36.3991437,-105.5896854,TRUE,TRUE,FALSE,"S255493451"
"137","cintea","Cinnamon Teal","Spatula cyanoptera","L8077830","Coyote Hills Regional Park, Fremont US-CA (37.5536,-122.0906)","2025-06-29 09:59",13,37.553636,-122.090554,TRUE,FALSE,TRUE,"S255417110"
"138","cintea","Cinnamon Teal","Spatula cyanoptera","L1357335","Huntington Central Park--East","2025-06-29 09:52",6,33.7040978,-118.0022383,TRUE,FALSE,FALSE,"S255355645"
"139","cintea","Cinnamon Teal","Spatula cyanoptera","L211851","Avra Valley WTP","2025-06-29 09:50",2,32.165,-111.179,TRUE,FALSE,FALSE,"S255320138"
"140","cintea","Cinnamon Teal","Spatula cyanoptera","L4766090","Yellowstone NP--Specimen Ridge Trail, West End","2025-06-29 09:45",8,44.9118446,-110.3873795,TRUE,FALSE,FALSE,"S255451071"
"141","cintea","Cinnamon Teal","Spatula cyanoptera","L771915","Grand Teton NP--Jackson Lake Dam area","2025-06-29 09:29",1,43.8581111,-110.5886364,TRUE,FALSE,FALSE,"S255285377"
"142","cintea","Cinnamon Teal","Spatula cyanoptera","L48747021","Don Edwards Wildlife","2025-06-29 09:20",2,37.497324,-122.128478,TRUE,FALSE,TRUE,"S255342837"
"143","cintea","Cinnamon Teal","Spatula cyanoptera","L2971798","Yellowstone NP--Little America area","2025-06-29 09:18",2,44.9047666,-110.3635883,TRUE,FALSE,FALSE,"S255451169"
"144","cintea","Cinnamon Teal","Spatula cyanoptera","L46767018","Clark Canyon Reservoir--Horse Prairie Inlet","2025-06-29 09:15",4,44.9760834,-112.9183384,TRUE,FALSE,FALSE,"S255348221"
"145","cintea","Cinnamon Teal","Spatula cyanoptera","L2061094","Duck Creek Pond","2025-06-29 09:08",1,44.7776922,-111.1000156,TRUE,FALSE,FALSE,"S255311362"
"146","cintea","Cinnamon Teal","Spatula cyanoptera","L3543611","Fernhill Wetlands--Natural Treatment System (ASoP/CWS survey)","2025-06-29 09:08",5,45.507174,-123.0879879,TRUE,FALSE,FALSE,"S255352143"
"147","cintea","Cinnamon Teal","Spatula cyanoptera","L247311","Lee Metcalf NWR","2025-06-29 08:42",1,46.5553628,-114.0762529,TRUE,FALSE,FALSE,"S255320360"
"148","cintea","Cinnamon Teal","Spatula cyanoptera","L867201","Diamond Lake--sewage ponds (restricted access)","2025-06-29 08:36",2,43.1853403,-122.1426487,TRUE,FALSE,FALSE,"S255291833"
"149","cintea","Cinnamon Teal","Spatula cyanoptera","L338916","Stagecoach SP","2025-06-29 08:35",2,40.277837,-106.8559887,TRUE,FALSE,FALSE,"S255368763"
"150","cintea","Cinnamon Teal","Spatula cyanoptera","L48753794","Charleston Slough and creek","2025-06-29 08:32",6,37.439541,-122.0969892,TRUE,FALSE,TRUE,"S255373079"
"151","cintea","Cinnamon Teal","Spatula cyanoptera","L48778919","Maxwell National Wildlife Refuge, Maxwell US-NM 36.55143, -104.59982","2025-06-29 08:31",4,36.551434,-104.59982,TRUE,FALSE,TRUE,"S255477048"
"152","cintea","Cinnamon Teal","Spatula cyanoptera","L265647","Maxwell NWR","2025-06-29 08:31",4,36.5688651,-104.5815831,TRUE,FALSE,FALSE,"S255732807"
"153","cintea","Cinnamon Teal","Spatula cyanoptera","L5531828","San Simeon Creek Mouth/Beach","2025-06-29 08:22",2,35.5956267,-121.1267052,TRUE,FALSE,FALSE,"S255427084"
"154","cintea","Cinnamon Teal","Spatula cyanoptera","L3858879","Baskett Slough NWR--South Slough transect path","2025-06-29 08:14",6,44.9562801,-123.2571548,TRUE,FALSE,FALSE,"S255365888"
"155","cintea","Cinnamon Teal","Spatula cyanoptera","L264663","Kachina Wetlands","2025-06-29 08:12",3,35.1096843,-111.6895866,TRUE,FALSE,FALSE,"S255357904"
"156","cintea","Cinnamon Teal","Spatula cyanoptera","L737396","Fruitgrowers Reservoir--North Road Causeway","2025-06-29 08:08",1,38.8422327,-107.9353952,TRUE,FALSE,FALSE,"S255288165"
"157","cintea","Cinnamon Teal","Spatula cyanoptera","L15963475","IRWD San Joaquin Marsh","2025-06-29 08:05",8,33.660325,-117.841798,TRUE,FALSE,TRUE,"S255308810"
"158","cintea","Cinnamon Teal","Spatula cyanoptera","L1017276","CJ Strike WMA--Bruneau Duck Ponds","2025-06-29 08:02",10,42.927,-115.719,TRUE,FALSE,FALSE,"S255268433"
"159","cintea","Cinnamon Teal","Spatula cyanoptera","L48726815","Burbank Slough Wildlife Trail, Burbank US-WA 46.20639, -118.99351","2025-06-29 07:50",1,46.206394,-118.993508,TRUE,FALSE,TRUE,"S255261819"
"160","cintea","Cinnamon Teal","Spatula cyanoptera","L451055","Sorrento Valley Ponds","2025-06-29 07:50",1,32.922513,-117.2393265,TRUE,FALSE,FALSE,"S255270687"
"161","cintea","Cinnamon Teal","Spatula cyanoptera","L784758","McManamen Park","2025-06-29 07:43",1,44.3013701,-105.4975891,TRUE,FALSE,FALSE,"S255248875"
"162","cintea","Cinnamon Teal","Spatula cyanoptera","L6180124","Mormon Lake Overlook","2025-06-29 07:35",8,34.962972,-111.4383173,TRUE,FALSE,FALSE,"S255267341"
"163","cintea","Cinnamon Teal","Spatula cyanoptera","L4651503","Denman WMA--Ave. G and Ave. H ponds","2025-06-29 07:24",1,42.4395971,-122.8673269,TRUE,FALSE,FALSE,"S255402588"
"164","cintea","Cinnamon Teal","Spatula cyanoptera","L459816","Santa Fe Dam Rec. Area","2025-06-29 07:18",1,34.1113782,-117.9507637,TRUE,FALSE,FALSE,"S255286119"
"165","cintea","Cinnamon Teal","Spatula cyanoptera","L2172224","Ralston Reservoir","2025-06-29 07:14",2,44.7142939,-108.8918495,TRUE,FALSE,FALSE,"S255252434"
"166","cintea","Cinnamon Teal","Spatula cyanoptera","L150417","Steigerwald Lake NWR","2025-06-29 07:10",1,45.5676572,-122.3147392,TRUE,FALSE,FALSE,"S255344383"
"167","cintea","Cinnamon Teal","Spatula cyanoptera","L370829","Salton Sea--W Bowles Rd. - west end","2025-06-29 07:02",3,33.1178563,-115.6789112,TRUE,FALSE,FALSE,"S255305700"
"168","cintea","Cinnamon Teal","Spatula cyanoptera","L14559219","5362 Hennies Rd SE, Turner US-OR 44.82225, -122.95055","2025-06-29 07:02",1,44.822248,-122.950552,TRUE,FALSE,TRUE,"S255265838"
"169","cintea","Cinnamon Teal","Spatula cyanoptera","L268126","River Lane","2025-06-29 06:52",1,40.1662735,-111.737139,TRUE,FALSE,FALSE,"S255295538"
"170","cintea","Cinnamon Teal","Spatula cyanoptera","L1342478","Bynum Reservoir","2025-06-29 06:47",11,47.9640097,-112.4116596,TRUE,FALSE,FALSE,"S255279334"
"171","cintea","Cinnamon Teal","Spatula cyanoptera","L275227","Piute Ponds (permit required)","2025-06-29 06:45",28,34.7901193,-118.1181776,TRUE,FALSE,FALSE,"S255444294"
"172","cintea","Cinnamon Teal","Spatula cyanoptera","L274946","Bitter Lake NWR","2025-06-29 06:37",1,33.4512089,-104.3998146,TRUE,FALSE,FALSE,"S255234429"
"173","cintea","Cinnamon Teal","Spatula cyanoptera","L1384919","Philomath Sewage Ponds--northwest pond","2025-06-29 06:25",1,44.5243,-123.34667,TRUE,FALSE,TRUE,"S255660486"
"174","cintea","Cinnamon Teal","Spatula cyanoptera","L109541","North Potholes Reserve","2025-06-29 06:06",5,47.058487,-119.419928,TRUE,FALSE,FALSE,"S255343176"
"175","cintea","Cinnamon Teal","Spatula cyanoptera","L1738842","Private Property ""N"" No Public Access","2025-06-29 05:56",50,36.133862,-119.7026658,TRUE,TRUE,FALSE,"S255254262"
"176","cintea","Cinnamon Teal","Spatula cyanoptera","L129095","Sierra Vista EOP","2025-06-29 05:23",2,31.5627101,-110.2027562,TRUE,FALSE,FALSE,"S255322982"
"177","cintea","Cinnamon Teal","Spatula cyanoptera","L1452233","Whitman Co. Quarry","2025-06-28 19:17",1,47.1660985,-117.7378609,TRUE,FALSE,FALSE,"S255723004"
"178","cintea","Cinnamon Teal","Spatula cyanoptera","L4660115","Henrys Lake Drive","2025-06-28 19:04",2,44.6683904,-111.4259491,TRUE,FALSE,FALSE,"S255065993"
"179","cintea","Cinnamon Teal","Spatula cyanoptera","L4344479","Lee Metcalf NWR--Kenai Trail","2025-06-28 18:53",1,46.5603357,-114.073416,TRUE,FALSE,FALSE,"S255069812"
"180","cintea","Cinnamon Teal","Spatula cyanoptera","L31440181","Narrows-Princeton Road, Princeton, Oregon, US (43.267, -118.885)","2025-06-28 18:42",13,43.2672551,-118.8849439,TRUE,FALSE,TRUE,"S255065516"
"181","cintea","Cinnamon Teal","Spatula cyanoptera","L10749298","Saltese--Church Pond","2025-06-28 18:36",4,47.6389037,-117.1360343,TRUE,FALSE,FALSE,"S255070120"
"182","cintea","Cinnamon Teal","Spatula cyanoptera","L966521","Lawen Marshes","2025-06-28 18:20",35,43.40224,-118.84859,TRUE,FALSE,FALSE,"S255090553"
"183","cintea","Cinnamon Teal","Spatula cyanoptera","L249812","Blacks Creek Bird Reserve","2025-06-28 18:00",2,43.4584433,-116.1426544,TRUE,FALSE,FALSE,"S255283802"
"184","cintea","Cinnamon Teal","Spatula cyanoptera","L48674885","Plaster Reservoir","2025-06-28 17:53",2,39.945766,-105.026712,TRUE,FALSE,TRUE,"S255032660"
"185","cintea","Cinnamon Teal","Spatula cyanoptera","L3192446","Lee Metcalf NWR--Wildfowl Lane Dr.","2025-06-28 16:51",2,46.5552601,-114.0834045,TRUE,FALSE,FALSE,"S255040484"
"186","cintea","Cinnamon Teal","Spatula cyanoptera","L343249","Stanwood Water Treatment Plant","2025-06-28 16:17",2,48.2377017,-122.3611822,TRUE,FALSE,FALSE,"S255042460"
"187","cintea","Cinnamon Teal","Spatula cyanoptera","L383706","Pintail Lake","2025-06-28 15:28",10,34.3052296,-110.027647,TRUE,FALSE,FALSE,"S255019343"
"188","cintea","Cinnamon Teal","Spatula cyanoptera","L686411","Wood River Wetland","2025-06-28 15:10",3,42.5807466,-121.9327068,TRUE,FALSE,FALSE,"S255078475"
"189","cintea","Cinnamon Teal","Spatula cyanoptera","L25728185","Mallard Pond","2025-06-28 14:30",2,38.941047,-104.5783507,TRUE,FALSE,TRUE,"S255054417"
"190","cintea","Cinnamon Teal","Spatula cyanoptera","L31781538","EW 5 Rd. Lake","2025-06-28 14:30",3,36.934353,-100.508579,TRUE,TRUE,FALSE,"S255320187"
"191","cintea","Cinnamon Teal","Spatula cyanoptera","L245417","Baum Lake","2025-06-28 14:00",1,40.9340925,-121.5457565,TRUE,FALSE,FALSE,"S255063881"
"192","cintea","Cinnamon Teal","Spatula cyanoptera","L213999","Laguna Niguel Regional Park","2025-06-28 13:53",5,33.5494066,-117.709837,TRUE,FALSE,FALSE,"S255067936"
"193","cintea","Cinnamon Teal","Spatula cyanoptera","L12521786","Reservoir Road","2025-06-28 13:50",4,37.247686,-122.40721,TRUE,FALSE,FALSE,"S255019078"
"194","cintea","Cinnamon Teal","Spatula cyanoptera","L33394873","Benton Lake NWR","2025-06-28 13:43",1,47.6941317,-111.346384,TRUE,FALSE,TRUE,"S254982202"
"195","cintea","Cinnamon Teal","Spatula cyanoptera","L225431","Hayward Regional Shoreline","2025-06-28 13:30",2,37.6419316,-122.1517012,TRUE,FALSE,FALSE,"S255070958"
"196","cintea","Cinnamon Teal","Spatula cyanoptera","L384938","San Diego Zoo Safari Park","2025-06-28 12:59",1,33.0973669,-116.9981978,TRUE,FALSE,FALSE,"S254981328"
"197","cintea","Cinnamon Teal","Spatula cyanoptera","L761141","San Elijo Lagoon--west","2025-06-28 12:06",8,33.0087881,-117.2720733,TRUE,FALSE,FALSE,"S254993644"
"198","cintea","Cinnamon Teal","Spatula cyanoptera","L208487","Oso Flaco Lake (not for beach/ocean)","2025-06-28 12:05",13,35.0302072,-120.6207848,TRUE,TRUE,FALSE,"S255073659"
"199","cintea","Cinnamon Teal","Spatula cyanoptera","L15171757","Malheur National Wildlife Refuge, Princeton US-OR 43.26512, -118.84387","2025-06-28 11:51",1,43.265116,-118.843872,TRUE,FALSE,TRUE,"S254951955"
"200","cintea","Cinnamon Teal","Spatula cyanoptera","L480325","John F. Kennedy Memorial Park","2025-06-28 11:40",2,38.2692519,-122.2806644,TRUE,FALSE,FALSE,"S254980392"
"201","cintea","Cinnamon Teal","Spatula cyanoptera","L526215","James T. Slavin Conservation Area","2025-06-28 11:37",4,47.5355731,-117.4245787,TRUE,FALSE,FALSE,"S254972924"
"202","cintea","Cinnamon Teal","Spatula cyanoptera","L48658132","33468 Sodhouse Lane, Princeton, Oregon, US (43.258, -118.959)","2025-06-28 11:25",1,43.2582542,-118.9586711,TRUE,FALSE,TRUE,"S254954206"
"203","cintea","Cinnamon Teal","Spatula cyanoptera","L2420407","Warehouse Beach Recreation Area","2025-06-28 11:24",2,45.9212418,-119.1412541,TRUE,FALSE,FALSE,"S254975970"
"204","cintea","Cinnamon Teal","Spatula cyanoptera","L501746","Warm Springs WMA (Utah Co.)","2025-06-28 11:05",1,39.9627803,-111.8562698,TRUE,FALSE,FALSE,"S254929179"
"205","cintea","Cinnamon Teal","Spatula cyanoptera","L48826724","Dan’s House","2025-06-28 11:00",5,32.682063,-117.040259,TRUE,FALSE,TRUE,"S255703509"
"206","cintea","Cinnamon Teal","Spatula cyanoptera","L420537","Nob Hill Pond","2025-06-28 10:18",2,37.5218818,-122.2498887,TRUE,FALSE,FALSE,"S254990530"
"207","cintea","Cinnamon Teal","Spatula cyanoptera","L1625371","Roberts Sewage Pond and Slough","2025-06-28 10:09",4,43.7136996,-112.1209315,TRUE,FALSE,FALSE,"S254901680"
"208","cintea","Cinnamon Teal","Spatula cyanoptera","L578606","Honey Lake Wildlife Area--Fleming Unit","2025-06-28 10:04",7,40.3537678,-120.3021079,TRUE,FALSE,FALSE,"S254947218"
"209","cintea","Cinnamon Teal","Spatula cyanoptera","L48673964","Little Half Moon Road, Pinedale US-WY 42.87485, -109.75590","2025-06-28 10:02",1,42.87485,-109.755902,TRUE,FALSE,TRUE,"S255013535"
"210","cintea","Cinnamon Teal","Spatula cyanoptera","L8847238","Ladd Marsh WMA Auto Tour Road","2025-06-28 10:00",8,45.2604995,-117.9527951,TRUE,FALSE,TRUE,"S254995463"
"211","cintea","Cinnamon Teal","Spatula cyanoptera","L3882767","Yellowstone NP--Hayden Valley--Alum Creek","2025-06-28 09:23",4,44.6774641,-110.4858524,TRUE,FALSE,FALSE,"S255052226"
"212","cintea","Cinnamon Teal","Spatula cyanoptera","L880721","Pine Beach Picnic Site (Grand Co.)","2025-06-28 09:19",2,40.2183231,-105.8549559,TRUE,FALSE,FALSE,"S254921356"
"213","cintea","Cinnamon Teal","Spatula cyanoptera","L582953","Memorial Park & Prospect Lake","2025-06-28 09:11",1,38.8260514,-104.7973663,TRUE,FALSE,FALSE,"S254908940"
"214","cintea","Cinnamon Teal","Spatula cyanoptera","L48636866","US Highway 14, Cody, Wyoming, US (44.559, -110.355)","2025-06-28 09:07",3,44.5585417,-110.3551,TRUE,FALSE,TRUE,"S254874546"
"215","cintea","Cinnamon Teal","Spatula cyanoptera","L2301140","Big Summit Prairie","2025-06-28 08:49",2,44.3266337,-120.206008,TRUE,FALSE,FALSE,"S255000221"
"216","cintea","Cinnamon Teal","Spatula cyanoptera","L4685650","Yellowstone NP--Slough Creek","2025-06-28 08:45",2,44.9268147,-110.3228295,TRUE,FALSE,FALSE,"S254892153"
"217","cintea","Cinnamon Teal","Spatula cyanoptera","L1312278","Arco Ponds","2025-06-28 08:34",1,46.1624744,-112.7791214,TRUE,FALSE,FALSE,"S254972944"
"218","cintea","Cinnamon Teal","Spatula cyanoptera","L163529","Fernhill Wetlands (general)","2025-06-28 08:05",6,45.5064875,-123.0851855,TRUE,FALSE,FALSE,"S254926513"
"219","cintea","Cinnamon Teal","Spatula cyanoptera","L582216","Whale Rock Reservoir","2025-06-28 08:02",2,35.4636527,-120.8708239,TRUE,FALSE,FALSE,"S255328782"
"220","cintea","Cinnamon Teal","Spatula cyanoptera","L21144184","Crowley Lake, McGee Bay","2025-06-28 08:02",6,37.6181264,-118.7571304,TRUE,FALSE,TRUE,"S254878854"
"221","cintea","Cinnamon Teal","Spatula cyanoptera","L480168","Veterans Oasis Park","2025-06-28 07:43",4,33.2347837,-111.7695838,TRUE,FALSE,FALSE,"S254894624"
"222","cintea","Cinnamon Teal","Spatula cyanoptera","L246052","Sunriver Nature Center","2025-06-28 07:22",2,43.8849722,-121.44825,TRUE,FALSE,FALSE,"S254936953"
"223","cintea","Cinnamon Teal","Spatula cyanoptera","L348472","Logan City Polishing Ponds","2025-06-28 06:44",106,41.7731387,-111.8971309,TRUE,FALSE,FALSE,"S254894530"
"224","cintea","Cinnamon Teal","Spatula cyanoptera","L487048","Fern Ridge WMA--Royal Ave. area (general)","2025-06-28 06:44",1,44.0705825,-123.2574606,TRUE,FALSE,FALSE,"S254940907"
"225","cintea","Cinnamon Teal","Spatula cyanoptera","L577740","San Elijo Lagoon--east","2025-06-28 06:35",2,33.0108355,-117.2505125,TRUE,FALSE,FALSE,"S254995660"
"226","cintea","Cinnamon Teal","Spatula cyanoptera","L854080","Pinetop--Woodland Lake Park","2025-06-28 06:30",1,34.1278366,-109.9526954,TRUE,FALSE,FALSE,"S254942213"
"227","cintea","Cinnamon Teal","Spatula cyanoptera","L109462","Lake Henshaw","2025-06-28 06:13",8,33.2316107,-116.7475494,TRUE,FALSE,FALSE,"S254979176"
"228","cintea","Cinnamon Teal","Spatula cyanoptera","L7202022","Tule Lake NWR--photo blind","2025-06-28 06:03",8,41.9075272,-121.5628383,TRUE,FALSE,FALSE,"S254837425"
"229","cintea","Cinnamon Teal","Spatula cyanoptera","L247953","Sweetwater Reservoir","2025-06-28 05:45",2,32.6909342,-116.9966808,TRUE,FALSE,FALSE,"S254914374"
"230","cintea","Cinnamon Teal","Spatula cyanoptera","L1460618","Buffalo Ranch Pond","2025-06-28 05:44",1,40.9801077,-111.9387368,TRUE,FALSE,FALSE,"S254859066"
"231","cintea","Cinnamon Teal","Spatula cyanoptera","L267156","Christopher Columbus Park (soon to be Danny Lopez Park)","2025-06-28 05:40",1,32.2856814,-111.0346556,TRUE,FALSE,FALSE,"S254929983"
"232","cintea","Cinnamon Teal","Spatula cyanoptera","L8926707","Legacy Nature Preserve(restricted access)","2025-06-28 05:39",5,40.8621604,-111.9529441,TRUE,FALSE,TRUE,"S254882985"
"233","cintea","Cinnamon Teal","Spatula cyanoptera","L367627","Salton Sea--Young Rd. (west end)","2025-06-28 05:31",7,33.1330196,-115.6666589,TRUE,FALSE,FALSE,"S254972516"
"234","cintea","Cinnamon Teal","Spatula cyanoptera","L661934","Pearrygin Lake SP","2025-06-28 04:19",2,48.4927198,-120.1521492,TRUE,FALSE,FALSE,"S254895617"
"235","cintea","Cinnamon Teal","Spatula cyanoptera","L159619","Malheur NWR--Headquarters","2025-06-28",2,43.2658741,-118.8448941,TRUE,FALSE,FALSE,"S255277537"
"236","cintea","Cinnamon Teal","Spatula cyanoptera","L7211620","Simon Draw Wildlife Area (closed Mar 15 - Jul 31)","2025-06-27 20:09",1,37.3636975,-108.5158897,TRUE,FALSE,FALSE,"S254715114"
"237","cintea","Cinnamon Teal","Spatula cyanoptera","L48598719","5346 Ninepipe Road, Charlo, Montana, US (47.453, -114.14)","2025-06-27 19:34",4,47.4530994,-114.1396655,TRUE,FALSE,TRUE,"S254705415"
"238","cintea","Cinnamon Teal","Spatula cyanoptera","L48601301","Monse River Road from the Monse bridge to the Highway 97 bridge  (48.138, -119.68)","2025-06-27 19:31",1,48.13763,-119.6795467,TRUE,FALSE,TRUE,"S254715590"
"239","cintea","Cinnamon Teal","Spatula cyanoptera","L48597479","3416–3446 E 2900 N, Twin Falls US-ID 42.40715, -114.42075","2025-06-27 19:24",10,42.407153,-114.420745,TRUE,FALSE,TRUE,"S254708971"
"240","cintea","Cinnamon Teal","Spatula cyanoptera","L772028","Yellowstone NP--W. Entrance Rd./Madison Riv.","2025-06-27 19:03",3,44.6619379,-110.9625149,TRUE,FALSE,FALSE,"S254917676"
"241","cintea","Cinnamon Teal","Spatula cyanoptera","L5267313","Bel Marin Keys Unit V","2025-06-27 18:57",1,38.0778927,-122.5110984,TRUE,FALSE,FALSE,"S254717083"
"242","cintea","Cinnamon Teal","Spatula cyanoptera","L246739","Furnace Creek Ranch--The Ranch at Death Valley","2025-06-27 18:10",2,36.4588031,-116.8723547,TRUE,FALSE,FALSE,"S254914527"
"243","cintea","Cinnamon Teal","Spatula cyanoptera","L781326","State Line Park Rd. (CA side only)","2025-06-27 18:05",NA,41.9927695,-120.3267073,TRUE,FALSE,FALSE,"S254716858"
"244","cintea","Cinnamon Teal","Spatula cyanoptera","L10054278","Shepherd Hot Springs","2025-06-27 17:43",25,37.6669218,-118.8033843,TRUE,FALSE,FALSE,"S254715337"
"245","cintea","Cinnamon Teal","Spatula cyanoptera","L447435","Hatfield Lake","2025-06-27 17:11",1,44.1232081,-121.198554,TRUE,FALSE,FALSE,"S254703288"
"246","cintea","Cinnamon Teal","Spatula cyanoptera","L4682750","Bear Lake NWR--Salt Meadow Unit","2025-06-27 17:00",6,42.2057796,-111.3359852,TRUE,FALSE,FALSE,"S256023428"
"247","cintea","Cinnamon Teal","Spatula cyanoptera","L501195","Sands Lake SWA","2025-06-27 16:58",1,38.5436846,-106.0044837,TRUE,FALSE,FALSE,"S254683302"
"248","cintea","Cinnamon Teal","Spatula cyanoptera","L2961788","Williams Fork Reservoir","2025-06-27 15:34",1,40.0165063,-106.2103271,TRUE,FALSE,FALSE,"S254684585"
"249","cintea","Cinnamon Teal","Spatula cyanoptera","L720858","Scholz Lake","2025-06-27 14:49",6,35.1985004,-112.0097351,TRUE,FALSE,FALSE,"S254673750"
"250","cintea","Cinnamon Teal","Spatula cyanoptera","L1830327","Eagle Lake--Hwy 139 shoreline","2025-06-27 14:36",4,40.6909662,-120.6698193,TRUE,FALSE,FALSE,"S254685286"
"251","cintea","Cinnamon Teal","Spatula cyanoptera","L1096412","Tule Lake NWR--Hill Rd. and Sump 1A","2025-06-27 14:16",3,41.9060588,-121.5654287,TRUE,FALSE,FALSE,"S254653421"
"252","cintea","Cinnamon Teal","Spatula cyanoptera","L589164","Butte Valley Wildlife Area--Meiss Lake","2025-06-27 13:30",10,41.8585643,-122.0679764,TRUE,FALSE,FALSE,"S254864500"
"253","cintea","Cinnamon Teal","Spatula cyanoptera","L212323","Lee Kay Ponds","2025-06-27 13:03",2,40.7397136,-112.0437241,TRUE,FALSE,FALSE,"S254665775"
"254","cintea","Cinnamon Teal","Spatula cyanoptera","L48591073","South Lee Vining Tufas","2025-06-27 13:01",4,37.961825,-119.092082,TRUE,FALSE,TRUE,"S254672997"
"255","cintea","Cinnamon Teal","Spatula cyanoptera","L2182908","North Ottawa Impoundment","2025-06-27 12:47",1,45.9856315,-96.2471008,TRUE,TRUE,FALSE,"S254714967"
"256","cintea","Cinnamon Teal","Spatula cyanoptera","L4081206","Amalga city and surrounding fields","2025-06-27 12:17",1,41.8632968,-111.8954945,TRUE,FALSE,FALSE,"S254724112"
"257","cintea","Cinnamon Teal","Spatula cyanoptera","L503394","I-80 -- Exit 99 Ponds","2025-06-27 11:09",8,40.6972975,-112.262462,TRUE,FALSE,FALSE,"S254591167"
"258","cintea","Cinnamon Teal","Spatula cyanoptera","L3503996","Gerardot Stables ponds","2025-06-27 11:04",8,38.1982593,-121.0035038,TRUE,TRUE,FALSE,"S254619136"
"259","cintea","Cinnamon Teal","Spatula cyanoptera","L159708","Loloff Reservoir","2025-06-27 11:04",4,40.3533207,-104.5238106,TRUE,FALSE,FALSE,"S254590789"
"260","cintea","Cinnamon Teal","Spatula cyanoptera","L210257","Weld CR 59 wetlands","2025-06-27 10:51",4,40.3609628,-104.5068109,TRUE,FALSE,FALSE,"S254583450"
"261","cintea","Cinnamon Teal","Spatula cyanoptera","L48596032","Towac WTP","2025-06-27 10:45",8,37.185095,-108.701,TRUE,FALSE,TRUE,"S254694466"
"262","cintea","Cinnamon Teal","Spatula cyanoptera","L34341809","Modoc National Wildlife Refuge, Alturas US-CA 41.46817, -120.51466","2025-06-27 10:39",2,41.468175,-120.514661,TRUE,FALSE,TRUE,"S254631306"
"263","cintea","Cinnamon Teal","Spatula cyanoptera","L2609622","Creston Wetland","2025-06-27 10:27",2,48.200033,-114.1397095,TRUE,FALSE,FALSE,"S254590291"
"264","cintea","Cinnamon Teal","Spatula cyanoptera","L2111840","Deer Creek Reservoir--Rail Tracks & River Parkway","2025-06-27 09:49",2,40.4801693,-111.4859641,TRUE,FALSE,FALSE,"S254603949"
"265","cintea","Cinnamon Teal","Spatula cyanoptera","L1543985","Potholes Reservoir","2025-06-27 09:47",2,46.9969771,-119.3150344,TRUE,FALSE,FALSE,"S254609782"
"266","cintea","Cinnamon Teal","Spatula cyanoptera","L8162225","Silver Lake","2025-06-27 09:32",1,39.6431136,-119.9123849,TRUE,FALSE,FALSE,"S254617863"
"267","cintea","Cinnamon Teal","Spatula cyanoptera","L28400952","Black Canyon Rd.","2025-06-27 09:15",2,38.0733507,-111.977952,TRUE,FALSE,FALSE,"S254662420"
"268","cintea","Cinnamon Teal","Spatula cyanoptera","L48562235","83001, Jackson US-WY 43.51589, -110.70915","2025-06-27 09:08",1,43.515891,-110.709155,TRUE,FALSE,TRUE,"S254560119"
"269","cintea","Cinnamon Teal","Spatula cyanoptera","L48563608","CR-405, Princeton US-OR 43.26699, -118.88627","2025-06-27 08:48",11,43.266994,-118.886274,TRUE,FALSE,TRUE,"S254565535"
"270","cintea","Cinnamon Teal","Spatula cyanoptera","L6550725","Swan Lake Nature Study Area (IBA)--Fleetwood Dr Pumphouse","2025-06-27 08:48",15,39.6500322,-119.8445847,TRUE,FALSE,FALSE,"S254617830"
"271","cintea","Cinnamon Teal","Spatula cyanoptera","L2837420","Hamilton Wetlands","2025-06-27 08:45",3,38.0578151,-122.5078261,TRUE,FALSE,FALSE,"S254629875"
"272","cintea","Cinnamon Teal","Spatula cyanoptera","L344663","Madera WTP","2025-06-27 08:38",10,36.9417288,-120.1645947,TRUE,FALSE,FALSE,"S254587832"
"273","cintea","Cinnamon Teal","Spatula cyanoptera","L160935","Ballona Freshwater Marsh","2025-06-27 08:25",2,33.9701285,-118.4305573,TRUE,FALSE,FALSE,"S254617635"
"274","cintea","Cinnamon Teal","Spatula cyanoptera","L15483293","Wingfield Trail & Ponds","2025-06-27 08:21",8,39.6116265,-119.6738979,TRUE,FALSE,FALSE,"S254616669"
"275","cintea","Cinnamon Teal","Spatula cyanoptera","L1743685","Belmar Park","2025-06-27 08:19",2,39.7044793,-105.0857735,TRUE,FALSE,FALSE,"S254570448"
"276","cintea","Cinnamon Teal","Spatula cyanoptera","L1144723","Lower Hobble Creek WMA","2025-06-27 08:16",2,40.1843324,-111.6507804,TRUE,FALSE,FALSE,"S254540647"
"277","cintea","Cinnamon Teal","Spatula cyanoptera","L48577572","Muddy Valley Rd at Muddy Crk south","2025-06-27 08:13",1,45.1601123,-123.319516,TRUE,FALSE,TRUE,"S254618380"
"278","cintea","Cinnamon Teal","Spatula cyanoptera","L25873065","Lear Blvd Ponds and Wetlands","2025-06-27 08:08",10,39.6469011,-119.8509521,TRUE,FALSE,FALSE,"S254617605"
"279","cintea","Cinnamon Teal","Spatula cyanoptera","L44404096","Grizzly Island, Suisun City US-CA (38.1684,-122.0379)","2025-06-27 07:53",2,38.168434,-122.037855,TRUE,FALSE,TRUE,"S254577693"
"280","cintea","Cinnamon Teal","Spatula cyanoptera","L2746546","Hirschman Pond Trail","2025-06-27 07:37",1,39.2684734,-121.0296831,TRUE,FALSE,FALSE,"S254589398"
"281","cintea","Cinnamon Teal","Spatula cyanoptera","L351584","Ventura Settling Ponds","2025-06-27 07:23",2,34.2381312,-119.2615056,TRUE,FALSE,FALSE,"S254573985"
"282","cintea","Cinnamon Teal","Spatula cyanoptera","L16770637","Big Johnson reservoir","2025-06-27 07:15",2,38.745404,-104.695329,TRUE,FALSE,TRUE,"S254580257"
"283","cintea","Cinnamon Teal","Spatula cyanoptera","L1384918","Philomath Sewage Ponds--northeast pond","2025-06-27 06:34",1,44.524156,-123.34548,TRUE,FALSE,TRUE,"S254927930"
"284","cintea","Cinnamon Teal","Spatula cyanoptera","L45199253","Lake View Executive Golf Course- East Mount Charleston Drive","2025-06-27 06:31",1,36.1787264,-115.9875154,TRUE,FALSE,TRUE,"S254672913"
"285","cintea","Cinnamon Teal","Spatula cyanoptera","L847770","Davis Lake","2025-06-27 06:30",1,43.5882401,-121.8540215,TRUE,FALSE,FALSE,"S254641215"
"286","cintea","Cinnamon Teal","Spatula cyanoptera","L31475361","GSL Shorelands Preserve-Section C (restricted access)","2025-06-27 06:04",24,41.0601705,-112.0581915,TRUE,FALSE,TRUE,"S255336731"
"287","cintea","Cinnamon Teal","Spatula cyanoptera","L604504","Layton/Kaysville Marsh","2025-06-27 06:04",24,41.0495828,-112.0886993,TRUE,FALSE,FALSE,"S254723148"
"288","cintea","Cinnamon Teal","Spatula cyanoptera","L481023","Los Angeles River--Willow St.","2025-06-27 06:00",1,33.8048977,-118.2059383,TRUE,FALSE,FALSE,"S254649334"
"289","cintea","Cinnamon Teal","Spatula cyanoptera","L48568216","BSS SHP-B","2025-06-27 05:52",6,41.039661,-112.007764,TRUE,FALSE,TRUE,"S254583085"
"290","cintea","Cinnamon Teal","Spatula cyanoptera","L48842213","680–698 Elk Ranch Rd, Moran US-WY 43.82548, -110.50211","2025-06-26 20:58",2,43.82548,-110.502113,TRUE,FALSE,TRUE,"S255773563"
"291","cintea","Cinnamon Teal","Spatula cyanoptera","L421073","Beck & Alkali Lakes","2025-06-26 20:38",5,44.5096973,-109.0376973,TRUE,FALSE,FALSE,"S254420862"
"292","cintea","Cinnamon Teal","Spatula cyanoptera","L20113315","J8 - No Public Access","2025-06-26 19:20",4,36.7938306,-106.8804469,TRUE,FALSE,TRUE,"S254420768"
"293","cintea","Cinnamon Teal","Spatula cyanoptera","L6844198","Green River WTP","2025-06-26 19:14",2,41.5137834,-109.4530106,TRUE,FALSE,FALSE,"S254410095"
"294","cintea","Cinnamon Teal","Spatula cyanoptera","L43676288","Peach Auto Tour Loop","2025-06-26 19:01",10,45.260519,-117.952064,TRUE,FALSE,TRUE,"S254426489"
"295","cintea","Cinnamon Teal","Spatula cyanoptera","L4183707","Deschutes River Trail--Dillon Falls","2025-06-26 18:34",4,43.957545,-121.417046,TRUE,FALSE,FALSE,"S254420092"
"296","cintea","Cinnamon Teal","Spatula cyanoptera","L18947503","Belmar Park, Lakewood US-CO 39.70413, -105.08635","2025-06-26 18:24",2,39.704134,-105.086348,TRUE,FALSE,TRUE,"S254409364"
"297","cintea","Cinnamon Teal","Spatula cyanoptera","L614015","Malheur NWR--Buena Vista Ponds","2025-06-26 18:23",2,43.0672732,-118.8632083,TRUE,FALSE,FALSE,"S254433982"
"298","cintea","Cinnamon Teal","Spatula cyanoptera","L22314617","Towaoc WTP (restricted access)","2025-06-26 18:09",18,37.187191,-108.700847,TRUE,TRUE,TRUE,"S254408636"
"299","cintea","Cinnamon Teal","Spatula cyanoptera","L48733948","N Kolob Rd, Virgin (CITE)","2025-06-26 18:06",2,37.42947,-113.040959,TRUE,FALSE,TRUE,"S255291532"
"300","cintea","Cinnamon Teal","Spatula cyanoptera","L417835","Waterbird Regional Preserve/McNabney Marsh","2025-06-26 18:05",7,38.0236359,-122.0956349,TRUE,FALSE,FALSE,"S254411124"
"301","cintea","Cinnamon Teal","Spatula cyanoptera","L282520","Lagerman Agricultural Preserve--Lagerman Reservoir","2025-06-26 18:05",1,40.1348086,-105.1888925,TRUE,FALSE,FALSE,"S254404358"
"302","cintea","Cinnamon Teal","Spatula cyanoptera","L48528258","Bird Refuge Rd, Brigham City US-UT 41.49777, -112.11465","2025-06-26 17:54",5,41.49777,-112.11465,TRUE,FALSE,TRUE,"S254399546"
"303","cintea","Cinnamon Teal","Spatula cyanoptera","L550954","Marina--Robin Dr. pond","2025-06-26 17:39",1,36.6903033,-121.806322,TRUE,FALSE,FALSE,"S254407225"
"304","cintea","Cinnamon Teal","Spatula cyanoptera","L48530259","Lawen Ln, Burns US-OR 43.38242, -118.83543","2025-06-26 17:29",2,43.382417,-118.835433,TRUE,FALSE,TRUE,"S254408482"
"305","cintea","Cinnamon Teal","Spatula cyanoptera","L338763","Totten Reservoir","2025-06-26 16:57",6,37.364487,-108.530594,TRUE,FALSE,FALSE,"S254387205"
"306","cintea","Cinnamon Teal","Spatula cyanoptera","L2300607","Stewart's Pond","2025-06-26 16:19",14,40.3245862,-104.709084,TRUE,FALSE,FALSE,"S254381222"
"307","cintea","Cinnamon Teal","Spatula cyanoptera","L48647015","Ashton-Flagg Ranch Road, Moran, Wyoming, US (44.109, -110.685)","2025-06-26 16:19",1,44.1090587,-110.6846303,TRUE,FALSE,TRUE,"S254913798"
"308","cintea","Cinnamon Teal","Spatula cyanoptera","L661359","Santa Clara River--Harbor Blvd. bridge","2025-06-26 16:15",4,34.2343704,-119.2564201,TRUE,FALSE,FALSE,"S254399773"
"309","cintea","Cinnamon Teal","Spatula cyanoptera","L571909","Kiwanis Park--Camp Area","2025-06-26 15:56",1,48.0093266,-106.4263201,TRUE,FALSE,FALSE,"S254386327"
"310","cintea","Cinnamon Teal","Spatula cyanoptera","L48465629","Bar N Ranch","2025-06-26 15:10",1,44.698701,-111.211503,TRUE,FALSE,TRUE,"S254367646"
"311","cintea","Cinnamon Teal","Spatula cyanoptera","L787337","Lake Cascade--Sugarloaf Area North","2025-06-26 14:51",1,44.598046,-116.0679817,TRUE,FALSE,FALSE,"S254364385"
"312","cintea","Cinnamon Teal","Spatula cyanoptera","L7018790","Pracht Wetlands","2025-06-26 14:34",1,37.7339668,-97.4576247,TRUE,TRUE,FALSE,"S254337822"
"313","cintea","Cinnamon Teal","Spatula cyanoptera","L25196994","Muddy Valley Rd, Chat spot 45.1602,-123.3196","2025-06-26 14:34",1,45.1600976,-123.3196128,TRUE,FALSE,TRUE,"S254381887"
"314","cintea","Cinnamon Teal","Spatula cyanoptera","L232858","Byxbee Park","2025-06-26 14:29",3,37.4510644,-122.1055913,TRUE,FALSE,FALSE,"S254415689"
"315","cintea","Cinnamon Teal","Spatula cyanoptera","L7080131","Columbia NWR--Marsh Unit One","2025-06-26 14:26",2,46.9583227,-119.2600894,TRUE,FALSE,FALSE,"S254434866"
"316","cintea","Cinnamon Teal","Spatula cyanoptera","L48554538","Canby (town)","2025-06-26 14:13",8,41.4433462,-120.870883,TRUE,FALSE,TRUE,"S254524968"
"317","cintea","Cinnamon Teal","Spatula cyanoptera","L7491373","Garner Valley--State Hwy. 74 at Servo Creek","2025-06-26 14:12",9,33.6675286,-116.6699787,TRUE,FALSE,FALSE,"S254420950"
"318","cintea","Cinnamon Teal","Spatula cyanoptera","L2325081","Summit Reservoir","2025-06-26 14:12",6,37.4214353,-108.3839035,TRUE,FALSE,FALSE,"S254371928"
"319","cintea","Cinnamon Teal","Spatula cyanoptera","L642434","Dorris Reservoir","2025-06-26 13:36",2,41.4881604,-120.4800224,TRUE,FALSE,FALSE,"S254525431"
"320","cintea","Cinnamon Teal","Spatula cyanoptera","L265765","Potholes SP","2025-06-26 12:33",2,46.9809077,-119.3508177,TRUE,FALSE,FALSE,"S254351577"
"321","cintea","Cinnamon Teal","Spatula cyanoptera","L337164","McNary NWR--Headquarters/Quail Trail","2025-06-26 12:03",7,46.2014931,-118.9934768,TRUE,FALSE,FALSE,"S254335900"
"322","cintea","Cinnamon Teal","Spatula cyanoptera","L109296","Fruitgrowers Reservoir","2025-06-26 11:59",2,38.8295785,-107.9444504,TRUE,FALSE,FALSE,"S254403129"
"323","cintea","Cinnamon Teal","Spatula cyanoptera","L159617","William L. Finley NWR","2025-06-26 11:30",1,44.4215209,-123.3151817,TRUE,FALSE,FALSE,"S254327484"
"324","cintea","Cinnamon Teal","Spatula cyanoptera","L1572096","Strawberry Reservoir (Indian Creek area)","2025-06-26 11:27",2,40.1250819,-111.1608404,TRUE,FALSE,TRUE,"S254309817"
"325","cintea","Cinnamon Teal","Spatula cyanoptera","L48590373","Bird Refuge Rd, Corinne US-UT (41.4815,-112.2747)","2025-06-26 11:25",1,41.481452,-112.274663,TRUE,FALSE,TRUE,"S254670278"
"326","cintea","Cinnamon Teal","Spatula cyanoptera","L257950","M Street Marsh/Emerald Downs","2025-06-26 11:24",2,47.3284365,-122.2431564,TRUE,FALSE,FALSE,"S254679091"
"327","cintea","Cinnamon Teal","Spatula cyanoptera","L1361087","McArthur Swamp Rd.","2025-06-26 11:08",3,41.0645851,-121.4090881,TRUE,FALSE,FALSE,"S254380567"
"328","cintea","Cinnamon Teal","Spatula cyanoptera","L48511150","Blooming Cemetery","2025-06-26 10:59",1,45.4773018,-123.0528444,TRUE,FALSE,TRUE,"S254323287"
"329","cintea","Cinnamon Teal","Spatula cyanoptera","L23815018","Wapato Lake NWR (Yamhill County)","2025-06-26 10:40",1,45.4146078,-123.1249733,TRUE,FALSE,FALSE,"S254338501"
"330","cintea","Cinnamon Teal","Spatula cyanoptera","L48406713","BRMBR Unit 5","2025-06-26 10:37",NA,41.4229883,-112.127182,TRUE,FALSE,TRUE,"S254414888"
"331","cintea","Cinnamon Teal","Spatula cyanoptera","L16648065","Rat Farm Road","2025-06-26 09:43",2,41.1000355,-121.4121222,TRUE,FALSE,FALSE,"S254386527"
"332","cintea","Cinnamon Teal","Spatula cyanoptera","L2873515","Baskett Slough NWR--Hwy 22 Overlook","2025-06-26 09:42",1,44.9524592,-123.2691262,TRUE,FALSE,FALSE,"S254428678"
"333","cintea","Cinnamon Teal","Spatula cyanoptera","L48532192","745–799 Mary Ann Creek Rd, Oroville US-WA 48.93712, -119.08759","2025-06-26 09:41",6,48.93712,-119.08759,TRUE,FALSE,TRUE,"S254416823"
"334","cintea","Cinnamon Teal","Spatula cyanoptera","L48529156","745–799 Mary Ann Creek Rd, Oroville US-WA 48.93781, -119.08847","2025-06-26 09:40",5,48.937814,-119.088474,TRUE,FALSE,TRUE,"S254403620"
"335","cintea","Cinnamon Teal","Spatula cyanoptera","L48471760","Bird Refuge Rd, Corinne US-UT 41.47956, -112.26587","2025-06-26 09:32",7,41.479559,-112.265873,TRUE,FALSE,TRUE,"S254277940"
"336","cintea","Cinnamon Teal","Spatula cyanoptera","L127945","Bosque del Apache NWR","2025-06-26 09:30",2,33.802,-106.88,TRUE,FALSE,FALSE,"S254305108"
"337","cintea","Cinnamon Teal","Spatula cyanoptera","L256020","Zmudowski SB","2025-06-26 09:15",1,36.8372464,-121.8014572,TRUE,FALSE,FALSE,"S254357662"
"338","cintea","Cinnamon Teal","Spatula cyanoptera","L868854","Carson City WWTP Wetlands","2025-06-26 09:04",4,39.1638915,-119.7365785,TRUE,FALSE,FALSE,"S254322848"
"339","cintea","Cinnamon Teal","Spatula cyanoptera","L594020","Cottonwood Reservoir ","2025-06-26 08:53",2,46.037731,-110.6865692,TRUE,FALSE,FALSE,"S254716401"
"340","cintea","Cinnamon Teal","Spatula cyanoptera","L8177885","CR 38--east of Eagleville (MOD Co.)","2025-06-26 08:47",6,41.3147685,-120.0883208,TRUE,FALSE,FALSE,"S254646066"
"341","cintea","Cinnamon Teal","Spatula cyanoptera","L201225","Prescott--Willow Lake","2025-06-26 08:36",4,34.605,-112.438,TRUE,FALSE,FALSE,"S254373218"
"342","cintea","Cinnamon Teal","Spatula cyanoptera","L165740","Washington Park Arboretum","2025-06-26 08:32",2,47.6370819,-122.29574,TRUE,FALSE,FALSE,"S254395558"
"343","cintea","Cinnamon Teal","Spatula cyanoptera","L48689483","Cottonwood Reservoir, Wilsall US-MT (46.0400,-110.6885)","2025-06-26 08:30",1,46.039962,-110.688506,TRUE,FALSE,TRUE,"S255079607"
"344","cintea","Cinnamon Teal","Spatula cyanoptera","L267812","San Jacinto Wildlife Area--Mystic Lake","2025-06-26 08:24",2,33.8839706,-117.0884961,TRUE,FALSE,FALSE,"S254347468"
"345","cintea","Cinnamon Teal","Spatula cyanoptera","L1432660","West Kingston Wetland (roadside viewing only)","2025-06-26 08:13",2,47.7994915,-122.5387492,TRUE,FALSE,FALSE,"S254282280"
"346","cintea","Cinnamon Teal","Spatula cyanoptera","L387148","Mojave Narrows Regional Park","2025-06-26 08:03",2,34.5129928,-117.2708559,TRUE,FALSE,FALSE,"S254324697"
"347","cintea","Cinnamon Teal","Spatula cyanoptera","L12567296","Denman Wildlife Area Military Slough Unit","2025-06-26 07:51",1,42.444253,-122.875375,TRUE,FALSE,TRUE,"S254430111"
"348","cintea","Cinnamon Teal","Spatula cyanoptera","L302080","Tolo Lake","2025-06-26 07:49",1,45.9154619,-116.2362737,TRUE,FALSE,FALSE,"S254324885"
"349","cintea","Cinnamon Teal","Spatula cyanoptera","L48496291","48717–48901 US-30, North Powder US-OR 44.98472, -117.92185","2025-06-26 07:40",1,44.984715,-117.921852,TRUE,FALSE,TRUE,"S254264158"
"350","cintea","Cinnamon Teal","Spatula cyanoptera","L770875","Bear River MBR--Visitor Center","2025-06-26 07:34",1,41.5076774,-112.068851,TRUE,FALSE,FALSE,"S254278028"
"351","cintea","Cinnamon Teal","Spatula cyanoptera","L3761735","Swaner Preserve and EcoCenter","2025-06-26 07:27",5,40.7212538,-111.5377307,TRUE,FALSE,FALSE,"S254309617"
"352","cintea","Cinnamon Teal","Spatula cyanoptera","L278720","Holloman Lakes","2025-06-26 07:01",3,32.807442,-106.1226013,TRUE,FALSE,FALSE,"S254378259"
"353","cintea","Cinnamon Teal","Spatula cyanoptera","L344959","Ruby Lake NWR","2025-06-26 07:00",NA,40.1012816,-115.5080474,TRUE,FALSE,FALSE,"S255312261"
"354","cintea","Cinnamon Teal","Spatula cyanoptera","L48460971","12877 N Belaview Way, Hideout US-UT 40.66441, -111.42027","2025-06-26 06:13",1,40.664413,-111.420269,TRUE,FALSE,TRUE,"S254265898"
"355","cintea","Cinnamon Teal","Spatula cyanoptera","L268316","Chatfield SP (Douglas Co)","2025-06-26 06:00",3,39.54827,-105.05668,TRUE,FALSE,FALSE,"S254261831"
"356","cintea","Cinnamon Teal","Spatula cyanoptera","L800627","North Spit--old Weyco Settling Pond & deflation plain","2025-06-26 05:39",1,43.4210895,-124.2850935,TRUE,FALSE,FALSE,"S254261197"
"357","cintea","Cinnamon Teal","Spatula cyanoptera","L48473525","108 N Entrance Rd, Gardiner US-MT 45.00482, -110.70351","2025-06-25 21:00",9,45.004816,-110.703506,TRUE,FALSE,TRUE,"S254155401"
"358","cintea","Cinnamon Teal","Spatula cyanoptera","L48468710","Upper Alkali Lake--public road viewing at Heath Creek","2025-06-25 17:26",2,41.7220142,-120.1998617,TRUE,FALSE,TRUE,"S254134556"
"359","cintea","Cinnamon Teal","Spatula cyanoptera","L804033","Chatfield SP--Plum Creek Delta","2025-06-25 17:03",1,39.541481,-105.0499392,TRUE,FALSE,FALSE,"S254123936"
"360","cintea","Cinnamon Teal","Spatula cyanoptera","L769765","Carr Lake upper","2025-06-25 17:00",1,36.6892977,-121.6232121,TRUE,FALSE,FALSE,"S254161631"
"361","cintea","Cinnamon Teal","Spatula cyanoptera","L338190","Antero Reservoir","2025-06-25 16:25",6,38.98773,-105.91501,TRUE,FALSE,FALSE,"S254161663"
"362","cintea","Cinnamon Teal","Spatula cyanoptera","L752929","Hotchkiss Ln. and Eagen Ln.--Pond","2025-06-25 16:08",2,43.5569458,-119.0611339,TRUE,FALSE,FALSE,"S254120041"
"363","cintea","Cinnamon Teal","Spatula cyanoptera","L3406540","Market Lake WMA--General","2025-06-25 16:00",2,43.7808238,-112.146163,TRUE,FALSE,FALSE,"S254424821"
"364","cintea","Cinnamon Teal","Spatula cyanoptera","L48491279","Greer, AZ - Neighborhood","2025-06-25 15:50",2,34.057177,-109.4634156,TRUE,FALSE,TRUE,"S254242384"
"365","cintea","Cinnamon Teal","Spatula cyanoptera","L752930","Hotchkiss Ln.--WTP Ponds (restricted access)","2025-06-25 15:49",1,43.5551186,-119.0707684,TRUE,FALSE,FALSE,"S254113513"
"366","cintea","Cinnamon Teal","Spatula cyanoptera","L1615277","Turnbull NWR--Pine Lakes Loop Trail and Winslow Pool","2025-06-25 15:14",2,47.4125974,-117.5383435,TRUE,FALSE,FALSE,"S254384423"
"367","cintea","Cinnamon Teal","Spatula cyanoptera","L48471153","Bird Refuge Road, Corinne, Utah, US (41.465, -112.217)","2025-06-25 14:58",2,41.4651719,-112.2170113,TRUE,FALSE,TRUE,"S254145667"
"368","cintea","Cinnamon Teal","Spatula cyanoptera","L48458595","Shawmut Rd Bridge And Pond","2025-06-25 14:22",6,46.3316364,-109.5278725,TRUE,FALSE,TRUE,"S254085807"
"369","cintea","Cinnamon Teal","Spatula cyanoptera","L7690570","Elephant Butte Lake SP--Isolated Lake","2025-06-25 14:10",30,33.3250767,-107.1891232,TRUE,TRUE,FALSE,"S254077195"
"370","cintea","Cinnamon Teal","Spatula cyanoptera","L109176","Camas NWR","2025-06-25 13:05",5,43.9509896,-112.2557731,TRUE,FALSE,FALSE,"S254078225"
"371","cintea","Cinnamon Teal","Spatula cyanoptera","L15763466","Ryegate (town)","2025-06-25 12:14",2,46.2970868,-109.2523986,TRUE,FALSE,FALSE,"S254044328"
"372","cintea","Cinnamon Teal","Spatula cyanoptera","L2139421","Arapaho NWR--Fox Lake","2025-06-25 12:10",1,40.6811913,-106.2410975,TRUE,FALSE,FALSE,"S254067127"
"373","cintea","Cinnamon Teal","Spatula cyanoptera","L48451634","Madison River Turnout","2025-06-25 11:59",1,44.641496,-110.87655,TRUE,FALSE,TRUE,"S254057113"
"374","cintea","Cinnamon Teal","Spatula cyanoptera","L13487482","1602 Stewart Street, Anaconda, Montana, US (46.107, -112.812)","2025-06-25 11:58",2,46.107197,-112.8117699,TRUE,FALSE,TRUE,"S254040696"
"375","cintea","Cinnamon Teal","Spatula cyanoptera","L504330","Ninemile Reservoir ","2025-06-25 11:34",2,39.1730745,-111.7057228,TRUE,FALSE,FALSE,"S254043073"
"376","cintea","Cinnamon Teal","Spatula cyanoptera","L39745464","Farmington Bay WMA -- Levee Road & Dike Road","2025-06-25 10:19",8,40.9306664,-111.9478512,TRUE,FALSE,FALSE,"S254075289"
"377","cintea","Cinnamon Teal","Spatula cyanoptera","L9264000","Castle Rock Pond","2025-06-25 10:18",2,41.1254234,-111.1660491,TRUE,FALSE,FALSE,"S254009999"
"378","cintea","Cinnamon Teal","Spatula cyanoptera","L599797","Squirrel Creek Road Reservoir","2025-06-25 09:43",1,38.6928792,-104.653616,TRUE,FALSE,FALSE,"S254005229"
"379","cintea","Cinnamon Teal","Spatula cyanoptera","L524327","William L. Finley NWR--Bruce Rd.","2025-06-25 09:41",5,44.3895666,-123.3003867,TRUE,FALSE,FALSE,"S254123475"
"380","cintea","Cinnamon Teal","Spatula cyanoptera","L34222999","Bay Ranch-Old Highway Bridge (Permission required)","2025-06-25 09:37",2,47.158414,-112.212368,TRUE,FALSE,TRUE,"S254093869"
"381","cintea","Cinnamon Teal","Spatula cyanoptera","L5765319","Cherry Creek SP--Pelican Point area","2025-06-25 09:36",7,39.6364436,-104.8418274,TRUE,FALSE,FALSE,"S254009427"
"382","cintea","Cinnamon Teal","Spatula cyanoptera","L48490690","Lee Kay ponds","2025-06-25 09:30",2,40.7814847,-111.9866143,TRUE,FALSE,TRUE,"S254241122"
"383","cintea","Cinnamon Teal","Spatula cyanoptera","L48465041","Las Vegas NWR - middle marshes 35.53872, -105.16932","2025-06-25 09:23",48,35.538718,-105.169316,TRUE,FALSE,TRUE,"S254116883"
"384","cintea","Cinnamon Teal","Spatula cyanoptera","L7741865","National Elk Refuge Road, Jackson, Wyoming, US (43.499, -110.726)","2025-06-25 09:22",1,43.4990535,-110.7263215,TRUE,FALSE,TRUE,"S254027529"
"385","cintea","Cinnamon Teal","Spatula cyanoptera","L2745387","McPhee Reservoir--West End","2025-06-25 09:17",1,37.5053683,-108.5713577,TRUE,FALSE,FALSE,"S254027160"
"386","cintea","Cinnamon Teal","Spatula cyanoptera","L2715124","Redmond Lake","2025-06-25 09:06",1,38.9973077,-111.8723202,TRUE,FALSE,FALSE,"S254019047"
"387","cintea","Cinnamon Teal","Spatula cyanoptera","L32262320","Carl Hayden Property","2025-06-25 09:05",8,46.9259843,-114.1417856,TRUE,FALSE,TRUE,"S254045883"
"388","cintea","Cinnamon Teal","Spatula cyanoptera","L12170208","Cherry Creek SP--Prairie Loop","2025-06-25 09:03",3,39.6310891,-104.8538449,TRUE,FALSE,FALSE,"S253993795"
"389","cintea","Cinnamon Teal","Spatula cyanoptera","L590812","Napa-Sonoma Marshes WA--Huichica Creek Unit","2025-06-25 08:44",4,38.2076388,-122.3329353,TRUE,FALSE,FALSE,"S254099503"
"390","cintea","Cinnamon Teal","Spatula cyanoptera","L109287","Adobe Creek Reservoir (Blue Lake)--Bent Co","2025-06-25 08:41",1,38.25,-103.25,TRUE,FALSE,FALSE,"S254028037"
"391","cintea","Cinnamon Teal","Spatula cyanoptera","L48470094","Forest Service Road 52, Ukiah US-OR 45.03282, -118.73159","2025-06-25 08:31",1,45.032819,-118.731586,TRUE,FALSE,TRUE,"S254140957"
"392","cintea","Cinnamon Teal","Spatula cyanoptera","L1659924","Pelton Regulating Dam Wildlife Overlook","2025-06-25 08:22",2,44.7224039,-121.2435661,TRUE,FALSE,FALSE,"S254010207"
"393","cintea","Cinnamon Teal","Spatula cyanoptera","L464404","Cassimer Bar Wildlife Area","2025-06-25 08:15",1,48.0936744,-119.7121811,TRUE,FALSE,FALSE,"S254019930"
"394","cintea","Cinnamon Teal","Spatula cyanoptera","L11222417","Bear Lake NWR--general (please consider using a more specific hotspot)","2025-06-25 07:41",10,42.2615256,-111.3411677,TRUE,FALSE,FALSE,"S254084022"
"395","cintea","Cinnamon Teal","Spatula cyanoptera","L504759","Wales Reservoir","2025-06-25 07:36",NA,39.5039745,-111.6134548,TRUE,FALSE,FALSE,"S253980317"
"396","cintea","Cinnamon Teal","Spatula cyanoptera","L11559507","SE Puett Rd.--Bobolink Prairie","2025-06-25 07:29",2,44.1634946,-119.7539573,TRUE,FALSE,FALSE,"S255359255"
"397","cintea","Cinnamon Teal","Spatula cyanoptera","L9443819","Summer Lake Wildlife Area--East Link and Gull Island","2025-06-25 07:18",42,42.955722,-120.714412,TRUE,FALSE,FALSE,"S254027281"
"398","cintea","Cinnamon Teal","Spatula cyanoptera","L164929","Bolsa Chica Ecological Reserve","2025-06-25 07:08",2,33.7026531,-118.050735,TRUE,FALSE,FALSE,"S254143342"
"399","cintea","Cinnamon Teal","Spatula cyanoptera","L247316","Ninepipe NWR","2025-06-25 07:00",4,47.4379957,-114.1184238,TRUE,FALSE,FALSE,"S253988289"
"400","cintea","Cinnamon Teal","Spatula cyanoptera","L48402949","200 East 100 North, Coalville, Utah, US (40.908, -111.404)","2025-06-25 06:57",4,40.9081893,-111.4038292,TRUE,FALSE,TRUE,"S253971240"
"401","cintea","Cinnamon Teal","Spatula cyanoptera","L2262861","McArthur Lake WMA","2025-06-25 06:34",1,48.5197881,-116.4488554,TRUE,FALSE,FALSE,"S254109702"
"402","cintea","Cinnamon Teal","Spatula cyanoptera","L1025219","Chatfield SP--Plum Creek Nature Area","2025-06-25 06:06",2,39.5292348,-105.0404978,TRUE,FALSE,FALSE,"S254064922"
"403","cintea","Cinnamon Teal","Spatula cyanoptera","L2064166","Patagonia Lake SP--Birding Trail","2025-06-25 06:05",1,31.496718,-110.848945,TRUE,FALSE,FALSE,"S254152924"
"404","cintea","Cinnamon Teal","Spatula cyanoptera","L1312274","Job Corps Ponds","2025-06-25 06:01",14,46.1986067,-112.7765465,TRUE,FALSE,TRUE,"S254083881"
"405","cintea","Cinnamon Teal","Spatula cyanoptera","L36698450","GSL Shorelands Preserve-Section D (restricted access)","2025-06-25 05:55",9,41.0803315,-112.1160267,TRUE,FALSE,TRUE,"S254014919"
"406","cintea","Cinnamon Teal","Spatula cyanoptera","L46304376","Lookout Slough (private access)","2025-06-25 05:49",24,38.329028,-121.7122001,TRUE,FALSE,TRUE,"S254067807"
"407","cintea","Cinnamon Teal","Spatula cyanoptera","L48592984","YNP - small wetland along NE entrance road","2025-06-24 20:00",2,45.0065056,-110.7045846,TRUE,FALSE,TRUE,"S254681856"
"408","cintea","Cinnamon Teal","Spatula cyanoptera","L2272855","Harriman SP--Silver Lake","2025-06-24 19:58",NA,44.3282611,-111.4669875,TRUE,FALSE,FALSE,"S253867613"
"409","cintea","Cinnamon Teal","Spatula cyanoptera","L751058","Goose Lake State Recreation Area (Oregon)","2025-06-24 19:04",2,41.9941909,-120.3235781,TRUE,FALSE,FALSE,"S253870394"
"410","cintea","Cinnamon Teal","Spatula cyanoptera","L9433849","Summer Lake Wildlife Area--Bullgate Dike","2025-06-24 18:49",6,42.931446,-120.74207,TRUE,FALSE,FALSE,"S253873117"
"411","cintea","Cinnamon Teal","Spatula cyanoptera","L14597027","Horizon City RO Ponds","2025-06-24 18:35",4,31.680525,-106.15563,TRUE,FALSE,FALSE,"S253861758"
"412","cintea","Cinnamon Teal","Spatula cyanoptera","L9837425","Mud Lake Rd.","2025-06-24 17:51",2,38.80829,-119.7501615,TRUE,FALSE,FALSE,"S254343592"
"413","cintea","Cinnamon Teal","Spatula cyanoptera","L299578","Decker Lake","2025-06-24 17:20",3,40.7114011,-111.9488016,TRUE,FALSE,FALSE,"S253837692"
"414","cintea","Cinnamon Teal","Spatula cyanoptera","L48402967","Narrows-Princeton Road, Princeton, Oregon, US (43.267, -118.889)","2025-06-24 17:12",4,43.2666735,-118.8886297,TRUE,FALSE,TRUE,"S253849604"
"415","cintea","Cinnamon Teal","Spatula cyanoptera","L48816125","W Entrance Rd, Yellowstone National Park US-WY 44.64025, -110.89557","2025-06-24 17:04",2,44.640247,-110.895573,TRUE,FALSE,TRUE,"S255658987"
"416","cintea","Cinnamon Teal","Spatula cyanoptera","L48402965","Narrows-Princeton Road, Princeton, Oregon, US (43.267, -118.889)","2025-06-24 17:03",8,43.2666735,-118.8886297,TRUE,FALSE,TRUE,"S253832760"
"417","cintea","Cinnamon Teal","Spatula cyanoptera","L587325","Sawtooth Fish Hatchery","2025-06-24 16:50",1,44.1515279,-114.8823166,TRUE,FALSE,FALSE,"S253816465"
"418","cintea","Cinnamon Teal","Spatula cyanoptera","L190275","Carson Lake","2025-06-24 15:56",2,39.33693,-118.734726,TRUE,FALSE,FALSE,"S253835606"
"419","cintea","Cinnamon Teal","Spatula cyanoptera","L11570251","Harriman State Park","2025-06-24 15:50",3,44.3230444,-111.4603958,TRUE,FALSE,FALSE,"S253833835"
"420","cintea","Cinnamon Teal","Spatula cyanoptera","L10386221","W Brannan Island Rd","2025-06-24 15:28",2,38.1241307,-121.669903,TRUE,FALSE,FALSE,"S254173950"
"421","cintea","Cinnamon Teal","Spatula cyanoptera","L777589","Billings--Riverfront Park","2025-06-24 13:46",2,45.7415919,-108.5287857,TRUE,FALSE,FALSE,"S253795475"
"422","cintea","Cinnamon Teal","Spatula cyanoptera","L1280089","Pescadero Marsh and Natural Preserve--(South Marsh) trail systems from Pescadero Creek Rd. access","2025-06-24 13:33",2,37.2595835,-122.4114737,TRUE,FALSE,FALSE,"S253798877"
"423","cintea","Cinnamon Teal","Spatula cyanoptera","L47173321","Sierra Valley Reserve - Decker Dams Trail","2025-06-24 13:33",1,39.807128,-120.383538,TRUE,FALSE,TRUE,"S254011567"
"424","cintea","Cinnamon Teal","Spatula cyanoptera","L281058","Arapaho NWR","2025-06-24 13:32",12,40.6404523,-106.2767773,TRUE,FALSE,FALSE,"S253865115"
"425","cintea","Cinnamon Teal","Spatula cyanoptera","L109174","Bear Lake NWR--Rainbow Unit","2025-06-24 13:27",4,42.1833333,-111.3166667,TRUE,FALSE,FALSE,"S253780096"
"426","cintea","Cinnamon Teal","Spatula cyanoptera","L48393941","County Road 48, Tulelake US-CA 41.94675, -120.50523","2025-06-24 13:08",4,41.946751,-120.505225,TRUE,FALSE,TRUE,"S253796709"
"427","cintea","Cinnamon Teal","Spatula cyanoptera","L598208","Stillwater NWR","2025-06-24 13:01",40,39.5779555,-118.4623889,TRUE,FALSE,FALSE,"S253787740"
"428","cintea","Cinnamon Teal","Spatula cyanoptera","L48392372","Ponds Near Hwy 20","2025-06-24 13:00",1,44.0355609,-111.4914242,TRUE,FALSE,TRUE,"S253795672"
"429","cintea","Cinnamon Teal","Spatula cyanoptera","L48411202","Highway 260, McNary, Arizona, US (34.073, -109.847)","2025-06-24 12:56",9,34.0730882,-109.8472785,TRUE,FALSE,TRUE,"S253872809"
"430","cintea","Cinnamon Teal","Spatula cyanoptera","L4675579","Sheep Creek Reservoir (Duck Valley Reservation)","2025-06-24 12:44",6,41.8665529,-116.2618352,TRUE,FALSE,FALSE,"S253841972"
"431","cintea","Cinnamon Teal","Spatula cyanoptera","L48393167","Modoc National Forest, Alturas US-CA 41.89254, -120.51298","2025-06-24 12:39",2,41.892538,-120.512979,TRUE,FALSE,TRUE,"S253796430"
"432","cintea","Cinnamon Teal","Spatula cyanoptera","L8943033","Gardner Road Wetlands","2025-06-24 12:00",1,47.5606011,-117.4882995,TRUE,FALSE,FALSE,"S253780507"
"433","cintea","Cinnamon Teal","Spatula cyanoptera","L354285","Springfield Lake","2025-06-24 12:00",1,43.0784175,-112.6857931,TRUE,FALSE,FALSE,"S253769034"
"434","cintea","Cinnamon Teal","Spatula cyanoptera","L48392688","County Road 48, Davis Creek US-CA 41.84211, -120.48235","2025-06-24 11:46",3,41.842115,-120.482352,TRUE,FALSE,TRUE,"S253796238"
"435","cintea","Cinnamon Teal","Spatula cyanoptera","L18787922","Tule Lake Auto Tour","2025-06-24 11:43",8,45.2610532,-117.9474592,TRUE,FALSE,TRUE,"S253767261"
"436","cintea","Cinnamon Teal","Spatula cyanoptera","L48390244","Lead Lake, Fallon, Nevada, US (39.616, -118.52)","2025-06-24 11:41",50,39.6159425,-118.5203258,TRUE,FALSE,TRUE,"S253787982"
"437","cintea","Cinnamon Teal","Spatula cyanoptera","L48470149","Grand Loop Rd, Yellowstone National Park US-WY (44.6406,-110.4547)","2025-06-24 11:30",1,44.640592,-110.454657,TRUE,FALSE,TRUE,"S254141198"
"438","cintea","Cinnamon Teal","Spatula cyanoptera","L559015","Lander--Water Treatment Ponds","2025-06-24 11:30",3,42.8463472,-108.7231493,TRUE,FALSE,FALSE,"S253754108"
"439","cintea","Cinnamon Teal","Spatula cyanoptera","L778997","State Hwy 51 at Snake River (Elmore Co. side)","2025-06-24 11:27",10,42.9393567,-115.7510519,TRUE,FALSE,FALSE,"S253841571"
"440","cintea","Cinnamon Teal","Spatula cyanoptera","L1509264","Okanogan Highlands--Timentwa Rd.","2025-06-24 11:08",14,48.1944738,-119.4507579,TRUE,FALSE,FALSE,"S253849565"
"441","cintea","Cinnamon Teal","Spatula cyanoptera","L48382966","Ponds","2025-06-24 11:03",3,35.958082,-119.878357,TRUE,FALSE,TRUE,"S253758437"
"442","cintea","Cinnamon Teal","Spatula cyanoptera","L48384529","S Ridgefield Wildlife Refuge Rd, Ridgefield US-WA 45.80673, -122.73740","2025-06-24 10:31",8,45.806725,-122.737397,TRUE,FALSE,TRUE,"S253765133"
"443","cintea","Cinnamon Teal","Spatula cyanoptera","L5786158","Ebey Waterfront Trail, Marysville","2025-06-24 10:25",2,48.0458046,-122.1758652,TRUE,FALSE,FALSE,"S253778508"
"444","cintea","Cinnamon Teal","Spatula cyanoptera","L1653077","Stone Lake","2025-06-24 10:15",1,44.8791047,-99.7500723,TRUE,FALSE,FALSE,"S253839515"
"445","cintea","Cinnamon Teal","Spatula cyanoptera","L503368","Koosharem Reservoir ","2025-06-24 10:13",2,38.599583,-111.8450582,TRUE,FALSE,FALSE,"S253770146"
"446","cintea","Cinnamon Teal","Spatula cyanoptera","L46295453","Lowry Open Space","2025-06-24 10:05",2,39.720362,-104.882366,TRUE,FALSE,TRUE,"S253732957"
"447","cintea","Cinnamon Teal","Spatula cyanoptera","L443535","Yolo Bypass Wildlife Area","2025-06-24 10:00",NA,38.551789,-121.6208018,TRUE,FALSE,FALSE,"S253803002"
"448","cintea","Cinnamon Teal","Spatula cyanoptera","L158589","Lake Helena WMA","2025-06-24 09:56",2,46.701,-111.9584,TRUE,FALSE,FALSE,"S253749662"
"449","cintea","Cinnamon Teal","Spatula cyanoptera","L859161","Lake Leavitt","2025-06-24 09:40",4,40.3721341,-120.5120459,TRUE,FALSE,FALSE,"S254645078"
"450","cintea","Cinnamon Teal","Spatula cyanoptera","L48372126","N Entrance Road Pond","2025-06-24 09:25",2,45.003664,-110.704675,TRUE,FALSE,TRUE,"S253715688"
"451","cintea","Cinnamon Teal","Spatula cyanoptera","L1241544","Goose Lake Causeway","2025-06-24 09:24",2,41.7769446,-120.4627705,TRUE,FALSE,FALSE,"S253871776"
"452","cintea","Cinnamon Teal","Spatula cyanoptera","L2289296","Hosmer Lake--Nature Trail","2025-06-24 09:15",1,43.9641561,-121.7828894,TRUE,FALSE,FALSE,"S253768146"
"453","cintea","Cinnamon Teal","Spatula cyanoptera","L48389935","Floyd Lamb Park, Las Vegas US-NV 36.32429, -115.26578","2025-06-24 08:59",2,36.324286,-115.265777,TRUE,FALSE,TRUE,"S253786870"
"454","cintea","Cinnamon Teal","Spatula cyanoptera","L1888859","Finnell Lake","2025-06-24 08:55",2,47.0901082,-118.2360121,TRUE,FALSE,FALSE,"S253732462"
"455","cintea","Cinnamon Teal","Spatula cyanoptera","L2159797","Baskett Slough NWR--Coville Rd.","2025-06-24 08:52",1,44.9623003,-123.2454142,TRUE,FALSE,FALSE,"S253728386"
"456","cintea","Cinnamon Teal","Spatula cyanoptera","L9695527","I-15 S, Wolf Creek US-MT (46.9022,-112.1242) Prickly Pear crossing #1","2025-06-24 08:48",2,46.902194,-112.12415,TRUE,FALSE,TRUE,"S253866168"
"457","cintea","Cinnamon Teal","Spatula cyanoptera","L3238235","Diamond Creek Pond","2025-06-24 08:07",4,39.44254,-119.7564054,TRUE,FALSE,FALSE,"S253724694"
"458","cintea","Cinnamon Teal","Spatula cyanoptera","L11344620","Running W Cattle Ranch (restricted access)","2025-06-24 07:18",9,46.6520403,-111.9362081,TRUE,FALSE,FALSE,"S253687313"
"459","cintea","Cinnamon Teal","Spatula cyanoptera","L1462450","Richardson Flat","2025-06-24 07:13",6,40.6722417,-111.4446865,TRUE,FALSE,FALSE,"S253706309"
"460","cintea","Cinnamon Teal","Spatula cyanoptera","L742501","Yellowstone NP--Firehole Canyon","2025-06-24 07:11",3,44.6280461,-110.8622646,TRUE,FALSE,FALSE,"S253750773"
"461","cintea","Cinnamon Teal","Spatula cyanoptera","L140459","Wheat Ridge Greenbelt","2025-06-24 07:09",2,39.7742004,-105.1276016,TRUE,FALSE,FALSE,"S253727215"
"462","cintea","Cinnamon Teal","Spatula cyanoptera","L967692","Cherry Creek State Park","2025-06-24 07:07",3,39.6183836,-104.7944641,TRUE,FALSE,TRUE,"S253730541"
"463","cintea","Cinnamon Teal","Spatula cyanoptera","L23730543","Henderson Bird, Viewing Preserve","2025-06-24 06:48",10,36.079557,-114.997574,TRUE,FALSE,TRUE,"S253711641"
"464","cintea","Cinnamon Teal","Spatula cyanoptera","L7443222","South Park WHMA - Eastern Half","2025-06-24 06:21",27,43.3904124,-110.7584953,TRUE,FALSE,TRUE,"S253715910"
"465","cintea","Cinnamon Teal","Spatula cyanoptera","L21946807","Willow Lake-- South Shore","2025-06-24 06:00",4,34.6013727,-112.437908,TRUE,FALSE,TRUE,"S253776653"
"466","cintea","Cinnamon Teal","Spatula cyanoptera","L48400897","501 Third St NE,Harlowton to JudithGap","2025-06-24 05:30",2,46.438628,-109.825662,TRUE,FALSE,TRUE,"S253822704"
"467","cintea","Cinnamon Teal","Spatula cyanoptera","L361018","Lower River Road Ponds","2025-06-24 05:23",2,33.3624704,-112.6889563,TRUE,FALSE,FALSE,"S253686785"
"468","cintea","Cinnamon Teal","Spatula cyanoptera","L46324552","Wood River KBO Banding Station","2025-06-24 04:35",4,42.586674,-121.931254,TRUE,FALSE,TRUE,"S253785116"
"469","cintea","Cinnamon Teal","Spatula cyanoptera","L27892636","Utah Lake State Park, Provo US-UT 40.23680, -111.73853","2025-06-23 20:26",1,40.236796,-111.738527,TRUE,FALSE,TRUE,"S253587130"
"470","cintea","Cinnamon Teal","Spatula cyanoptera","L7806317","Pond at S Havana St & E Alameda Ave","2025-06-23 20:25",1,39.7114074,-104.8670847,TRUE,FALSE,FALSE,"S253583267"
"471","cintea","Cinnamon Teal","Spatula cyanoptera","L11683028","Marlin Pound Neighborhood Park and wetlands","2025-06-23 18:59",6,37.7169206,-121.7451309,TRUE,FALSE,FALSE,"S253591638"
"472","cintea","Cinnamon Teal","Spatula cyanoptera","L1341883","Coyote Hills Regional Park--Visitor Center area","2025-06-23 18:56",2,37.5533565,-122.0907479,TRUE,FALSE,FALSE,"S253584315"
"473","cintea","Cinnamon Teal","Spatula cyanoptera","L46971514","Grantsville WTP - No Public Access","2025-06-23 18:05",13,40.6156696,-112.4440484,TRUE,FALSE,TRUE,"S253588943"
"474","cintea","Cinnamon Teal","Spatula cyanoptera","L20471507","Moses Lake Outlet Channels","2025-06-23 17:58",1,47.0825705,-119.332817,TRUE,FALSE,FALSE,"S253586029"
"475","cintea","Cinnamon Teal","Spatula cyanoptera","L1300612","Foy's Lake","2025-06-23 17:33",1,48.163223,-114.3558311,TRUE,FALSE,FALSE,"S253551497"
"476","cintea","Cinnamon Teal","Spatula cyanoptera","L3748987","Conboy Lake NWR--BZ Glenwood Hwy","2025-06-23 17:10",1,45.9747799,-121.3022148,TRUE,FALSE,FALSE,"S253595076"
"477","cintea","Cinnamon Teal","Spatula cyanoptera","L12672600","Berthoud Reservoir Open Space","2025-06-23 17:02",2,40.3318116,-105.0860076,TRUE,FALSE,FALSE,"S253552468"
"478","cintea","Cinnamon Teal","Spatula cyanoptera","L48337547","Olsen Rd, Charlo US-MT 47.42816, -114.09834","2025-06-23 16:51",8,47.42816,-114.098339,TRUE,FALSE,TRUE,"S253549461"
"479","cintea","Cinnamon Teal","Spatula cyanoptera","L4596521","Van Doren's Landing Park","2025-06-23 16:03",4,47.4053569,-122.2727358,TRUE,FALSE,FALSE,"S253556384"
"480","cintea","Cinnamon Teal","Spatula cyanoptera","L1667064","Leque Island--Eide Rd.","2025-06-23 15:46",1,48.2320943,-122.3829746,TRUE,FALSE,FALSE,"S253556431"
"481","cintea","Cinnamon Teal","Spatula cyanoptera","L8268081","Leazenby Lake","2025-06-23 15:43",1,41.174569,-105.584982,TRUE,FALSE,FALSE,"S253543085"
"482","cintea","Cinnamon Teal","Spatula cyanoptera","L352878","Cooney Reservoir","2025-06-23 15:11",1,45.445252,-109.214379,TRUE,FALSE,FALSE,"S253594535"
"483","cintea","Cinnamon Teal","Spatula cyanoptera","L48334844","The Dike","2025-06-23 15:05",4,42.8434058,-111.6020823,TRUE,FALSE,TRUE,"S253537561"
"484","cintea","Cinnamon Teal","Spatula cyanoptera","L2264981","Coeur d'Alene River WMA--Killarney Lake Rd.","2025-06-23 13:40",6,47.5354785,-116.5155029,TRUE,FALSE,FALSE,"S253579683"
"485","cintea","Cinnamon Teal","Spatula cyanoptera","L1371380","Mount Ellis North Flank","2025-06-23 13:36",2,45.6248332,-110.9620242,TRUE,FALSE,FALSE,"S253703372"
"486","cintea","Cinnamon Teal","Spatula cyanoptera","L48328472","Grand Elk Golf Club, Granby US-CO 40.07200, -105.93607","2025-06-23 13:32",3,40.072003,-105.936067,TRUE,FALSE,TRUE,"S253511434"
"487","cintea","Cinnamon Teal","Spatula cyanoptera","L11175361","Duffy’s Pond","2025-06-23 13:30",1,46.213655,-119.111352,TRUE,FALSE,FALSE,"S253534639"
"488","cintea","Cinnamon Teal","Spatula cyanoptera","L131720","Union Reservoir","2025-06-23 13:19",2,40.1818008,-105.0372009,TRUE,FALSE,FALSE,"S253510747"
"489","cintea","Cinnamon Teal","Spatula cyanoptera","L232479","Juanita Bay Park","2025-06-23 13:03",4,47.6981686,-122.2101878,TRUE,FALSE,FALSE,"S253515396"
"490","cintea","Cinnamon Teal","Spatula cyanoptera","L5671406","Deschamps Ln. Marsh","2025-06-23 11:13",1,46.925728,-114.14542,TRUE,FALSE,FALSE,"S255762263"
"491","cintea","Cinnamon Teal","Spatula cyanoptera","L503369","Bicknell Bottoms--Bicknell Circle Rd.","2025-06-23 11:00",6,38.305363,-111.5303236,TRUE,FALSE,FALSE,"S253471030"
"492","cintea","Cinnamon Teal","Spatula cyanoptera","L25453737","Peterson SFB, CO","2025-06-23 10:45",3,38.8197266,-104.6960173,TRUE,FALSE,TRUE,"S253534878"
"493","cintea","Cinnamon Teal","Spatula cyanoptera","L48379966","San Joaquin Marsh and Wildlife Sanctuary, Irvine US-CA 33.66147, -117.84044","2025-06-23 10:41",5,33.661471,-117.840443,TRUE,FALSE,TRUE,"S253746918"
"494","cintea","Cinnamon Teal","Spatula cyanoptera","L43647769","Outfall 012 - 03","2025-06-23 10:38",2,40.769441,-112.175675,TRUE,FALSE,TRUE,"S253465736"
"495","cintea","Cinnamon Teal","Spatula cyanoptera","L1358840","Bosque del Apache NWR--North Loop (formerly Farm Loop)","2025-06-23 10:26",4,33.8151614,-106.8722406,TRUE,FALSE,FALSE,"S253488821"
"496","cintea","Cinnamon Teal","Spatula cyanoptera","L548187","Montour WMA","2025-06-23 10:06",1,43.9196278,-116.3275981,TRUE,FALSE,FALSE,"S253486181"
"497","cintea","Cinnamon Teal","Spatula cyanoptera","L6286610","Crowley Hot Springs","2025-06-23 10:03",3,37.659027,-118.770895,TRUE,FALSE,FALSE,"S253542284"
"498","cintea","Cinnamon Teal","Spatula cyanoptera","L1316006","Grant-Kohrs Historic Site","2025-06-23 10:00",4,46.4104046,-112.7465057,TRUE,FALSE,TRUE,"S253781192"
"499","cintea","Cinnamon Teal","Spatula cyanoptera","L28266513","Provo River Delta","2025-06-23 09:41",1,40.2458762,-111.7205421,TRUE,FALSE,FALSE,"S253471414"
"500","cintea","Cinnamon Teal","Spatula cyanoptera","L272215","Wyoming Hereford Ranch Reservoir #1","2025-06-23 09:19",2,41.1167222,-104.7379491,TRUE,FALSE,FALSE,"S253508578"
"501","cintea","Cinnamon Teal","Spatula cyanoptera","L5239676","Gas City Road - East Side Road - Galen Road","2025-06-23 09:10",2,46.2151708,-112.7544498,TRUE,FALSE,TRUE,"S253573856"
"502","cintea","Cinnamon Teal","Spatula cyanoptera","L600469","Bateman Island","2025-06-23 08:59",2,46.2405035,-119.2254353,TRUE,FALSE,FALSE,"S253495860"
"503","cintea","Cinnamon Teal","Spatula cyanoptera","L48312038","97402, Eugene US-OR (44.0693,-123.2640)","2025-06-23 08:08",2,44.069312,-123.263986,TRUE,FALSE,TRUE,"S253448010"
"504","cintea","Cinnamon Teal","Spatula cyanoptera","L2746528","Wapato Lake NWR (Washington County)","2025-06-23 07:30",18,45.4342514,-123.1377011,TRUE,FALSE,FALSE,"S253530222"
"505","cintea","Cinnamon Teal","Spatula cyanoptera","L2882282","Yellowstone NP--Beaver Lake","2025-06-23 07:03",1,44.8160022,-110.730139,TRUE,FALSE,FALSE,"S253567154"
"506","cintea","Cinnamon Teal","Spatula cyanoptera","L270282","Inland Sea Shorebird Reserve (restricted access)","2025-06-23 06:34",15,40.7837893,-112.100346,TRUE,FALSE,FALSE,"S253493508"
"507","cintea","Cinnamon Teal","Spatula cyanoptera","L882726","Clear Creek Trail--Golden to I-70","2025-06-23 06:25",2,39.7724276,-105.1514822,TRUE,FALSE,FALSE,"S253442045"
"508","cintea","Cinnamon Teal","Spatula cyanoptera","L43127218","Chatfield State Park, Plum Creek Picnic, Littleton, Colorado, US (39.538, -105.053)","2025-06-23 06:05",1,39.5379811,-105.0527575,TRUE,FALSE,TRUE,"S253390101"
"509","cintea","Cinnamon Teal","Spatula cyanoptera","L707035","McArthur Rd.","2025-06-23 05:35",2,41.0508514,-121.4430771,TRUE,FALSE,FALSE,"S253874539"
"510","cintea","Cinnamon Teal","Spatula cyanoptera","L48285124","Chatfield SP Kingfisher Cove  above  and below parking lot","2025-06-22 20:36",3,39.520264,-105.0823402,TRUE,FALSE,TRUE,"S253320138"
"511","cintea","Cinnamon Teal","Spatula cyanoptera","L152046","Lordsburg Sewage Ponds","2025-06-22 19:35",3,32.3592192,-108.6999428,TRUE,FALSE,FALSE,"S254122128"
"512","cintea","Cinnamon Teal","Spatula cyanoptera","L48280260","305 US Highway 14, Greybull, Wyoming, US (44.494, -107.993)","2025-06-22 18:57",3,44.4939813,-107.9931518,TRUE,FALSE,TRUE,"S253299280"
"513","cintea","Cinnamon Teal","Spatula cyanoptera","L48281113","9100 Bird Refuge Road, Corinne, Utah, US (41.474, -112.224)","2025-06-22 18:49",3,41.4743599,-112.2237859,TRUE,FALSE,TRUE,"S253302771"
"514","cintea","Cinnamon Teal","Spatula cyanoptera","L3942996","Shillapoo Lake","2025-06-22 17:58",3,45.6956365,-122.7440187,TRUE,FALSE,FALSE,"S253305951"
"515","cintea","Cinnamon Teal","Spatula cyanoptera","L2138667","Mendiboure Ranch ( Likely Unit)","2025-06-22 17:52",1,41.2501609,-120.5123377,TRUE,FALSE,TRUE,"S253297720"
"516","cintea","Cinnamon Teal","Spatula cyanoptera","L163354","Green Lake","2025-06-22 17:41",1,47.6783945,-122.3382464,TRUE,FALSE,FALSE,"S253325382"
"517","cintea","Cinnamon Teal","Spatula cyanoptera","L339925","Sombrero Marsh & Pond","2025-06-22 17:34",2,40.0115395,-105.2062298,TRUE,FALSE,FALSE,"S253292318"
"518","cintea","Cinnamon Teal","Spatula cyanoptera","L1336573","Riverbend Park","2025-06-22 16:24",3,44.0424676,-121.3211632,TRUE,FALSE,FALSE,"S253278195"
"519","cintea","Cinnamon Teal","Spatula cyanoptera","L19979477","Freezeout Lake WMA--auto tour route ""The Neck""","2025-06-22 16:20",2,47.6753607,-112.0419934,TRUE,FALSE,FALSE,"S253274440"
"520","cintea","Cinnamon Teal","Spatula cyanoptera","L1386107","Northlake Park & Loch Lomond Pond","2025-06-22 16:18",3,40.3620139,-111.859546,TRUE,FALSE,FALSE,"S253286984"
"521","cintea","Cinnamon Teal","Spatula cyanoptera","L21522298","Stone, Idaho","2025-06-22 15:41",6,42.0147032,-112.6979323,TRUE,FALSE,TRUE,"S255707054"
"522","cintea","Cinnamon Teal","Spatula cyanoptera","L44608402","Saltise wetlands","2025-06-22 15:39",3,47.63919,-117.127494,TRUE,FALSE,TRUE,"S253265202"
"523","cintea","Cinnamon Teal","Spatula cyanoptera","L5701934","Ouray NWR--Leota Bottom","2025-06-22 15:37",18,40.165812,-109.58722,TRUE,FALSE,FALSE,"S253327279"
"524","cintea","Cinnamon Teal","Spatula cyanoptera","L9203413","Sonora Rd.--Pond on south side of road 1.75 mi. east of 28 Mile Rd.","2025-06-22 15:33",7,37.8781979,-120.8111804,TRUE,FALSE,FALSE,"S253284874"
"525","cintea","Cinnamon Teal","Spatula cyanoptera","L12647448","65485 Sun Ct, Montrose US-CO 38.39136, -107.86258","2025-06-22 15:00",4,38.391363,-107.86258,TRUE,TRUE,TRUE,"S253603656"
"526","cintea","Cinnamon Teal","Spatula cyanoptera","L48248855","Lawen Lane, Princeton, Oregon, US (43.389, -118.814)","2025-06-22 14:52",NA,43.3885961,-118.8138967,TRUE,FALSE,TRUE,"S253255067"
"527","cintea","Cinnamon Teal","Spatula cyanoptera","L9324326","Hosmer Lake, Sisters US-OR (43.9624,-121.7810)","2025-06-22 14:30",2,43.962355,-121.780963,TRUE,FALSE,TRUE,"S253278855"
"528","cintea","Cinnamon Teal","Spatula cyanoptera","L1859626","Yellowstone NP--N. Entrance Road (MT)","2025-06-22 14:03",4,44.9983924,-110.6933609,TRUE,FALSE,FALSE,"S253228350"
"529","cintea","Cinnamon Teal","Spatula cyanoptera","L48316107","61507–61523 OR-205, Burns US-OR (43.2989,-118.9745)","2025-06-22 14:00",10,43.298902,-118.974469,TRUE,FALSE,TRUE,"S253463876"
"530","cintea","Cinnamon Teal","Spatula cyanoptera","L3289267","Timpie Springs WMA, Tooele","2025-06-22 14:00",9,40.7538956,-112.6252795,TRUE,FALSE,TRUE,"S254700129"
"531","cintea","Cinnamon Teal","Spatula cyanoptera","L15250554","Cheney Wetlands","2025-06-22 13:55",2,47.4851026,-117.5542812,TRUE,FALSE,FALSE,"S253271864"
"532","cintea","Cinnamon Teal","Spatula cyanoptera","L1625391","Ouray NWR -- Sheppard Bottoms","2025-06-22 13:53",7,40.1198047,-109.6447381,TRUE,FALSE,FALSE,"S253327258"
"533","cintea","Cinnamon Teal","Spatula cyanoptera","L15561895","Hidden Springs Lake","2025-06-22 13:18",1,33.6850875,-108.8601782,TRUE,FALSE,FALSE,"S253218975"
"534","cintea","Cinnamon Teal","Spatula cyanoptera","L615147","Bullock Reservoir","2025-06-22 12:25",2,40.3542954,-109.818778,TRUE,FALSE,FALSE,"S253319129"
"535","cintea","Cinnamon Teal","Spatula cyanoptera","L850355","Tule Lake NWR--Auto Tour and Sump 1B (SIS Co.)","2025-06-22 12:21",4,41.8496929,-121.4777098,TRUE,FALSE,FALSE,"S253238716"
"536","cintea","Cinnamon Teal","Spatula cyanoptera","L565301","Eagle Ridge/Shoalwater Bay","2025-06-22 12:09",2,42.3970939,-121.9592285,TRUE,FALSE,FALSE,"S253273690"
"537","cintea","Cinnamon Teal","Spatula cyanoptera","L16413338","Soap Lake City Park","2025-06-22 11:28",3,47.3931491,-119.4848049,TRUE,FALSE,FALSE,"S253200445"
"538","cintea","Cinnamon Teal","Spatula cyanoptera","L1059486","Tule Lake NWR--Discovery Marsh","2025-06-22 11:20",2,41.9461,-121.5617,TRUE,FALSE,FALSE,"S253312828"
"539","cintea","Cinnamon Teal","Spatula cyanoptera","L1223665","Nucla--WTP","2025-06-22 11:16",9,38.2674661,-108.5720873,TRUE,TRUE,FALSE,"S253169089"
"540","cintea","Cinnamon Teal","Spatula cyanoptera","L753048","Malheur NWR--Central Patrol Rd.","2025-06-22 11:07",2,43.2024856,-118.8875628,TRUE,FALSE,FALSE,"S253248292"
"541","cintea","Cinnamon Teal","Spatula cyanoptera","L48263978","South Harney Road, Burns, Oregon, US (43.566, -118.822)","2025-06-22 11:04",9,43.5660536,-118.8222067,TRUE,FALSE,TRUE,"S253228087"
"542","cintea","Cinnamon Teal","Spatula cyanoptera","L906006","Warm Springs WMA","2025-06-22 10:32",3,46.1907642,-112.7748299,TRUE,FALSE,FALSE,"S253173258"
"543","cintea","Cinnamon Teal","Spatula cyanoptera","L2342351","Malheur NWR--Central Patrol Rd.--Between Headquarters and the Field Station","2025-06-22 10:15",6,43.238598,-118.8540888,TRUE,FALSE,FALSE,"S253248177"
"544","cintea","Cinnamon Teal","Spatula cyanoptera","L830113","Powell Slough","2025-06-22 09:42",3,40.2716348,-111.7405915,TRUE,FALSE,FALSE,"S253188081"
"545","cintea","Cinnamon Teal","Spatula cyanoptera","L957758","Crowley Lake--Sandy Pt.","2025-06-22 09:33",2,37.6173189,-118.7370731,TRUE,FALSE,FALSE,"S253162000"
"546","cintea","Cinnamon Teal","Spatula cyanoptera","L1315287","K-Arrow Ranch ponds","2025-06-22 09:29",2,37.8450709,-120.5418634,TRUE,FALSE,FALSE,"S253444087"
"547","cintea","Cinnamon Teal","Spatula cyanoptera","L11002552","Woodland Regional Park Preserve","2025-06-22 09:15",3,38.64209,-121.7254663,TRUE,FALSE,FALSE,"S253180145"
"548","cintea","Cinnamon Teal","Spatula cyanoptera","L785019","Valley Ford Wetlands - Sonoma County","2025-06-22 09:15",1,38.3115919,-122.9340076,TRUE,FALSE,FALSE,"S253167562"
"549","cintea","Cinnamon Teal","Spatula cyanoptera","L1028207","Bridgeport Reservoir--east shore pullout","2025-06-22 09:13",2,38.277161,-119.2191803,TRUE,FALSE,FALSE,"S253166872"
"550","cintea","Cinnamon Teal","Spatula cyanoptera","L353255","Elkhorn Slough Reserve (NERR)","2025-06-22 09:00",1,36.8182308,-121.7364764,TRUE,FALSE,FALSE,"S253234314"
"551","cintea","Cinnamon Teal","Spatula cyanoptera","L234583","Fort Boise WMA","2025-06-22 08:51",1,43.8215239,-117.0126942,TRUE,FALSE,FALSE,"S253252113"
"552","cintea","Cinnamon Teal","Spatula cyanoptera","L40071554","Descanso Gardens","2025-06-22 08:50",3,34.201725,-118.2118607,TRUE,FALSE,TRUE,"S253215038"
"553","cintea","Cinnamon Teal","Spatula cyanoptera","L40544056","Ted Trueblood WMA--South Ponds","2025-06-22 08:50",20,43.0052276,-116.1018244,TRUE,FALSE,FALSE,"S253162495"
"554","cintea","Cinnamon Teal","Spatula cyanoptera","L27411870","84025, Farmington US-UT 40.96173, -111.91904","2025-06-22 08:31",11,40.961731,-111.919036,TRUE,FALSE,TRUE,"S253425784"
"555","cintea","Cinnamon Teal","Spatula cyanoptera","L48260124","McNary NWR - Peninsula Unit Canoe Launch","2025-06-22 08:30",1,46.1689212,-118.9804898,TRUE,FALSE,TRUE,"S253220487"
"556","cintea","Cinnamon Teal","Spatula cyanoptera","L23570069","Green River Natural Resources Area, Kent US-WA 47.40829, -122.25578","2025-06-22 08:26",4,47.408287,-122.255784,TRUE,FALSE,TRUE,"S253203831"
"557","cintea","Cinnamon Teal","Spatula cyanoptera","L10799248","South Fork","2025-06-22 08:00",15,40.67098,-115.765579,TRUE,FALSE,TRUE,"S253196826"
"558","cintea","Cinnamon Teal","Spatula cyanoptera","L444953","Yorba Regional Park, Anaheim","2025-06-22 07:46",1,33.8680549,-117.7679765,TRUE,FALSE,FALSE,"S253162927"
"559","cintea","Cinnamon Teal","Spatula cyanoptera","L959638","Crowley Lake--west side","2025-06-22 07:29",3,37.6243185,-118.7398066,TRUE,FALSE,FALSE,"S253187111"
"560","cintea","Cinnamon Teal","Spatula cyanoptera","L20902653","Tualatin River National Wildlife Refuge, Sherwood US-OR 45.38223, -122.83200","2025-06-22 07:24",2,45.382226,-122.832004,TRUE,FALSE,TRUE,"S253148440"
"561","cintea","Cinnamon Teal","Spatula cyanoptera","L278422","Crowley Lake","2025-06-22 07:20",1,37.6066162,-118.7464142,TRUE,FALSE,FALSE,"S253181245"
"562","cintea","Cinnamon Teal","Spatula cyanoptera","L48282772","Sandhills near Crescent Lake - Rex Ranch / Hills Lake","2025-06-22 06:49",1,41.970225,-102.574778,TRUE,FALSE,TRUE,"S253309960"
"563","cintea","Cinnamon Teal","Spatula cyanoptera","L140450","Lower Latham Reservoir area","2025-06-22 06:44",3,40.3345066,-104.6397114,TRUE,FALSE,FALSE,"S253078421"
"564","cintea","Cinnamon Teal","Spatula cyanoptera","L947368","Carnero Lake","2025-06-22 06:41",2,34.117,-109.5284,TRUE,FALSE,FALSE,"S253126487"
"565","cintea","Cinnamon Teal","Spatula cyanoptera","L1158281","Mountain View Cemetery Marsh","2025-06-22 06:32",2,47.1800437,-122.4956918,TRUE,FALSE,FALSE,"S254430404"
"566","cintea","Cinnamon Teal","Spatula cyanoptera","L298527","Keystone Heritage Park (FWTX 6)","2025-06-22 06:30",1,31.8209406,-106.5630008,TRUE,FALSE,FALSE,"S253286620"
"567","cintea","Cinnamon Teal","Spatula cyanoptera","L48194631","19 Starlight Overlook, Angel Fire US-NM 36.36927, -105.24708","2025-06-22 06:17",2,36.369273,-105.247078,TRUE,FALSE,TRUE,"S253089502"
"568","cintea","Cinnamon Teal","Spatula cyanoptera","L3952906","Angel Fire 2 BBS Route - Stop 10","2025-06-22 06:04",1,36.27706,-105.24998,TRUE,FALSE,TRUE,"S253531331"
"569","cintea","Cinnamon Teal","Spatula cyanoptera","L7384043","Galen Ponds","2025-06-22 06:00",4,46.2376837,-112.7566338,TRUE,FALSE,TRUE,"S253782160"
"570","cintea","Cinnamon Teal","Spatula cyanoptera","L3952905","Angel Fire 2 BBS Route - Stop 9","2025-06-22 05:58",1,36.2814345,-105.2508384,TRUE,FALSE,TRUE,"S253530715"
"571","cintea","Cinnamon Teal","Spatula cyanoptera","L13935268","Old Weyco Pond Beach Loop","2025-06-22 05:50",4,43.4203809,-124.2946742,TRUE,FALSE,TRUE,"S253148327"
"572","cintea","Cinnamon Teal","Spatula cyanoptera","L1396236","Anaheim Coves Park (aka Burris Basin)","2025-06-22 05:44",4,33.8257044,-117.869868,TRUE,FALSE,FALSE,"S253254669"
"573","cintea","Cinnamon Teal","Spatula cyanoptera","L598381","Chickahominy Reservoir","2025-06-22 05:10",17,43.5485481,-119.6205139,TRUE,FALSE,FALSE,"S253086300"
