"","speciesCode","comName","sciName","locId","locName","obsDt","howMany","lat","lng","obsValid","obsReviewed","locationPrivate","subId"
"1","virwar","Virginia's Warbler","Leiothlypis virginiae","L23173930","Phillip And Dorcas Jensen Memorial Park","2025-06-08 16:24",1,40.0491423,-107.9156318,TRUE,FALSE,FALSE,"S248336843"
"2","virwar","Virginia's Warbler","Leiothlypis virginiae","L13956457","Santa Fe NF--Grasshopper Canyon Trail","2025-06-08 14:07",NA,35.5607346,-105.8105734,TRUE,FALSE,FALSE,"S248345945"
"3","virwar","Virginia's Warbler","Leiothlypis virginiae","L726260","Grand Mesa--south slope","2025-06-08 13:53",1,39.0042447,-107.9432487,TRUE,FALSE,TRUE,"S248296555"
"4","virwar","Virginia's Warbler","Leiothlypis virginiae","L3683686","Potato Patch Campground","2025-06-08 13:32",1,34.7096152,-112.1550515,TRUE,FALSE,FALSE,"S248290430"
"5","virwar","Virginia's Warbler","Leiothlypis virginiae","L47168079","Nogal—Crest Trail","2025-06-08 13:15",4,33.49444,-105.783955,TRUE,FALSE,TRUE,"S248291633"
"6","virwar","Virginia's Warbler","Leiothlypis virginiae","L47169312","23400–23430 Ute Trail Rd, Cedaredge US-CO 38.95195, -107.92614","2025-06-08 12:57",1,38.951948,-107.926138,TRUE,FALSE,TRUE,"S248296896"
"7","virwar","Virginia's Warbler","Leiothlypis virginiae","L1777822","Deer Creek Canyon Park--Meadowlark Trail","2025-06-08 12:52",1,39.5436808,-105.1574403,TRUE,FALSE,FALSE,"S248309012"
"8","virwar","Virginia's Warbler","Leiothlypis virginiae","L24481287","Windstar Ranch","2025-06-08 12:51",1,39.302401,-106.9733,TRUE,FALSE,FALSE,"S248311695"
"9","virwar","Virginia's Warbler","Leiothlypis virginiae","L304967","Los Alamos--Stables","2025-06-08 12:07",1,35.8940971,-106.2806117,TRUE,FALSE,FALSE,"S248267364"
"10","virwar","Virginia's Warbler","Leiothlypis virginiae","L2806339","High Grade Rd","2025-06-08 12:02",1,39.508279,-105.1884592,TRUE,FALSE,FALSE,"S248252755"
"11","virwar","Virginia's Warbler","Leiothlypis virginiae","L10207441","Eldorado Mountain Open Space--Fowler Trail","2025-06-08 11:42",2,39.930477,-105.2744985,TRUE,FALSE,FALSE,"S248273421"
"12","virwar","Virginia's Warbler","Leiothlypis virginiae","L3029422","Ouray Perimeter Trail","2025-06-08 10:44",1,38.0209831,-107.6663053,TRUE,FALSE,FALSE,"S248256673"
"13","virwar","Virginia's Warbler","Leiothlypis virginiae","L2934708","Little Spring","2025-06-08 10:41",3,35.3750193,-111.7256355,TRUE,FALSE,FALSE,"S248269171"
"14","virwar","Virginia's Warbler","Leiothlypis virginiae","L7389108","Lory SP--Well Gulch Nature Trail","2025-06-08 10:31",1,40.5778286,-105.182274,TRUE,FALSE,FALSE,"S248248994"
"15","virwar","Virginia's Warbler","Leiothlypis virginiae","L2335940","Roosevelt National Forest--Dadd Gulch Trail area","2025-06-08 10:17",2,40.6976885,-105.5403036,TRUE,FALSE,FALSE,"S248310762"
"16","virwar","Virginia's Warbler","Leiothlypis virginiae","L627277","Chautauqua Park","2025-06-08 10:04",1,39.9934954,-105.2834845,TRUE,FALSE,FALSE,"S248223173"
"17","virwar","Virginia's Warbler","Leiothlypis virginiae","L21008318","Mt. Graham--Turkey Flat","2025-06-08 09:52",1,32.632362,-109.815598,TRUE,FALSE,FALSE,"S248228088"
"18","virwar","Virginia's Warbler","Leiothlypis virginiae","L235311","Ouray (town)","2025-06-08 09:47",1,38.02167,-107.67086,TRUE,FALSE,FALSE,"S248190305"
"19","virwar","Virginia's Warbler","Leiothlypis virginiae","L15834458","Colorado NM--Upper Ute Canyon Overlook","2025-06-08 09:45",1,39.0430063,-108.7152532,TRUE,FALSE,FALSE,"S248196870"
"20","virwar","Virginia's Warbler","Leiothlypis virginiae","L47146634","Mt Lemmon - Box Camp Trailhead","2025-06-08 09:43",1,32.4197394,-110.7399933,TRUE,FALSE,TRUE,"S248206886"
"21","virwar","Virginia's Warbler","Leiothlypis virginiae","L47148261","Lost Creek Falls Trail, Provo","2025-06-08 09:34",1,40.3450804,-111.6079285,TRUE,FALSE,TRUE,"S248213563"
"22","virwar","Virginia's Warbler","Leiothlypis virginiae","L751460","Eldorado Canyon SP--Inner Canyon","2025-06-08 09:33",1,39.9308904,-105.2941853,TRUE,FALSE,FALSE,"S248205952"
"23","virwar","Virginia's Warbler","Leiothlypis virginiae","L128889","Mt. Lemmon--Bear Wallow","2025-06-08 09:28",1,32.4210014,-110.731102,TRUE,FALSE,FALSE,"S248201119"
"24","virwar","Virginia's Warbler","Leiothlypis virginiae","L3084031","Upper Los Alamos Canyon","2025-06-08 09:21",1,35.879071,-106.3344222,TRUE,FALSE,FALSE,"S248235929"
"25","virwar","Virginia's Warbler","Leiothlypis virginiae","L168158","Vega SP","2025-06-08 09:01",1,39.22338,-107.79534,TRUE,FALSE,FALSE,"S248271028"
"26","virwar","Virginia's Warbler","Leiothlypis virginiae","L15491144","Arizona Game and Fish--Old Hatchery","2025-06-08 09:00",1,34.1238058,-109.9218072,TRUE,FALSE,FALSE,"S248194346"
"27","virwar","Virginia's Warbler","Leiothlypis virginiae","L4890004","House Creek Recreation Area","2025-06-08 08:43",3,37.5188827,-108.5364246,TRUE,FALSE,FALSE,"S248315841"
"28","virwar","Virginia's Warbler","Leiothlypis virginiae","L301174","Mt. Lemmon--Mt Bigelow Rd","2025-06-08 08:40",1,32.4170301,-110.7250857,TRUE,FALSE,FALSE,"S248188054"
"29","virwar","Virginia's Warbler","Leiothlypis virginiae","L5950627","Mingus Mountain--Mingus Lake (aka Elk Well)","2025-06-08 08:36",NA,34.6970875,-112.1290451,TRUE,FALSE,FALSE,"S248286285"
"30","virwar","Virginia's Warbler","Leiothlypis virginiae","L47127068","6130–6186 US-550, Cuba US-NM 35.99573, -106.97852","2025-06-08 08:35",1,35.995731,-106.978518,TRUE,FALSE,TRUE,"S248126106"
"31","virwar","Virginia's Warbler","Leiothlypis virginiae","L1211296","Upper Water Canyon","2025-06-08 08:31",1,35.8377417,-106.360103,TRUE,FALSE,FALSE,"S248267035"
"32","virwar","Virginia's Warbler","Leiothlypis virginiae","L598472","Bells Canyon--Reservoir","2025-06-08 08:23",1,40.5649541,-111.7948151,TRUE,FALSE,FALSE,"S248248979"
"33","virwar","Virginia's Warbler","Leiothlypis virginiae","L3879178","Pinewood Reservoir","2025-06-08 07:58",1,40.3630267,-105.2849436,TRUE,FALSE,FALSE,"S248108765"
"34","virwar","Virginia's Warbler","Leiothlypis virginiae","L354340","Butterfield Canyon--Lower (canyon bottom)","2025-06-08 07:58",2,40.4929421,-112.1174115,TRUE,FALSE,FALSE,"S248201268"
"35","virwar","Virginia's Warbler","Leiothlypis virginiae","L2909240","Rotary Trail","2025-06-08 07:58",1,40.4540155,-106.9168523,TRUE,FALSE,FALSE,"S248229293"
"36","virwar","Virginia's Warbler","Leiothlypis virginiae","L129068","Mt. Lemmon--Rose Canyon and Lake","2025-06-08 07:53",1,32.3926274,-110.7024693,TRUE,FALSE,FALSE,"S248279204"
"37","virwar","Virginia's Warbler","Leiothlypis virginiae","L47142620","Douglas Pass Road, De Beque, Colorado, US (39.582, -108.805)","2025-06-08 07:31",1,39.5816741,-108.8053133,TRUE,FALSE,TRUE,"S248190681"
"38","virwar","Virginia's Warbler","Leiothlypis virginiae","L3062977","Carlito Springs Open Space","2025-06-08 07:21",1,35.0865192,-106.3981408,TRUE,FALSE,FALSE,"S248222279"
"39","virwar","Virginia's Warbler","Leiothlypis virginiae","L969715","Rifle Falls SP","2025-06-08 07:17",1,39.6742292,-107.6992321,TRUE,FALSE,FALSE,"S248310844"
"40","virwar","Virginia's Warbler","Leiothlypis virginiae","L1025201","Eldorado Mountain Open Space--Goshawk Ridge Trail","2025-06-08 07:15",2,39.9205326,-105.2768326,TRUE,FALSE,FALSE,"S248318627"
"41","virwar","Virginia's Warbler","Leiothlypis virginiae","L456475","Lory SP","2025-06-08 07:13",2,40.564245,-105.1747048,TRUE,FALSE,FALSE,"S248160048"
"42","virwar","Virginia's Warbler","Leiothlypis virginiae","L33478894","Rifle Gap, Rifle US-CO 39.63916, -107.72557","2025-06-08 07:09",2,39.63916,-107.725572,TRUE,FALSE,TRUE,"S248309891"
"43","virwar","Virginia's Warbler","Leiothlypis virginiae","L951782","Yellow Fork Canyon -- Lower","2025-06-08 07:04",3,40.4687118,-112.0973069,TRUE,FALSE,FALSE,"S248221806"
"44","virwar","Virginia's Warbler","Leiothlypis virginiae","L2087533","Our house","2025-06-08 06:45",1,35.1316495,-106.663878,TRUE,FALSE,TRUE,"S248069405"
"45","virwar","Virginia's Warbler","Leiothlypis virginiae","L47134236","Start of Uncompahgre Divide Road","2025-06-08 06:29",1,38.837473,-108.575322,TRUE,FALSE,TRUE,"S248157476"
"46","virwar","Virginia's Warbler","Leiothlypis virginiae","L852175","Kaibab NF--Kaibab Plateau","2025-06-08 06:24",5,36.6039528,-112.1347046,TRUE,FALSE,FALSE,"S248186639"
"47","virwar","Virginia's Warbler","Leiothlypis virginiae","L233489","Powderhorn Ski Area","2025-06-08 06:17",4,39.0737609,-108.1446719,TRUE,FALSE,FALSE,"S248129047"
"48","virwar","Virginia's Warbler","Leiothlypis virginiae","L1632221","Pajarito Nordic Ski Trails","2025-06-08 05:56",3,35.8999725,-106.3877638,TRUE,FALSE,FALSE,"S248283912"
"49","virwar","Virginia's Warbler","Leiothlypis virginiae","L47145239","Kerr Gulch Road, Howard, Colorado, US (38.398, -105.803)","2025-06-08 05:37",1,38.3978362,-105.8033086,TRUE,FALSE,TRUE,"S248201343"
"50","virwar","Virginia's Warbler","Leiothlypis virginiae","L608372","Wasatch Mountain SP","2025-06-08 05:30",1,40.5348072,-111.4916611,TRUE,FALSE,FALSE,"S248073246"
"51","virwar","Virginia's Warbler","Leiothlypis virginiae","L47142092","Grand Mesa Uncompahgre and Gunnison National Forests - Nucla","2025-06-08 05:18",26,38.350653,-108.41809,TRUE,TRUE,TRUE,"S248188484"
"52","virwar","Virginia's Warbler","Leiothlypis virginiae","L47154154","US-84 South Pagosa Springs BLM","2025-06-08 05:16",5,37.099388,-106.912428,TRUE,FALSE,TRUE,"S248235900"
"53","virwar","Virginia's Warbler","Leiothlypis virginiae","L473975","Cheyenne Mountain SP","2025-06-08 05:11",3,38.7311714,-104.8223591,TRUE,FALSE,FALSE,"S248125834"
"54","virwar","Virginia's Warbler","Leiothlypis virginiae","L47133799","Coconino NF--Down Under","2025-06-08 04:32",2,35.2626605,-111.6084333,TRUE,FALSE,TRUE,"S248155696"
"55","virwar","Virginia's Warbler","Leiothlypis virginiae","L129062","Ramsey Canyon Preserve (formerly Mile Hi Ranch)","2025-06-08 03:45",2,31.4473746,-110.307608,TRUE,FALSE,FALSE,"S248230175"
"56","virwar","Virginia's Warbler","Leiothlypis virginiae","L587840","South Willow Canyon","2025-06-07 18:22",1,40.5009431,-112.5840282,TRUE,FALSE,FALSE,"S247930194"
"57","virwar","Virginia's Warbler","Leiothlypis virginiae","L47082376","16196–16298 US-84","2025-06-07 18:04",2,37.103614,-106.916576,TRUE,FALSE,TRUE,"S247919015"
"58","virwar","Virginia's Warbler","Leiothlypis virginiae","L212071","Antelope Island SP--Garr Ranch","2025-06-07 17:45",1,40.9234737,-112.1680972,TRUE,FALSE,FALSE,"S247920230"
"59","virwar","Virginia's Warbler","Leiothlypis virginiae","L47079963","North side of cabin","2025-06-07 17:15",1,32.439539,-110.76242,TRUE,FALSE,TRUE,"S247907386"
"60","virwar","Virginia's Warbler","Leiothlypis virginiae","L843781","Cibola NF--Sulphur Canyon Picnic Area","2025-06-07 16:31",1,35.172335,-106.3765812,TRUE,FALSE,FALSE,"S247871383"
"61","virwar","Virginia's Warbler","Leiothlypis virginiae","L11787875","Tonto National Forest, Pine US-AZ 34.40714, -111.44539","2025-06-07 15:34",1,34.407144,-111.445388,TRUE,FALSE,TRUE,"S248338882"
"62","virwar","Virginia's Warbler","Leiothlypis virginiae","L4713349","Spruce Mountain Open Space","2025-06-07 15:00",3,39.158218,-104.8848009,TRUE,FALSE,FALSE,"S247849569"
"63","virwar","Virginia's Warbler","Leiothlypis virginiae","L47083959","S 16 1/2 Rd, Glade Park US-CO 38.92819, -108.73850","2025-06-07 14:59",1,38.928193,-108.738499,TRUE,FALSE,TRUE,"S247926030"
"64","virwar","Virginia's Warbler","Leiothlypis virginiae","L219408","Cibola NF--Cienega Canyon Picnic Area","2025-06-07 14:55",1,35.167564,-106.3801861,TRUE,FALSE,FALSE,"S247862040"
"65","virwar","Virginia's Warbler","Leiothlypis virginiae","L47086191","WY-CAR SL (41.0412, -107.3114)","2025-06-07 14:53",1,41.041154,-107.311367,TRUE,FALSE,TRUE,"S247935563"
"66","virwar","Virginia's Warbler","Leiothlypis virginiae","L47065398","26272 Douglas Pass Rd, De Beque US-CO 39.65013, -108.78829","2025-06-07 14:48",1,39.65013,-108.788286,TRUE,FALSE,TRUE,"S247839985"
"67","virwar","Virginia's Warbler","Leiothlypis virginiae","L843797","Cibola NF--Ellis Trailhead, Service Rd. No. 488","2025-06-07 14:36",4,35.2090138,-106.44115,TRUE,FALSE,FALSE,"S247901356"
"68","virwar","Virginia's Warbler","Leiothlypis virginiae","L3635451","Carson Hole Area","2025-06-07 14:30",1,38.7367787,-108.6225986,TRUE,FALSE,FALSE,"S247830273"
"69","virwar","Virginia's Warbler","Leiothlypis virginiae","L47064103","Shadow Canyon North Trail, Boulder, Colorado, US (39.946, -105.287)","2025-06-07 13:57",2,39.946116,-105.2870461,TRUE,FALSE,TRUE,"S247834785"
"70","virwar","Virginia's Warbler","Leiothlypis virginiae","L47081549","Ute Canyon Trail","2025-06-07 13:38",1,39.036943,-108.708959,TRUE,FALSE,TRUE,"S247915349"
"71","virwar","Virginia's Warbler","Leiothlypis virginiae","L19983916","106 Kenosha Ct, Durango US-CO 37.31630, -107.78774","2025-06-07 13:37",1,37.316303,-107.787743,TRUE,FALSE,TRUE,"S247827739"
"72","virwar","Virginia's Warbler","Leiothlypis virginiae","L30803982","Pecos River/Willow Creek confluence","2025-06-07 13:27",3,35.7585687,-105.6715861,TRUE,FALSE,TRUE,"S247866632"
"73","virwar","Virginia's Warbler","Leiothlypis virginiae","L129069","Rustler Park","2025-06-07 13:10",3,31.9030991,-109.2776031,TRUE,FALSE,FALSE,"S248155665"
"74","virwar","Virginia's Warbler","Leiothlypis virginiae","L18105144","Santa Fe NF--Borrego Mesa Campground","2025-06-07 13:04",2,35.9781014,-105.7730023,TRUE,FALSE,FALSE,"S247850549"
"75","virwar","Virginia's Warbler","Leiothlypis virginiae","L511647","Prospect Ponds Natural Area","2025-06-07 12:51",1,40.5617039,-105.0262375,TRUE,FALSE,FALSE,"S247835066"
"76","virwar","Virginia's Warbler","Leiothlypis virginiae","L47054498","22424 SH-65, Cedaredge US-CO (38.9719,-107.9322)","2025-06-07 12:45",2,38.971937,-107.932235,TRUE,FALSE,TRUE,"S247798349"
"77","virwar","Virginia's Warbler","Leiothlypis virginiae","L779572","Roby Canyon","2025-06-07 12:31",1,43.8086104,-104.0345836,TRUE,TRUE,FALSE,"S247805104"
"78","virwar","Virginia's Warbler","Leiothlypis virginiae","L47055111","Durango, Colorado, US (37.347, -107.793) Baldy Mountain","2025-06-07 11:56",3,37.3467339,-107.7928502,TRUE,FALSE,TRUE,"S247800610"
"79","virwar","Virginia's Warbler","Leiothlypis virginiae","L47127953","Fletcher Canyon Trail, Las Vegas US-NV (36.2636,-115.6116)","2025-06-07 11:50",NA,36.263627,-115.611579,TRUE,FALSE,TRUE,"S248129987"
"80","virwar","Virginia's Warbler","Leiothlypis virginiae","L585741","Spring Mountains NRA--Fletcher Canyon","2025-06-07 11:48",NA,36.2660753,-115.6122851,TRUE,FALSE,FALSE,"S247932743"
"81","virwar","Virginia's Warbler","Leiothlypis virginiae","L18733888","Cedar Point Trail, Crawford, Colorado, US (38.577, -107.722)","2025-06-07 11:40",2,38.5767233,-107.7217375,TRUE,FALSE,TRUE,"S247934490"
"82","virwar","Virginia's Warbler","Leiothlypis virginiae","L128885","Barfoot Park","2025-06-07 10:47",2,31.9172001,-109.2790985,TRUE,FALSE,FALSE,"S247934385"
"83","virwar","Virginia's Warbler","Leiothlypis virginiae","L1309802","Hall Ranch","2025-06-07 10:34",1,40.2197814,-105.3382874,TRUE,FALSE,FALSE,"S247874399"
"84","virwar","Virginia's Warbler","Leiothlypis virginiae","L363693","Deer Creek Canyon Park","2025-06-07 10:32",6,39.5355568,-105.1626778,TRUE,FALSE,FALSE,"S247953927"
"85","virwar","Virginia's Warbler","Leiothlypis virginiae","L47035941","The North Pole Santa’s Workshop, Cascade US-CO 38.90471, -104.97660","2025-06-07 10:27",1,38.904712,-104.9766,TRUE,FALSE,TRUE,"S247737205"
"86","virwar","Virginia's Warbler","Leiothlypis virginiae","L47046233","New Mexico 32, Aragon, New Mexico, US (33.905, -108.641)","2025-06-07 10:26",2,33.905346,-108.6406543,TRUE,FALSE,TRUE,"S247766111"
"87","virwar","Virginia's Warbler","Leiothlypis virginiae","L47042556","Unnamed Road, Cedar Crest, New Mexico, US (35.16, -106.374)","2025-06-07 10:17",4,35.1598187,-106.3736316,TRUE,FALSE,TRUE,"S247752122"
"88","virwar","Virginia's Warbler","Leiothlypis virginiae","L129031","Miller Canyon Trail","2025-06-07 10:03",1,31.40806,-110.28619,TRUE,FALSE,FALSE,"S247782898"
"89","virwar","Virginia's Warbler","Leiothlypis virginiae","L47066391","Sleepy Lion Trail","2025-06-07 09:51",2,40.222058,-105.351492,TRUE,FALSE,TRUE,"S247843873"
"90","virwar","Virginia's Warbler","Leiothlypis virginiae","L6077184","Spires of Broadmoor","2025-06-07 09:43",2,38.750083,-104.84269,TRUE,FALSE,TRUE,"S247920072"
"91","virwar","Virginia's Warbler","Leiothlypis virginiae","L2959574","Blodgett Peak Open Space","2025-06-07 09:37",1,38.9487044,-104.8916245,TRUE,FALSE,FALSE,"S247770394"
"92","virwar","Virginia's Warbler","Leiothlypis virginiae","L47135354","S Rose Canyon Rd, Herriman US-UT 40.46542, -112.08490","2025-06-07 09:33",1,40.465423,-112.084901,TRUE,FALSE,TRUE,"S248162044"
"93","virwar","Virginia's Warbler","Leiothlypis virginiae","L286521","Mt. Lemmon--Ski Valley","2025-06-07 09:24",5,32.4484106,-110.7810647,TRUE,FALSE,FALSE,"S247840122"
"94","virwar","Virginia's Warbler","Leiothlypis virginiae","L47045840","Auto selected 32.43963, -110.79146","2025-06-07 09:15",1,32.439635,-110.791462,TRUE,FALSE,TRUE,"S247764594"
"95","virwar","Virginia's Warbler","Leiothlypis virginiae","L11571199","Cabin Canyon, Montezuma County","2025-06-07 09:07",1,37.6310067,-108.6940917,TRUE,FALSE,TRUE,"S247777449"
"96","virwar","Virginia's Warbler","Leiothlypis virginiae","L15441274","Santa Fe NF--Rio Medio Trail","2025-06-07 09:06",8,35.9750779,-105.77096,TRUE,FALSE,FALSE,"S247850099"
"97","virwar","Virginia's Warbler","Leiothlypis virginiae","L47094813","Walnut Trail","2025-06-07 09:04",2,34.370947,-111.480947,TRUE,FALSE,TRUE,"S247975042"
"98","virwar","Virginia's Warbler","Leiothlypis virginiae","L38181100","7263 Silverhorn Dr, Evergreen US-CO 39.58627, -105.28777","2025-06-07 09:03",1,39.586275,-105.287767,TRUE,FALSE,TRUE,"S247780980"
"99","virwar","Virginia's Warbler","Leiothlypis virginiae","L47067954","Cibola NF — Tecolote Trail","2025-06-07 09:02",8,35.198282,-106.399129,TRUE,FALSE,TRUE,"S247850182"
"100","virwar","Virginia's Warbler","Leiothlypis virginiae","L3771948","Zion NP--East Mesa Trail","2025-06-07 09:00",1,37.2965451,-112.9179096,TRUE,FALSE,FALSE,"S247937459"
"101","virwar","Virginia's Warbler","Leiothlypis virginiae","L1025870","Cibola NF--Dry Camp","2025-06-07 09:00",1,35.20047,-106.40504,TRUE,FALSE,FALSE,"S248277790"
"102","virwar","Virginia's Warbler","Leiothlypis virginiae","L11683903","Young Gulch Trail","2025-06-07 08:56",1,40.6776199,-105.348945,TRUE,FALSE,FALSE,"S248074283"
"103","virwar","Virginia's Warbler","Leiothlypis virginiae","L4837312","Black Canyon of the Gunnison NP--Oak Flats Trail","2025-06-07 08:53",5,38.5545422,-107.6910889,TRUE,FALSE,FALSE,"S247932919"
"104","virwar","Virginia's Warbler","Leiothlypis virginiae","L24129724","preacher canyon","2025-06-07 08:45",1,34.2536082,-111.1808305,TRUE,FALSE,TRUE,"S247797732"
"105","virwar","Virginia's Warbler","Leiothlypis virginiae","L47178562","Sanborn Park area, Montrose CO, US-CO 38.21981, -107.99758","2025-06-07 08:40",2,38.219814,-107.997583,TRUE,FALSE,TRUE,"S248338109"
"106","virwar","Virginia's Warbler","Leiothlypis virginiae","L3621918","Lower Pueblo Canyon Wetlands (Santa Fe Co.)","2025-06-07 08:39",1,35.8802185,-106.2329328,TRUE,FALSE,FALSE,"S247819824"
"107","virwar","Virginia's Warbler","Leiothlypis virginiae","L1157195","Slate Canyon","2025-06-07 08:37",2,40.2248604,-111.6234112,TRUE,FALSE,FALSE,"S247710685"
"108","virwar","Virginia's Warbler","Leiothlypis virginiae","L580325","Betasso Preserve","2025-06-07 08:30",1,40.0159146,-105.3412485,TRUE,FALSE,FALSE,"S247866988"
"109","virwar","Virginia's Warbler","Leiothlypis virginiae","L201225","Prescott--Willow Lake","2025-06-07 08:28",1,34.605,-112.438,TRUE,FALSE,FALSE,"S247758295"
"110","virwar","Virginia's Warbler","Leiothlypis virginiae","L9451967","Black Canyon of the Gunnison NP--Tomichi Point","2025-06-07 08:27",2,38.5504764,-107.6865812,TRUE,FALSE,FALSE,"S247933088"
"111","virwar","Virginia's Warbler","Leiothlypis virginiae","L2948522","Cibola NF--Tree Spring Trailhead","2025-06-07 08:26",2,35.1938953,-106.40468,TRUE,FALSE,FALSE,"S247810360"
"112","virwar","Virginia's Warbler","Leiothlypis virginiae","L46968813","Deer Creek Canyon Park, Littleton US-CO 39.54308, -105.15160","2025-06-07 08:23",1,39.543082,-105.151596,TRUE,FALSE,TRUE,"S247817914"
"113","virwar","Virginia's Warbler","Leiothlypis virginiae","L47041919","NF-10, Jemez Springs, New Mexico, US (35.707, -106.626)PFC","2025-06-07 08:16",2,35.7074399,-106.6264689,TRUE,FALSE,TRUE,"S247749917"
"114","virwar","Virginia's Warbler","Leiothlypis virginiae","L2141930","Pinetop--Billy Creek Trail","2025-06-07 08:15",2,34.136253,-109.945908,TRUE,FALSE,FALSE,"S247763482"
"115","virwar","Virginia's Warbler","Leiothlypis virginiae","L1391195","Hall Ranch--Bitterbrush Trailhead","2025-06-07 08:14",2,40.2117954,-105.2888663,TRUE,FALSE,FALSE,"S247843265"
"116","virwar","Virginia's Warbler","Leiothlypis virginiae","L47074428","Ute-Deep Trail, Gypsum US-CO 39.79754, -107.16073","2025-06-07 08:07",1,39.797537,-107.160729,TRUE,FALSE,TRUE,"S247877592"
"117","virwar","Virginia's Warbler","Leiothlypis virginiae","L785949","Mt. Lemmon--Oracle Ridge Trail","2025-06-07 08:02",3,32.4593704,-110.7521439,TRUE,FALSE,FALSE,"S248269802"
"118","virwar","Virginia's Warbler","Leiothlypis virginiae","L23593564","Gila NF--Tularosa River Bridge at Apache Creek","2025-06-07 08:01",2,33.8328599,-108.6223473,TRUE,FALSE,FALSE,"S247717630"
"119","virwar","Virginia's Warbler","Leiothlypis virginiae","L188841","Grand Mesa--Lands End Observatory (not intended for Lands End Road)","2025-06-07 08:00",1,39.025166,-108.22416,TRUE,FALSE,FALSE,"S247936376"
"120","virwar","Virginia's Warbler","Leiothlypis virginiae","L47002461","Grand Mesa Uncompahgre and Gunnison National Forests, Whitewater US-CO 39.00508, -108.20573","2025-06-07 07:54",1,39.005081,-108.205727,TRUE,FALSE,TRUE,"S247871242"
"121","virwar","Virginia's Warbler","Leiothlypis virginiae","L47045205","Booger Red, Florissant, Colorado, US (38.709, -105.276)","2025-06-07 07:41",1,38.7089453,-105.2756405,TRUE,FALSE,TRUE,"S247762033"
"122","virwar","Virginia's Warbler","Leiothlypis virginiae","L47036640","Hermosa Creek Trail, Durango US-CO 37.45791, -107.85765","2025-06-07 07:35",3,37.457909,-107.857648,TRUE,FALSE,TRUE,"S247728669"
"123","virwar","Virginia's Warbler","Leiothlypis virginiae","L109237","Roxborough SP","2025-06-07 07:26",2,39.4295306,-105.0694388,TRUE,FALSE,FALSE,"S247772678"
"124","virwar","Virginia's Warbler","Leiothlypis virginiae","L4558235","Lowell Observatory","2025-06-07 07:14",1,35.2024105,-111.6647387,TRUE,FALSE,FALSE,"S247839674"
"125","virwar","Virginia's Warbler","Leiothlypis virginiae","L263439","Greer--West Fork of the Little Colorado River","2025-06-07 07:10",1,33.993428,-109.4647197,TRUE,FALSE,FALSE,"S247764092"
"126","virwar","Virginia's Warbler","Leiothlypis virginiae","L9602349","Thumb Butte trail","2025-06-07 07:09",3,34.546971,-112.521264,TRUE,FALSE,TRUE,"S247706522"
"127","virwar","Virginia's Warbler","Leiothlypis virginiae","L11498996","Santa Fe NF--Cañon del Valle Trail","2025-06-07 07:07",11,35.8524331,-106.3545596,TRUE,FALSE,FALSE,"S247770195"
"128","virwar","Virginia's Warbler","Leiothlypis virginiae","L2094999","Ponderosa Grove CG","2025-06-07 06:58",1,37.0885956,-112.6730006,TRUE,FALSE,FALSE,"S247710087"
"129","virwar","Virginia's Warbler","Leiothlypis virginiae","L4095616","Meeker (town)","2025-06-07 06:54",3,40.0395094,-107.9143668,TRUE,FALSE,FALSE,"S247671367"
"130","virwar","Virginia's Warbler","Leiothlypis virginiae","L8646579","Home","2025-06-07 06:52",1,39.2280075,-106.9321307,TRUE,FALSE,TRUE,"S247634280"
"131","virwar","Virginia's Warbler","Leiothlypis virginiae","L575126","Pueblo Mountain Park","2025-06-07 06:50",1,38.0463506,-105.0026894,TRUE,FALSE,FALSE,"S247684516"
"132","virwar","Virginia's Warbler","Leiothlypis virginiae","L47139022","Fishlake National Forest, Beaver US-UT 38.60824, -112.50319","2025-06-07 06:48",3,38.608241,-112.503195,TRUE,FALSE,TRUE,"S248176688"
"133","virwar","Virginia's Warbler","Leiothlypis virginiae","L3354672","Confluence of Pueblo and Acid Canyons","2025-06-07 06:47",4,35.8889067,-106.3039041,TRUE,FALSE,FALSE,"S247680378"
"134","virwar","Virginia's Warbler","Leiothlypis virginiae","L47055507","4500 South 16 1/2 Road, Glade Park, Colorado, US (38.953, -108.736)","2025-06-07 06:46",1,38.9534728,-108.7362802,TRUE,FALSE,TRUE,"S247802112"
"135","virwar","Virginia's Warbler","Leiothlypis virginiae","L15816893","Harrison Creek, Ruby Mountains, Elko County, NV 40.31556, -115.49191","2025-06-07 06:40",2,40.315565,-115.491908,TRUE,FALSE,TRUE,"S247862510"
"136","virwar","Virginia's Warbler","Leiothlypis virginiae","L758087","Miller Canyon--lower (below Beatty's)","2025-06-07 06:30",1,31.4228039,-110.2644539,TRUE,FALSE,FALSE,"S247700047"
"137","virwar","Virginia's Warbler","Leiothlypis virginiae","L522498","Old Saint Vrain Rd","2025-06-07 06:25",1,40.20936,-105.2803516,TRUE,FALSE,FALSE,"S247881995"
"138","virwar","Virginia's Warbler","Leiothlypis virginiae","L47072580","3322–3544 Lands End Rd, Whitewater US-CO (38.9958,-108.2758)","2025-06-07 06:18",1,38.995816,-108.275846,TRUE,FALSE,TRUE,"S247869599"
"139","virwar","Virginia's Warbler","Leiothlypis virginiae","L353655","City Creek Canyon--Above Bonneville Blvd","2025-06-07 06:17",2,40.8046493,-111.8645096,TRUE,FALSE,FALSE,"S247779017"
"140","virwar","Virginia's Warbler","Leiothlypis virginiae","L46254582","Canyon Rim Campground, Manila US-UT (40.8848,-109.5466)","2025-06-07 06:12",1,40.884788,-109.546601,TRUE,FALSE,TRUE,"S247713881"
"141","virwar","Virginia's Warbler","Leiothlypis virginiae","L23176373","Lands End Road--Wild Rose PG","2025-06-07 06:00",1,39.0124192,-108.2333065,TRUE,FALSE,FALSE,"S247935442"
"142","virwar","Virginia's Warbler","Leiothlypis virginiae","L211246","Lair O' the Bear Park","2025-06-07 05:53",2,39.6674351,-105.2577988,TRUE,FALSE,FALSE,"S247877724"
"143","virwar","Virginia's Warbler","Leiothlypis virginiae","L3089449","Spring Mountains NRA--Deer Creek Picnic Area","2025-06-07 05:35",1,36.3145986,-115.6210833,TRUE,FALSE,FALSE,"S248318470"
"144","virwar","Virginia's Warbler","Leiothlypis virginiae","L283017","Sugarite Canyon SP","2025-06-07 05:27",9,36.9608791,-104.3888275,TRUE,FALSE,FALSE,"S247808248"
"145","virwar","Virginia's Warbler","Leiothlypis virginiae","L47065488","McIntyre Hills Wilderness Study Area","2025-06-07 04:38",8,38.412557,-105.523627,TRUE,FALSE,TRUE,"S247840347"
"146","virwar","Virginia's Warbler","Leiothlypis virginiae","L554724","Eldorado Mountain Open Space","2025-06-06 18:14",1,39.9256011,-105.2762747,TRUE,FALSE,FALSE,"S247494098"
"147","virwar","Virginia's Warbler","Leiothlypis virginiae","L46981335","W Sheep Creek Geological Loop, Manila US-UT 40.89466, -109.78347","2025-06-06 18:02",1,40.894659,-109.783466,TRUE,FALSE,TRUE,"S247482199"
"148","virwar","Virginia's Warbler","Leiothlypis virginiae","L46983910","637–731 Gold Camp Rd, Colorado Springs US-CO 38.82191, -104.89077","2025-06-06 17:52",1,38.821914,-104.890765,TRUE,FALSE,TRUE,"S247493858"
"149","virwar","Virginia's Warbler","Leiothlypis virginiae","L11842469","Usfs 661, Plumtaw","2025-06-06 17:47",2,37.3602959,-107.066368,TRUE,FALSE,TRUE,"S247513606"
"150","virwar","Virginia's Warbler","Leiothlypis virginiae","L1239721","Pajarito Mountain","2025-06-06 16:56",1,35.8921606,-106.3942623,TRUE,FALSE,FALSE,"S247626178"
"151","virwar","Virginia's Warbler","Leiothlypis virginiae","L46980378","12382 Sand Flats Rd, Moab US-UT 38.55371, -109.36367","2025-06-06 16:10",1,38.553707,-109.363673,TRUE,FALSE,TRUE,"S247477566"
"152","virwar","Virginia's Warbler","Leiothlypis virginiae","L753821","Oak Creek Canyon--West Fork","2025-06-06 15:19",2,34.988,-111.7477,TRUE,FALSE,FALSE,"S247500499"
"153","virwar","Virginia's Warbler","Leiothlypis virginiae","L1235636","Douglas Pass Area","2025-06-06 14:49",1,39.5976201,-108.8050747,TRUE,FALSE,FALSE,"S247455606"
"154","virwar","Virginia's Warbler","Leiothlypis virginiae","L2259437","Perrins Peak SWA","2025-06-06 14:39",3,37.3079218,-107.9509735,TRUE,FALSE,FALSE,"S247470800"
"155","virwar","Virginia's Warbler","Leiothlypis virginiae","L998436","Mesa Verde NP--Morefield Campground","2025-06-06 14:30",2,37.2989439,-108.4187508,TRUE,FALSE,FALSE,"S247826669"
"156","virwar","Virginia's Warbler","Leiothlypis virginiae","L4469524","Glade Park area","2025-06-06 14:29",1,38.9947728,-108.7418175,TRUE,FALSE,FALSE,"S247472085"
"157","virwar","Virginia's Warbler","Leiothlypis virginiae","L29462516","8-inch road","2025-06-06 13:58",1,35.1845367,-111.7429116,TRUE,FALSE,TRUE,"S247458847"
"158","virwar","Virginia's Warbler","Leiothlypis virginiae","L748275","Cibola NF--Doc Long Picnic Ground & Bill Spring Trail","2025-06-06 13:46",1,35.1774762,-106.3796389,TRUE,FALSE,FALSE,"S247411372"
"159","virwar","Virginia's Warbler","Leiothlypis virginiae","L23495889","88 Hat Creek Ct, Durango US-CO (37.3065,-107.7842)","2025-06-06 13:40",1,37.306513,-107.784232,TRUE,FALSE,TRUE,"S247426073"
"160","virwar","Virginia's Warbler","Leiothlypis virginiae","L4692255","Old La Veta Pass Rd (Costilla Co)","2025-06-06 13:33",1,37.593464,-105.204438,TRUE,FALSE,FALSE,"S247448033"
"161","virwar","Virginia's Warbler","Leiothlypis virginiae","L46975845","1697–1761 CR-122, Rangely US-CO 40.03743, -108.55633","2025-06-06 12:46",1,40.037431,-108.556329,TRUE,FALSE,TRUE,"S247455155"
"162","virwar","Virginia's Warbler","Leiothlypis virginiae","L3712654","Santa Fe NF - Dalton Canyon","2025-06-06 12:30",8,35.676954,-105.7322691,TRUE,FALSE,TRUE,"S247515859"
"163","virwar","Virginia's Warbler","Leiothlypis virginiae","L986620","Jacks Canyon Area","2025-06-06 12:09",2,38.8016075,-108.58567,TRUE,FALSE,FALSE,"S247464675"
"164","virwar","Virginia's Warbler","Leiothlypis virginiae","L46970620","Gold Queen Basin","2025-06-06 11:56",1,37.820221,-109.425999,TRUE,FALSE,TRUE,"S247431388"
"165","virwar","Virginia's Warbler","Leiothlypis virginiae","L2961133","Spiler Canyon","2025-06-06 11:52",1,37.1289827,-106.916821,TRUE,FALSE,FALSE,"S247377986"
"166","virwar","Virginia's Warbler","Leiothlypis virginiae","L559371","Grand Canyon NP--Cape Royal","2025-06-06 11:51",1,36.1224,-111.9496,TRUE,FALSE,FALSE,"S247412284"
"167","virwar","Virginia's Warbler","Leiothlypis virginiae","L32605410","Bumblebee Spring","2025-06-06 11:45",2,37.5505405,-113.2777975,TRUE,FALSE,FALSE,"S247732159"
"168","virwar","Virginia's Warbler","Leiothlypis virginiae","L365236","Mesa Trail Complex","2025-06-06 11:26",1,39.9403107,-105.2607393,TRUE,FALSE,FALSE,"S247401573"
"169","virwar","Virginia's Warbler","Leiothlypis virginiae","L587297","Elden Spring","2025-06-06 11:16",1,35.2273919,-111.6043997,TRUE,FALSE,FALSE,"S247429809"
"170","virwar","Virginia's Warbler","Leiothlypis virginiae","L2358412","Unaweep Seep Natural Area","2025-06-06 11:06",1,38.7705673,-108.8912487,TRUE,FALSE,FALSE,"S247465807"
"171","virwar","Virginia's Warbler","Leiothlypis virginiae","L46957262","Coronado National Forest, Tucson US-AZ 32.41423, -110.71825","2025-06-06 11:03",1,32.414226,-110.718251,TRUE,FALSE,TRUE,"S247371518"
"172","virwar","Virginia's Warbler","Leiothlypis virginiae","L486907","Pine Creek Canyon (access via the Bearfoot Trail; no access from Camp Lo Mia)","2025-06-06 11:00",1,34.423046,-111.439455,TRUE,FALSE,FALSE,"S247471786"
"173","virwar","Virginia's Warbler","Leiothlypis virginiae","L46951124","Nuthatch 8/9 Forest Service Road 190, Cedar Crest US-NM 35.16908, -106.38275","2025-06-06 10:49",2,35.169076,-106.382749,TRUE,FALSE,TRUE,"S247346152"
"174","virwar","Virginia's Warbler","Leiothlypis virginiae","L46950568","56114–56182 County Road OE, Collbran US-CO 39.22498, -108.01303","2025-06-06 10:46",1,39.224977,-108.013026,TRUE,FALSE,TRUE,"S247344015"
"175","virwar","Virginia's Warbler","Leiothlypis virginiae","L47059096","Tonto Village BBS Stop 42","2025-06-06 10:43",1,34.3781431,-111.327352,TRUE,FALSE,TRUE,"S247815677"
"176","virwar","Virginia's Warbler","Leiothlypis virginiae","L46949741","Nuthatch 8-9 Forest Service Road 190, Cedar Crest US-NM (35.1675,-106.3815)","2025-06-06 10:33",1,35.167547,-106.381478,TRUE,FALSE,TRUE,"S247340663"
"177","virwar","Virginia's Warbler","Leiothlypis virginiae","L2390709","Grand Canyon NP--Bright Angel Trail","2025-06-06 10:31",2,36.072743,-112.1299918,TRUE,FALSE,FALSE,"S247480633"
"178","virwar","Virginia's Warbler","Leiothlypis virginiae","L1213072","Santa Fe NF--Chamisa Trail","2025-06-06 10:30",3,35.7286155,-105.8657813,TRUE,FALSE,FALSE,"S247369938"
"179","virwar","Virginia's Warbler","Leiothlypis virginiae","L46955200","2049–2297 N State Hwy 67, Sedalia US-CO (39.3839,-105.0597)","2025-06-06 10:08",1,39.383887,-105.059708,TRUE,FALSE,TRUE,"S247363083"
"180","virwar","Virginia's Warbler","Leiothlypis virginiae","L46964734","10859 Colorado 325, Rifle, Colorado, US (39.681, -107.701)","2025-06-06 10:06",1,39.6808819,-107.7006921,TRUE,FALSE,TRUE,"S247405320"
"181","virwar","Virginia's Warbler","Leiothlypis virginiae","L31519415","Baker Lake Rd, Washington US-UT 37.37681, -113.64166","2025-06-06 10:04",1,37.376812,-113.641655,TRUE,FALSE,TRUE,"S247352308"
"182","virwar","Virginia's Warbler","Leiothlypis virginiae","L2329640","Cibola NF--Upper Water Canyon","2025-06-06 09:57",2,34.0079355,-107.1397448,TRUE,FALSE,FALSE,"S247423207"
"183","virwar","Virginia's Warbler","Leiothlypis virginiae","L46957185","12480–12542 55 Rd, Collbran US-CO (39.1910,-108.0291)","2025-06-06 09:55",1,39.19097,-108.029063,TRUE,FALSE,TRUE,"S247371151"
"184","virwar","Virginia's Warbler","Leiothlypis virginiae","L2287746","Boulder Mountain Park--Bear Canyon Trail","2025-06-06 09:53",1,39.9735354,-105.2739894,TRUE,FALSE,FALSE,"S247387286"
"185","virwar","Virginia's Warbler","Leiothlypis virginiae","L12395330","Gila NF--Little Cherry Creek Road and Trail","2025-06-06 09:47",2,32.8993275,-108.228703,TRUE,FALSE,FALSE,"S247394262"
"186","virwar","Virginia's Warbler","Leiothlypis virginiae","L47059025","Tonto Village BBS Stop 35","2025-06-06 09:47",1,34.3824008,-111.2783428,TRUE,FALSE,TRUE,"S247815443"
"187","virwar","Virginia's Warbler","Leiothlypis virginiae","L2862973","Daddy Canyon (Carbon Co.)","2025-06-06 09:43",2,39.786024,-110.166103,TRUE,FALSE,FALSE,"S247321673"
"188","virwar","Virginia's Warbler","Leiothlypis virginiae","L46958442","22232–23154 SH-65, Cedaredge US-CO 38.97844, -107.93086","2025-06-06 09:40",1,38.978439,-107.930859,TRUE,FALSE,TRUE,"S247376308"
"189","virwar","Virginia's Warbler","Leiothlypis virginiae","L46958213","22424 SH-65, Cedaredge US-CO 38.97196, -107.93222","2025-06-06 09:35",1,38.971956,-107.932217,TRUE,FALSE,TRUE,"S247375445"
"190","virwar","Virginia's Warbler","Leiothlypis virginiae","L585979","Rocky Mountain NP--Cub Lake and Trail","2025-06-06 09:22",1,40.346078,-105.6406367,TRUE,FALSE,FALSE,"S247497172"
"191","virwar","Virginia's Warbler","Leiothlypis virginiae","L46965447","Sanborn Park Rd.—Montrose Co.","2025-06-06 09:19",3,38.191101,-108.193665,TRUE,FALSE,TRUE,"S247409701"
"192","virwar","Virginia's Warbler","Leiothlypis virginiae","L46955813","Sanborn Park Road, Montrose, Colorado, US (38.187, -108.213)","2025-06-06 09:13",4,38.1867645,-108.2133365,TRUE,FALSE,TRUE,"S247365691"
"193","virwar","Virginia's Warbler","Leiothlypis virginiae","L233493","Black Canyon of the Gunnison NP--South Rim","2025-06-06 09:12",2,38.5811339,-107.7153254,TRUE,FALSE,FALSE,"S247347599"
"194","virwar","Virginia's Warbler","Leiothlypis virginiae","L19539797","Rio Blanco SWA--Roselund Unit (east access)","2025-06-06 09:11",1,40.064766,-108.163455,TRUE,FALSE,FALSE,"S247454289"
"195","virwar","Virginia's Warbler","Leiothlypis virginiae","L46956105","Spring Creek","2025-06-06 09:04",1,37.515809,-113.173126,TRUE,FALSE,TRUE,"S247375942"
"196","virwar","Virginia's Warbler","Leiothlypis virginiae","L46968194","Cienega Trail, Cedar Crest US-NM 35.17011, -106.38546","2025-06-06 09:00",3,35.170112,-106.385464,TRUE,FALSE,TRUE,"S247420308"
"197","virwar","Virginia's Warbler","Leiothlypis virginiae","L47058978","Tonto Village BBS Stop 29","2025-06-06 08:57",1,34.3705102,-111.236144,TRUE,FALSE,TRUE,"S247815238"
"198","virwar","Virginia's Warbler","Leiothlypis virginiae","L11311892","Droney Gulch Natural Area","2025-06-06 08:54",2,38.5882651,-106.1246748,TRUE,FALSE,FALSE,"S247330200"
"199","virwar","Virginia's Warbler","Leiothlypis virginiae","L9087325","Black Canyon of the Gunnison NP--South Rim Visitor Center","2025-06-06 08:45",10,38.5547293,-107.6860183,TRUE,FALSE,FALSE,"S247415923"
"200","virwar","Virginia's Warbler","Leiothlypis virginiae","L46939122","Nuthatch 4 Armijo Trail, Sandia Park US-NM (35.1649,-106.3705)","2025-06-06 08:27",1,35.164943,-106.370518,TRUE,FALSE,TRUE,"S247297196"
"201","virwar","Virginia's Warbler","Leiothlypis virginiae","L46987848","S 16 1/2 Rd, Glade Park US-CO 38.91493, -108.73828","2025-06-06 08:23",1,38.914931,-108.738276,TRUE,FALSE,TRUE,"S247510483"
"202","virwar","Virginia's Warbler","Leiothlypis virginiae","L46321206","Fletcher Canyon Trail, Las Vegas US-NV 36.27369, -115.62718","2025-06-06 08:20",8,36.273687,-115.627179,TRUE,FALSE,TRUE,"S247487214"
"203","virwar","Virginia's Warbler","Leiothlypis virginiae","L3871633","Pilar","2025-06-06 08:17",1,36.2766662,-105.7882547,TRUE,FALSE,FALSE,"S247428280"
"204","virwar","Virginia's Warbler","Leiothlypis virginiae","L46937998","Nuthatch 2 Armijo Trail, Cedar Crest US-NM (35.1645,-106.3733)","2025-06-06 08:14",1,35.164497,-106.373347,TRUE,FALSE,TRUE,"S247292035"
"205","virwar","Virginia's Warbler","Leiothlypis virginiae","L46985109","FS Rd 231, Flagstaff, AZ","2025-06-06 08:07",1,35.0711154,-111.8547851,TRUE,FALSE,TRUE,"S247499125"
"206","virwar","Virginia's Warbler","Leiothlypis virginiae","L346650","Walnut Canyon NM","2025-06-06 08:06",1,35.1717762,-111.5094022,TRUE,FALSE,FALSE,"S247309974"
"207","virwar","Virginia's Warbler","Leiothlypis virginiae","L504764","Tibble Fork Reservoir ","2025-06-06 08:03",1,40.4826133,-111.6428947,TRUE,FALSE,FALSE,"S247316603"
"208","virwar","Virginia's Warbler","Leiothlypis virginiae","L46987818","S 16 1/2 Rd, Glade Park US-CO 38.93770, -108.74052","2025-06-06 08:00",1,38.937697,-108.740523,TRUE,FALSE,TRUE,"S247510356"
"209","virwar","Virginia's Warbler","Leiothlypis virginiae","L47058905","Tonto Village BBS Stop 22","2025-06-06 07:59",1,34.3539871,-111.1926795,TRUE,FALSE,TRUE,"S247814948"
"210","virwar","Virginia's Warbler","Leiothlypis virginiae","L2757979","Rendija Canyon between Mitchell Trail and Guaje Pines Cemetery","2025-06-06 07:57",1,35.9067937,-106.3146586,TRUE,FALSE,TRUE,"S247304026"
"211","virwar","Virginia's Warbler","Leiothlypis virginiae","L2708878","Rampart Range Rd at Hwy 67","2025-06-06 07:46",1,39.3771618,-105.0944316,TRUE,FALSE,FALSE,"S247362712"
"212","virwar","Virginia's Warbler","Leiothlypis virginiae","L1212326","Groom Creek Loop Trail #307","2025-06-06 07:44",4,34.4644607,-112.4407473,TRUE,FALSE,FALSE,"S247878482"
"213","virwar","Virginia's Warbler","Leiothlypis virginiae","L1623894","Black Canyon of the Gunnison NP--Upland Trail","2025-06-06 07:43",8,38.55205,-107.6902907,TRUE,FALSE,FALSE,"S247415572"
"214","virwar","Virginia's Warbler","Leiothlypis virginiae","L47058876","Tonto Village BBS Stop 20","2025-06-06 07:42",1,34.3413654,-111.1930678,TRUE,FALSE,TRUE,"S247814844"
"215","virwar","Virginia's Warbler","Leiothlypis virginiae","L4690005","Wolverine Canyon--Lower","2025-06-06 07:22",NA,43.2522547,-112.0150566,TRUE,FALSE,FALSE,"S247339345"
"216","virwar","Virginia's Warbler","Leiothlypis virginiae","L46975643","11603 SH-141, Whitewater US-CO 38.81601, -108.58577","2025-06-06 07:09",1,38.816013,-108.585768,TRUE,FALSE,TRUE,"S247454059"
"217","virwar","Virginia's Warbler","Leiothlypis virginiae","L47058837","Tonto Village BBS Stop 16","2025-06-06 07:02",1,34.3289157,-111.1727444,TRUE,FALSE,TRUE,"S247814683"
"218","virwar","Virginia's Warbler","Leiothlypis virginiae","L931254","Bandelier NM--Apache Springs Trail","2025-06-06 06:57",10,35.83083,-106.3792435,TRUE,FALSE,FALSE,"S247342818"
"219","virwar","Virginia's Warbler","Leiothlypis virginiae","L31415785","Oversite Canyon Trail #112","2025-06-06 06:54",1,31.3928518,-110.3155594,TRUE,FALSE,TRUE,"S247358324"
"220","virwar","Virginia's Warbler","Leiothlypis virginiae","L14750414","Ponderosa forest w/water","2025-06-06 06:43",2,35.0650332,-111.6621759,TRUE,FALSE,TRUE,"S247307413"
"221","virwar","Virginia's Warbler","Leiothlypis virginiae","L716626","Rio Grande Valley SP--Pueblo Montano Bosque Trails","2025-06-06 06:40",1,35.1422405,-106.6843696,TRUE,FALSE,FALSE,"S248264745"
"222","virwar","Virginia's Warbler","Leiothlypis virginiae","L998078","Skunk Canyon Trails","2025-06-06 06:30",1,39.985871,-105.2770865,TRUE,FALSE,FALSE,"S247394240"
"223","virwar","Virginia's Warbler","Leiothlypis virginiae","L47058603","Tonto Village BBS Stop 8","2025-06-06 05:44",1,34.3312332,-111.0930663,TRUE,FALSE,TRUE,"S247813873"
"224","virwar","Virginia's Warbler","Leiothlypis virginiae","L218839","Matthews/Winters Park","2025-06-06 05:31",1,39.6832834,-105.2116245,TRUE,FALSE,FALSE,"S247241195"
"225","virwar","Virginia's Warbler","Leiothlypis virginiae","L47058574","Tonto Village BBS Stop 6","2025-06-06 05:25",1,34.34196,-111.0963869,TRUE,FALSE,TRUE,"S247813777"
"226","virwar","Virginia's Warbler","Leiothlypis virginiae","L129102","Cave Creek Canyon--Southwestern Research Station","2025-06-06 05:22",1,31.8835432,-109.2058731,TRUE,FALSE,FALSE,"S247309601"
"227","virwar","Virginia's Warbler","Leiothlypis virginiae","L47058554","Tonto Village BBS Stop 5","2025-06-06 05:14",1,34.3503024,-111.0975898,TRUE,FALSE,TRUE,"S247813720"
"228","virwar","Virginia's Warbler","Leiothlypis virginiae","L46959563","Prescott NF--Bannie Tank Number Two","2025-06-06 04:25",3,34.4985913,-112.3374384,TRUE,FALSE,TRUE,"S247380929"
"229","virwar","Virginia's Warbler","Leiothlypis virginiae","L15594602","Durango  Hills, Durango, CO","2025-06-05 19:06",1,37.3332605,-107.7942031,TRUE,FALSE,TRUE,"S247144622"
"230","virwar","Virginia's Warbler","Leiothlypis virginiae","L9119954","Mesa Verde NP--Mancos Valley Overlook","2025-06-05 18:58",1,37.3044686,-108.4106827,TRUE,FALSE,FALSE,"S247150607"
"231","virwar","Virginia's Warbler","Leiothlypis virginiae","L46908146","Eby Creek Road","2025-06-05 17:40",1,39.674251,-106.833899,TRUE,FALSE,TRUE,"S247141217"
"232","virwar","Virginia's Warbler","Leiothlypis virginiae","L11485033","Fishers Peak SP--Moore's Canyon","2025-06-05 16:23",2,37.11049,-104.517949,TRUE,FALSE,FALSE,"S247114692"
"233","virwar","Virginia's Warbler","Leiothlypis virginiae","L1430276","Woods Canyon Lake","2025-06-05 15:51",1,34.335,-110.945,TRUE,FALSE,FALSE,"S247471248"
"234","virwar","Virginia's Warbler","Leiothlypis virginiae","L10173028","Diamond Fork Canyon--Red Ledges","2025-06-05 15:16",2,40.0798693,-111.4035559,TRUE,FALSE,FALSE,"S247094595"
"235","virwar","Virginia's Warbler","Leiothlypis virginiae","L2283584","Curecanti NRA--Hermits Rest Picnic Area","2025-06-05 15:09",1,38.4635405,-107.5188407,TRUE,FALSE,FALSE,"S247160306"
"236","virwar","Virginia's Warbler","Leiothlypis virginiae","L46895093","3945–4769 Lands End Rd, Whitewater US-CO 39.00503, -108.23778","2025-06-05 14:51",2,39.005027,-108.23778,TRUE,FALSE,TRUE,"S247074362"
"237","virwar","Virginia's Warbler","Leiothlypis virginiae","L749481","Curecanti NRA--Mesa Creek Trail","2025-06-05 14:38",2,38.45246,-107.54448,TRUE,FALSE,FALSE,"S247080133"
"238","virwar","Virginia's Warbler","Leiothlypis virginiae","L4037714","Mt. Lemmon--Seven Cataracts Vista","2025-06-05 14:20",1,32.3578983,-110.7256785,TRUE,FALSE,FALSE,"S247163934"
"239","virwar","Virginia's Warbler","Leiothlypis virginiae","L46935255","Turn out","2025-06-05 14:04",1,38.010877,-107.663104,TRUE,FALSE,TRUE,"S247279141"
"240","virwar","Virginia's Warbler","Leiothlypis virginiae","L24259478","Eagle Eye to Falcon Flow, Manti-La Sal National Forest, Moab US-UT 38.57862, -109.35867","2025-06-05 13:39",1,38.578622,-109.358673,TRUE,FALSE,TRUE,"S247105135"
"241","virwar","Virginia's Warbler","Leiothlypis virginiae","L33297148","Ant Flat Rd, Hyrum US-UT 41.45747, -111.59084","2025-06-05 13:02",1,41.457474,-111.590844,TRUE,FALSE,TRUE,"S247101671"
"242","virwar","Virginia's Warbler","Leiothlypis virginiae","L22365787","Cave of the Winds Mountain Park (restricted access)","2025-06-05 12:11",2,38.8718152,-104.9216653,TRUE,FALSE,FALSE,"S247038551"
"243","virwar","Virginia's Warbler","Leiothlypis virginiae","L11287539","Bradfield Recreation Site","2025-06-05 12:11",1,37.6581284,-108.7368025,TRUE,FALSE,FALSE,"S247133438"
"244","virwar","Virginia's Warbler","Leiothlypis virginiae","L5884815","Castlewood Canyon Rd--Lake Gulch Rd to Castlewood Canyon SP","2025-06-05 12:01",2,39.317732,-104.7572351,TRUE,FALSE,FALSE,"S247073934"
"245","virwar","Virginia's Warbler","Leiothlypis virginiae","L31845351","Forrest Valley Ct.","2025-06-05 12:00",1,36.2591718,-115.6502706,TRUE,FALSE,TRUE,"S247164254"
"246","virwar","Virginia's Warbler","Leiothlypis virginiae","L332319","Gregory Canyon","2025-06-05 11:56",1,39.9974935,-105.2927718,TRUE,FALSE,FALSE,"S247060000"
"247","virwar","Virginia's Warbler","Leiothlypis virginiae","L245619","Spring Park Reservoir","2025-06-05 11:53",1,39.4391366,-107.0886062,TRUE,FALSE,FALSE,"S247032311"
"248","virwar","Virginia's Warbler","Leiothlypis virginiae","L2265525","Gregory Canyon--Gregory Canyon and Ranger Trails","2025-06-05 11:44",1,39.9961914,-105.3082466,TRUE,FALSE,FALSE,"S247047337"
"249","virwar","Virginia's Warbler","Leiothlypis virginiae","L23702688","Spanish Oaks Reservoir","2025-06-05 11:34",1,40.0725784,-111.5993151,TRUE,FALSE,FALSE,"S247039552"
"250","virwar","Virginia's Warbler","Leiothlypis virginiae","L1623886","Black Canyon of the Gunnison NP--Warner Point Nature Trail","2025-06-05 11:28",1,38.5627173,-107.7418251,TRUE,FALSE,FALSE,"S247055102"
"251","virwar","Virginia's Warbler","Leiothlypis virginiae","L46887637","Hermosa Creek/Jones Creek Trail","2025-06-05 11:21",3,37.456371,-107.855693,TRUE,FALSE,TRUE,"S247039723"
"252","virwar","Virginia's Warbler","Leiothlypis virginiae","L357634","Cibola NF--Embudito Canyon","2025-06-05 11:13",1,35.1357734,-106.4816809,TRUE,FALSE,FALSE,"S247055024"
"253","virwar","Virginia's Warbler","Leiothlypis virginiae","L46890878","Cedar Point Trail","2025-06-05 11:08",2,38.576423,-107.720647,TRUE,FALSE,TRUE,"S247055051"
"254","virwar","Virginia's Warbler","Leiothlypis virginiae","L2213814","Eby Creek Mesa Trails","2025-06-05 10:30",2,39.6688996,-106.8380566,TRUE,FALSE,FALSE,"S247014321"
"255","virwar","Virginia's Warbler","Leiothlypis virginiae","L18994219","Dipping Vat Spring","2025-06-05 10:15",1,38.597292,-112.5432,TRUE,FALSE,TRUE,"S247024508"
"256","virwar","Virginia's Warbler","Leiothlypis virginiae","L30869563","Cathedral Spires Park","2025-06-05 09:50",2,39.4148097,-105.2550366,TRUE,FALSE,TRUE,"S247042520"
"257","virwar","Virginia's Warbler","Leiothlypis virginiae","L46872103","Five Mile Draw Road, Utah, US (39.88, -110.308)","2025-06-05 09:12",1,39.8796985,-110.3079432,TRUE,FALSE,TRUE,"S246970717"
"258","virwar","Virginia's Warbler","Leiothlypis virginiae","L3871674","Grand Canyon NP--Visitor Center","2025-06-05 09:00",1,36.0589308,-112.1092182,TRUE,FALSE,FALSE,"S247103785"
"259","virwar","Virginia's Warbler","Leiothlypis virginiae","L21626219","West View Trail","2025-06-05 08:38",7,40.4924064,-111.2951641,TRUE,FALSE,TRUE,"S246989407"
"260","virwar","Virginia's Warbler","Leiothlypis virginiae","L2779090","Mt. Lemmon--Manzanita Vista","2025-06-05 08:31",1,32.3733323,-110.7024345,TRUE,FALSE,FALSE,"S247161106"
"261","virwar","Virginia's Warbler","Leiothlypis virginiae","L4886451","Dolores Canyon","2025-06-05 08:10",3,37.8043589,-108.8194942,TRUE,FALSE,FALSE,"S246989589"
"262","virwar","Virginia's Warbler","Leiothlypis virginiae","L46879360","Eby Creek Road","2025-06-05 08:03",12,39.698678,-106.83658,TRUE,FALSE,TRUE,"S247004804"
"263","virwar","Virginia's Warbler","Leiothlypis virginiae","L9432527","Roby Canyon Road, Newcastle, South Dakota, US (43.801, -104.039)","2025-06-05 07:50",1,43.8014968,-104.038525,TRUE,TRUE,TRUE,"S247009024"
"264","virwar","Virginia's Warbler","Leiothlypis virginiae","L6072439","Big Meadows Reservoir","2025-06-05 07:41",1,37.5382651,-106.8033528,TRUE,FALSE,FALSE,"S247028603"
"265","virwar","Virginia's Warbler","Leiothlypis virginiae","L46899496","Douglas Pass Area","2025-06-05 07:26",1,39.6531589,-108.7882425,TRUE,FALSE,TRUE,"S246958585"
"266","virwar","Virginia's Warbler","Leiothlypis virginiae","L46875467","Dolores Canyon Access Roads","2025-06-05 07:24",1,37.766148,-108.867387,TRUE,FALSE,TRUE,"S246986398"
"267","virwar","Virginia's Warbler","Leiothlypis virginiae","L34210674","Phosphate Trail","2025-06-05 07:19",2,40.553896,-111.489088,TRUE,FALSE,TRUE,"S247022680"
"268","virwar","Virginia's Warbler","Leiothlypis virginiae","L4976077","Kachina Village--Pumphouse Wash Trail","2025-06-05 07:08",1,35.0935024,-111.7023017,TRUE,FALSE,FALSE,"S246988882"
"269","virwar","Virginia's Warbler","Leiothlypis virginiae","L29326247","320 W 200 s horse penUT 38.57062, -109.55703","2025-06-05 06:27",1,38.570621,-109.557032,TRUE,FALSE,TRUE,"S246924916"
"270","virwar","Virginia's Warbler","Leiothlypis virginiae","L4116125","Cibola NF--Piedra Lisa Trail","2025-06-05 06:16",1,35.2780674,-106.4794493,TRUE,FALSE,FALSE,"S246964332"
"271","virwar","Virginia's Warbler","Leiothlypis virginiae","L32211749","Cave Lake SP--Cave Springs area","2025-06-05 05:49",1,39.1808169,-114.6643415,TRUE,FALSE,FALSE,"S246953438"
"272","virwar","Virginia's Warbler","Leiothlypis virginiae","L46879637","Coconino NF--West Dry Lake Hill","2025-06-05 04:19",3,35.2726828,-111.6325284,TRUE,FALSE,TRUE,"S247004254"
"273","virwar","Virginia's Warbler","Leiothlypis virginiae","L4950325","Black Canyon of the Gunnison NP--South Rim Campground","2025-06-04 19:54",3,38.5433993,-107.6890182,TRUE,FALSE,FALSE,"S247054513"
"274","virwar","Virginia's Warbler","Leiothlypis virginiae","L46843154","Stakeout INBU","2025-06-04 17:35",2,40.495048,-111.299107,TRUE,FALSE,TRUE,"S246820020"
"275","virwar","Virginia's Warbler","Leiothlypis virginiae","L11634348","Ridgeview Ln.","2025-06-04 17:35",1,40.0765693,-105.3300542,TRUE,FALSE,TRUE,"S246785374"
"276","virwar","Virginia's Warbler","Leiothlypis virginiae","L12175736","Durango West 2","2025-06-04 17:32",1,37.2666934,-107.9908011,TRUE,FALSE,TRUE,"S246812392"
"277","virwar","Virginia's Warbler","Leiothlypis virginiae","L46842195","FR 700","2025-06-04 17:13",1,35.022608,-111.661765,TRUE,FALSE,TRUE,"S246815364"
"278","virwar","Virginia's Warbler","Leiothlypis virginiae","L45191233","Carson National Forest. 1770 County Road 447, Vallecitos US-NM 36.54291, -106.08327","2025-06-04 15:02",4,36.54291,-106.083271,TRUE,FALSE,TRUE,"S247084169"
"279","virwar","Virginia's Warbler","Leiothlypis virginiae","L46828636","Red Rock Canyon Trail, Colorado Springs US-CO 38.84955, -104.87977","2025-06-04 12:54",2,38.849546,-104.879772,TRUE,FALSE,TRUE,"S246744804"
"280","virwar","Virginia's Warbler","Leiothlypis virginiae","L46824439","Smelter Side Canyon: Bodo State Wildlife Area","2025-06-04 12:36",2,37.254698,-107.882946,TRUE,FALSE,TRUE,"S246725440"
"281","virwar","Virginia's Warbler","Leiothlypis virginiae","L46826069","13885 Pine Country Ln, Conifer US-CO 39.46419, -105.26094","2025-06-04 12:34",1,39.464192,-105.260941,TRUE,FALSE,TRUE,"S246732645"
"282","virwar","Virginia's Warbler","Leiothlypis virginiae","L459161","Great Basin NP--Snake Creek","2025-06-04 12:28",1,38.9126578,-114.1727543,TRUE,FALSE,FALSE,"S246745270"
"283","virwar","Virginia's Warbler","Leiothlypis virginiae","L2972680","Chalk Lake Campground Area","2025-06-04 12:24",2,38.7125185,-106.2331037,TRUE,FALSE,FALSE,"S247078694"
"284","virwar","Virginia's Warbler","Leiothlypis virginiae","L1542522","Mesa Verde NP--Park Point","2025-06-04 12:00",2,37.280678,-108.4614334,TRUE,FALSE,FALSE,"S246695464"
"285","virwar","Virginia's Warbler","Leiothlypis virginiae","L46894383","Shelf Rd CR 88","2025-06-04 11:30",1,38.6888669,-105.2080922,TRUE,FALSE,TRUE,"S247072060"
"286","virwar","Virginia's Warbler","Leiothlypis virginiae","L46814952","Rules Hills BLM","2025-06-04 11:20",1,37.29925,-107.697804,TRUE,FALSE,TRUE,"S246685548"
"287","virwar","Virginia's Warbler","Leiothlypis virginiae","L42062528","Hot Creek Road, La Jara, Colorado, US (37.287, -106.267)","2025-06-04 11:18",1,37.2867311,-106.2674087,TRUE,FALSE,TRUE,"S246757772"
"288","virwar","Virginia's Warbler","Leiothlypis virginiae","L2325081","Summit Reservoir","2025-06-04 10:24",3,37.4214353,-108.3839035,TRUE,FALSE,FALSE,"S246703423"
"289","virwar","Virginia's Warbler","Leiothlypis virginiae","L7301173","New Canyon Road","2025-06-04 10:07",1,39.3423298,-111.5278387,TRUE,FALSE,TRUE,"S246944902"
"290","virwar","Virginia's Warbler","Leiothlypis virginiae","L46822529","11609–12565 Transfer Rd, Olathe US-CO 38.52317, -108.09016","2025-06-04 09:16",2,38.523168,-108.090164,TRUE,FALSE,TRUE,"S246717219"
"291","virwar","Virginia's Warbler","Leiothlypis virginiae","L46819800","Highway 260, Pine, Arizona, US (34.452, -111.445)","2025-06-04 09:02",1,34.4523753,-111.4453773,TRUE,FALSE,TRUE,"S246705727"
"292","virwar","Virginia's Warbler","Leiothlypis virginiae","L917602","Steel Canyon","2025-06-04 08:55",1,41.9898637,-112.1166369,TRUE,FALSE,FALSE,"S246679364"
"293","virwar","Virginia's Warbler","Leiothlypis virginiae","L504323","East Tintic Mountains--Dividend Rd.","2025-06-04 08:50",2,39.9556503,-112.0613515,TRUE,FALSE,FALSE,"S246714993"
"294","virwar","Virginia's Warbler","Leiothlypis virginiae","L15361679","Lorax Trail (including the loop)","2025-06-04 08:41",1,39.3899732,-107.2742514,TRUE,FALSE,FALSE,"S246648759"
"295","virwar","Virginia's Warbler","Leiothlypis virginiae","L691579","Rio de Flag--Picture Canyon","2025-06-04 08:41",3,35.2289344,-111.5534592,TRUE,FALSE,FALSE,"S246670384"
"296","virwar","Virginia's Warbler","Leiothlypis virginiae","L359026","Coyote Creek SP","2025-06-04 08:35",1,36.1767519,-105.2328873,TRUE,FALSE,FALSE,"S246648328"
"297","virwar","Virginia's Warbler","Leiothlypis virginiae","L20297263","Mt. Galbraith — Nightbird Gulch","2025-06-04 08:34",1,39.7620795,-105.2394117,TRUE,FALSE,FALSE,"S246686449"
"298","virwar","Virginia's Warbler","Leiothlypis virginiae","L3672517","Mt. Ord--FR 1688","2025-06-04 08:30",1,33.9211769,-111.4143384,TRUE,FALSE,FALSE,"S246752300"
"299","virwar","Virginia's Warbler","Leiothlypis virginiae","L33812289","Fawn Gulch Road, Pagosa Springs, Colorado, US (37.316, -106.936)","2025-06-04 07:59",1,37.3156276,-106.9359394,TRUE,FALSE,TRUE,"S246687377"
"300","virwar","Virginia's Warbler","Leiothlypis virginiae","L46828491","22875–23451 CR-126, Buffalo Creek US-CO 39.26674, -105.26852","2025-06-04 07:50",1,39.266735,-105.268525,TRUE,FALSE,TRUE,"S246744066"
"301","virwar","Virginia's Warbler","Leiothlypis virginiae","L267654","Mt. Lemmon--Marshall Gulch","2025-06-04 07:47",2,32.4280212,-110.7556783,TRUE,FALSE,FALSE,"S246848077"
"302","virwar","Virginia's Warbler","Leiothlypis virginiae","L6944240","Ranch Road","2025-06-04 07:45",1,35.0427633,-108.2370245,TRUE,FALSE,TRUE,"S246701673"
"303","virwar","Virginia's Warbler","Leiothlypis virginiae","L798569","Rock Canyon","2025-06-04 07:39",1,40.2638741,-111.6266727,TRUE,FALSE,FALSE,"S246634939"
"304","virwar","Virginia's Warbler","Leiothlypis virginiae","L30127421","Casa de Gavilan, Cimarron","2025-06-04 06:57",1,36.436226,-104.977249,TRUE,FALSE,TRUE,"S246634886"
"305","virwar","Virginia's Warbler","Leiothlypis virginiae","L2731495","Hobble Creek Trail","2025-06-04 06:55",1,40.1570878,-111.5304267,TRUE,FALSE,FALSE,"S246606198"
"306","virwar","Virginia's Warbler","Leiothlypis virginiae","L5987418","American Fork Canyon--Timpanogos Cave Trail","2025-06-04 06:55",1,40.4401812,-111.7111999,TRUE,FALSE,FALSE,"S246638351"
"307","virwar","Virginia's Warbler","Leiothlypis virginiae","L46816427","Miller Canyon Trail, Hereford US-AZ 31.41751, -110.27537","2025-06-04 06:44",1,31.417509,-110.275366,TRUE,FALSE,TRUE,"S246691861"
"308","virwar","Virginia's Warbler","Leiothlypis virginiae","L1239740","Rist Canyon Rd--miles 0 to 3 ","2025-06-04 06:41",1,40.6264611,-105.2239609,TRUE,FALSE,FALSE,"S246663391"
"309","virwar","Virginia's Warbler","Leiothlypis virginiae","L32211125","Cave Lake SP--Trailhead area & Cave Creek below the reservoir","2025-06-04 06:24",2,39.1863754,-114.6889998,TRUE,FALSE,FALSE,"S246636495"
"310","virwar","Virginia's Warbler","Leiothlypis virginiae","L7579690","Coal Creek Open Space (Jefferson Co)","2025-06-04 06:16",2,39.8860638,-105.2598381,TRUE,FALSE,FALSE,"S246707935"
"311","virwar","Virginia's Warbler","Leiothlypis virginiae","L919661","m.k. - d.c.c.","2025-06-04 06:01",3,39.5522359,-105.2071381,TRUE,FALSE,TRUE,"S246645898"
"312","virwar","Virginia's Warbler","Leiothlypis virginiae","L264842","Miller Canyon--Beatty's Guest Ranch","2025-06-04 05:56",3,31.4156019,-110.2765277,TRUE,FALSE,FALSE,"S246655361"
"313","virwar","Virginia's Warbler","Leiothlypis virginiae","L46791645","Hwy 67 Overlook","2025-06-04 05:41",1,39.385493,-105.060596,TRUE,FALSE,TRUE,"S246570787"
"314","virwar","Virginia's Warbler","Leiothlypis virginiae","L516839","Elk Meadow Park","2025-06-04 05:34",1,39.672,-105.37,TRUE,FALSE,FALSE,"S247020908"
"315","virwar","Virginia's Warbler","Leiothlypis virginiae","L46877513","Baker Creek Campground","2025-06-04 05:30",1,38.9847993,-114.2429209,TRUE,FALSE,TRUE,"S246996213"
"316","virwar","Virginia's Warbler","Leiothlypis virginiae","L3761315","Fisher Mesa Trailhead","2025-06-03 16:04",4,38.617602,-109.229737,TRUE,FALSE,TRUE,"S246464957"
"317","virwar","Virginia's Warbler","Leiothlypis virginiae","L9919445","Castlewood Canyon State Park, Castle Rock US-CO (39.3512,-104.7656)","2025-06-03 15:48",1,39.351235,-104.765589,TRUE,FALSE,TRUE,"S246445183"
"318","virwar","Virginia's Warbler","Leiothlypis virginiae","L436785","Horsetooth Mountain Open Space","2025-06-03 15:46",2,40.5250217,-105.176754,TRUE,FALSE,FALSE,"S246476078"
"319","virwar","Virginia's Warbler","Leiothlypis virginiae","L140673","Zion NP","2025-06-03 15:19",1,37.2285636,-112.9654984,TRUE,FALSE,FALSE,"S246442685"
"320","virwar","Virginia's Warbler","Leiothlypis virginiae","L4530030","Mingus Mountain--Butterfly Spring","2025-06-03 14:56",1,34.7064731,-112.1391678,TRUE,FALSE,FALSE,"S246443428"
"321","virwar","Virginia's Warbler","Leiothlypis virginiae","L570078","Rock Cliffs SP","2025-06-03 14:50",2,40.6031358,-111.3440323,TRUE,FALSE,FALSE,"S246418034"
"322","virwar","Virginia's Warbler","Leiothlypis virginiae","L1175561","Red Rock Canyon Open Space","2025-06-03 14:40",1,38.8473432,-104.8811263,TRUE,FALSE,FALSE,"S246437905"
"323","virwar","Virginia's Warbler","Leiothlypis virginiae","L9715150","Black Canyon of the Gunnison NP--Dragon Point","2025-06-03 14:30",1,38.5744514,-107.7248164,TRUE,FALSE,FALSE,"S246791578"
"324","virwar","Virginia's Warbler","Leiothlypis virginiae","L25001845","Simms Mesa Trail, Montrose US-CO 38.30240, -107.96138","2025-06-03 13:35",4,38.302401,-107.961383,TRUE,TRUE,TRUE,"S246413143"
"325","virwar","Virginia's Warbler","Leiothlypis virginiae","L9715142","Black Canyon of the Gunnison NP--Rock Point & Devil's Lookout","2025-06-03 12:51",1,38.5721739,-107.7064004,TRUE,FALSE,FALSE,"S246405023"
"326","virwar","Virginia's Warbler","Leiothlypis virginiae","L11530593","Centennial SWA","2025-06-03 12:00",1,38.4921008,-107.2323146,TRUE,FALSE,FALSE,"S246428363"
"327","virwar","Virginia's Warbler","Leiothlypis virginiae","L9715133","Black Canyon of the Gunnison NP--Pulpit Rock Overlook","2025-06-03 11:50",1,38.5651801,-107.7006483,TRUE,FALSE,FALSE,"S246786320"
"328","virwar","Virginia's Warbler","Leiothlypis virginiae","L282342","Santa Fe NF--Santa Fe Ski Area","2025-06-03 11:50",2,35.794529,-105.8007431,TRUE,FALSE,FALSE,"S246408431"
"329","virwar","Virginia's Warbler","Leiothlypis virginiae","L7064327","749 Weasel Drive, Pagosa Springs, Colorado, US (37.222, -107.163)","2025-06-03 11:40",1,37.2220978,-107.1628397,TRUE,FALSE,TRUE,"S246368329"
"330","virwar","Virginia's Warbler","Leiothlypis virginiae","L226242","Mount Falcon Park--Upper Trails","2025-06-03 11:35",1,39.6335555,-105.2281245,TRUE,FALSE,FALSE,"S246770335"
"331","virwar","Virginia's Warbler","Leiothlypis virginiae","L263438","Greer--Butler Canyon Nature Trail","2025-06-03 11:02",1,34.0155775,-109.4519042,TRUE,FALSE,FALSE,"S246379190"
"332","virwar","Virginia's Warbler","Leiothlypis virginiae","L24922839","BBS route","2025-06-03 10:54",1,31.8886551,-109.279241,TRUE,FALSE,TRUE,"S246799704"
"333","virwar","Virginia's Warbler","Leiothlypis virginiae","L46756113","Left Hand Fork Road, Hyrum US-UT 41.67407, -111.61526","2025-06-03 10:51",1,41.674074,-111.615262,TRUE,FALSE,TRUE,"S246391405"
"334","virwar","Virginia's Warbler","Leiothlypis virginiae","L610738","Manitou Lake","2025-06-03 10:50",1,39.0901133,-105.097661,TRUE,FALSE,FALSE,"S246401512"
"335","virwar","Virginia's Warbler","Leiothlypis virginiae","L46749552","Black","2025-06-03 10:44",2,38.908074,-104.82672,TRUE,FALSE,TRUE,"S246361023"
"336","virwar","Virginia's Warbler","Leiothlypis virginiae","L1532363","Bryce Canyon NP--Mossy Cave","2025-06-03 10:34",2,37.6639902,-112.1144931,TRUE,FALSE,FALSE,"S246362118"
"337","virwar","Virginia's Warbler","Leiothlypis virginiae","L46741693","Timpanogos Cave National Monument, Cedar Hills US-UT 40.43919, -111.71229","2025-06-03 10:21",1,40.439192,-111.712291,TRUE,FALSE,TRUE,"S246326215"
"338","virwar","Virginia's Warbler","Leiothlypis virginiae","L1576861","Mt. Lemmon--Aspen Trail","2025-06-03 10:16",5,32.4230052,-110.7647227,TRUE,FALSE,TRUE,"S246385472"
"339","virwar","Virginia's Warbler","Leiothlypis virginiae","L281118","Gila NF--Iron Creek Campground","2025-06-03 10:02",1,32.9090505,-107.8031291,TRUE,FALSE,FALSE,"S246489309"
"340","virwar","Virginia's Warbler","Leiothlypis virginiae","L46743258","E Teasdale Rd, Teasdale US-UT 38.24816, -111.39100","2025-06-03 09:57",1,38.248165,-111.391001,TRUE,FALSE,TRUE,"S246333280"
"341","virwar","Virginia's Warbler","Leiothlypis virginiae","L24922700","BBS route","2025-06-03 09:55",1,31.9165334,-109.2661782,TRUE,FALSE,TRUE,"S246792009"
"342","virwar","Virginia's Warbler","Leiothlypis virginiae","L3061728","Lands end road switchbacks","2025-06-03 09:41",1,39.0014766,-108.2429266,TRUE,FALSE,TRUE,"S246470525"
"343","virwar","Virginia's Warbler","Leiothlypis virginiae","L46760572","White River National Forest, Rifle US-CO 39.42165, -107.77582","2025-06-03 09:24",2,39.421652,-107.775819,TRUE,FALSE,TRUE,"S246412140"
"344","virwar","Virginia's Warbler","Leiothlypis virginiae","L503396","Price Canyon--Recreation Area Rd.","2025-06-03 09:19",9,39.7615172,-110.9174001,TRUE,FALSE,FALSE,"S246358136"
"345","virwar","Virginia's Warbler","Leiothlypis virginiae","L27298912","Armijo Trail, Cedar Crest US-NM 35.16477, -106.37310","2025-06-03 09:14",7,35.164772,-106.373097,TRUE,FALSE,TRUE,"S246347997"
"346","virwar","Virginia's Warbler","Leiothlypis virginiae","L20233215","UVU Mtn Biking Trails","2025-06-03 09:10",1,40.546565,-111.4120551,TRUE,FALSE,TRUE,"S246405964"
"347","virwar","Virginia's Warbler","Leiothlypis virginiae","L46769968","Pipeline Trail, Flagstaff US-AZ 35.22560, -111.59425elden woods","2025-06-03 08:58",1,35.225603,-111.594253,TRUE,FALSE,TRUE,"S246460296"
"348","virwar","Virginia's Warbler","Leiothlypis virginiae","L46760609","White River National Forest, Rifle US-CO 39.42036, -107.77502","2025-06-03 08:56",2,39.42036,-107.775018,TRUE,FALSE,TRUE,"S246412318"
"349","virwar","Virginia's Warbler","Leiothlypis virginiae","L25014397","Cibola NF--Pine Flat Picnic Area","2025-06-03 08:45",1,35.0139665,-106.3361175,TRUE,FALSE,FALSE,"S246360210"
"350","virwar","Virginia's Warbler","Leiothlypis virginiae","L46770493","Mitchell Trail","2025-06-03 08:44",6,35.907649,-106.33032,TRUE,FALSE,TRUE,"S246463407"
"351","virwar","Virginia's Warbler","Leiothlypis virginiae","L46760616","White River National Forest, Rifle US-CO 39.42192, -107.77508","2025-06-03 08:39",1,39.421923,-107.775084,TRUE,FALSE,TRUE,"S246412384"
"352","virwar","Virginia's Warbler","Leiothlypis virginiae","L46760637","White River National Forest, Rifle US-CO 39.42254, -107.77506","2025-06-03 08:32",1,39.422541,-107.775057,TRUE,FALSE,TRUE,"S246412455"
"353","virwar","Virginia's Warbler","Leiothlypis virginiae","L46760650","White River National Forest, Rifle US-CO 39.42329, -107.77490","2025-06-03 08:24",2,39.423288,-107.774905,TRUE,FALSE,TRUE,"S246412516"
"354","virwar","Virginia's Warbler","Leiothlypis virginiae","L3905704","Mt Lemmon--Mint Spring Trl #20","2025-06-03 08:12",7,32.4397421,-110.7671964,TRUE,FALSE,TRUE,"S246339340"
"355","virwar","Virginia's Warbler","Leiothlypis virginiae","L845398","Rio Grande Valley SP--Tingley Beach Bosque Trails","2025-06-03 08:10",1,35.0807861,-106.6717958,TRUE,FALSE,FALSE,"S246312164"
"356","virwar","Virginia's Warbler","Leiothlypis virginiae","L1110100","Big Cottonwood Canyon--Mill D North (Dog Lake Hike)","2025-06-03 08:07",1,40.6557039,-111.6337109,TRUE,FALSE,FALSE,"S246386100"
"357","virwar","Virginia's Warbler","Leiothlypis virginiae","L11777932","Santa Fe NF--East Fork Trailhead","2025-06-03 08:03",2,35.8208058,-106.5910721,TRUE,FALSE,FALSE,"S246343971"
"358","virwar","Virginia's Warbler","Leiothlypis virginiae","L46749442","Sabino Canyon Open Space","2025-06-03 08:02",1,35.040103,-106.344033,TRUE,FALSE,TRUE,"S246360594"
"359","virwar","Virginia's Warbler","Leiothlypis virginiae","L46760670","White River National Forest, Rifle US-CO 39.42389, -107.77111","2025-06-03 07:53",1,39.423886,-107.771114,TRUE,FALSE,TRUE,"S246412611"
"360","virwar","Virginia's Warbler","Leiothlypis virginiae","L1141965","Mt. Lemmon--Sunset Trailhead (lower Bear Wallow)","2025-06-03 07:47",1,32.4275106,-110.7422505,TRUE,FALSE,FALSE,"S246365741"
"361","virwar","Virginia's Warbler","Leiothlypis virginiae","L17877753","Fain Park Below Dam","2025-06-03 07:45",1,34.5747583,-112.3490548,TRUE,FALSE,TRUE,"S246436746"
"362","virwar","Virginia's Warbler","Leiothlypis virginiae","L1258571","Mt. Lemmon--Carter Canyon Rd.","2025-06-03 07:33",2,32.4391149,-110.7621861,TRUE,FALSE,TRUE,"S246302837"
"363","virwar","Virginia's Warbler","Leiothlypis virginiae","L46773559","49 N Main St, Greer US-AZ 34.00458, -109.46077","2025-06-03 07:14",1,34.004575,-109.460771,TRUE,FALSE,TRUE,"S246480365"
"364","virwar","Virginia's Warbler","Leiothlypis virginiae","L774639","Monastery Lake","2025-06-03 07:00",2,35.5986242,-105.6818676,TRUE,FALSE,FALSE,"S246344423"
"365","virwar","Virginia's Warbler","Leiothlypis virginiae","L46523634","AirBnB Ridgway US-CO","2025-06-03 06:40",1,38.105283,-107.738083,TRUE,FALSE,TRUE,"S246588521"
"366","virwar","Virginia's Warbler","Leiothlypis virginiae","L128884","Barfoot Junction","2025-06-03 06:35",6,31.9150326,-109.2690586,TRUE,FALSE,FALSE,"S246324792"
"367","virwar","Virginia's Warbler","Leiothlypis virginiae","L1550416","Juan Tomas Open Space","2025-06-03 06:21",2,35.0006738,-106.3108726,TRUE,FALSE,FALSE,"S246502057"
"368","virwar","Virginia's Warbler","Leiothlypis virginiae","L19595341","lehman mr breeding bird route","2025-06-03 06:17",2,39.0189987,-114.2344908,TRUE,FALSE,TRUE,"S246407402"
"369","virwar","Virginia's Warbler","Leiothlypis virginiae","L46756848","Arizona National Scenic Trail, Flagstaff US-AZ 35.24459, -111.64151","2025-06-03 04:58",8,35.244591,-111.641509,TRUE,FALSE,TRUE,"S246394657"
"370","virwar","Virginia's Warbler","Leiothlypis virginiae","L46753579","WY-BNF-SG1","2025-06-03 04:42",2,44.5886742,-107.6747589,TRUE,FALSE,TRUE,"S246377394"
"371","virwar","Virginia's Warbler","Leiothlypis virginiae","L736245","Lee Vining Canyon--Poole Power Plant Rd. - upper","2025-06-02 19:04",1,37.9450436,-119.2056942,TRUE,TRUE,FALSE,"S246162339"
"372","virwar","Virginia's Warbler","Leiothlypis virginiae","L4781679","Grand Canyon NP--Roosevelt Point","2025-06-02 18:53",2,36.2188528,-111.9525247,TRUE,FALSE,FALSE,"S246460858"
"373","virwar","Virginia's Warbler","Leiothlypis virginiae","L11687425","Upper Verde River Wildlife Area","2025-06-02 17:51",1,34.8681514,-112.4028826,TRUE,FALSE,FALSE,"S246166385"
"374","virwar","Virginia's Warbler","Leiothlypis virginiae","L11021642","8840 Loghouse Road, Flagstaff, Arizona, US (35.267, -111.492)","2025-06-02 17:29",1,35.2673858,-111.4919345,TRUE,FALSE,TRUE,"S246142081"
"375","virwar","Virginia's Warbler","Leiothlypis virginiae","L807570","Rocky Mountain NP--Fall River Visitor Center area","2025-06-02 16:20",2,40.4018627,-105.5869871,TRUE,FALSE,FALSE,"S246118242"
"376","virwar","Virginia's Warbler","Leiothlypis virginiae","L2346947","Grand Canyon NP--Point Imperial","2025-06-02 16:01",1,36.2791537,-111.9797802,TRUE,FALSE,FALSE,"S246118555"
"377","virwar","Virginia's Warbler","Leiothlypis virginiae","L9918949","Castlewood Canyon State Park, Castle Rock US-CO (39.3594,-104.7677)","2025-06-02 15:49",1,39.359427,-104.767672,TRUE,FALSE,TRUE,"S246109837"
"378","virwar","Virginia's Warbler","Leiothlypis virginiae","L6945261","Brush Creek-south","2025-06-02 15:38",2,39.2880325,-107.8484917,TRUE,FALSE,TRUE,"S246446965"
"379","virwar","Virginia's Warbler","Leiothlypis virginiae","L46694436","1203 Bennett Avenue, Glenwood Springs, Colorado, US (39.541, -107.322)","2025-06-02 14:37",1,39.5412422,-107.3218891,TRUE,FALSE,TRUE,"S246081433"
"380","virwar","Virginia's Warbler","Leiothlypis virginiae","L46329622","80540, Lyons US-CO 40.26086, -105.40336","2025-06-02 13:14",1,40.260857,-105.403359,TRUE,FALSE,TRUE,"S247446545"
"381","virwar","Virginia's Warbler","Leiothlypis virginiae","L16672804","Bennett Peak CG","2025-06-02 12:01",1,41.2709647,-106.5904686,TRUE,FALSE,FALSE,"S246043427"
"382","virwar","Virginia's Warbler","Leiothlypis virginiae","L46690674","Neighborhood Loop","2025-06-02 11:53",1,39.623141,-106.806858,TRUE,FALSE,TRUE,"S246062653"
"383","virwar","Virginia's Warbler","Leiothlypis virginiae","L325223","Rocky Mountain NP--Upper Beaver Meadows","2025-06-02 11:37",1,40.3730498,-105.6140614,TRUE,FALSE,FALSE,"S246089929"
"384","virwar","Virginia's Warbler","Leiothlypis virginiae","L212742","White Ranch Park--Lower Trails","2025-06-02 11:36",2,39.8021042,-105.2534191,TRUE,FALSE,FALSE,"S246085629"
"385","virwar","Virginia's Warbler","Leiothlypis virginiae","L27162110","Bonneville Shoreline Trail, Provo US-UT 40.32057, -111.63557","2025-06-02 11:06",2,40.320569,-111.635565,TRUE,FALSE,TRUE,"S246040768"
"386","virwar","Virginia's Warbler","Leiothlypis virginiae","L28802840","El Rito","2025-06-02 11:04",1,36.8116418,-105.56761,TRUE,FALSE,TRUE,"S245998880"
"387","virwar","Virginia's Warbler","Leiothlypis virginiae","L4012692","Chautauqua Park (village)","2025-06-02 11:02",1,39.9985995,-105.2812958,TRUE,FALSE,FALSE,"S246041027"
"388","virwar","Virginia's Warbler","Leiothlypis virginiae","L46677977","Casper Mountain County Park, Casper US-WY 42.73936, -106.32322","2025-06-02 10:50",1,42.739361,-106.323223,TRUE,FALSE,TRUE,"S246005182"
"389","virwar","Virginia's Warbler","Leiothlypis virginiae","L46841397","East Four Mile.","2025-06-02 10:39",1,39.945645,-108.758863,TRUE,FALSE,TRUE,"S246811429"
"390","virwar","Virginia's Warbler","Leiothlypis virginiae","L481094","Rocky Mountain NP--Sprague Lake area","2025-06-02 10:30",NA,40.3205562,-105.6059933,TRUE,FALSE,FALSE,"S246154106"
"391","virwar","Virginia's Warbler","Leiothlypis virginiae","L34294084","South Loop Trail--lower section (trailhead to Griffith Peak)","2025-06-02 10:23",7,36.2495299,-115.6405906,TRUE,FALSE,FALSE,"S246148202"
"392","virwar","Virginia's Warbler","Leiothlypis virginiae","L266622","Red Rock SP","2025-06-02 10:11",1,34.8117069,-111.8288603,TRUE,FALSE,FALSE,"S246160818"
"393","virwar","Virginia's Warbler","Leiothlypis virginiae","L357489","Cibola NF--Tres Pistolas Canyon","2025-06-02 10:10",1,35.0787053,-106.4437115,TRUE,FALSE,FALSE,"S245999057"
"394","virwar","Virginia's Warbler","Leiothlypis virginiae","L11587363","Wildcat Way, Snowmass, Colorado, US (39.283, -106.906) (Private)","2025-06-02 10:00",1,39.2829721,-106.9059003,TRUE,FALSE,TRUE,"S246149872"
"395","virwar","Virginia's Warbler","Leiothlypis virginiae","L2883702","Kinney Creek Trail","2025-06-02 09:50",1,42.7608537,-112.3951793,TRUE,FALSE,FALSE,"S245987808"
"396","virwar","Virginia's Warbler","Leiothlypis virginiae","L46677227","Forest Service Road 249, Nutrioso US-AZ 33.86691, -109.16538","2025-06-02 09:37",3,33.866912,-109.165383,TRUE,FALSE,TRUE,"S246001853"
"397","virwar","Virginia's Warbler","Leiothlypis virginiae","L1168783","Castle Rocks SP--Lodge","2025-06-02 09:30",1,42.12578,-113.66007,TRUE,FALSE,FALSE,"S245949249"
"398","virwar","Virginia's Warbler","Leiothlypis virginiae","L4385704","Castlewood Canyon SP--West Side Area","2025-06-02 09:29",1,39.3531357,-104.7655713,TRUE,FALSE,FALSE,"S246061683"
"399","virwar","Virginia's Warbler","Leiothlypis virginiae","L3695265","BBS Route Guffey 17-048 Stop 50","2025-06-02 09:18",1,38.7133422,-105.5102652,TRUE,FALSE,TRUE,"S245974953"
"400","virwar","Virginia's Warbler","Leiothlypis virginiae","L46680343","Highway 260, Strawberry, Arizona, US (34.406, -111.485)","2025-06-02 09:16",1,34.4057514,-111.4847075,TRUE,FALSE,TRUE,"S246015607"
"401","virwar","Virginia's Warbler","Leiothlypis virginiae","L46667829","Red Canyon Interpretive, Manila US-UT 40.89298, -109.56061","2025-06-02 09:14",1,40.892984,-109.560609,TRUE,FALSE,TRUE,"S245957779"
"402","virwar","Virginia's Warbler","Leiothlypis virginiae","L1906330","Boulder Mountain Park--Shanahan Mesa","2025-06-02 09:08",1,39.9652817,-105.2741751,TRUE,FALSE,FALSE,"S246012775"
"403","virwar","Virginia's Warbler","Leiothlypis virginiae","L5743073","Spring Mountains NRA--Stanley B Canyon","2025-06-02 09:08",2,36.2615078,-115.6332493,TRUE,FALSE,FALSE,"S246158543"
"404","virwar","Virginia's Warbler","Leiothlypis virginiae","L46677177","Harding Springs Trail, Sedona, Arizona, US (35.002, -111.731)","2025-06-02 09:08",3,35.0018434,-111.7313378,TRUE,FALSE,TRUE,"S246001641"
"405","virwar","Virginia's Warbler","Leiothlypis virginiae","L504369","Settlement Canyon ","2025-06-02 08:54",1,40.5102754,-112.2961307,TRUE,FALSE,FALSE,"S245966534"
"406","virwar","Virginia's Warbler","Leiothlypis virginiae","L46696894","San Francisco River from bottom of  Hot Spring trail access, downstream to first crossing, Mogollon, New Mexico, US (33.237, -108.88)","2025-06-02 08:43",2,33.2368157,-108.8803442,TRUE,FALSE,TRUE,"S246094091"
"407","virwar","Virginia's Warbler","Leiothlypis virginiae","L10536961","Red canyon rim","2025-06-02 08:40",2,42.622443,-108.615414,TRUE,FALSE,TRUE,"S245959731"
"408","virwar","Virginia's Warbler","Leiothlypis virginiae","L46665218","9401–9475 S State Hwy 67, Sedalia US-CO 39.22920, -105.19838","2025-06-02 08:38",2,39.229195,-105.198377,TRUE,FALSE,TRUE,"S245946137"
"409","virwar","Virginia's Warbler","Leiothlypis virginiae","L27770833","Rendija Canyon","2025-06-02 08:33",3,35.904474,-106.297681,TRUE,FALSE,TRUE,"S245980277"
"410","virwar","Virginia's Warbler","Leiothlypis virginiae","L18255425","Big Pole Hike/Bike Trails","2025-06-02 08:30",4,40.5066113,-111.3142298,TRUE,FALSE,TRUE,"S245963428"
"411","virwar","Virginia's Warbler","Leiothlypis virginiae","L19601072","Pine Creek (Sulphurdale Area)","2025-06-02 08:30",4,38.5022533,-112.5688404,TRUE,FALSE,TRUE,"S247304456"
"412","virwar","Virginia's Warbler","Leiothlypis virginiae","L46665173","22875–23451 CR-126, Buffalo Creek US-CO 39.26518, -105.26845","2025-06-02 08:16",1,39.265181,-105.268453,TRUE,FALSE,TRUE,"S245945915"
"413","virwar","Virginia's Warbler","Leiothlypis virginiae","L20434745","Lady Slipper Trail, 36.35383, -105.29570","2025-06-02 08:06",1,36.353826,-105.295695,TRUE,FALSE,TRUE,"S245947727"
"414","virwar","Virginia's Warbler","Leiothlypis virginiae","L19600898","Little North Creek","2025-06-02 07:40",5,38.5216074,-112.5631827,TRUE,FALSE,TRUE,"S247302898"
"415","virwar","Virginia's Warbler","Leiothlypis virginiae","L4033211","Santa Fe NF--Sawyer Hill","2025-06-02 07:39",1,35.8320793,-106.3878991,TRUE,FALSE,FALSE,"S245934645"
"416","virwar","Virginia's Warbler","Leiothlypis virginiae","L6578796","Lower Pueblo Canyon","2025-06-02 07:35",7,35.8833169,-106.2511483,TRUE,FALSE,FALSE,"S245995180"
"417","virwar","Virginia's Warbler","Leiothlypis virginiae","L46573103","Mt. Lemmon","2025-06-02 07:30",2,32.428163,-110.757196,TRUE,FALSE,TRUE,"S247394078"
"418","virwar","Virginia's Warbler","Leiothlypis virginiae","L4732185","Dead Cow Spring","2025-06-02 07:10",1,38.52809,-112.56389,TRUE,FALSE,TRUE,"S247301087"
"419","virwar","Virginia's Warbler","Leiothlypis virginiae","L876859","Reynolds Ranch County Park","2025-06-02 07:09",1,39.4663152,-105.2362776,TRUE,FALSE,FALSE,"S245950525"
"420","virwar","Virginia's Warbler","Leiothlypis virginiae","L46690566","Lumpy Ridge Loop- Rocky Mountain National Park","2025-06-02 07:00",4,40.396573,-105.512254,TRUE,FALSE,TRUE,"S246061999"
"421","virwar","Virginia's Warbler","Leiothlypis virginiae","L5778966","Sulphurdale Area","2025-06-02 06:15",4,38.5592187,-112.5653107,TRUE,FALSE,TRUE,"S247299601"
"422","virwar","Virginia's Warbler","Leiothlypis virginiae","L46651960","La Sal Mountain Loop Rd, Moab US-UT 38.54705, -109.29055","2025-06-02 06:13",1,38.547055,-109.290549,TRUE,FALSE,TRUE,"S245876353"
"423","virwar","Virginia's Warbler","Leiothlypis virginiae","L779087","Great Basin NP--Baker Campground","2025-06-02 06:06",1,38.9867174,-114.2390263,TRUE,FALSE,FALSE,"S245931316"
"424","virwar","Virginia's Warbler","Leiothlypis virginiae","L46653652","Bryce Canyon NP--Rim Trail","2025-06-02 05:55",1,37.627294,-112.164328,TRUE,FALSE,TRUE,"S245886374"
"425","virwar","Virginia's Warbler","Leiothlypis virginiae","L46631162","Manti-La Sal National Forest, Moab US-UT 38.54453, -109.28727","2025-06-01 20:15",2,38.544529,-109.287269,TRUE,FALSE,TRUE,"S245768951"
"426","virwar","Virginia's Warbler","Leiothlypis virginiae","L38483279","Forest Service Road 476, Ranchos De Taos US-NM","2025-06-01 17:17",1,36.249601,-105.594528,TRUE,FALSE,TRUE,"S245748085"
"427","virwar","Virginia's Warbler","Leiothlypis virginiae","L46625831","8317 Strawberry Drive, Pine, Arizona, US (34.408, -111.5)","2025-06-01 17:08",1,34.4076537,-111.4995905,TRUE,FALSE,TRUE,"S245743095"
"428","virwar","Virginia's Warbler","Leiothlypis virginiae","L46626177","Manti-La Sal National Forest, Moab US-UT 38.50899, -109.32278","2025-06-01 15:49",1,38.508991,-109.322777,TRUE,FALSE,TRUE,"S245744878"
"429","virwar","Virginia's Warbler","Leiothlypis virginiae","L266623","Oak Creek Canyon--Cave Springs CG","2025-06-01 15:19",1,34.9987102,-111.7397091,TRUE,FALSE,FALSE,"S245761669"
"430","virwar","Virginia's Warbler","Leiothlypis virginiae","L338058","Cibola NF--Capulin Spring (Bernalillo and Sandoval Co.)","2025-06-01 13:38",2,35.2167001,-106.4153279,TRUE,FALSE,FALSE,"S245700762"
"431","virwar","Virginia's Warbler","Leiothlypis virginiae","L35945687","Tree Spring Trail","2025-06-01 13:33",5,35.193158,-106.405366,TRUE,FALSE,TRUE,"S245724799"
"432","virwar","Virginia's Warbler","Leiothlypis virginiae","L46607047","Hickman Canyon","2025-06-01 13:16",2,40.4423307,-112.5100827,TRUE,FALSE,TRUE,"S245652323"
"433","virwar","Virginia's Warbler","Leiothlypis virginiae","L46604977","Private House","2025-06-01 12:51",1,40.518927,-105.181433,TRUE,FALSE,TRUE,"S245643768"
"434","virwar","Virginia's Warbler","Leiothlypis virginiae","L753061","Mt. Lemmon--Summerhaven","2025-06-01 12:51",1,32.4427119,-110.7598686,TRUE,FALSE,FALSE,"S245775622"
"435","virwar","Virginia's Warbler","Leiothlypis virginiae","L1195594","Bear Canyon","2025-06-01 12:50",1,45.0826119,-108.5253525,TRUE,TRUE,FALSE,"S245614939"
"436","virwar","Virginia's Warbler","Leiothlypis virginiae","L46592992","Khyv Peak Road","2025-06-01 12:22",1,40.307032,-111.628328,TRUE,FALSE,TRUE,"S245624317"
"437","virwar","Virginia's Warbler","Leiothlypis virginiae","L46614564","V37 Rd, Nucla US-CO 38.32866, -108.32367","2025-06-01 12:15",4,38.328656,-108.323667,TRUE,FALSE,TRUE,"S245685560"
"438","virwar","Virginia's Warbler","Leiothlypis virginiae","L46621523","Timber Lake Trail, Grand Lake US-CO 40.40006, -105.84752","2025-06-01 12:01",1,40.400061,-105.847525,TRUE,FALSE,TRUE,"S245720341"
"439","virwar","Virginia's Warbler","Leiothlypis virginiae","L46614548","W37 Rd, Nucla US-CO 38.35819, -108.37570","2025-06-01 11:53",4,38.358187,-108.375701,TRUE,FALSE,TRUE,"S245685455"
"440","virwar","Virginia's Warbler","Leiothlypis virginiae","L5899417","Y Mountain Trail","2025-06-01 11:51",2,40.2455165,-111.6230571,TRUE,FALSE,FALSE,"S245602311"
"441","virwar","Virginia's Warbler","Leiothlypis virginiae","L46741767","1080 Sioux St, Los Alamos US-NM 35.89137, -106.27516","2025-06-01 11:47",1,35.891369,-106.275159,TRUE,FALSE,TRUE,"S246326572"
"442","virwar","Virginia's Warbler","Leiothlypis virginiae","L24884090","MV BBS 47","2025-06-01 11:41",1,37.319751,-108.417165,TRUE,FALSE,TRUE,"S245592409"
"443","virwar","Virginia's Warbler","Leiothlypis virginiae","L24884085","MV BBS 46","2025-06-01 11:35",1,37.311383,-108.415808,TRUE,FALSE,TRUE,"S245592608"
"444","virwar","Virginia's Warbler","Leiothlypis virginiae","L24884071","MV BBS 45","2025-06-01 11:30",1,37.304221,-108.410602,TRUE,FALSE,TRUE,"S245592728"
"445","virwar","Virginia's Warbler","Leiothlypis virginiae","L24884066","MV BBS 44","2025-06-01 11:26",2,37.297278,-108.412457,TRUE,FALSE,TRUE,"S245592843"
"446","virwar","Virginia's Warbler","Leiothlypis virginiae","L46614524","28530–28568 Nucla-Delta Rd, Nucla US-CO 38.34782, -108.43803","2025-06-01 11:23",1,38.347825,-108.438029,TRUE,FALSE,TRUE,"S245685345"
"447","virwar","Virginia's Warbler","Leiothlypis virginiae","L945100","Mancos SP","2025-06-01 11:22",1,37.4011119,-108.2702548,TRUE,FALSE,FALSE,"S245606618"
"448","virwar","Virginia's Warbler","Leiothlypis virginiae","L24884036","MV BBS 43","2025-06-01 11:15",1,37.261167,-108.410809,TRUE,FALSE,TRUE,"S245593030"
"449","virwar","Virginia's Warbler","Leiothlypis virginiae","L19847850","Moon Ridge Trail","2025-06-01 11:10",1,34.150867,-109.959185,TRUE,FALSE,TRUE,"S245645003"
"450","virwar","Virginia's Warbler","Leiothlypis virginiae","L46619531","Spring Canyon Trail, Silver City US-NM 33.03936, -108.22052","2025-06-01 11:09",1,33.039357,-108.220517,TRUE,FALSE,TRUE,"S245710135"
"451","virwar","Virginia's Warbler","Leiothlypis virginiae","L24884031","MV BBS 42","2025-06-01 11:09",1,37.268673,-108.415378,TRUE,FALSE,TRUE,"S245593177"
"452","virwar","Virginia's Warbler","Leiothlypis virginiae","L24884026","MV BBS 41","2025-06-01 11:03",2,37.276482,-108.416186,TRUE,FALSE,TRUE,"S245593330"
"453","virwar","Virginia's Warbler","Leiothlypis virginiae","L24884021","MV BBS 40","2025-06-01 10:57",1,37.282071,-108.416283,TRUE,FALSE,TRUE,"S245593515"
"454","virwar","Virginia's Warbler","Leiothlypis virginiae","L24884015","MV BBS 39","2025-06-01 10:51",2,37.287825,-108.429264,TRUE,FALSE,TRUE,"S245593645"
"455","virwar","Virginia's Warbler","Leiothlypis virginiae","L38735848","Upper Ute Canyon Trailhead","2025-06-01 10:40",1,39.0369196,-108.7089872,TRUE,FALSE,TRUE,"S245610433"
"456","virwar","Virginia's Warbler","Leiothlypis virginiae","L24884004","MV BBS 37","2025-06-01 10:39",2,37.286746,-108.438105,TRUE,FALSE,TRUE,"S245593934"
"457","virwar","Virginia's Warbler","Leiothlypis virginiae","L1456563","Gateway Mesa Open Space","2025-06-01 10:38",2,39.3880914,-104.8024571,TRUE,FALSE,FALSE,"S245642879"
"458","virwar","Virginia's Warbler","Leiothlypis virginiae","L46615010","Mount Falcon Park, Morrison US-CO 39.64673, -105.19854","2025-06-01 10:35",1,39.646733,-105.19854,TRUE,FALSE,TRUE,"S245687539"
"459","virwar","Virginia's Warbler","Leiothlypis virginiae","L24883999","MV BBS 36","2025-06-01 10:34",3,37.280879,-108.439565,TRUE,FALSE,TRUE,"S245594069"
"460","virwar","Virginia's Warbler","Leiothlypis virginiae","L7703997","Arches NP--Devil's Garden CG","2025-06-01 10:26",1,38.7791818,-109.5897898,TRUE,FALSE,FALSE,"S245675356"
"461","virwar","Virginia's Warbler","Leiothlypis virginiae","L1522351","Zion NP--Taylor Creek Trail","2025-06-01 10:20",NA,37.4643852,-113.1913378,TRUE,FALSE,FALSE,"S247340830"
"462","virwar","Virginia's Warbler","Leiothlypis virginiae","L4414249","Chimney Rock NM","2025-06-01 10:12",3,37.1750278,-107.3032222,TRUE,FALSE,FALSE,"S245768779"
"463","virwar","Virginia's Warbler","Leiothlypis virginiae","L2850210","Bill Williams Lookout Rd","2025-06-01 10:00",1,35.1993421,-112.2049141,TRUE,FALSE,TRUE,"S246779223"
"464","virwar","Virginia's Warbler","Leiothlypis virginiae","L46628882","Cave Creek Trail, Tererro US-NM 35.83244, -105.66571","2025-06-01 09:59",2,35.832443,-105.66571,TRUE,FALSE,TRUE,"S245758841"
"465","virwar","Virginia's Warbler","Leiothlypis virginiae","L420924","Henry Mtns -- McClellan Springs","2025-06-01 09:47",10,38.07228,-110.84997,TRUE,FALSE,FALSE,"S245690305"
"466","virwar","Virginia's Warbler","Leiothlypis virginiae","L46611964","Silvershield Trail, Ouray","2025-06-01 09:35",3,38.0413919,-107.6843157,TRUE,FALSE,TRUE,"S245673895"
"467","virwar","Virginia's Warbler","Leiothlypis virginiae","L24883944","MV BBS 30","2025-06-01 09:21",1,37.247039,-108.446312,TRUE,FALSE,TRUE,"S245594833"
"468","virwar","Virginia's Warbler","Leiothlypis virginiae","L3816345","Golden Gate Canyon SP--Mountain Lion and Burro Trails","2025-06-01 08:51",1,39.850717,-105.360174,TRUE,FALSE,FALSE,"S245592209"
"469","virwar","Virginia's Warbler","Leiothlypis virginiae","L24883923","MV BBS 26","2025-06-01 08:49",1,37.279526,-108.44817,TRUE,FALSE,TRUE,"S245595255"
"470","virwar","Virginia's Warbler","Leiothlypis virginiae","L46391845","Rio Fernando Wetlands (Fred Baca Park and adjacent Rio Fernando Park)","2025-06-01 08:45",1,36.3982439,-105.5867119,TRUE,FALSE,TRUE,"S245720349"
"471","virwar","Virginia's Warbler","Leiothlypis virginiae","L24883919","MV BBS 25","2025-06-01 08:41",2,37.272504,-108.461665,TRUE,FALSE,TRUE,"S245595331"
"472","virwar","Virginia's Warbler","Leiothlypis virginiae","L571230","South Fork Canyon--Big Springs Park","2025-06-01 08:39",1,40.334,-111.52496,TRUE,FALSE,FALSE,"S245577694"
"473","virwar","Virginia's Warbler","Leiothlypis virginiae","L24883915","MV BBS 24","2025-06-01 08:36",1,37.279242,-108.468759,TRUE,FALSE,TRUE,"S245595432"
"474","virwar","Virginia's Warbler","Leiothlypis virginiae","L24883910","MV BBS 23","2025-06-01 08:31",2,37.275295,-108.473977,TRUE,FALSE,TRUE,"S245595540"
"475","virwar","Virginia's Warbler","Leiothlypis virginiae","L1790620","Castlewood Canyon SP--Inner Canyon/Lake Gulch Loop","2025-06-01 08:28",1,39.3364947,-104.7473025,TRUE,FALSE,FALSE,"S245641325"
"476","virwar","Virginia's Warbler","Leiothlypis virginiae","L24883906","MV BBS 22","2025-06-01 08:25",3,37.275892,-108.48246,TRUE,FALSE,TRUE,"S245595635"
"477","virwar","Virginia's Warbler","Leiothlypis virginiae","L9260223","Bayo Canyon","2025-06-01 08:23",1,35.888753,-106.249082,TRUE,FALSE,TRUE,"S245541458"
"478","virwar","Virginia's Warbler","Leiothlypis virginiae","L36868091","Sims Mesa Interpretive Trail, Montrose US-CO 38.30563, -107.96309","2025-06-01 08:16",4,38.305632,-107.963094,TRUE,TRUE,TRUE,"S245613349"
"479","virwar","Virginia's Warbler","Leiothlypis virginiae","L27238975","Reynold’s Park - Eagle’s View Trail east half (Oxen Draw to the summit)","2025-06-01 08:14",3,39.461711,-105.249014,TRUE,FALSE,TRUE,"S245668597"
"480","virwar","Virginia's Warbler","Leiothlypis virginiae","L24883890","MV BBS 20","2025-06-01 08:12",3,37.266331,-108.49144,TRUE,FALSE,TRUE,"S245595866"
"481","virwar","Virginia's Warbler","Leiothlypis virginiae","L24883883","MV BBS 19","2025-06-01 08:07",1,37.258792,-108.491633,TRUE,FALSE,TRUE,"S245595958"
"482","virwar","Virginia's Warbler","Leiothlypis virginiae","L269558","Rio de Flag--Museum of Northern Arizona","2025-06-01 08:04",1,35.235,-111.665,TRUE,FALSE,FALSE,"S245635130"
"483","virwar","Virginia's Warbler","Leiothlypis virginiae","L5898018","Sandia Canyon Wetlands (no public access)","2025-06-01 08:00",3,35.8748927,-106.3132918,TRUE,FALSE,TRUE,"S245520501"
"484","virwar","Virginia's Warbler","Leiothlypis virginiae","L46588176","Rocky Ridge And Lost Burrito","2025-06-01 08:00",2,35.2490496,-111.6602081,TRUE,FALSE,TRUE,"S245574248"
"485","virwar","Virginia's Warbler","Leiothlypis virginiae","L890237","Colorado NM--Ute Canyon","2025-06-01 07:57",1,39.0315277,-108.698194,TRUE,FALSE,FALSE,"S245679884"
"486","virwar","Virginia's Warbler","Leiothlypis virginiae","L46585946","Fowler Trail, Boulder US-CO 39.93147, -105.27061","2025-06-01 07:51",1,39.931466,-105.270611,TRUE,FALSE,TRUE,"S245565207"
"487","virwar","Virginia's Warbler","Leiothlypis virginiae","L2282699","Cibola NF--Lower Water Canyon","2025-06-01 07:50",2,34.0425857,-107.117697,TRUE,FALSE,FALSE,"S245707090"
"488","virwar","Virginia's Warbler","Leiothlypis virginiae","L2365652","Mesa Verde NP--Knife Edge Trail","2025-06-01 07:48",3,37.3063789,-108.4321361,TRUE,FALSE,FALSE,"S246442558"
"489","virwar","Virginia's Warbler","Leiothlypis virginiae","L20065131","Sutey Ranch","2025-06-01 07:46",2,39.452276,-107.198314,TRUE,FALSE,FALSE,"S245551140"
"490","virwar","Virginia's Warbler","Leiothlypis virginiae","L15712348","Willow Creek Loop, Littleton, Colorado, US (39.429, -105.064)","2025-06-01 07:44",1,39.4293158,-105.0635197,TRUE,FALSE,TRUE,"S245621866"
"491","virwar","Virginia's Warbler","Leiothlypis virginiae","L127970","Mt. Lemmon--upper","2025-06-01 07:38",7,32.4404984,-110.7902985,TRUE,FALSE,FALSE,"S245663881"
"492","virwar","Virginia's Warbler","Leiothlypis virginiae","L2224125","Grand Canyon NP--Hearst Tanks","2025-06-01 07:37",3,35.9782677,-111.9830243,TRUE,FALSE,FALSE,"S245515348"
"493","virwar","Virginia's Warbler","Leiothlypis virginiae","L478982","Pine Valley Ranch ","2025-06-01 07:30",4,39.4075167,-105.34863,TRUE,FALSE,FALSE,"S245606603"
"494","virwar","Virginia's Warbler","Leiothlypis virginiae","L46665878","Cow Creek, Steamboat Springs US-CO 40.42748, -106.89533","2025-06-01 07:28",1,40.427478,-106.895327,TRUE,FALSE,TRUE,"S245949047"
"495","virwar","Virginia's Warbler","Leiothlypis virginiae","L25735249","Reynold’s Park - Oxen Draw Trail","2025-06-01 07:13",2,39.4635388,-105.245127,TRUE,FALSE,TRUE,"S245668877"
"496","virwar","Virginia's Warbler","Leiothlypis virginiae","L44544424","4777–4887 U5 Rd, Paradox US-CO 38.38153, -109.00856","2025-06-01 07:13",2,38.381531,-109.008557,TRUE,FALSE,TRUE,"S245550669"
"497","virwar","Virginia's Warbler","Leiothlypis virginiae","L46555197","Mt Muscoco Trail","2025-06-01 07:10",1,38.790575,-104.884073,TRUE,FALSE,TRUE,"S245515343"
"498","virwar","Virginia's Warbler","Leiothlypis virginiae","L382872","Prescott--Goldwater Lakes","2025-06-01 07:10",1,34.4981747,-112.4489737,TRUE,FALSE,FALSE,"S245637499"
"499","virwar","Virginia's Warbler","Leiothlypis virginiae","L31657253","Roosevelt Nature Park","2025-06-01 07:09",1,40.305917,-109.995765,TRUE,FALSE,FALSE,"S245482248"
"500","virwar","Virginia's Warbler","Leiothlypis virginiae","L778447","Eagle Nest Lake SP","2025-06-01 07:01",1,36.5306054,-105.2552032,TRUE,FALSE,FALSE,"S245559628"
"501","virwar","Virginia's Warbler","Leiothlypis virginiae","L34789305","Forest Service Road 663, Chromo US-CO 37.09218, -106.83469","2025-06-01 06:42",2,37.092178,-106.834692,TRUE,FALSE,TRUE,"S245578359"
"502","virwar","Virginia's Warbler","Leiothlypis virginiae","L43853554","4376–4444 U5 Rd, Paradox US-CO 38.43416, -109.04838","2025-06-01 06:39",3,38.434162,-109.048375,TRUE,FALSE,TRUE,"S245550498"
"503","virwar","Virginia's Warbler","Leiothlypis virginiae","L24883829","MV BBS 13","2025-06-01 06:33",1,37.240977,-108.538275,TRUE,FALSE,TRUE,"S245596720"
"504","virwar","Virginia's Warbler","Leiothlypis virginiae","L14245182","Eastside Bosque North of NM-346","2025-06-01 06:30",1,34.551054,-106.762403,TRUE,FALSE,FALSE,"S245570382"
"505","virwar","Virginia's Warbler","Leiothlypis virginiae","L46600776","Newcastle BBS Route","2025-06-01 06:15",5,37.546678,-113.521331,TRUE,FALSE,TRUE,"S245627208"
"506","virwar","Virginia's Warbler","Leiothlypis virginiae","L24883810","MV BBS 10","2025-06-01 06:09",1,37.259998,-108.526519,TRUE,FALSE,TRUE,"S245597175"
"507","virwar","Virginia's Warbler","Leiothlypis virginiae","L600304","Pueblo (School) Canyon","2025-06-01 06:03",3,35.8931302,-106.3174761,TRUE,FALSE,FALSE,"S245478438"
"508","virwar","Virginia's Warbler","Leiothlypis virginiae","L24883796","MV BBS 08","2025-06-01 05:59",3,37.269473,-108.516317,TRUE,FALSE,TRUE,"S245597993"
"509","virwar","Virginia's Warbler","Leiothlypis virginiae","L129077","San Bernardino NWR","2025-06-01 05:54",1,31.3558004,-109.261533,TRUE,FALSE,FALSE,"S245610225"
"510","virwar","Virginia's Warbler","Leiothlypis virginiae","L24883781","MV BBS 05","2025-06-01 05:44",2,37.269162,-108.505266,TRUE,FALSE,TRUE,"S245598237"
"511","virwar","Virginia's Warbler","Leiothlypis virginiae","L46624715","Corral Creek Campground","2025-06-01 05:40",2,41.260735,-106.573769,TRUE,FALSE,TRUE,"S245737192"
"512","virwar","Virginia's Warbler","Leiothlypis virginiae","L24883774","MV BBS 04","2025-06-01 05:39",1,37.274698,-108.501155,TRUE,FALSE,TRUE,"S245598326"
"513","virwar","Virginia's Warbler","Leiothlypis virginiae","L46524469","Mule Canyon Kiva","2025-05-31 19:31",1,37.540218,-109.742976,TRUE,FALSE,TRUE,"S245273138"
"514","virwar","Virginia's Warbler","Leiothlypis virginiae","L46669945","City of Rocks Rd, Oakley US-ID 42.07682, -113.72267","2025-05-31 18:33",1,42.076821,-113.722674,TRUE,FALSE,TRUE,"S245967453"
"515","virwar","Virginia's Warbler","Leiothlypis virginiae","L46530315","10991 E Carter Canyon Rd, Mount Lemmon US-AZ 32.44017, -110.76606","2025-05-31 18:26",1,32.440174,-110.766065,TRUE,FALSE,TRUE,"S245302862"
"516","virwar","Virginia's Warbler","Leiothlypis virginiae","L129104","Sunnyside Canyon","2025-05-31 18:00",1,31.442,-110.396,TRUE,FALSE,FALSE,"S245493795"
"517","virwar","Virginia's Warbler","Leiothlypis virginiae","L5869466","Cabin 87732 - May 21, 2017, 12:22 PM","2025-05-31 17:40",1,36.023799,-105.299397,TRUE,FALSE,TRUE,"S245226328"
"518","virwar","Virginia's Warbler","Leiothlypis virginiae","L46511572","Lefthand Trail","2025-05-31 17:12",1,40.111386,-105.324286,TRUE,FALSE,TRUE,"S245216914"
"519","virwar","Virginia's Warbler","Leiothlypis virginiae","L31915441","San Juan National Forest - Headquarters, Dolores US-CO 37.52103, -108.36694","2025-05-31 17:07",2,37.521028,-108.366936,TRUE,FALSE,TRUE,"S245243683"
"520","virwar","Virginia's Warbler","Leiothlypis virginiae","L46509125","10195 Chipita Park Road, Cascade-Chipita Park, Colorado, US (38.929, -105.009)","2025-05-31 15:50",1,38.9287749,-105.0088393,TRUE,FALSE,TRUE,"S245202467"
"521","virwar","Virginia's Warbler","Leiothlypis virginiae","L46508850","Hyde Park Rd Meteor Impact Pulloff","2025-05-31 14:49",1,35.728331,-105.862198,TRUE,FALSE,TRUE,"S245201270"
"522","virwar","Virginia's Warbler","Leiothlypis virginiae","L46516675","Deer Spring","2025-05-31 13:57",2,38.366022,-109.223882,TRUE,FALSE,TRUE,"S245237013"
"523","virwar","Virginia's Warbler","Leiothlypis virginiae","L46505146","Diamond Youth Forest Discovery Trail, Fairview US-UT (40.0747,-111.4207)","2025-05-31 13:10",1,40.074738,-111.420651,TRUE,FALSE,TRUE,"S245185502"
"524","virwar","Virginia's Warbler","Leiothlypis virginiae","L233433","Oak Creek Canyon","2025-05-31 13:00",1,34.9748037,-111.754606,TRUE,FALSE,FALSE,"S245182125"
"525","virwar","Virginia's Warbler","Leiothlypis virginiae","L109288","Aiken Canyon Preserve","2025-05-31 12:30",4,38.6212294,-104.8886847,TRUE,FALSE,FALSE,"S245271408"
"526","virwar","Virginia's Warbler","Leiothlypis virginiae","L14664864","Chris Mountain","2025-05-31 11:46",2,37.2750882,-107.1993635,TRUE,FALSE,TRUE,"S245235594"
"527","virwar","Virginia's Warbler","Leiothlypis virginiae","L19713482","Young Gulch","2025-05-31 11:40",2,40.688569,-105.347769,TRUE,FALSE,TRUE,"S245270500"
"528","virwar","Virginia's Warbler","Leiothlypis virginiae","L8098329","Greenwood Rd (Custer CR 389)","2025-05-31 11:04",2,38.2075188,-105.0958948,TRUE,FALSE,FALSE,"S245089975"
"529","virwar","Virginia's Warbler","Leiothlypis virginiae","L4660603","Bootlegger Picnic Area","2025-05-31 10:38",4,34.9697586,-111.7506418,TRUE,FALSE,FALSE,"S245300582"
"530","virwar","Virginia's Warbler","Leiothlypis virginiae","L46502308","Woodchute Trail","2025-05-31 10:35",3,34.715971,-112.159167,TRUE,FALSE,TRUE,"S245174280"
"531","virwar","Virginia's Warbler","Leiothlypis virginiae","L46703795","Upper North Hardscrabble Creek","2025-05-31 10:34",1,38.167947,-105.188613,TRUE,FALSE,TRUE,"S246132586"
"532","virwar","Virginia's Warbler","Leiothlypis virginiae","L46501171","New Mexico 32, Aragon, New Mexico, US (33.869, -108.629)","2025-05-31 10:27",1,33.8692981,-108.6287285,TRUE,FALSE,TRUE,"S245169783"
"533","virwar","Virginia's Warbler","Leiothlypis virginiae","L199300","Ash Canyon Bird Sanctuary (closed Thursday morning)","2025-05-31 10:25",1,31.3904516,-110.2392496,TRUE,FALSE,FALSE,"S245249705"
"534","virwar","Virginia's Warbler","Leiothlypis virginiae","L25056284","Cienega Picnic Grounds, Cedar Crest, New Mexico, US (35.17, -106.385)","2025-05-31 10:20",1,35.1697161,-106.3848822,TRUE,FALSE,TRUE,"S245069752"
"535","virwar","Virginia's Warbler","Leiothlypis virginiae","L2496903","Rist Canyon Rd--mile 9 to Stove Prairie Rd","2025-05-31 10:20",2,40.6235148,-105.3312144,TRUE,FALSE,FALSE,"S245083678"
"536","virwar","Virginia's Warbler","Leiothlypis virginiae","L212245","Dixon Reservoir","2025-05-31 10:20",1,40.5543129,-105.1434097,TRUE,FALSE,FALSE,"S245113833"
"537","virwar","Virginia's Warbler","Leiothlypis virginiae","L15457599","GGCSP Smith Hill Road, South","2025-05-31 10:20",1,39.7908349,-105.4505103,TRUE,FALSE,TRUE,"S245266193"
"538","virwar","Virginia's Warbler","Leiothlypis virginiae","L6129515","Brushy Ridge Road--Dominguez Road to Dominguez Creek","2025-05-31 10:05",1,38.62019,-108.6284781,TRUE,FALSE,TRUE,"S245237332"
"539","virwar","Virginia's Warbler","Leiothlypis virginiae","L798588","Chatfield SP--Audubon Center & Trails","2025-05-31 09:52",1,39.4934273,-105.0918996,TRUE,FALSE,FALSE,"S245158755"
"540","virwar","Virginia's Warbler","Leiothlypis virginiae","L962017","Hermit Park","2025-05-31 09:50",1,40.3411799,-105.474329,TRUE,FALSE,FALSE,"S245071790"
"541","virwar","Virginia's Warbler","Leiothlypis virginiae","L46482473","Kaibab National Forest, Marble Canyon US-AZ 36.77113, -112.24726","2025-05-31 09:48",2,36.771134,-112.247261,TRUE,FALSE,TRUE,"S245092828"
"542","virwar","Virginia's Warbler","Leiothlypis virginiae","L43236185","Bear Canyon Trail (Pryors)","2025-05-31 09:48",1,45.0907647,-108.519636,TRUE,TRUE,TRUE,"S245276384"
"543","virwar","Virginia's Warbler","Leiothlypis virginiae","L46497461","I83 Rd, Long Gulch section, Crawford US-CO 38.49375, -107.54928","2025-05-31 09:36",1,38.493754,-107.549279,TRUE,FALSE,TRUE,"S245154433"
"544","virwar","Virginia's Warbler","Leiothlypis virginiae","L45097578","Sandia Crest Rd, Albuquerque US-NM (35.1922,-106.4042)","2025-05-31 09:31",2,35.192223,-106.40416,TRUE,FALSE,TRUE,"S245081014"
"545","virwar","Virginia's Warbler","Leiothlypis virginiae","L44766146","Bradshaw Mountains: Upper Knapp Gulch","2025-05-31 09:10",6,34.4375745,-112.3991389,TRUE,FALSE,TRUE,"S245157503"
"546","virwar","Virginia's Warbler","Leiothlypis virginiae","L7613016","Cibola NF--Oso Pass","2025-05-31 09:10",2,35.117713,-106.443225,TRUE,FALSE,FALSE,"S245269286"
"547","virwar","Virginia's Warbler","Leiothlypis virginiae","L7409192","Cheyenne Mtn State Park, Colorado, US (38.731, -104.824)","2025-05-31 09:09",1,38.7306595,-104.8239929,TRUE,FALSE,TRUE,"S245097393"
"548","virwar","Virginia's Warbler","Leiothlypis virginiae","L39476269","Upper South Canyon Trail (Magdalena Mountains)","2025-05-31 09:07",1,33.9952789,-107.1354981,TRUE,FALSE,TRUE,"S245271126"
"549","virwar","Virginia's Warbler","Leiothlypis virginiae","L46497370","I83 Rd, Upper section, Crawford US-CO 38.51058, -107.53688","2025-05-31 08:48",2,38.510579,-107.536878,TRUE,FALSE,TRUE,"S245154088"
"550","virwar","Virginia's Warbler","Leiothlypis virginiae","L12883422","1B La Cueva Creek Rd, Glorieta US-NM 35.58640, -105.73508","2025-05-31 08:44",2,35.586398,-105.735084,TRUE,FALSE,TRUE,"S245091856"
"551","virwar","Virginia's Warbler","Leiothlypis virginiae","L46575166","NM-15, Silver City US-NM 33.18289, -108.20573","2025-05-31 08:31",1,33.182891,-108.205729,TRUE,FALSE,TRUE,"S245656955"
