"","speciesCode","comName","sciName","locId","locName","obsDt","howMany","lat","lng","obsValid","obsReviewed","locationPrivate","subId"
"1","lobcur","Long-billed Curlew","Numenius americanus","L45995723","4650 N Highway 20, Island Park US-ID 44.55412, -111.33413","2025-05-25 17:36",1,44.554122,-111.334126,TRUE,FALSE,TRUE,"S242743777"
"2","lobcur","Long-billed Curlew","Numenius americanus","L2064162","Cookstove dam","2025-05-25 17:12",2,44.2113465,-100.3671203,TRUE,FALSE,FALSE,"S242717107"
"3","lobcur","Long-billed Curlew","Numenius americanus","L109176","Camas NWR","2025-05-25 16:26",1,43.9509896,-112.2557731,TRUE,FALSE,FALSE,"S242738820"
"4","lobcur","Long-billed Curlew","Numenius americanus","L953937","Malheur NWR--Dredger Pond","2025-05-25 16:20",2,42.924438,-118.870406,TRUE,FALSE,FALSE,"S242741362"
"5","lobcur","Long-billed Curlew","Numenius americanus","L770872","Bird Refuge Rd.","2025-05-25 15:39",10,41.4689719,-112.1759892,TRUE,FALSE,FALSE,"S242733297"
"6","lobcur","Long-billed Curlew","Numenius americanus","L1759273","Greenhouse Ln.","2025-05-25 15:31",2,43.512015,-119.0786411,TRUE,FALSE,FALSE,"S242742618"
"7","lobcur","Long-billed Curlew","Numenius americanus","L45989986","110 Spinnaker Court, Del Mar, California, US (32.946, -117.264)","2025-05-25 15:26",7,32.9458724,-117.264099,TRUE,FALSE,TRUE,"S242716010"
"8","lobcur","Long-billed Curlew","Numenius americanus","L157588","Camas Centennial Marsh","2025-05-25 15:10",1,43.26451,-114.99878,TRUE,FALSE,FALSE,"S242701139"
"9","lobcur","Long-billed Curlew","Numenius americanus","L45979859","Bench Road","2025-05-25 14:41",1,45.796222,-111.575757,TRUE,FALSE,TRUE,"S242670218"
"10","lobcur","Long-billed Curlew","Numenius americanus","L190743","Antelope Island SP","2025-05-25 14:27",1,41.0465405,-112.2383881,TRUE,FALSE,FALSE,"S242728478"
"11","lobcur","Long-billed Curlew","Numenius americanus","L45986633","5965–5997 7 Mile Rd, Zortman US-MT 47.82999, -108.49653ñ","2025-05-25 14:09",1,47.829995,-108.496529,TRUE,FALSE,TRUE,"S242699945"
"12","lobcur","Long-billed Curlew","Numenius americanus","L2342380","Malheur NWR--Central Patrol Rd.--Krumbo Reservoir Rd. to P Ranch","2025-05-25 13:49",1,42.8368515,-118.8856745,TRUE,FALSE,FALSE,"S242740103"
"13","lobcur","Long-billed Curlew","Numenius americanus","L151122","Antelope Island SP--Causeway","2025-05-25 13:42",1,41.08841,-112.186714,TRUE,FALSE,FALSE,"S242684232"
"14","lobcur","Long-billed Curlew","Numenius americanus","L1165694","Bolsa Chica--walkbridge/inner bay","2025-05-25 13:29",2,33.6965128,-118.0451372,TRUE,FALSE,FALSE,"S242684126"
"15","lobcur","Long-billed Curlew","Numenius americanus","L622168","McAllister Lake WMA","2025-05-25 13:25",4,35.5188143,-105.1764107,TRUE,FALSE,FALSE,"S242681582"
"16","lobcur","Long-billed Curlew","Numenius americanus","L45969124","Juniper Flat Road, Maupin, Oregon, US (45.188, -121.175)","2025-05-25 11:52",1,45.1877061,-121.1747179,TRUE,FALSE,TRUE,"S242626532"
"17","lobcur","Long-billed Curlew","Numenius americanus","L3608572","Hotchkiss Ln.","2025-05-25 11:40",1,43.5568514,-119.0312433,TRUE,FALSE,FALSE,"S242625335"
"18","lobcur","Long-billed Curlew","Numenius americanus","L591433","Stinson Beach","2025-05-25 11:36",2,37.8963357,-122.6392436,TRUE,FALSE,FALSE,"S242669241"
"19","lobcur","Long-billed Curlew","Numenius americanus","L25694073","pickett road","2025-05-25 11:30",1,47.6743419,-114.3700004,TRUE,FALSE,TRUE,"S242662778"
"20","lobcur","Long-billed Curlew","Numenius americanus","L4743775","Chevallier Dr. - Sage Flats","2025-05-25 11:18",1,46.7764085,-112.1883286,TRUE,FALSE,FALSE,"S242589037"
"21","lobcur","Long-billed Curlew","Numenius americanus","L164961","Bear River MBR--Auto Tour Loop","2025-05-25 11:11",6,41.4692291,-112.2947788,TRUE,FALSE,FALSE,"S242660294"
"22","lobcur","Long-billed Curlew","Numenius americanus","L45951102","Indian Route 2, Porcupine US-SD 43.52089, -102.75730","2025-05-25 11:01",2,43.520895,-102.757297,TRUE,FALSE,TRUE,"S242553608"
"23","lobcur","Long-billed Curlew","Numenius americanus","L16648058","McArthur Swamp/Little Tule River access","2025-05-25 10:38",1,41.079379,-121.4475862,TRUE,FALSE,FALSE,"S242618973"
"24","lobcur","Long-billed Curlew","Numenius americanus","L33660015","Spokane Ranch Road","2025-05-25 10:30",1,46.6097,-111.84604,TRUE,FALSE,TRUE,"S242651945"
"25","lobcur","Long-billed Curlew","Numenius americanus","L1861513","Bench Rd.--Upper and Baseline Rd.","2025-05-25 10:15",4,45.7869135,-111.5963244,TRUE,FALSE,FALSE,"S242652679"
"26","lobcur","Long-billed Curlew","Numenius americanus","L977878","Mesa CR 2 (Brewsters Ridge Rd)","2025-05-25 10:12",3,39.2779868,-109.0132046,TRUE,FALSE,FALSE,"S242717418"
"27","lobcur","Long-billed Curlew","Numenius americanus","L3079377","Bandon Marsh NWR--Observation Deck","2025-05-25 10:07",1,43.130861,-124.4013423,TRUE,FALSE,FALSE,"S242567440"
"28","lobcur","Long-billed Curlew","Numenius americanus","L45935557","Intersection of US-281 and TX-493","2025-05-25 10:02",1,26.075383,-98.059806,TRUE,FALSE,TRUE,"S242487759"
"29","lobcur","Long-billed Curlew","Numenius americanus","L109179","Grays Lake NWR","2025-05-25 09:52",6,43.0343933,-111.4064482,TRUE,FALSE,FALSE,"S242714460"
"30","lobcur","Long-billed Curlew","Numenius americanus","L45982508","South Fork Teton River to Swift Dam","2025-05-25 09:42",5,47.920061,-112.272316,TRUE,FALSE,TRUE,"S242681776"
"31","lobcur","Long-billed Curlew","Numenius americanus","L158584","Bowdoin NWR","2025-05-25 09:38",2,48.4018332,-107.6784611,TRUE,FALSE,FALSE,"S242706124"
"32","lobcur","Long-billed Curlew","Numenius americanus","L506275","San Diego River mudflats (including Robb Field & north side)","2025-05-25 09:34",2,32.7568803,-117.2401432,TRUE,FALSE,FALSE,"S242610152"
"33","lobcur","Long-billed Curlew","Numenius americanus","L9429297","Summer Lake Wildlife Area--River Ranch Campground and The Barn","2025-05-25 09:14",3,42.960428,-120.726701,TRUE,FALSE,FALSE,"S242633689"
"34","lobcur","Long-billed Curlew","Numenius americanus","L11669971","Jackson National Fish Hatchery","2025-05-25 09:09",1,43.535246,-110.733841,TRUE,FALSE,FALSE,"S242551027"
"35","lobcur","Long-billed Curlew","Numenius americanus","L45965443","Forest Road 70533, Oakley, Idaho, US (42.207, -114.058)","2025-05-25 09:09",3,42.206671,-114.0575809,TRUE,FALSE,TRUE,"S242611599"
"36","lobcur","Long-billed Curlew","Numenius americanus","L2764095","Hanka Sod (former Superior Turf Farms) / Weaver rd.","2025-05-25 08:55",12,26.1039435,-97.7723229,TRUE,FALSE,FALSE,"S242705862"
"37","lobcur","Long-billed Curlew","Numenius americanus","L44713495","Oregon Basin wetlands","2025-05-25 08:50",2,44.450369,-108.900001,TRUE,FALSE,TRUE,"S242685143"
"38","lobcur","Long-billed Curlew","Numenius americanus","L433164","Silver Strand SB--ocean side","2025-05-25 08:45",1,32.6307805,-117.1458339,TRUE,FALSE,FALSE,"S242628490"
"39","lobcur","Long-billed Curlew","Numenius americanus","L45984791","1300 West, Hill City, Idaho, US (43.285, -115.048)","2025-05-25 08:44",2,43.2847026,-115.0476995,TRUE,FALSE,TRUE,"S242691684"
"40","lobcur","Long-billed Curlew","Numenius americanus","L352958","Fish Springs NWR","2025-05-25 08:29",2,39.865343,-113.3936175,TRUE,FALSE,FALSE,"S242638828"
"41","lobcur","Long-billed Curlew","Numenius americanus","L32899011","Wolf Ln, Corral US-ID 43.33693, -114.96883","2025-05-25 08:25",5,43.336933,-114.968831,TRUE,FALSE,TRUE,"S242709537"
"42","lobcur","Long-billed Curlew","Numenius americanus","L1505042","Bolivar Flats Shorebird Sanctuary--Rettilon Rd","2025-05-25 08:24",1,29.3872984,-94.7278439,TRUE,FALSE,FALSE,"S242408806"
"43","lobcur","Long-billed Curlew","Numenius americanus","L45943515","2176 West Forest Street, Brigham City, Utah, US (41.509, -112.07)","2025-05-25 08:22",5,41.5088583,-112.0695784,TRUE,FALSE,TRUE,"S242521969"
"44","lobcur","Long-billed Curlew","Numenius americanus","L15114511","Cremer/Rupert Road","2025-05-25 08:14",13,46.0891692,-109.9065377,TRUE,FALSE,FALSE,"S242571286"
"45","lobcur","Long-billed Curlew","Numenius americanus","L422541","Leonabelle Turnbull Birding Ctr. (CTC 057)","2025-05-25 08:02",1,27.8275297,-97.0789558,TRUE,FALSE,FALSE,"S242707388"
"46","lobcur","Long-billed Curlew","Numenius americanus","L603410","National Elk Refuge","2025-05-25 08:00",3,43.4890331,-110.7488394,TRUE,FALSE,FALSE,"S242558000"
"47","lobcur","Long-billed Curlew","Numenius americanus","L422817","Coal Oil Point, Devereux Beach, Sands Beach, and bluff trails","2025-05-25 08:00",22,34.4071359,-119.8783064,TRUE,FALSE,FALSE,"S242641612"
"48","lobcur","Long-billed Curlew","Numenius americanus","L45931825","Clark Butte Rd, Bondurant US-WY 43.15198, -110.37488","2025-05-25 07:46",2,43.151978,-110.374884,TRUE,FALSE,TRUE,"S242470625"
"49","lobcur","Long-billed Curlew","Numenius americanus","L5201677","Yard","2025-05-25 07:46",2,47.1891219,-111.6126287,TRUE,FALSE,TRUE,"S242467626"
"50","lobcur","Long-billed Curlew","Numenius americanus","L4646527","National Elk Refuge Road","2025-05-25 07:36",8,43.5086051,-110.701188,TRUE,FALSE,TRUE,"S242520553"
"51","lobcur","Long-billed Curlew","Numenius americanus","L45959231","83001, Jackson US-WY 43.51429, -110.70990","2025-05-25 07:34",2,43.514294,-110.709896,TRUE,FALSE,TRUE,"S242587109"
"52","lobcur","Long-billed Curlew","Numenius americanus","L505620","Bear River Meadows--Crawford Mountain Rd.","2025-05-25 07:33",2,41.6956433,-111.1140114,TRUE,FALSE,FALSE,"S242651456"
"53","lobcur","Long-billed Curlew","Numenius americanus","L1340108","Bolivar Flats Shorebird Sanctuary--17th Str. Jetty","2025-05-25 07:29",1,29.3681375,-94.7474419,TRUE,FALSE,FALSE,"S242418680"
"54","lobcur","Long-billed Curlew","Numenius americanus","L45762255","Elk Refuge Roads","2025-05-25 07:26",1,43.5320514,-110.6837089,TRUE,FALSE,TRUE,"S242498722"
"55","lobcur","Long-billed Curlew","Numenius americanus","L802931","Elkhorn Slough--Estrada & North marsh and/or Kirby Park","2025-05-25 07:19",2,36.8404781,-121.7424688,TRUE,FALSE,FALSE,"S242529365"
"56","lobcur","Long-billed Curlew","Numenius americanus","L164929","Bolsa Chica Ecological Reserve","2025-05-25 07:15",8,33.7026531,-118.050735,TRUE,FALSE,FALSE,"S242675424"
"57","lobcur","Long-billed Curlew","Numenius americanus","L957336","Muir Beach--includes beach, Redwood Creek riparian corridor, Green Gulch","2025-05-25 06:54",1,37.8612556,-122.5751372,TRUE,FALSE,FALSE,"S242620912"
"58","lobcur","Long-billed Curlew","Numenius americanus","L16988298","Fly Ranch (private) Gerlach US-NV 40.84087, -119.33461","2025-05-25 06:30",1,40.840874,-119.334614,TRUE,FALSE,TRUE,"S242728359"
"59","lobcur","Long-billed Curlew","Numenius americanus","L799306","San Dieguito Lagoon--southwest","2025-05-25 06:26",1,32.9677315,-117.2594056,TRUE,FALSE,FALSE,"S242474374"
"60","lobcur","Long-billed Curlew","Numenius americanus","L464247","Harriett M. Wieder Regional Park, Huntington Beach","2025-05-25 06:11",1,33.6849473,-118.0223304,TRUE,FALSE,FALSE,"S242460175"
"61","lobcur","Long-billed Curlew","Numenius americanus","L786573","Lockhart's Corner","2025-05-25 06:07",1,36.1383599,-119.7169876,TRUE,FALSE,FALSE,"S242515326"
"62","lobcur","Long-billed Curlew","Numenius americanus","L256021","Moss Landing--Jetty Road, north jetty & State Beach","2025-05-25 06:06",2,36.8151691,-121.7900355,TRUE,FALSE,FALSE,"S242528547"
"63","lobcur","Long-billed Curlew","Numenius americanus","L247318","Benton Lake NWR","2025-05-25 05:51",1,47.6641904,-111.3007221,TRUE,FALSE,FALSE,"S242387531"
"64","lobcur","Long-billed Curlew","Numenius americanus","L45992653","(Restricted Access) Fly Ranch, 89412, Gerlach US-NV (40.8328,-119.3358)","2025-05-25 05:26",2,40.832825,-119.335808,TRUE,FALSE,TRUE,"S242729004"
"65","lobcur","Long-billed Curlew","Numenius americanus","L45856079","Burns -> HQ","2025-05-25 05:11",4,43.556363,-119.080552,TRUE,FALSE,TRUE,"S242665562"
"66","lobcur","Long-billed Curlew","Numenius americanus","L45910922","Nespelem, Washington, US (48.172, -118.913)","2025-05-25 05:09",1,48.1718213,-118.9129325,TRUE,FALSE,TRUE,"S242362221"
"67","lobcur","Long-billed Curlew","Numenius americanus","L45959543","BLM land off Old Marcus Rd (NO public access, not exact location)","2025-05-25 04:10",5,44.698144,-102.197529,TRUE,FALSE,TRUE,"S242588271"
"68","lobcur","Long-billed Curlew","Numenius americanus","L45885689","Deseret Peak Complex, Grantsville US-UT 40.57501, -112.37461","2025-05-24 20:15",1,40.575012,-112.374615,TRUE,FALSE,TRUE,"S242248221"
"69","lobcur","Long-billed Curlew","Numenius americanus","L45887341","CR-150 N-S","2025-05-24 20:11",2,42.933779,-110.131557,TRUE,FALSE,TRUE,"S242255356"
"70","lobcur","Long-billed Curlew","Numenius americanus","L45635772","Whimbrel spot","2025-05-24 19:56",6,47.2512657,-119.3198705,TRUE,FALSE,TRUE,"S242261259"
"71","lobcur","Long-billed Curlew","Numenius americanus","L966521","Lawen Marshes","2025-05-24 19:47",3,43.40224,-118.84859,TRUE,FALSE,FALSE,"S242258120"
"72","lobcur","Long-billed Curlew","Numenius americanus","L18870139","Field","2025-05-24 19:45",2,47.2344679,-119.3254967,TRUE,FALSE,TRUE,"S242261336"
"73","lobcur","Long-billed Curlew","Numenius americanus","L9404237","Big Foot Ponds","2025-05-24 19:43",2,43.4303591,-116.6438007,TRUE,FALSE,TRUE,"S242261926"
"74","lobcur","Long-billed Curlew","Numenius americanus","L11758887","Winnett","2025-05-24 19:18",3,47.0043939,-108.3479194,TRUE,FALSE,FALSE,"S242600203"
"75","lobcur","Long-billed Curlew","Numenius americanus","L45888989","31073–31099 Green House Ln, Burns US-OR 43.51180, -119.02125","2025-05-24 19:14",6,43.511802,-119.021254,TRUE,FALSE,TRUE,"S242262790"
"76","lobcur","Long-billed Curlew","Numenius americanus","L4997997","McDermitt (Nevada side)","2025-05-24 18:57",1,41.9965945,-117.7184843,TRUE,FALSE,FALSE,"S242249559"
"77","lobcur","Long-billed Curlew","Numenius americanus","L18875281","32637–32719 Ruh-Red S Rd, Burns US-OR 43.38127, -118.91234","2025-05-24 18:52",1,43.381269,-118.912337,TRUE,FALSE,TRUE,"S242252967"
"78","lobcur","Long-billed Curlew","Numenius americanus","L10228303","Fly Geyser (Restricted Access)","2025-05-24 18:36",1,40.8588398,-119.3335921,TRUE,FALSE,FALSE,"S242251931"
"79","lobcur","Long-billed Curlew","Numenius americanus","L45977027","Highway 95 W, Jordan Valley US-OR (42.9863,-117.1525)","2025-05-24 18:17",1,42.986281,-117.152496,TRUE,FALSE,TRUE,"S242658257"
"80","lobcur","Long-billed Curlew","Numenius americanus","L30795411","14025-13801 Farm to Market Road 3067, La Feria, Texas, US (26.118, -97.8)","2025-05-24 18:14",4,26.1178507,-97.7996831,TRUE,FALSE,TRUE,"S242194196"
"81","lobcur","Long-billed Curlew","Numenius americanus","L7529941","Upper Hoback Rd (Forest Rd 30700)","2025-05-24 18:07",1,43.123897,-110.420242,TRUE,FALSE,FALSE,"S242213754"
"82","lobcur","Long-billed Curlew","Numenius americanus","L45973420","Deseret Peak Complex","2025-05-24 18:00",2,40.5738107,-112.3765809,TRUE,FALSE,TRUE,"S242644218"
"83","lobcur","Long-billed Curlew","Numenius americanus","L469984","Kendall-Frost Marsh Reserve","2025-05-24 17:41",1,32.7921946,-117.2309709,TRUE,FALSE,FALSE,"S242241652"
"84","lobcur","Long-billed Curlew","Numenius americanus","L1004802","Presidio--Crissy Field Lagoon","2025-05-24 17:37",1,37.8047658,-122.4562311,TRUE,FALSE,FALSE,"S242241350"
"85","lobcur","Long-billed Curlew","Numenius americanus","L45880752","Juniper Flat Rd, Maupin US-OR 45.21901, -121.13167","2025-05-24 17:36",1,45.219006,-121.131669,TRUE,FALSE,TRUE,"S242225865"
"86","lobcur","Long-billed Curlew","Numenius americanus","L45875547","The Ranch","2025-05-24 17:32",2,45.7181582,-104.6501674,TRUE,FALSE,TRUE,"S242201161"
"87","lobcur","Long-billed Curlew","Numenius americanus","L44430383","Wharf Road Dock","2025-05-24 17:27",12,37.910182,-122.683925,TRUE,FALSE,TRUE,"S242232666"
"88","lobcur","Long-billed Curlew","Numenius americanus","L1071000","Morro Strand State Beach","2025-05-24 17:23",20,35.3982858,-120.8678892,TRUE,FALSE,FALSE,"S242230305"
"89","lobcur","Long-billed Curlew","Numenius americanus","L752930","Hotchkiss Ln.--WTP Ponds (restricted access)","2025-05-24 17:02",1,43.5551186,-119.0707684,TRUE,FALSE,FALSE,"S242211352"
"90","lobcur","Long-billed Curlew","Numenius americanus","L45873452","2611–2685 US-191, Malta US-MT 48.38262, -107.85562","2025-05-24 17:02",5,48.382622,-107.85562,TRUE,FALSE,TRUE,"S242191153"
"91","lobcur","Long-billed Curlew","Numenius americanus","L3065050","Paddock Valley Reservoir","2025-05-24 16:57",1,44.2097726,-116.5975571,TRUE,FALSE,FALSE,"S242242564"
"92","lobcur","Long-billed Curlew","Numenius americanus","L597862","Rutherford Beach","2025-05-24 16:42",1,29.7584911,-93.1245375,TRUE,FALSE,FALSE,"S242158503"
"93","lobcur","Long-billed Curlew","Numenius americanus","L2191941","Hwy. 205--Substation Pond","2025-05-24 16:39",4,43.4971413,-119.0183258,TRUE,FALSE,FALSE,"S242399951"
"94","lobcur","Long-billed Curlew","Numenius americanus","L45882145","Antelope Island Rd, Syracuse US-UT 41.04718, -112.23424","2025-05-24 16:30",1,41.047181,-112.234235,TRUE,FALSE,TRUE,"S242232821"
"95","lobcur","Long-billed Curlew","Numenius americanus","L45874266","Antelope Island Road, Syracuse, Utah, US (41.046, -112.234)","2025-05-24 16:10",NA,41.0459241,-112.2335217,TRUE,FALSE,TRUE,"S242195028"
"96","lobcur","Long-billed Curlew","Numenius americanus","L518546","Malheur NWR--Narrows","2025-05-24 16:00",2,43.2873151,-118.9591885,TRUE,FALSE,FALSE,"S242189843"
"97","lobcur","Long-billed Curlew","Numenius americanus","L889837","Humboldt pelagic--Humboldt Bay portion only","2025-05-24 15:50",6,40.7585725,-124.2123591,TRUE,FALSE,FALSE,"S242613937"
"98","lobcur","Long-billed Curlew","Numenius americanus","L1138640","Baca Co Rd M--east of Hwy 287","2025-05-24 15:27",2,37.1491252,-102.3134744,TRUE,FALSE,FALSE,"S242162175"
"99","lobcur","Long-billed Curlew","Numenius americanus","L28109045","Indian Point Park—Nueces Co. marshes (SE portion)","2025-05-24 15:20",1,27.851863,-97.353277,TRUE,FALSE,FALSE,"S242241601"
"100","lobcur","Long-billed Curlew","Numenius americanus","L45869102","67245–67253 Frenchglen Hwy, Burns US-OR 43.50375, -119.02027","2025-05-24 15:15",1,43.503751,-119.020267,TRUE,FALSE,TRUE,"S242170608"
"101","lobcur","Long-billed Curlew","Numenius americanus","L45872276","Center Patrol Rd, Princeton US-OR 43.23102, -118.87303","2025-05-24 14:55",2,43.231023,-118.87303,TRUE,FALSE,TRUE,"S242185435"
"102","lobcur","Long-billed Curlew","Numenius americanus","L742934","Riley Pond","2025-05-24 14:38",1,43.5418136,-119.5397794,TRUE,FALSE,FALSE,"S242162394"
"103","lobcur","Long-billed Curlew","Numenius americanus","L3919066","Malheur NWR--Narrows Campground","2025-05-24 14:37",1,43.2571666,-118.9569461,TRUE,FALSE,FALSE,"S242178291"
"104","lobcur","Long-billed Curlew","Numenius americanus","L4682665","Bear Lake NWR--Dingle Unit","2025-05-24 14:36",3,42.2321105,-111.3492626,TRUE,FALSE,FALSE,"S242162448"
"105","lobcur","Long-billed Curlew","Numenius americanus","L21670877","Stege Marsh","2025-05-24 14:30",4,37.913173,-122.343136,TRUE,FALSE,TRUE,"S242264738"
"106","lobcur","Long-billed Curlew","Numenius americanus","L12544224","Dusty Rhodes Park","2025-05-24 14:25",1,32.7516659,-117.2367101,TRUE,FALSE,FALSE,"S242178061"
"107","lobcur","Long-billed Curlew","Numenius americanus","L19200129","Montana 7 North, Baker, Montana, US","2025-05-24 14:02",1,46.4751462,-104.2422945,TRUE,FALSE,TRUE,"S242128273"
"108","lobcur","Long-billed Curlew","Numenius americanus","L855316","Ormond Beach and lagoon","2025-05-24 13:54",2,34.1385855,-119.1868941,TRUE,FALSE,FALSE,"S242188263"
"109","lobcur","Long-billed Curlew","Numenius americanus","L44648937","1645–1743 N-27, Ellsworth US-NE 42.10801, -102.23695","2025-05-24 13:48",2,42.108011,-102.236954,TRUE,FALSE,TRUE,"S242116557"
"110","lobcur","Long-billed Curlew","Numenius americanus","L989047","South Richmond Marshes (Stege, Hoffman) and Meeker Slough","2025-05-24 13:43",1,37.9090901,-122.3329122,TRUE,FALSE,FALSE,"S242173134"
"111","lobcur","Long-billed Curlew","Numenius americanus","L8581850","Benson Homestead ALE (Restricted)","2025-05-24 13:40",1,46.4970309,-119.6572775,TRUE,FALSE,TRUE,"S242134601"
"112","lobcur","Long-billed Curlew","Numenius americanus","L1022449","Bolsa Chica--Interpretive Center/Bolsa Bay","2025-05-24 12:49",2,33.7107751,-118.061657,TRUE,FALSE,FALSE,"S242138948"
"113","lobcur","Long-billed Curlew","Numenius americanus","L3687386","Theodore Roosevelt NP--River Bend Overlook","2025-05-24 12:36",1,47.6094483,-103.377894,TRUE,FALSE,FALSE,"S242190037"
"114","lobcur","Long-billed Curlew","Numenius americanus","L45892074","Road 11 NE, Moses Lake","2025-05-24 12:20",6,47.2486475,-119.3141171,TRUE,FALSE,TRUE,"S242277316"
"115","lobcur","Long-billed Curlew","Numenius americanus","L1210095","Antelope Island SP--Road to Garr Ranch","2025-05-24 11:49",3,40.9836063,-112.1903591,TRUE,FALSE,FALSE,"S242060249"
"116","lobcur","Long-billed Curlew","Numenius americanus","L615794","Coal Oil Point Reserve--Devereux Slough","2025-05-24 11:26",5,34.4136013,-119.8756027,TRUE,FALSE,FALSE,"S242115357"
"117","lobcur","Long-billed Curlew","Numenius americanus","L1173410","Ducks Unlimited Warm Springs Ponds","2025-05-24 11:12",1,46.1809001,-112.8020382,TRUE,FALSE,FALSE,"S242075877"
"118","lobcur","Long-billed Curlew","Numenius americanus","L854348","Bentonite Rd.","2025-05-24 11:05",1,48.1843787,-106.8158034,TRUE,FALSE,FALSE,"S242102748"
"119","lobcur","Long-billed Curlew","Numenius americanus","L7384603","UBIF official use only Crissy/quarter master reach tidal wetlands","2025-05-24 10:33",2,37.8048037,-122.4557295,TRUE,FALSE,FALSE,"S242053225"
"120","lobcur","Long-billed Curlew","Numenius americanus","L45669335","Andy Martin Hill","2025-05-24 10:30",1,44.4074503,-109.2681535,TRUE,FALSE,TRUE,"S242254512"
"121","lobcur","Long-billed Curlew","Numenius americanus","L1874705","Bench Rd.","2025-05-24 10:30",2,45.820296,-111.5760183,TRUE,FALSE,FALSE,"S242022918"
"122","lobcur","Long-billed Curlew","Numenius americanus","L45925258","Bear Lake Refuge","2025-05-24 10:28",1,42.2007928,-111.3359689,TRUE,FALSE,TRUE,"S242439168"
"123","lobcur","Long-billed Curlew","Numenius americanus","L775274","Corcoran Reservoir","2025-05-24 10:25",3,36.1457764,-119.5545959,TRUE,FALSE,FALSE,"S242061071"
"124","lobcur","Long-billed Curlew","Numenius americanus","L38071336","Fintail Ranch","2025-05-24 10:18",1,45.4224599,-112.427811,TRUE,FALSE,TRUE,"S242082986"
"125","lobcur","Long-billed Curlew","Numenius americanus","L11578162","Alvord Playa--Snowy Plover area","2025-05-24 10:12",2,42.543273,-118.513145,TRUE,FALSE,FALSE,"S242088755"
"126","lobcur","Long-billed Curlew","Numenius americanus","L740752","Malheur NWR--Benson Pond","2025-05-24 10:01",1,42.9566738,-118.8657188,TRUE,FALSE,FALSE,"S242211899"
"127","lobcur","Long-billed Curlew","Numenius americanus","L1532020","San Dieguito Lagoon--Southeast & Dust Devil Trails","2025-05-24 09:55",5,32.9696861,-117.2395813,TRUE,FALSE,FALSE,"S242101072"
"128","lobcur","Long-billed Curlew","Numenius americanus","L2205047","Livingston:  Swingley Road start","2025-05-24 09:53",1,45.6663657,-110.4960251,TRUE,FALSE,TRUE,"S242210742"
"129","lobcur","Long-billed Curlew","Numenius americanus","L939145","Wahluke Boat Ramp","2025-05-24 09:51",1,46.6765323,-119.4456339,TRUE,FALSE,FALSE,"S242044309"
"130","lobcur","Long-billed Curlew","Numenius americanus","L2334782","North Beede Reservoir","2025-05-24 09:48",1,43.7528692,-118.4747601,TRUE,FALSE,FALSE,"S242045450"
"131","lobcur","Long-billed Curlew","Numenius americanus","L730351","Charleston Slough/Coast Casey Forebay","2025-05-24 09:26",1,37.4359191,-122.098918,TRUE,FALSE,FALSE,"S242077368"
"132","lobcur","Long-billed Curlew","Numenius americanus","L24591963","Corinne Trail--South","2025-05-24 09:21",3,45.0091931,-113.018301,TRUE,FALSE,TRUE,"S242064305"
"133","lobcur","Long-billed Curlew","Numenius americanus","L1989101","Los Penasquitos Lagoon--mouth & beach","2025-05-24 09:18",1,32.9339432,-117.2603633,TRUE,FALSE,FALSE,"S242084756"
"134","lobcur","Long-billed Curlew","Numenius americanus","L45828519","67245–67253 Frenchglen Hwy, Burns US-OR 43.50455, -119.02025","2025-05-24 09:17",1,43.504552,-119.020253,TRUE,FALSE,TRUE,"S242006568"
"135","lobcur","Long-billed Curlew","Numenius americanus","L866412","Imperial Irrigation District Wetland Project--Niland","2025-05-24 09:12",4,33.2118848,-115.5204034,TRUE,TRUE,FALSE,"S242149102"
"136","lobcur","Long-billed Curlew","Numenius americanus","L24867850","Ruh Red Road","2025-05-24 09:00",NA,43.3807788,-118.9197417,TRUE,FALSE,TRUE,"S242390458"
"137","lobcur","Long-billed Curlew","Numenius americanus","L7413313","Elberta Slant Road","2025-05-24 08:56",3,39.9786328,-111.9832563,TRUE,FALSE,FALSE,"S242046918"
"138","lobcur","Long-billed Curlew","Numenius americanus","L1422055","Antelope Island SP--Marina","2025-05-24 08:56",2,41.0614917,-112.2390532,TRUE,FALSE,FALSE,"S242124781"
"139","lobcur","Long-billed Curlew","Numenius americanus","L501746","Warm Springs WMA (Utah Co.)","2025-05-24 08:44",1,39.9627803,-111.8562698,TRUE,FALSE,FALSE,"S241960490"
"140","lobcur","Long-billed Curlew","Numenius americanus","L14510917","Duffy Lane","2025-05-24 08:33",1,46.802605,-112.21528,TRUE,FALSE,TRUE,"S242081829"
"141","lobcur","Long-billed Curlew","Numenius americanus","L45835448","Auto selected 41.50986, -112.07021","2025-05-24 08:22",7,41.509858,-112.070215,TRUE,FALSE,TRUE,"S242036291"
"142","lobcur","Long-billed Curlew","Numenius americanus","L1316658","Morro Bay SP--Marina/Boardwalk Trail","2025-05-24 08:19",16,35.3445235,-120.8418006,TRUE,FALSE,FALSE,"S242147034"
"143","lobcur","Long-billed Curlew","Numenius americanus","L34500806","Morro Strand State Beach Cloisters","2025-05-24 08:16",17,35.384351,-120.86295,TRUE,FALSE,TRUE,"S242013490"
"144","lobcur","Long-billed Curlew","Numenius americanus","L5718613","WDFW/Audubon site-2017-Road 9 NW-67236","2025-05-24 08:15",1,47.2185106,-119.5772441,TRUE,FALSE,FALSE,"S241976790"
"145","lobcur","Long-billed Curlew","Numenius americanus","L770875","Bear River MBR--Visitor Center","2025-05-24 08:07",6,41.5076774,-112.068851,TRUE,FALSE,FALSE,"S241968406"
"146","lobcur","Long-billed Curlew","Numenius americanus","L43415363","Road 181, Ellsworth, Nebraska, US (41.982, -102.383)","2025-05-24 08:03",2,41.9819351,-102.3833966,TRUE,FALSE,TRUE,"S242029426"
"147","lobcur","Long-billed Curlew","Numenius americanus","L212071","Antelope Island SP--Garr Ranch","2025-05-24 07:46",2,40.9234737,-112.1680972,TRUE,FALSE,FALSE,"S242015288"
"148","lobcur","Long-billed Curlew","Numenius americanus","L29587522","Upper Hoback Neighborhood","2025-05-24 07:45",1,43.156152,-110.369364,TRUE,FALSE,TRUE,"S242074937"
"149","lobcur","Long-billed Curlew","Numenius americanus","L7499480","Bowdoin NWR--Visitor Center and Display Pond","2025-05-24 07:35",1,48.3934043,-107.7297601,TRUE,FALSE,FALSE,"S242144826"
"150","lobcur","Long-billed Curlew","Numenius americanus","L45813583","67826 Oregon 205, Burns, Oregon, US (43.481, -119.02)","2025-05-24 07:33",1,43.4808094,-119.0204352,TRUE,FALSE,TRUE,"S241941838"
"151","lobcur","Long-billed Curlew","Numenius americanus","L15093469","National Elk Refuge Road, Jackson, Wyoming, US (43.504, -110.72)","2025-05-24 07:30",9,43.5039434,-110.7197534,TRUE,FALSE,TRUE,"S242008657"
"152","lobcur","Long-billed Curlew","Numenius americanus","L24359041","Chimney Dam Rd—miles 1-5","2025-05-24 07:30",1,41.498409,-117.493804,TRUE,FALSE,TRUE,"S242701179"
"153","lobcur","Long-billed Curlew","Numenius americanus","L578601","Doran Regional Park - entrance pond to jetty","2025-05-24 07:28",1,38.3146057,-123.0438066,TRUE,FALSE,FALSE,"S241978277"
"154","lobcur","Long-billed Curlew","Numenius americanus","L45804311","Nebraska 2, Alliance, Nebraska, US (42.079, -102.685)","2025-05-24 07:23",2,42.0794042,-102.68493,TRUE,FALSE,TRUE,"S241897983"
"155","lobcur","Long-billed Curlew","Numenius americanus","L44261187","5321 Perkins Road, Alliance, Nebraska, US (42.092, -102.746)","2025-05-24 07:20",2,42.0923443,-102.7462219,TRUE,FALSE,TRUE,"S241896448"
"156","lobcur","Long-billed Curlew","Numenius americanus","L45975787","Diehl Ranch Drive","2025-05-24 07:04",2,46.6134212,-111.8456226,TRUE,FALSE,TRUE,"S242654645"
"157","lobcur","Long-billed Curlew","Numenius americanus","L27222718","Reinhart Road","2025-05-24 07:01",2,45.5874983,-118.8711871,TRUE,FALSE,TRUE,"S242157693"
"158","lobcur","Long-billed Curlew","Numenius americanus","L743423","Hwy. 205 (Catlow Valley Rd.)--Six Mile Pond (view from road)","2025-05-24 06:57",1,42.4757054,-118.87604,TRUE,FALSE,FALSE,"S241936564"
"159","lobcur","Long-billed Curlew","Numenius americanus","L19456757","Lower Lamoille Rd bridge, Lamoille US-NV 40.76577, -115.47817","2025-05-24 06:35",1,40.765772,-115.478174,TRUE,FALSE,TRUE,"S242041681"
"160","lobcur","Long-billed Curlew","Numenius americanus","L45808290","67255–67299 Frenchglen Hwy, Burns US-OR 43.51108, -119.02024","2025-05-24 06:33",6,43.511075,-119.020239,TRUE,FALSE,TRUE,"S241917060"
"161","lobcur","Long-billed Curlew","Numenius americanus","L256020","Zmudowski SB","2025-05-24 06:33",1,36.8372464,-121.8014572,TRUE,FALSE,FALSE,"S241973368"
"162","lobcur","Long-billed Curlew","Numenius americanus","L45808216","68300–68344 Frenchglen Hwy, Burns US-OR 43.52145, -119.02011","2025-05-24 06:19",3,43.521448,-119.020111,TRUE,FALSE,TRUE,"S241916741"
"163","lobcur","Long-billed Curlew","Numenius americanus","L1471763","Potter Swamp Rd.","2025-05-24 06:10",6,43.5044624,-119.0820007,TRUE,FALSE,FALSE,"S242204274"
"164","lobcur","Long-billed Curlew","Numenius americanus","L45885822","Frenchglen Highway, Burns, Oregon, US (43.474, -119.02)","2025-05-24 05:44",1,43.4740519,-119.0201894,TRUE,FALSE,TRUE,"S242248728"
"165","lobcur","Long-billed Curlew","Numenius americanus","L1018792","Boiler Bay State Wayside","2025-05-24 05:27",1,44.8288173,-124.0658998,TRUE,FALSE,FALSE,"S242042037"
"166","lobcur","Long-billed Curlew","Numenius americanus","L338560","Mori Pt.","2025-05-24 05:18",1,37.6204026,-122.4934964,TRUE,FALSE,FALSE,"S241952707"
"167","lobcur","Long-billed Curlew","Numenius americanus","L45779840","380 Old Stagecoach Rd, Bliss US-ID 42.88035, -114.91161","2025-05-24 01:06",1,42.880353,-114.911608,TRUE,FALSE,TRUE,"S241785127"
"168","lobcur","Long-billed Curlew","Numenius americanus","L45773951","N 2600 E, Twin Falls US-ID 42.41482, -114.53516","2025-05-23 19:32",21,42.414819,-114.535162,TRUE,FALSE,TRUE,"S241758538"
"169","lobcur","Long-billed Curlew","Numenius americanus","L45772963","US Highway 191 S, Dodson US-MT 47.95034, -108.32291","2025-05-23 18:23",1,47.950342,-108.322906,TRUE,FALSE,TRUE,"S241754637"
"170","lobcur","Long-billed Curlew","Numenius americanus","L20168065","Tie Creek Road, Camp Crook, Montana, US (45.568, -104.214)","2025-05-23 18:15",2,45.5677459,-104.2144414,TRUE,FALSE,TRUE,"S241735059"
"171","lobcur","Long-billed Curlew","Numenius americanus","L21850462","Jungo Rd Water Treatment Ponds","2025-05-23 18:06",3,40.963422,-117.817642,TRUE,FALSE,FALSE,"S241742632"
"172","lobcur","Long-billed Curlew","Numenius americanus","L24406944","home","2025-05-23 17:00",2,42.2927996,-103.27003,TRUE,FALSE,TRUE,"S241731179"
"173","lobcur","Long-billed Curlew","Numenius americanus","L1527300","The Links at Overlake","2025-05-23 16:39",1,40.5793197,-112.3200899,TRUE,FALSE,FALSE,"S241733829"
"174","lobcur","Long-billed Curlew","Numenius americanus","L578606","Honey Lake Wildlife Area--Fleming Unit","2025-05-23 16:28",1,40.3537678,-120.3021079,TRUE,FALSE,FALSE,"S242264937"
"175","lobcur","Long-billed Curlew","Numenius americanus","L4956213","Gary L. Slot Wetland","2025-05-23 16:12",4,41.510289,-112.103285,TRUE,FALSE,FALSE,"S241751415"
"176","lobcur","Long-billed Curlew","Numenius americanus","L45759691","23892–23898 Dry Fork Rd, Malta US-MT 47.82056, -108.00396","2025-05-23 15:48",2,47.820559,-108.003959,TRUE,FALSE,TRUE,"S241692145"
"177","lobcur","Long-billed Curlew","Numenius americanus","L45761522","Sheep Mount Road, Capitol, Montana, US (45.466, -104.218)","2025-05-23 15:44",2,45.4664762,-104.2178321,TRUE,FALSE,TRUE,"S241700372"
"178","lobcur","Long-billed Curlew","Numenius americanus","L8120377","North Powder Pond","2025-05-23 15:20",1,45.013214,-117.930166,TRUE,FALSE,FALSE,"S241758958"
"179","lobcur","Long-billed Curlew","Numenius americanus","L14665192","Greenhouse Lane, Burns, Oregon, US (43.514, -119.05)","2025-05-23 15:17",1,43.5140106,-119.0503256,TRUE,FALSE,TRUE,"S241695937"
"180","lobcur","Long-billed Curlew","Numenius americanus","L19731450","Sunset Hill Road, Montana, US (46.926, -113.404)","2025-05-23 15:15",1,46.9261331,-113.4036333,TRUE,FALSE,TRUE,"S241679651"
"181","lobcur","Long-billed Curlew","Numenius americanus","L2175957","Crom Lake","2025-05-23 14:58",1,40.6337241,-104.7730494,TRUE,FALSE,FALSE,"S241682616"
"182","lobcur","Long-billed Curlew","Numenius americanus","L165236","Neenoshe Reservoir","2025-05-23 14:53",2,38.3390307,-102.6904106,TRUE,FALSE,FALSE,"S241715960"
"183","lobcur","Long-billed Curlew","Numenius americanus","L211504","Red Rock Lakes NWR--Lower","2025-05-23 14:41",1,44.6444638,-111.8869394,TRUE,FALSE,FALSE,"S241675200"
"184","lobcur","Long-billed Curlew","Numenius americanus","L1466666","Broadview Pond and (town)","2025-05-23 14:32",1,46.1056555,-108.8812958,TRUE,FALSE,FALSE,"S241690687"
"185","lobcur","Long-billed Curlew","Numenius americanus","L109548","McNary NWR--Walla Walla River Delta","2025-05-23 14:20",4,46.0685319,-118.9096792,TRUE,FALSE,FALSE,"S241724928"
"186","lobcur","Long-billed Curlew","Numenius americanus","L894293","Carey Lake WMA","2025-05-23 14:10",1,43.3350423,-113.9218283,TRUE,FALSE,FALSE,"S241724874"
"187","lobcur","Long-billed Curlew","Numenius americanus","L2201374","Prairie Creek Lake","2025-05-23 14:02",1,45.4247046,-104.4594097,TRUE,FALSE,FALSE,"S241661173"
"188","lobcur","Long-billed Curlew","Numenius americanus","L109309","Pt. Pinos--seawatch only","2025-05-23 13:50",1,36.6373821,-121.9357538,TRUE,FALSE,FALSE,"S241741576"
"189","lobcur","Long-billed Curlew","Numenius americanus","L45758223","1814–1898 Dry Fork Rd, Zortman US-MT 47.81316, -108.48806","2025-05-23 13:42",6,47.813155,-108.488063,TRUE,FALSE,TRUE,"S241685638"
"190","lobcur","Long-billed Curlew","Numenius americanus","L9026890","398 Whitmore Rd, Cascade US-MT (47.1818,-111.6075)","2025-05-23 13:14",2,47.181764,-111.607527,TRUE,FALSE,TRUE,"S241656435"
"191","lobcur","Long-billed Curlew","Numenius americanus","L129103","Galveston--8 Mile Rd./Sportsman Rd (UTC 066)","2025-05-23 13:13",1,29.2572178,-94.8949664,TRUE,FALSE,FALSE,"S241679833"
"192","lobcur","Long-billed Curlew","Numenius americanus","L45750232","OO Ranch Rd, Hines US-OR 43.27981, -119.19997","2025-05-23 13:05",1,43.279814,-119.19997,TRUE,FALSE,TRUE,"S241661404"
"193","lobcur","Long-billed Curlew","Numenius americanus","L45749948","Mollys Nipple Rd, Valier US-MT 48.36436, -112.55866","2025-05-23 13:02",1,48.36436,-112.558656,TRUE,FALSE,TRUE,"S241649245"
"194","lobcur","Long-billed Curlew","Numenius americanus","L6307959","Big Gumbo Mgmt. Area--Cedar Ridge","2025-05-23 12:10",2,46.0546179,-103.9690311,TRUE,FALSE,FALSE,"S241635835"
"195","lobcur","Long-billed Curlew","Numenius americanus","L1032455","Wilder Ranch SP--Old Cove Landing Trail","2025-05-23 12:08",2,36.9569044,-122.0840338,TRUE,FALSE,FALSE,"S242150155"
"196","lobcur","Long-billed Curlew","Numenius americanus","L591920","Nelson Reservoir","2025-05-23 12:03",1,48.5288834,-107.5307465,TRUE,FALSE,FALSE,"S241631654"
"197","lobcur","Long-billed Curlew","Numenius americanus","L45752868","Moore Cut-Off Road, Broadus, Montana, US (45.334, -105.033)","2025-05-23 11:56",2,45.3335167,-105.0327211,TRUE,FALSE,TRUE,"S241661687"
"198","lobcur","Long-billed Curlew","Numenius americanus","L45747448","LBCU spot - 1912–1950 Silver Lake Rd, Chiloquin US-OR 42.87878, -121.76319","2025-05-23 11:50",2,42.878781,-121.76319,TRUE,FALSE,TRUE,"S241638448"
"199","lobcur","Long-billed Curlew","Numenius americanus","L15368359","Juniper Flat Rd.","2025-05-23 11:47",1,45.2207132,-121.1335405,TRUE,FALSE,FALSE,"S241757247"
"200","lobcur","Long-billed Curlew","Numenius americanus","L7709027","Nephi north fields (agriculture and wet meadow)","2025-05-23 11:29",4,39.7691187,-111.8662798,TRUE,FALSE,TRUE,"S241618132"
"201","lobcur","Long-billed Curlew","Numenius americanus","L1063329","Badlands NP--Sage Creek Rim Rd.","2025-05-23 11:06",1,43.9051204,-102.3092473,TRUE,FALSE,FALSE,"S241597076"
"202","lobcur","Long-billed Curlew","Numenius americanus","L297806","Santa Clara River Estuary","2025-05-23 10:26",2,34.2316739,-119.2627716,TRUE,FALSE,FALSE,"S241633931"
"203","lobcur","Long-billed Curlew","Numenius americanus","L2137091","Bench Road--lower","2025-05-23 10:05",1,45.8537283,-111.555469,TRUE,FALSE,FALSE,"S241695402"
"204","lobcur","Long-billed Curlew","Numenius americanus","L1219642","Crescent Lake NWR--Island Lake","2025-05-23 10:05",1,41.7350699,-102.3985863,TRUE,FALSE,FALSE,"S241752571"
"205","lobcur","Long-billed Curlew","Numenius americanus","L45764126","Unnamed Road, East Oglala Lakota, South Dakota, US (43.485, -102.477)","2025-05-23 09:57",2,43.4847699,-102.4772914,TRUE,FALSE,TRUE,"S241713369"
"206","lobcur","Long-billed Curlew","Numenius americanus","L32518068","Snag Island","2025-05-23 09:49",2,46.670457,-123.958737,TRUE,FALSE,TRUE,"S241963235"
"207","lobcur","Long-billed Curlew","Numenius americanus","L684346","Crane Hollow Road and ponds","2025-05-23 09:40",1,40.1819226,-105.1890063,TRUE,TRUE,FALSE,"S241586671"
"208","lobcur","Long-billed Curlew","Numenius americanus","L340479","Bay Center","2025-05-23 09:39",7,46.6212809,-123.9460435,TRUE,FALSE,FALSE,"S241961049"
"209","lobcur","Long-billed Curlew","Numenius americanus","L331980","Ft. Pierre NG (Lyman Co.)","2025-05-23 09:37",1,44.1679295,-100.3215695,TRUE,FALSE,FALSE,"S241579826"
"210","lobcur","Long-billed Curlew","Numenius americanus","L3828844","Grant-Kohrs Ranch NHS","2025-05-23 09:30",1,46.4214277,-112.7420945,TRUE,FALSE,FALSE,"S242076694"
"211","lobcur","Long-billed Curlew","Numenius americanus","L509037","Morro Bay--Audubon overlook","2025-05-23 09:18",2,35.3316478,-120.8383334,TRUE,FALSE,FALSE,"S241584375"
"212","lobcur","Long-billed Curlew","Numenius americanus","L37525293","Dry Canyon Road","2025-05-23 09:08",1,39.3686135,-111.6831975,TRUE,FALSE,TRUE,"S242193002"
"213","lobcur","Long-billed Curlew","Numenius americanus","L1764188","Bodega Bay--Gaffney Pt. - includes Marine Lab and residence entrances","2025-05-23 08:50",1,38.3150602,-123.0578613,TRUE,FALSE,FALSE,"S241676987"
"214","lobcur","Long-billed Curlew","Numenius americanus","L43647769","Outfall 012 - 03","2025-05-23 08:41",2,40.769441,-112.175675,TRUE,FALSE,TRUE,"S241545652"
"215","lobcur","Long-billed Curlew","Numenius americanus","L969581","Surf Beach","2025-05-23 08:13",10,34.6827698,-120.6056356,TRUE,FALSE,FALSE,"S241574430"
"216","lobcur","Long-billed Curlew","Numenius americanus","L5949471","Mustang Island SP--Fish Pass area","2025-05-23 08:07",2,27.6821308,-97.1704675,TRUE,FALSE,FALSE,"S241601647"
"217","lobcur","Long-billed Curlew","Numenius americanus","L695510","Surprise Valley--northern edge","2025-05-23 07:59",4,41.8636804,-120.1145554,TRUE,FALSE,FALSE,"S241702123"
"218","lobcur","Long-billed Curlew","Numenius americanus","L24913529","Ruh-Red Rd. (sagebrush habitat only)","2025-05-23 07:21",5,43.381245,-118.9416723,TRUE,FALSE,FALSE,"S241743190"
"219","lobcur","Long-billed Curlew","Numenius americanus","L1022599","Ocean Beach-- across from Oceanside Water Polution Plant (FOR STATIONARY SEAWATCH ONLY)","2025-05-23 06:55",6,37.7294017,-122.5069034,TRUE,FALSE,FALSE,"S241734472"
"220","lobcur","Long-billed Curlew","Numenius americanus","L793543","Matthews-Reeser Bird Sanctuary","2025-05-23 06:52",1,40.3782272,-105.5091911,TRUE,TRUE,FALSE,"S241540203"
"221","lobcur","Long-billed Curlew","Numenius americanus","L139567","Rodeo Lagoon (including beach and offshore)","2025-05-23 06:30",73,37.8304863,-122.5329514,TRUE,FALSE,FALSE,"S241623601"
"222","lobcur","Long-billed Curlew","Numenius americanus","L127945","Bosque del Apache NWR","2025-05-23 06:22",1,33.802,-106.88,TRUE,FALSE,FALSE,"S241725014"
"223","lobcur","Long-billed Curlew","Numenius americanus","L122505","Asilomar SB--sandy beach to Spanish Bay","2025-05-23 06:21",2,36.6167983,-121.9422546,TRUE,FALSE,FALSE,"S241515104"
"224","lobcur","Long-billed Curlew","Numenius americanus","L9635832","Big Sandy Reservoir (Sublette County)","2025-05-23 06:15",1,42.2710546,-109.4280364,TRUE,FALSE,FALSE,"S241614457"
"225","lobcur","Long-billed Curlew","Numenius americanus","L3239468","Tijuana Slough NWR--Visitor Center/North McCoy Trail","2025-05-23 06:02",2,32.5748894,-117.1259087,TRUE,FALSE,FALSE,"S241557419"
"226","lobcur","Long-billed Curlew","Numenius americanus","L1316006","Grant-Kohrs Historic Site","2025-05-23 06:00",3,46.4104046,-112.7465057,TRUE,FALSE,TRUE,"S241655509"
"227","lobcur","Long-billed Curlew","Numenius americanus","L31475361","GSL Shorelands Preserve-Section C (restricted access)","2025-05-23 05:46",10,41.0601705,-112.0581915,TRUE,FALSE,TRUE,"S241652666"
"228","lobcur","Long-billed Curlew","Numenius americanus","L45227932","33 Upper Hoback rd.","2025-05-23 05:45",1,43.15587,-110.368487,TRUE,FALSE,TRUE,"S241476065"
"229","lobcur","Long-billed Curlew","Numenius americanus","L10744560","Swale Creek (Garner Road)","2025-05-22 19:47",1,45.7327091,-120.9474705,TRUE,FALSE,FALSE,"S241502123"
"230","lobcur","Long-billed Curlew","Numenius americanus","L40180714","Outskirts (Private Property)","2025-05-22 19:20",1,40.3781114,-105.0086704,TRUE,TRUE,TRUE,"S241618566"
"231","lobcur","Long-billed Curlew","Numenius americanus","L36916985","2755 Van Diest Road, Winnemucca, Nevada, US (40.804, -117.775)","2025-05-22 18:04",2,40.8043,-117.77539,TRUE,FALSE,TRUE,"S241388430"
"232","lobcur","Long-billed Curlew","Numenius americanus","L23611013","56600–56698 Juniper Flat Rd, Maupin US-OR 45.22249, -121.13397","2025-05-22 17:19",3,45.222489,-121.133968,TRUE,FALSE,TRUE,"S241373867"
"233","lobcur","Long-billed Curlew","Numenius americanus","L45691910","Old Gap Rd, Judith Gap US-MT 46.59831, -109.80854","2025-05-22 17:08",6,46.598306,-109.80854,TRUE,FALSE,TRUE,"S241368057"
"234","lobcur","Long-billed Curlew","Numenius americanus","L26249377","2316 N 2200 E, Hamer US-ID 43.96448, -112.25741","2025-05-22 17:01",1,43.964478,-112.257406,TRUE,FALSE,TRUE,"S241356557"
"235","lobcur","Long-billed Curlew","Numenius americanus","L42044227","Prickly Pear Park","2025-05-22 16:43",1,46.5779865,-111.9160488,TRUE,FALSE,FALSE,"S241367415"
"236","lobcur","Long-billed Curlew","Numenius americanus","L45690219","Moss Landing Harbor, Moss Landing US-CA (36.8072,-121.7863)","2025-05-22 16:22",1,36.807206,-121.786269,TRUE,FALSE,TRUE,"S241359629"
"237","lobcur","Long-billed Curlew","Numenius americanus","L1024345","Maxwell NWR--Lake 13","2025-05-22 16:20",18,36.5810737,-104.5828056,TRUE,FALSE,FALSE,"S241517997"
"238","lobcur","Long-billed Curlew","Numenius americanus","L45688676","3175–3299 US Highway 89 S, Emigrant US-MT 45.37793, -110.72467","2025-05-22 16:20",2,45.377933,-110.724668,TRUE,FALSE,TRUE,"S241351920"
"239","lobcur","Long-billed Curlew","Numenius americanus","L24456376","Brown’s Lake","2025-05-22 16:10",1,46.9568491,-113.0060216,TRUE,FALSE,TRUE,"S241550989"
"240","lobcur","Long-billed Curlew","Numenius americanus","L370676","Moss Landing--marina, town & beach (south jetty southwards)","2025-05-22 16:02",1,36.8013642,-121.7879638,TRUE,FALSE,FALSE,"S241372787"
"241","lobcur","Long-billed Curlew","Numenius americanus","L1576429","Malheur NWR--Sodhouse Ln.","2025-05-22 16:01",2,43.2699566,-118.8691263,TRUE,FALSE,FALSE,"S241398880"
"242","lobcur","Long-billed Curlew","Numenius americanus","L14493832","Old Gap Road","2025-05-22 15:42",10,46.5625274,-109.8149009,TRUE,FALSE,FALSE,"S241388155"
"243","lobcur","Long-billed Curlew","Numenius americanus","L714512","Sunset Lake  (Portland)","2025-05-22 15:30",1,27.8679131,-97.3274088,TRUE,FALSE,FALSE,"S241345817"
"244","lobcur","Long-billed Curlew","Numenius americanus","L1888861","Canyon Ferry Wildlife Area","2025-05-22 15:07",2,46.3730415,-111.5566699,TRUE,FALSE,FALSE,"S241346338"
"245","lobcur","Long-billed Curlew","Numenius americanus","L45699263","Road H Northeast, Moses Lake, Washington","2025-05-22 14:33",26,47.2508266,-119.3202862,TRUE,FALSE,TRUE,"S241404240"
"246","lobcur","Long-billed Curlew","Numenius americanus","L45681812","8090–8098 US-89, Great Falls US-MT 47.45220, -111.04120","2025-05-22 14:24",2,47.452203,-111.041195,TRUE,FALSE,TRUE,"S241318759"
"247","lobcur","Long-billed Curlew","Numenius americanus","L578608","Westside Regional Park","2025-05-22 14:15",5,38.3213566,-123.054986,TRUE,FALSE,FALSE,"S242268627"
"248","lobcur","Long-billed Curlew","Numenius americanus","L45179854","Ocean Park Rd, Lompoc US-CA 34.69099, -120.60003","2025-05-22 14:07",4,34.690989,-120.600033,TRUE,FALSE,TRUE,"S241349788"
"249","lobcur","Long-billed Curlew","Numenius americanus","L45694141","7401–7699 Emond Rd, Malta US-MT 47.92816, -107.98578","2025-05-22 14:05",1,47.928165,-107.98578,TRUE,FALSE,TRUE,"S241379507"
"250","lobcur","Long-billed Curlew","Numenius americanus","L6061718","Oka Rd.","2025-05-22 14:01",7,46.6208073,-109.8042172,TRUE,FALSE,FALSE,"S241352046"
"251","lobcur","Long-billed Curlew","Numenius americanus","L338774","Neegronda Reservoir","2025-05-22 13:39",1,38.3034071,-102.7543708,TRUE,FALSE,FALSE,"S241379333"
"252","lobcur","Long-billed Curlew","Numenius americanus","L2801004","oregon2020--Oo Ranch Rd","2025-05-22 13:20",NA,43.505145,-119.3084309,TRUE,FALSE,TRUE,"S241406559"
"253","lobcur","Long-billed Curlew","Numenius americanus","L1398327","Kit Carson (town)","2025-05-22 13:13",1,38.7643096,-102.7922063,TRUE,FALSE,FALSE,"S241361622"
"254","lobcur","Long-billed Curlew","Numenius americanus","L976600","Ennis Lake--Meadow Lake FAS","2025-05-22 12:57",2,45.4428575,-111.7078793,TRUE,FALSE,FALSE,"S241305914"
"255","lobcur","Long-billed Curlew","Numenius americanus","L45676204","11980 Springhill Rd, Belgrade US-MT 45.85182, -111.07678","2025-05-22 12:47",1,45.851824,-111.076777,TRUE,FALSE,TRUE,"S241293073"
"256","lobcur","Long-billed Curlew","Numenius americanus","L131620","Cheraw Lake","2025-05-22 12:46",1,38.1007663,-103.5127017,TRUE,FALSE,FALSE,"S241627072"
"257","lobcur","Long-billed Curlew","Numenius americanus","L7819318","59421, Cascade US-MT (47.3573,-111.7855)","2025-05-22 12:39",2,47.357271,-111.785536,TRUE,FALSE,TRUE,"S241296149"
"258","lobcur","Long-billed Curlew","Numenius americanus","L30795953","Laguna Madre--south end around LV/PI/SPI","2025-05-22 12:34",2,26.1070975,-97.2153423,TRUE,FALSE,FALSE,"S241291408"
"259","lobcur","Long-billed Curlew","Numenius americanus","L375164","Goleta Beach County Park (including east end of Goleta Slough)","2025-05-22 12:33",1,34.4171771,-119.829812,TRUE,FALSE,FALSE,"S241356523"
"260","lobcur","Long-billed Curlew","Numenius americanus","L20896838","Silver Creek Road","2025-05-22 12:30",NA,43.6331604,-119.6417561,TRUE,FALSE,TRUE,"S241406088"
"261","lobcur","Long-billed Curlew","Numenius americanus","L45693257","59832, Drummond US-MT 46.79010, -113.10800","2025-05-22 11:41",1,46.790097,-113.107997,TRUE,FALSE,TRUE,"S241375083"
"262","lobcur","Long-billed Curlew","Numenius americanus","L1214977","Grey Bear FAS","2025-05-22 11:30",1,45.7888935,-110.0650692,TRUE,FALSE,FALSE,"S241283857"
"263","lobcur","Long-billed Curlew","Numenius americanus","L353255","Elkhorn Slough Reserve (NERR)","2025-05-22 11:27",4,36.8182308,-121.7364764,TRUE,FALSE,FALSE,"S241328182"
"264","lobcur","Long-billed Curlew","Numenius americanus","L45687396","Whimbrel Location","2025-05-22 11:15",6,47.2489578,-119.3200387,TRUE,FALSE,TRUE,"S241346043"
"265","lobcur","Long-billed Curlew","Numenius americanus","L45670131","N Yellowstone Trail Rd. West of Raptor Nest Dr.","2025-05-22 11:06",1,45.784803,-110.09924,TRUE,FALSE,TRUE,"S241264848"
"266","lobcur","Long-billed Curlew","Numenius americanus","L991670","Harrison/Willow Creek Reservoir","2025-05-22 10:58",1,45.7005388,-111.7032981,TRUE,FALSE,FALSE,"S241275481"
"267","lobcur","Long-billed Curlew","Numenius americanus","L12633630","Anchor Memorial Park Pier","2025-05-22 10:30",1,35.3674858,-120.8543779,TRUE,FALSE,TRUE,"S241313295"
"268","lobcur","Long-billed Curlew","Numenius americanus","L27176941","The Vista House (Private Property)","2025-05-22 10:25",1,43.158487,-110.370594,TRUE,FALSE,TRUE,"S241373987"
"269","lobcur","Long-billed Curlew","Numenius americanus","L27098970","US-60, Santa Rosa US-NM 34.53622, -104.94206","2025-05-22 10:10",3,34.536217,-104.942056,TRUE,FALSE,TRUE,"S241244144"
"270","lobcur","Long-billed Curlew","Numenius americanus","L3717571","Big Tree","2025-05-22 10:06",2,46.5905313,-109.8086011,TRUE,FALSE,TRUE,"S241480050"
"271","lobcur","Long-billed Curlew","Numenius americanus","L4014523","BLM grasslands N of Glasgow","2025-05-22 09:39",2,48.5054909,-106.5645719,TRUE,FALSE,FALSE,"S241405573"
"272","lobcur","Long-billed Curlew","Numenius americanus","L36035484","South Flowing Wells Road pond","2025-05-22 09:35",1,47.2777912,-106.1732835,TRUE,FALSE,TRUE,"S241246691"
"273","lobcur","Long-billed Curlew","Numenius americanus","L6196421","Camas National Wildlife Refuge, Hamer US-ID (43.9280,-112.2760)","2025-05-22 09:33",10,43.928021,-112.275959,TRUE,FALSE,TRUE,"S241300408"
"274","lobcur","Long-billed Curlew","Numenius americanus","L1861949","Ormond Beach--Arnold Rd.","2025-05-22 09:33",1,34.1226943,-119.156529,TRUE,FALSE,FALSE,"S241276611"
"275","lobcur","Long-billed Curlew","Numenius americanus","L375127","Morro Creek mouth","2025-05-22 09:29",1,35.376104,-120.8624411,TRUE,FALSE,FALSE,"S241313308"
"276","lobcur","Long-billed Curlew","Numenius americanus","L36058964","South Flowing Wells Road","2025-05-22 09:17",2,47.2952534,-106.1704494,TRUE,FALSE,TRUE,"S241246570"
"277","lobcur","Long-billed Curlew","Numenius americanus","L3884607","Old Gap Rd","2025-05-22 09:16",2,46.5387492,-109.8192192,TRUE,FALSE,TRUE,"S241480116"
"278","lobcur","Long-billed Curlew","Numenius americanus","L45664125","20772–21698 Baseline Rd, Three Forks US-MT 45.79245, -111.61718","2025-05-22 09:13",2,45.792447,-111.617181,TRUE,FALSE,TRUE,"S241237007"
"279","lobcur","Long-billed Curlew","Numenius americanus","L45693942","Dry Fork Rd, Malta US-MT (47.8061,-108.2437)","2025-05-22 09:01",1,47.806111,-108.243702,TRUE,FALSE,TRUE,"S241378625"
"280","lobcur","Long-billed Curlew","Numenius americanus","L4235422","Oceanside Waterfront","2025-05-22 08:54",1,33.2017446,-117.3938835,TRUE,FALSE,TRUE,"S241368028"
"281","lobcur","Long-billed Curlew","Numenius americanus","L45663542","Bear River Bird Refuge","2025-05-22 08:45",5,41.479553,-112.25669,TRUE,FALSE,TRUE,"S241274884"
"282","lobcur","Long-billed Curlew","Numenius americanus","L1169963","Lower Nihill Rd.--West","2025-05-22 08:21",7,46.4897783,-109.7981204,TRUE,FALSE,FALSE,"S241480290"
"283","lobcur","Long-billed Curlew","Numenius americanus","L7690570","Elephant Butte Lake SP--Isolated Lake","2025-05-22 08:15",3,33.3250767,-107.1891232,TRUE,FALSE,FALSE,"S241372704"
"284","lobcur","Long-billed Curlew","Numenius americanus","L4029647","farm","2025-05-22 08:00",1,45.7155889,-119.8808813,TRUE,FALSE,TRUE,"S241376997"
"285","lobcur","Long-billed Curlew","Numenius americanus","L45712116","Bayside Drive, Los Fresnos, Texas, US (26.182, -97.35)","2025-05-22 07:40",1,26.1820317,-97.3495183,TRUE,FALSE,TRUE,"S241463556"
"286","lobcur","Long-billed Curlew","Numenius americanus","L723976","Mollie Beattie Coastal Habitat Community","2025-05-22 07:40",1,27.6374591,-97.2064304,TRUE,FALSE,FALSE,"S241234993"
"287","lobcur","Long-billed Curlew","Numenius americanus","L45692518","Laguna Madre - Arroyo Colorado to South Bay/Cameron Co","2025-05-22 07:30",NA,26.1411087,-97.2230043,TRUE,FALSE,TRUE,"S241374133"
"288","lobcur","Long-billed Curlew","Numenius americanus","L45658793","17728 Kansas Avenue, Lemoore, California, US (36.211, -119.775)","2025-05-22 07:28",6,36.211227,-119.7747517,TRUE,FALSE,TRUE,"S241211855"
"289","lobcur","Long-billed Curlew","Numenius americanus","L45664759","5234–5360 US-287, McAllister US-MT (45.4133,-111.7306)","2025-05-22 06:33",1,45.413328,-111.730594,TRUE,FALSE,TRUE,"S241240026"
"290","lobcur","Long-billed Curlew","Numenius americanus","L3544677","Dutchman Pond","2025-05-22 06:15",1,46.1807515,-112.8508973,TRUE,FALSE,FALSE,"S241311360"
"291","lobcur","Long-billed Curlew","Numenius americanus","L12968236","Bolsa Chica Ecological Reserve-Backside (restricted access)","2025-05-22 06:15",2,33.7025628,-118.035571,TRUE,FALSE,FALSE,"S241235489"
"292","lobcur","Long-billed Curlew","Numenius americanus","L924821","Gloyd Seeps Wetland","2025-05-22 06:11",1,47.2414827,-119.2848301,TRUE,FALSE,FALSE,"S241217395"
"293","lobcur","Long-billed Curlew","Numenius americanus","L45655996","11000–11242 Road H NE, Moses Lake US-WA 47.25121, -119.32037","2025-05-22 05:58",6,47.251207,-119.320374,TRUE,FALSE,TRUE,"S241197503"
"294","lobcur","Long-billed Curlew","Numenius americanus","L21209548","Argenta WMA","2025-05-22 05:25",1,40.66918,-116.930015,TRUE,FALSE,FALSE,"S241223420"
"295","lobcur","Long-billed Curlew","Numenius americanus","L45678316","Umatilla Army Depot (Restricted Access)","2025-05-22 04:48",2,45.860735,-119.403554,TRUE,FALSE,TRUE,"S241302672"
"296","lobcur","Long-billed Curlew","Numenius americanus","L15178707","Horse Springs Coulee Road","2025-05-22 04:22",2,48.8062371,-119.5829106,TRUE,FALSE,FALSE,"S241382210"
"297","lobcur","Long-billed Curlew","Numenius americanus","L19327261","Grammie's House","2025-05-21 20:21",2,42.946191,-110.110868,TRUE,FALSE,TRUE,"S241094800"
"298","lobcur","Long-billed Curlew","Numenius americanus","L45635962","11001–11243 Road H NE, Moses Lake US-WA (47.2495,-119.3202)","2025-05-21 19:22",5,47.249535,-119.320245,TRUE,FALSE,TRUE,"S241095945"
"299","lobcur","Long-billed Curlew","Numenius americanus","L45639393","Whimbrel location","2025-05-21 19:21",7,47.251266,-119.319871,TRUE,FALSE,TRUE,"S241113776"
"300","lobcur","Long-billed Curlew","Numenius americanus","L729989","Goshen Fields","2025-05-21 18:35",1,39.9708057,-111.8930054,TRUE,FALSE,FALSE,"S241349661"
"301","lobcur","Long-billed Curlew","Numenius americanus","L45656913","Railway Ave, Melstone US-MT 46.59459, -107.87272","2025-05-21 17:22",2,46.594593,-107.872721,TRUE,FALSE,TRUE,"S241202386"
"302","lobcur","Long-billed Curlew","Numenius americanus","L45650050","9493–9573 N-71, Marsland US-NE 42.27923, -103.60503","2025-05-21 17:12",1,42.279229,-103.605026,TRUE,FALSE,TRUE,"S241163563"
"303","lobcur","Long-billed Curlew","Numenius americanus","L45627783","North School House Road, Hill City, Idaho, US (43.277, -115.126)","2025-05-21 16:58",3,43.2768157,-115.1257903,TRUE,FALSE,TRUE,"S241053252"
"304","lobcur","Long-billed Curlew","Numenius americanus","L45630224","35413–35499 Steens Mountain N Loop Rd, Frenchglen US-OR 42.82395, -118.90709","2025-05-21 16:54",1,42.82395,-118.907087,TRUE,FALSE,TRUE,"S241066177"
"305","lobcur","Long-billed Curlew","Numenius americanus","L256022","Moss Landing Wildlife Area (former salt ponds; some access restricted)","2025-05-21 16:25",5,36.8171904,-121.7794888,TRUE,FALSE,FALSE,"S241079390"
"306","lobcur","Long-billed Curlew","Numenius americanus","L1430606","Freezout Lake WMA--Priest Butte Lake","2025-05-21 16:19",1,47.7552655,-112.1122021,TRUE,FALSE,FALSE,"S241047020"
"307","lobcur","Long-billed Curlew","Numenius americanus","L45628338","35413–35499 Steens Mountain N Loop Rd, Frenchglen US-OR 42.82390, -118.90416","2025-05-21 16:08",1,42.823902,-118.904164,TRUE,FALSE,TRUE,"S241056116"
"308","lobcur","Long-billed Curlew","Numenius americanus","L270513","Saltair & Marina","2025-05-21 15:23",1,40.7320925,-112.2079376,TRUE,FALSE,FALSE,"S241103659"
"309","lobcur","Long-billed Curlew","Numenius americanus","L45623712","Pilgrim Creek Road, Broadus, Montana, US (45.281, -105.034)","2025-05-21 15:22",1,45.2809224,-105.0341397,TRUE,FALSE,TRUE,"S241033472"
"310","lobcur","Long-billed Curlew","Numenius americanus","L45881672","Center Patrol Rd, Princeton US-OR 43.21517, -118.88758","2025-05-21 15:22",2,43.215175,-118.887578,TRUE,FALSE,TRUE,"S242230571"
"311","lobcur","Long-billed Curlew","Numenius americanus","L743054","Malheur NWR--Krumbo Reservoir","2025-05-21 15:11",1,42.9549651,-118.8089848,TRUE,FALSE,FALSE,"S241106885"
"312","lobcur","Long-billed Curlew","Numenius americanus","L159619","Malheur NWR--Headquarters","2025-05-21 14:54",1,43.2658741,-118.8448941,TRUE,FALSE,FALSE,"S241056423"
"313","lobcur","Long-billed Curlew","Numenius americanus","L45620679","1217–1565 Otter Creek Rd, Big Timber US-MT 46.05658, -109.85508","2025-05-21 13:37",1,46.056581,-109.855076,TRUE,FALSE,TRUE,"S241018736"
"314","lobcur","Long-billed Curlew","Numenius americanus","L45622731","Liberty, MT Pugsley Rd west US-MT","2025-05-21 13:29",1,48.277304,-111.134351,TRUE,FALSE,TRUE,"S241028730"
"315","lobcur","Long-billed Curlew","Numenius americanus","L45631178","South Railbed Rd, Bridger US-MT 45.05996, -108.65416","2025-05-21 13:18",1,45.059963,-108.654161,TRUE,FALSE,TRUE,"S241071278"
"316","lobcur","Long-billed Curlew","Numenius americanus","L837268","Sacramento NWR--Auto Route & Visitor Center","2025-05-21 13:10",1,39.4284385,-122.1564999,TRUE,FALSE,FALSE,"S241340417"
"317","lobcur","Long-billed Curlew","Numenius americanus","L23795983","Chain Of Lakes","2025-05-21 12:55",1,48.650074,-110.0605812,TRUE,FALSE,FALSE,"S241099940"
"318","lobcur","Long-billed Curlew","Numenius americanus","L45619795","64801–64817 Lawen Rd, Burns US-OR 43.39570, -118.80446","2025-05-21 12:30",1,43.395704,-118.804462,TRUE,FALSE,TRUE,"S241013299"
"319","lobcur","Long-billed Curlew","Numenius americanus","L45616341","White Rock Loop Road, Syracuse US-UT 41.03636, -112.20880","2025-05-21 11:50",3,41.036364,-112.208805,TRUE,FALSE,TRUE,"S240996801"
"320","lobcur","Long-billed Curlew","Numenius americanus","L26946842","Mule Creek Junction Rest Area","2025-05-21 11:30",1,43.379232,-104.220774,TRUE,FALSE,FALSE,"S241079698"
"321","lobcur","Long-billed Curlew","Numenius americanus","L45615306","Macaroni Road","2025-05-21 10:52",2,47.0204641,-109.9669074,TRUE,FALSE,TRUE,"S240992005"
"322","lobcur","Long-billed Curlew","Numenius americanus","L45617712","Mustang Island State Park, Corpus Christi US-TX 27.65220, -97.19173","2025-05-21 10:45",1,27.652203,-97.191728,TRUE,FALSE,TRUE,"S241002785"
"323","lobcur","Long-billed Curlew","Numenius americanus","L28398403","SC Beach","2025-05-21 10:36",2,38.334256,-123.069046,TRUE,FALSE,TRUE,"S240993398"
"324","lobcur","Long-billed Curlew","Numenius americanus","L45608226","59421, Cascade US-MT (47.1747,-111.6177)","2025-05-21 10:35",3,47.174699,-111.617717,TRUE,FALSE,TRUE,"S240959264"
"325","lobcur","Long-billed Curlew","Numenius americanus","L45606655","Hwy 2, W of Lakeside","2025-05-21 10:26",1,42.0625,-102.50796,TRUE,FALSE,TRUE,"S240952272"
"326","lobcur","Long-billed Curlew","Numenius americanus","L4326200","Padre Isl. NS--Beach S. of Visitor center (Kleberg Co.)","2025-05-21 10:05",3,27.4057949,-97.3054147,TRUE,FALSE,FALSE,"S241308432"
"327","lobcur","Long-billed Curlew","Numenius americanus","L284157","Laguna Atascosa NWR--Bahia Grande Unit (restricted access)","2025-05-21 09:51",2,26.041662,-97.282077,TRUE,FALSE,FALSE,"S240962939"
"328","lobcur","Long-billed Curlew","Numenius americanus","L45609252","Old Highway 85, Lusk US-WY (43.2836,-104.1659)","2025-05-21 09:50",1,43.283565,-104.165939,TRUE,FALSE,TRUE,"S240963706"
"329","lobcur","Long-billed Curlew","Numenius americanus","L614549","Santa Ana River mouth","2025-05-21 09:48",3,33.6299142,-117.9575443,TRUE,FALSE,FALSE,"S240979768"
"330","lobcur","Long-billed Curlew","Numenius americanus","L7657996","Pacific Ocean, Huntington Beach US-CA (33.6290,-117.9597) from Santa Ana River Mouth along coast to Brookhurst","2025-05-21 09:48",3,33.62905,-117.959655,TRUE,FALSE,TRUE,"S241108559"
"331","lobcur","Long-billed Curlew","Numenius americanus","L9307120","National Elk Refuge Road, Jackson, Wyoming, US (43.516, -110.693)","2025-05-21 09:47",8,43.5163323,-110.6931087,TRUE,FALSE,TRUE,"S240987328"
"332","lobcur","Long-billed Curlew","Numenius americanus","L31829658","Dry Fork ROAD 48399 US-191, Zortman US-MT 47.82327, -108.49666","2025-05-21 09:30",5,47.823266,-108.496659,TRUE,FALSE,TRUE,"S241092116"
"333","lobcur","Long-billed Curlew","Numenius americanus","L715140","La Jolla--Children's Pool (harbor seal haul out)","2025-05-21 09:30",1,32.847647,-117.27882,TRUE,FALSE,FALSE,"S240964679"
"334","lobcur","Long-billed Curlew","Numenius americanus","L1429380","Hog Heaven Rd.","2025-05-21 09:24",4,47.8287881,-114.5631413,TRUE,FALSE,FALSE,"S241008248"
"335","lobcur","Long-billed Curlew","Numenius americanus","L11774591","Geiger Reservoir","2025-05-21 09:16",1,43.3350622,-104.1622845,TRUE,FALSE,FALSE,"S240963891"
"336","lobcur","Long-billed Curlew","Numenius americanus","L44061788","Old Shotgun Road","2025-05-21 08:48",1,44.4500152,-111.4663959,TRUE,FALSE,TRUE,"S240969716"
"337","lobcur","Long-billed Curlew","Numenius americanus","L45603879","8452 Road 11 NE, Moses Lake US-WA 47.24884, -119.31575","2025-05-21 08:41",11,47.248842,-119.315749,TRUE,FALSE,TRUE,"S240939048"
"338","lobcur","Long-billed Curlew","Numenius americanus","L38131553","Castleman Creek Turf Farm","2025-05-21 08:40",1,31.4439393,-97.0510658,TRUE,FALSE,FALSE,"S240932188"
"339","lobcur","Long-billed Curlew","Numenius americanus","L2196167","Lighthouse Lakes Paddling Trail  (N. Harbor Island)","2025-05-21 08:36",2,27.869203,-97.0782423,TRUE,FALSE,FALSE,"S240945971"
"340","lobcur","Long-billed Curlew","Numenius americanus","L45602836","SH-14, Walden US-CO (40.6359,-106.3951)","2025-05-21 08:32",1,40.635862,-106.39515,TRUE,FALSE,TRUE,"S240933211"
"341","lobcur","Long-billed Curlew","Numenius americanus","L45597745","Road 275 North, Kremlin, Montana, US (48.635, -110.161)","2025-05-21 08:29",1,48.6346557,-110.1608585,TRUE,FALSE,TRUE,"S241100822"
"342","lobcur","Long-billed Curlew","Numenius americanus","L45601404","STGR Lek 052125","2025-05-21 08:27",3,46.118158,-109.893383,TRUE,FALSE,TRUE,"S240926592"
"343","lobcur","Long-billed Curlew","Numenius americanus","L1042229","Upper Newport Bay (by boat)","2025-05-21 08:24",2,33.6198192,-117.9030955,TRUE,FALSE,TRUE,"S240974367"
"344","lobcur","Long-billed Curlew","Numenius americanus","L45650312","H 35","2025-05-21 08:20",1,31.710512,-108.447944,TRUE,FALSE,TRUE,"S241164974"
"345","lobcur","Long-billed Curlew","Numenius americanus","L1460618","Buffalo Ranch Pond","2025-05-21 08:16",1,40.9801077,-111.9387368,TRUE,FALSE,FALSE,"S240952723"
"346","lobcur","Long-billed Curlew","Numenius americanus","L45599094","Mud Flat Rd, Grand View US-ID 42.80673, -116.20260","2025-05-21 08:11",1,42.806732,-116.202604,TRUE,FALSE,TRUE,"S240915237"
"347","lobcur","Long-billed Curlew","Numenius americanus","L208127","Salt Creek WMA","2025-05-21 07:48",1,41.6351667,-112.2440278,TRUE,FALSE,FALSE,"S240937238"
"348","lobcur","Long-billed Curlew","Numenius americanus","L2768183","East Goshen Pond","2025-05-21 07:45",1,39.9544907,-111.8867183,TRUE,FALSE,FALSE,"S240910097"
"349","lobcur","Long-billed Curlew","Numenius americanus","L812292","San Diego Bay NWR--Sweetwater Marsh Unit / Living Coast Discovery Center (limited access)","2025-05-21 07:35",2,32.6391472,-117.113378,TRUE,FALSE,FALSE,"S240920977"
"350","lobcur","Long-billed Curlew","Numenius americanus","L19401857","Mud Flat Road between Fall Creek and Summit Spring","2025-05-21 06:53",1,42.726306,-116.343139,TRUE,FALSE,TRUE,"S241010993"
"351","lobcur","Long-billed Curlew","Numenius americanus","L45573718","H And H Estate","2025-05-21 06:36",1,47.0583179,-112.9036097,TRUE,FALSE,TRUE,"S240905654"
"352","lobcur","Long-billed Curlew","Numenius americanus","L158588","Helena Valley Regulating Reservoir","2025-05-21 06:30",1,46.6399134,-111.8784685,TRUE,FALSE,FALSE,"S240962418"
"353","lobcur","Long-billed Curlew","Numenius americanus","L999240","Presidio--Battery Godfrey","2025-05-21 06:28",1,37.8037613,-122.4774715,TRUE,FALSE,FALSE,"S241104151"
"354","lobcur","Long-billed Curlew","Numenius americanus","L45592066","Unnamed Road, Medora, North Dakota, US (46.762, -103.618)","2025-05-21 06:21",2,46.7623572,-103.618187,TRUE,FALSE,TRUE,"S240878236"
"355","lobcur","Long-billed Curlew","Numenius americanus","L43906804","Henry's Lake Flats East Between   Yellowstone Towing And Cemetery","2025-05-21 06:03",1,44.5384295,-111.3305739,TRUE,FALSE,TRUE,"S240863554"
"356","lobcur","Long-billed Curlew","Numenius americanus","L36835412","Big Snowy WMA","2025-05-21 06:01",5,46.636685,-109.220627,TRUE,FALSE,TRUE,"S241281253"
"357","lobcur","Long-billed Curlew","Numenius americanus","L11470833","May 17, 2020 06:32
46.714, -103.608","2025-05-21 05:54",1,46.7136607,-103.6080889,TRUE,FALSE,TRUE,"S240868318"
"358","lobcur","Long-billed Curlew","Numenius americanus","L45574011","11850 Road 181, Lakeside US-NE 41.80054, -102.41304","2025-05-20 18:56",1,41.800535,-102.413045,TRUE,FALSE,TRUE,"S240787138"
"359","lobcur","Long-billed Curlew","Numenius americanus","L45574059","11850 Road 181, Lakeside US-NE 41.87314, -102.34420","2025-05-20 18:31",1,41.873143,-102.344202,TRUE,FALSE,TRUE,"S240787315"
"360","lobcur","Long-billed Curlew","Numenius americanus","L45574253","11850 Road 181, Lakeside US-NE (41.9255,-102.3579)","2025-05-20 18:20",1,41.925488,-102.357905,TRUE,FALSE,TRUE,"S240788277"
"361","lobcur","Long-billed Curlew","Numenius americanus","L45574138","12138–12246 Road 181, Lakeside US-NE 41.95266, -102.37607","2025-05-20 18:13",2,41.952658,-102.376068,TRUE,FALSE,TRUE,"S240787687"
"362","lobcur","Long-billed Curlew","Numenius americanus","L45574158","12274–12294 Road 181, Lakeside US-NE 41.97358, -102.38099","2025-05-20 18:11",3,41.973575,-102.380989,TRUE,FALSE,TRUE,"S240787779"
"363","lobcur","Long-billed Curlew","Numenius americanus","L45574182","12360–12450 Road 181, Lakeside US-NE 41.99871, -102.38528","2025-05-20 18:06",2,41.998711,-102.385276,TRUE,FALSE,TRUE,"S240787892"
"364","lobcur","Long-billed Curlew","Numenius americanus","L45573295","Antioch Ave, Lakeside US-NE 42.06858, -102.58422","2025-05-20 18:05",1,42.068576,-102.584221,TRUE,FALSE,TRUE,"S240783992"
"365","lobcur","Long-billed Curlew","Numenius americanus","L45564833","SH-325, Felt US-OK 36.74411, -102.80502","2025-05-20 17:53",1,36.744113,-102.805017,TRUE,FALSE,TRUE,"S240739366"
"366","lobcur","Long-billed Curlew","Numenius americanus","L45568294","3779–3785 N-2, Lakeside US-NE 42.06311, -102.52181","2025-05-20 17:51",1,42.063109,-102.521807,TRUE,FALSE,TRUE,"S240757179"
"367","lobcur","Long-billed Curlew","Numenius americanus","L45357441","Ice Bar area, Upper Hoback Rd, Bondurant US-WY 43.14443, -110.38048","2025-05-20 17:48",3,43.144432,-110.380485,TRUE,FALSE,TRUE,"S240782609"
"368","lobcur","Long-billed Curlew","Numenius americanus","L45567409","MT-3, Acton US-MT 45.94826, -108.71172","2025-05-20 17:28",2,45.948259,-108.711725,TRUE,FALSE,TRUE,"S240752101"
"369","lobcur","Long-billed Curlew","Numenius americanus","L45569207","Frenchglen Highway, Burns, Oregon, US (43.326, -118.977)","2025-05-20 17:06",1,43.326002,-118.9769457,TRUE,FALSE,TRUE,"S240762560"
"370","lobcur","Long-billed Curlew","Numenius americanus","L998470","Don Edwards NWR--Ravenswood Salt Pond SF2","2025-05-20 16:31",1,37.4887844,-122.1341944,TRUE,FALSE,FALSE,"S240752584"
"371","lobcur","Long-billed Curlew","Numenius americanus","L794465","Pier 94--salt marsh restoration","2025-05-20 15:59",1,37.7456582,-122.3755481,TRUE,FALSE,FALSE,"S240756979"
"372","lobcur","Long-billed Curlew","Numenius americanus","L7886281","Camas National Wildlife Refuge","2025-05-20 15:31",9,43.9468229,-112.2716627,TRUE,FALSE,TRUE,"S240756893"
"373","lobcur","Long-billed Curlew","Numenius americanus","L45563350","59087, Winnett US-MT 46.90911, -108.38037","2025-05-20 15:27",1,46.909112,-108.380373,TRUE,FALSE,TRUE,"S240732216"
"374","lobcur","Long-billed Curlew","Numenius americanus","L45610258","2375–2425 Beulah Rd, Juntura US-OR 43.77612, -118.11450","2025-05-20 15:24",1,43.776125,-118.114497,TRUE,FALSE,TRUE,"S240968152"
"375","lobcur","Long-billed Curlew","Numenius americanus","L45563123","112–404 Belleview Rd, Choteau US-MT 47.79595, -112.22959","2025-05-20 15:14",3,47.795947,-112.229587,TRUE,FALSE,TRUE,"S240731014"
"376","lobcur","Long-billed Curlew","Numenius americanus","L33052272","113–405 Belleview Rd, Choteau US-MT 47.79223, -112.24059","2025-05-20 15:12",3,47.792234,-112.240594,TRUE,FALSE,TRUE,"S240728695"
"377","lobcur","Long-billed Curlew","Numenius americanus","L38619135","Ellerbeck Road","2025-05-20 15:05",5,40.6911058,-112.5632503,TRUE,FALSE,TRUE,"S240754109"
"378","lobcur","Long-billed Curlew","Numenius americanus","L45559810","13286 Hoskins Basin Road, Shepherd, Montana, US (46.04, -108.53)","2025-05-20 14:57",1,46.0396958,-108.530352,TRUE,FALSE,TRUE,"S240712951"
"379","lobcur","Long-billed Curlew","Numenius americanus","L7795637","59421, Cascade US-MT (47.3664,-111.7944)","2025-05-20 14:42",8,47.36638,-111.794405,TRUE,FALSE,TRUE,"S240715246"
"380","lobcur","Long-billed Curlew","Numenius americanus","L45572660","County Road Z, Roy, New Mexico, US (36.058, -103.893)Dehaven Road","2025-05-20 14:36",1,36.0575413,-103.8932145,TRUE,FALSE,TRUE,"S240781054"
"381","lobcur","Long-billed Curlew","Numenius americanus","L109489","Bodega Bay--harbor and immediate vicinity","2025-05-20 14:30",1,38.3238144,-123.0488491,TRUE,FALSE,FALSE,"S240760326"
"382","lobcur","Long-billed Curlew","Numenius americanus","L266875","Willcox--Lake Cochise and Twin Lakes Golf Course","2025-05-20 14:20",1,32.2298515,-109.8243175,TRUE,FALSE,FALSE,"S240787365"
"383","lobcur","Long-billed Curlew","Numenius americanus","L18519505","Horseshoe Bridge Pond","2025-05-20 13:32",2,43.771565,-111.204496,TRUE,FALSE,FALSE,"S240704434"
"384","lobcur","Long-billed Curlew","Numenius americanus","L45558851","2–292 Battle Butte Rd, Rapelje US-MT 45.87062, -109.25187","2025-05-20 13:24",5,45.870619,-109.251873,TRUE,FALSE,TRUE,"S240708701"
"385","lobcur","Long-billed Curlew","Numenius americanus","L1435951","Birch Creek Rd.","2025-05-20 11:55",2,45.379322,-112.6710511,TRUE,FALSE,FALSE,"S240664535"
"386","lobcur","Long-billed Curlew","Numenius americanus","L3723247","Paisley--Lovers Lane","2025-05-20 11:52",2,42.6888005,-120.5208349,TRUE,FALSE,FALSE,"S240690706"
"387","lobcur","Long-billed Curlew","Numenius americanus","L19865031","Deeth US-NV (41.0659,-115.2749)","2025-05-20 11:12",1,41.065887,-115.274873,TRUE,FALSE,TRUE,"S240688398"
"388","lobcur","Long-billed Curlew","Numenius americanus","L9054583","Ellerbeck Road, Grantsville, Utah, US (40.685, -112.558)","2025-05-20 11:06",6,40.7176725,-112.5963258,TRUE,FALSE,TRUE,"S240680701"
"389","lobcur","Long-billed Curlew","Numenius americanus","L3153221","Mustang Isl.--Wilson's Cut","2025-05-20 10:53",1,27.741861,-97.14944,TRUE,FALSE,FALSE,"S240609990"
"390","lobcur","Long-billed Curlew","Numenius americanus","L317469","Klamath Marsh NWR","2025-05-20 10:42",1,42.8929966,-121.6850238,TRUE,FALSE,FALSE,"S240651520"
"391","lobcur","Long-billed Curlew","Numenius americanus","L2857886","Abert Oasis (restricted access)","2025-05-20 10:41",2,42.7741815,-120.2175492,TRUE,FALSE,FALSE,"S240656099"
"392","lobcur","Long-billed Curlew","Numenius americanus","L19189119","Grantsville Reservoir","2025-05-20 10:18",2,40.5443234,-112.5110654,TRUE,FALSE,TRUE,"S240625896"
"393","lobcur","Long-billed Curlew","Numenius americanus","L742936","Malheur NWR (general)","2025-05-20 10:11",5,43.2053426,-118.9297485,TRUE,FALSE,FALSE,"S240787012"
"394","lobcur","Long-billed Curlew","Numenius americanus","L5819958","Kimber Gulch Rd.","2025-05-20 09:49",3,46.4205934,-111.6117597,TRUE,FALSE,FALSE,"S240639163"
"395","lobcur","Long-billed Curlew","Numenius americanus","L13245957","Antelope Island SP--Bridger Bay Campground","2025-05-20 09:46",1,41.0410704,-112.2565198,TRUE,FALSE,FALSE,"S240637102"
"396","lobcur","Long-billed Curlew","Numenius americanus","L45554731","Center Patrol Rd, Frenchglen US-OR 42.82801, -118.88574","2025-05-20 09:28",2,42.828009,-118.885736,TRUE,FALSE,TRUE,"S240688049"
"397","lobcur","Long-billed Curlew","Numenius americanus","L365810","Rush Valley","2025-05-20 09:26",1,40.3668188,-112.4553321,TRUE,FALSE,FALSE,"S240652619"
"398","lobcur","Long-billed Curlew","Numenius americanus","L1658724","Harrison WTP","2025-05-20 09:17",1,42.6980453,-103.8763378,TRUE,FALSE,FALSE,"S240598699"
"399","lobcur","Long-billed Curlew","Numenius americanus","L472951","Paloma Ranch","2025-05-20 09:15",70,32.9189081,-112.8944135,TRUE,TRUE,FALSE,"S240712276"
"400","lobcur","Long-billed Curlew","Numenius americanus","L761141","San Elijo Lagoon--west","2025-05-20 09:14",1,33.0087881,-117.2720733,TRUE,FALSE,FALSE,"S240726532"
"401","lobcur","Long-billed Curlew","Numenius americanus","L45534308","Bird Refuge Road, Corinne, Utah, US (41.484, -112.301)","2025-05-20 09:11",1,41.4842692,-112.3007484,TRUE,FALSE,TRUE,"S240591884"
"402","lobcur","Long-billed Curlew","Numenius americanus","L38255942","Bird Refuge Rd, North Segment.  Corinne US-UT 41.48097, -112.26822","2025-05-20 09:01",2,41.480972,-112.268222,TRUE,FALSE,TRUE,"S240719238"
"403","lobcur","Long-billed Curlew","Numenius americanus","L827977","Bayfront Park (J St.)","2025-05-20 09:00",1,32.6186091,-117.1033868,TRUE,FALSE,FALSE,"S240650989"
"404","lobcur","Long-billed Curlew","Numenius americanus","L32897738","Hall, Montana","2025-05-20 09:00",1,46.5469876,-113.1790927,TRUE,FALSE,TRUE,"S240588652"
"405","lobcur","Long-billed Curlew","Numenius americanus","L1285882","Los Poblanos Open Space","2025-05-20 08:56",5,35.1451785,-106.657033,TRUE,FALSE,FALSE,"S240702845"
"406","lobcur","Long-billed Curlew","Numenius americanus","L8990173","Batiquitos Lagoon--Aviara Parking","2025-05-20 08:49",2,33.0927128,-117.2858371,TRUE,FALSE,FALSE,"S240726424"
"407","lobcur","Long-billed Curlew","Numenius americanus","L45598306","67271 Oregon 205, Burns, Oregon, US (43.505, -119.02)","2025-05-20 08:44",1,43.5045312,-119.0201669,TRUE,FALSE,TRUE,"S240911188"
"408","lobcur","Long-billed Curlew","Numenius americanus","L45446688","13300 Chicken Ranch Road, San Elizario, Texas, US (31.574, -106.263)","2025-05-20 08:43",1,31.5740722,-106.2631825,TRUE,FALSE,TRUE,"S240664397"
"409","lobcur","Long-billed Curlew","Numenius americanus","L266125","Bedwell Bayfront Park-Menlo Park","2025-05-20 08:39",2,37.4916981,-122.1765947,TRUE,FALSE,FALSE,"S240635481"
"410","lobcur","Long-billed Curlew","Numenius americanus","L597658","Malibu Lagoon--State Beach including Lagoon","2025-05-20 08:32",2,34.0333857,-118.6822987,TRUE,FALSE,FALSE,"S240954432"
"411","lobcur","Long-billed Curlew","Numenius americanus","L11527416","Encino (town)","2025-05-20 08:15",1,34.6517615,-105.4615675,TRUE,FALSE,FALSE,"S240620906"
"412","lobcur","Long-billed Curlew","Numenius americanus","L444656","Summer Lake Wildlife Area","2025-05-20 07:53",1,42.950819,-120.7639503,TRUE,FALSE,FALSE,"S240759128"
"413","lobcur","Long-billed Curlew","Numenius americanus","L2039395","Galveston--Boddeker Rd","2025-05-20 07:45",1,29.3339241,-94.7480679,TRUE,FALSE,FALSE,"S240696614"
"414","lobcur","Long-billed Curlew","Numenius americanus","L29539908","99301, Pasco US-WA 46.30773, -119.05024","2025-05-20 07:31",4,46.307727,-119.050243,TRUE,FALSE,TRUE,"S240584469"
"415","lobcur","Long-billed Curlew","Numenius americanus","L45541855","Narrows-Princeton Road, Princeton, Oregon, US (43.251, -118.895)","2025-05-20 07:30",1,43.2511326,-118.8953543,TRUE,FALSE,TRUE,"S240628300"
"416","lobcur","Long-billed Curlew","Numenius americanus","L915750","Hwy. 205--Burns to Malheur NWR","2025-05-20 07:24",1,43.5291357,-119.0210724,TRUE,FALSE,FALSE,"S240576400"
"417","lobcur","Long-billed Curlew","Numenius americanus","L8581763","Route 240 Benton County","2025-05-20 06:55",1,46.4010953,-119.4447303,TRUE,FALSE,TRUE,"S240571136"
"418","lobcur","Long-billed Curlew","Numenius americanus","L17028983","Mission Bay--Mariners Point","2025-05-20 06:11",1,32.766686,-117.2453127,TRUE,FALSE,FALSE,"S240615184"
"419","lobcur","Long-billed Curlew","Numenius americanus","L571616","Antelope Island SP--Antelope Island (island only)","2025-05-19 18:30",3,40.9560485,-112.2040558,TRUE,FALSE,FALSE,"S240755356"
"420","lobcur","Long-billed Curlew","Numenius americanus","L2689078","Red Rock Lakes NWR--Lakeview","2025-05-19 18:19",2,44.6009393,-111.810565,TRUE,FALSE,FALSE,"S240436696"
"421","lobcur","Long-billed Curlew","Numenius americanus","L45500755","Kombol Rd, Roundup US-MT 46.69086, -108.77452","2025-05-19 17:59",1,46.690858,-108.774522,TRUE,FALSE,TRUE,"S240418639"
"422","lobcur","Long-billed Curlew","Numenius americanus","L45502038","Camas NWR, 1st half of Auto Tour Loop","2025-05-19 17:55",2,43.9634191,-112.2651178,TRUE,FALSE,TRUE,"S240425771"
"423","lobcur","Long-billed Curlew","Numenius americanus","L45497394","Antelope Island Rd, Syracuse US-UT 41.03058, -112.20470","2025-05-19 17:40",2,41.030583,-112.204695,TRUE,FALSE,TRUE,"S240399379"
"424","lobcur","Long-billed Curlew","Numenius americanus","L225431","Hayward Regional Shoreline","2025-05-19 17:11",1,37.6419316,-122.1517012,TRUE,FALSE,FALSE,"S240434526"
"425","lobcur","Long-billed Curlew","Numenius americanus","L3112862","Antelope Island SP--Lady Finger Point","2025-05-19 16:39",2,41.058608,-112.2512646,TRUE,FALSE,FALSE,"S240402100"
"426","lobcur","Long-billed Curlew","Numenius americanus","L45494193","440 Hochmuth Rd, Roundup US-MT 46.54721, -108.65447","2025-05-19 16:22",2,46.547208,-108.654469,TRUE,FALSE,TRUE,"S240381623"
"427","lobcur","Long-billed Curlew","Numenius americanus","L45496105","Frenchglen Highway, Burns, Oregon, US (43.458, -119.02)","2025-05-19 16:17",1,43.4579269,-119.0200733,TRUE,FALSE,TRUE,"S240392280"
"428","lobcur","Long-billed Curlew","Numenius americanus","L28275707","Big Foot Rd, Melba US-ID 43.43019, -116.66593","2025-05-19 16:17",1,43.430185,-116.665932,TRUE,FALSE,TRUE,"S240377661"
"429","lobcur","Long-billed Curlew","Numenius americanus","L985581","Malheur NWR--Knox Pond","2025-05-19 16:14",1,42.8900268,-118.8682079,TRUE,FALSE,FALSE,"S240420476"
"430","lobcur","Long-billed Curlew","Numenius americanus","L32127566","Burma Road","2025-05-19 15:55",1,48.951771,-115.025357,TRUE,FALSE,TRUE,"S240438066"
"431","lobcur","Long-billed Curlew","Numenius americanus","L45491300","359–399 Grazing District Rd, Roundup US-MT 46.57611, -108.72552","2025-05-19 15:36",1,46.576113,-108.725518,TRUE,FALSE,TRUE,"S240366869"
"432","lobcur","Long-billed Curlew","Numenius americanus","L693440","Amalga Barrens","2025-05-19 15:31",3,41.8599089,-111.9320583,TRUE,FALSE,FALSE,"S240382137"
"433","lobcur","Long-billed Curlew","Numenius americanus","L45486259","Cunningham Cabin Trail, Moran US-WY (43.7790,-110.5592)","2025-05-19 14:07",1,43.779009,-110.559181,TRUE,FALSE,TRUE,"S240339739"
"434","lobcur","Long-billed Curlew","Numenius americanus","L23715335","Stagecoach Road","2025-05-19 13:27",1,45.8315996,-112.200812,TRUE,FALSE,TRUE,"S240333865"
"435","lobcur","Long-billed Curlew","Numenius americanus","L18452047","I-80 S South - IMWSS Unit Utah, US (40.667, -112.358)","2025-05-19 12:49",1,40.6671446,-112.3576396,TRUE,FALSE,TRUE,"S240336702"
"436","lobcur","Long-billed Curlew","Numenius americanus","L45558290","Rd 181 N of Crescent NWR","2025-05-19 12:30",3,41.9681537,-102.3820084,TRUE,FALSE,TRUE,"S240706172"
"437","lobcur","Long-billed Curlew","Numenius americanus","L45501599","Unnamed Road, Kremlin, Montana, US (48.683, -110.129)","2025-05-19 12:08",1,48.6827487,-110.1288834,TRUE,FALSE,TRUE,"S240422990"
"438","lobcur","Long-billed Curlew","Numenius americanus","L39358380","Jetty Rd, Moss Landing US-CA (36.8169,-121.7866)","2025-05-19 11:32",1,36.816931,-121.786615,TRUE,FALSE,TRUE,"S240305206"
"439","lobcur","Long-billed Curlew","Numenius americanus","L2378932","Ennis Lake--East Shore","2025-05-19 11:27",1,45.4312423,-111.6536922,TRUE,FALSE,FALSE,"S240353204"
"440","lobcur","Long-billed Curlew","Numenius americanus","L11415770","Martinsdale Reservoir","2025-05-19 11:08",2,46.450196,-110.283997,TRUE,FALSE,FALSE,"S240392945"
"441","lobcur","Long-billed Curlew","Numenius americanus","L1333778","Mann Lake","2025-05-19 11:00",1,42.7719524,-118.4466468,TRUE,FALSE,FALSE,"S240311162"
"442","lobcur","Long-billed Curlew","Numenius americanus","L45482174","Bird Refuge Rd, Corinne US-UT 41.48250, -112.14381","2025-05-19 10:55",3,41.482504,-112.143814,TRUE,FALSE,TRUE,"S240320288"
"443","lobcur","Long-billed Curlew","Numenius americanus","L303500","Colusa NWR","2025-05-19 10:52",1,39.1864415,-122.0441835,TRUE,FALSE,FALSE,"S240315091"
"444","lobcur","Long-billed Curlew","Numenius americanus","L3715131","Lake Mason NWR--Lake Mason","2025-05-19 10:33",2,46.5139592,-108.6719022,TRUE,FALSE,FALSE,"S240307490"
"445","lobcur","Long-billed Curlew","Numenius americanus","L45467195","WY-220, Rawlins US-WY (42.4280,-107.2449)","2025-05-19 10:29",2,42.42795,-107.244932,TRUE,FALSE,TRUE,"S240251386"
"446","lobcur","Long-billed Curlew","Numenius americanus","L45464239","I-90 E, Wall US-SD 43.92755, -102.13856","2025-05-19 10:02",1,43.92755,-102.138555,TRUE,FALSE,TRUE,"S240237391"
"447","lobcur","Long-billed Curlew","Numenius americanus","L37230722","Gravel Pit Trail, Syracuse US-UT 41.03652, -112.20897","2025-05-19 09:56",3,41.03652,-112.208974,TRUE,FALSE,TRUE,"S240589337"
"448","lobcur","Long-billed Curlew","Numenius americanus","L45693568","59843, Helmville US-MT 46.84770, -112.94946","2025-05-19 09:52",1,46.847699,-112.949461,TRUE,FALSE,TRUE,"S241376712"
"449","lobcur","Long-billed Curlew","Numenius americanus","L1787495","Canal Blvd.--viewing platform","2025-05-19 09:25",3,37.904564,-122.3676086,TRUE,FALSE,FALSE,"S240444295"
"450","lobcur","Long-billed Curlew","Numenius americanus","L1668497","Farm Pond Hwy 359","2025-05-19 09:07",1,45.7597029,-111.8679963,TRUE,FALSE,FALSE,"S240216644"
"451","lobcur","Long-billed Curlew","Numenius americanus","L9433849","Summer Lake Wildlife Area--Bullgate Dike","2025-05-19 09:04",1,42.931446,-120.74207,TRUE,FALSE,FALSE,"S240381410"
"452","lobcur","Long-billed Curlew","Numenius americanus","L9370942","Caledonia subdivision","2025-05-19 09:00",2,45.4584739,-110.6508766,TRUE,FALSE,TRUE,"S240245127"
"453","lobcur","Long-billed Curlew","Numenius americanus","L45470875","5200–5652 E Second St, Winnemucca US-NV 40.99659, -117.71308","2025-05-19 08:52",4,40.996587,-117.713077,TRUE,FALSE,TRUE,"S240268638"
"454","lobcur","Long-billed Curlew","Numenius americanus","L45463044","Lawen Lane, Princeton, Oregon, US (43.426, -118.802)","2025-05-19 08:40",1,43.4264937,-118.802387,TRUE,FALSE,TRUE,"S240231462"
"455","lobcur","Long-billed Curlew","Numenius americanus","L109471","Ano Nuevo SP--Visitors Center, Elephant Seals and trails","2025-05-19 08:30",2,37.1174022,-122.3188162,TRUE,FALSE,FALSE,"S240579708"
"456","lobcur","Long-billed Curlew","Numenius americanus","L45455862","1–33 Dunham Rd, Big Piney US-WY 42.66558, -110.07287","2025-05-19 08:26",2,42.665582,-110.072873,TRUE,FALSE,TRUE,"S240197780"
"457","lobcur","Long-billed Curlew","Numenius americanus","L3289168","Fiesta Island--north","2025-05-19 08:23",1,32.7838051,-117.2183075,TRUE,FALSE,FALSE,"S240299247"
"458","lobcur","Long-billed Curlew","Numenius americanus","L793778","Port Aransas Nature Preserve at Charlie's Pasture","2025-05-19 08:00",1,27.8327765,-97.0873833,TRUE,FALSE,FALSE,"S240439066"
"459","lobcur","Long-billed Curlew","Numenius americanus","L4497761","PLAYA Summer Lake","2025-05-19 07:53",1,42.805738,-120.791834,TRUE,FALSE,FALSE,"S240234321"
"460","lobcur","Long-billed Curlew","Numenius americanus","L614301","Bird Walk Coastal Access and Smith Brothers Road","2025-05-19 07:44",15,38.3213295,-123.0372924,TRUE,FALSE,FALSE,"S240228237"
"461","lobcur","Long-billed Curlew","Numenius americanus","L45477072","Bird Refuge Road, Corinne, Utah, US (41.465, -112.217)","2025-05-19 07:25",NA,41.4652332,-112.2170029,TRUE,FALSE,TRUE,"S240297385"
"462","lobcur","Long-billed Curlew","Numenius americanus","L1580524","Bitter Lake NWR--Sandhill Crane Overlook","2025-05-19 07:01",1,33.4358395,-104.4096924,TRUE,FALSE,FALSE,"S240224616"
"463","lobcur","Long-billed Curlew","Numenius americanus","L163561","San Jacinto Wildlife Area","2025-05-19 06:55",9,33.8854488,-117.104104,TRUE,FALSE,FALSE,"S240374992"
"464","lobcur","Long-billed Curlew","Numenius americanus","L1779056","Hotel del Coronado & beach","2025-05-19 06:30",2,32.6790278,-117.1796072,TRUE,FALSE,FALSE,"S240210657"
"465","lobcur","Long-billed Curlew","Numenius americanus","L35942976","11401 Wilson Road, Los Banos, California, US (37.123, -120.87)","2025-05-18 19:30",8,37.12263,-120.8702438,TRUE,FALSE,TRUE,"S240043693"
"466","lobcur","Long-billed Curlew","Numenius americanus","L1333782","Malheur NWR--Wright's Pond","2025-05-18 19:07",1,43.2299022,-118.8752213,TRUE,FALSE,FALSE,"S240421030"
"467","lobcur","Long-billed Curlew","Numenius americanus","L20505992","New Wall Lake","2025-05-18 18:45",2,43.9807949,-102.2789418,TRUE,FALSE,FALSE,"S242255063"
"468","lobcur","Long-billed Curlew","Numenius americanus","L45421914","Great Salt Lake Shorelands Preserve, Layton US-UT 41.04140, -112.02586","2025-05-18 18:19",2,41.0414,-112.025856,TRUE,FALSE,TRUE,"S240028484"
"469","lobcur","Long-billed Curlew","Numenius americanus","L42880758","High Valley Rd dog-leg before junction","2025-05-18 17:40",6,44.223621,-116.191889,TRUE,FALSE,TRUE,"S240007227"
"470","lobcur","Long-billed Curlew","Numenius americanus","L292432","Golden Spike NHS","2025-05-18 17:19",12,41.6173,-112.55,TRUE,FALSE,FALSE,"S240043308"
"471","lobcur","Long-billed Curlew","Numenius americanus","L45414863","2000–2024 S-294, Martinsdale US-MT 46.41470, -110.49261","2025-05-18 17:07",1,46.414701,-110.492608,TRUE,FALSE,TRUE,"S239989129"
"472","lobcur","Long-billed Curlew","Numenius americanus","L45418563","2228–2242 Westside Rd, Bodega Bay US-CA 38.31644, -123.05723","2025-05-18 17:06",1,38.316442,-123.057227,TRUE,FALSE,TRUE,"S240010051"
"473","lobcur","Long-billed Curlew","Numenius americanus","L45415781","53940–53962 US-26, Mount Vernon US-OR 44.41213, -119.19559","2025-05-18 16:43",8,44.412133,-119.195589,TRUE,FALSE,TRUE,"S239994389"
"474","lobcur","Long-billed Curlew","Numenius americanus","L45417729","84741, Kanab US-UT 37.01346, -112.50516","2025-05-18 16:32",1,37.013461,-112.505158,TRUE,TRUE,TRUE,"S240005294"
"475","lobcur","Long-billed Curlew","Numenius americanus","L604462","Public Shooting Grounds WMA","2025-05-18 16:29",1,41.5861748,-112.3001862,TRUE,FALSE,FALSE,"S240043695"
"476","lobcur","Long-billed Curlew","Numenius americanus","L45412189","14563–15047 Pasco Kahlotus Rd, Pasco US-WA 46.33399, -118.82727","2025-05-18 15:52",1,46.333988,-118.827266,TRUE,FALSE,TRUE,"S239973539"
"477","lobcur","Long-billed Curlew","Numenius americanus","L418748","Seacoast Drive to Tijuana River mouth","2025-05-18 15:42",1,32.5665347,-117.1322003,TRUE,FALSE,FALSE,"S239982837"
"478","lobcur","Long-billed Curlew","Numenius americanus","L45420167","76086 Rosenberg Rd, Echo US-OR 45.72788, -119.27970","2025-05-18 15:31",4,45.727883,-119.279703,TRUE,FALSE,TRUE,"S240019051"
"479","lobcur","Long-billed Curlew","Numenius americanus","L1915425","Camas NWR--Headquarters","2025-05-18 15:15",1,43.9640943,-112.2639656,TRUE,FALSE,FALSE,"S239980550"
"480","lobcur","Long-billed Curlew","Numenius americanus","L1210098","Antelope Island SP--Visitor Center & Loop Rd.","2025-05-18 14:36",2,41.054726,-112.2407765,TRUE,FALSE,FALSE,"S239997463"
"481","lobcur","Long-billed Curlew","Numenius americanus","L33775725","Warner Wetlands Trail, Plush US-OR 42.45944, -119.83917","2025-05-18 14:29",4,42.459438,-119.839168,TRUE,FALSE,TRUE,"S241091256"
"482","lobcur","Long-billed Curlew","Numenius americanus","L3446190","Bear River--Horseshoe Sloughs","2025-05-18 14:12",4,41.5321619,-112.0797515,TRUE,FALSE,FALSE,"S240396031"
"483","lobcur","Long-billed Curlew","Numenius americanus","L45418122","136–398 Crazy D Ln, Big Timber US-MT (46.0589,-109.8171)","2025-05-18 14:07",1,46.058941,-109.817074,TRUE,FALSE,TRUE,"S240007307"
"484","lobcur","Long-billed Curlew","Numenius americanus","L190275","Carson Lake","2025-05-18 13:49",1,39.33693,-118.734726,TRUE,FALSE,FALSE,"S239955363"
"485","lobcur","Long-billed Curlew","Numenius americanus","L45422975","Ruh-Red South Road, Burns, Oregon, US (43.381, -118.981)","2025-05-18 13:41",4,43.3813889,-118.9810286,TRUE,FALSE,TRUE,"S240033901"
"486","lobcur","Long-billed Curlew","Numenius americanus","L45395223","Unnamed Road, Marsing, Idaho, US (43.488, -116.896)","2025-05-18 13:28",1,43.4884742,-116.8963451,TRUE,FALSE,TRUE,"S239891695"
"487","lobcur","Long-billed Curlew","Numenius americanus","L45406250","National Forest Development Road 3930, Seneca, Oregon, US (44.025, -118.921)","2025-05-18 13:21",1,44.0245173,-118.9214008,TRUE,FALSE,TRUE,"S239943765"
"488","lobcur","Long-billed Curlew","Numenius americanus","L350533","Willard Bay SP--South Dike & Playas","2025-05-18 13:09",1,41.3406611,-112.1091308,TRUE,FALSE,FALSE,"S239903748"
"489","lobcur","Long-billed Curlew","Numenius americanus","L1317062","Humboldt Bay NWR--Ma-le'l Dunes Unit-north","2025-05-18 12:44",1,40.8741533,-124.1523314,TRUE,FALSE,FALSE,"S241774581"
"490","lobcur","Long-billed Curlew","Numenius americanus","L17187881","N 5000 W, Tetonia","2025-05-18 12:35",1,43.793144,-111.200904,TRUE,FALSE,TRUE,"S239865443"
"491","lobcur","Long-billed Curlew","Numenius americanus","L4660632","Emery Road--Lower","2025-05-18 12:29",2,46.4025036,-112.7078068,TRUE,FALSE,TRUE,"S239885030"
"492","lobcur","Long-billed Curlew","Numenius americanus","L45393931","Horseshoe Springs Rd, Dugway US-UT 40.61407, -112.70824","2025-05-18 12:11",1,40.614067,-112.708238,TRUE,FALSE,TRUE,"S239885832"
"493","lobcur","Long-billed Curlew","Numenius americanus","L900841","Horseshoe Springs","2025-05-18 12:08",5,40.6139524,-112.7081072,TRUE,FALSE,FALSE,"S239928365"
"494","lobcur","Long-billed Curlew","Numenius americanus","L45379645","Boca Chica Blvd, Brownsville US-TX 25.99548, -97.16602","2025-05-18 12:03",8,25.995484,-97.166018,TRUE,FALSE,TRUE,"S239822376"
"495","lobcur","Long-billed Curlew","Numenius americanus","L12928474","Elkhorn Slough, Moss Landing US-CA (36.8123,-121.7772)","2025-05-18 11:38",1,36.812251,-121.777162,TRUE,FALSE,TRUE,"S239951253"
"496","lobcur","Long-billed Curlew","Numenius americanus","L850346","Lower Klamath NWR--Straits Drain","2025-05-18 11:20",2,42.0243992,-121.7778454,TRUE,FALSE,FALSE,"S239962579"
"497","lobcur","Long-billed Curlew","Numenius americanus","L5907680","Hwy 199: GREAT SALT LAKE BIRD FESTIVAL","2025-05-18 11:09",1,40.2937574,-112.6563406,TRUE,FALSE,TRUE,"S239927285"
"498","lobcur","Long-billed Curlew","Numenius americanus","L273461","Goose Island SP (CTC 048)","2025-05-18 11:09",1,28.13255,-96.985052,TRUE,FALSE,FALSE,"S239822655"
"499","lobcur","Long-billed Curlew","Numenius americanus","L20233359","Ocean Drive Bridge E. of NAS","2025-05-18 10:48",2,27.7099666,-97.3086087,TRUE,FALSE,FALSE,"S239816600"
"500","lobcur","Long-billed Curlew","Numenius americanus","L855389","Pony Slough","2025-05-18 10:43",1,43.4137145,-124.2336559,TRUE,FALSE,FALSE,"S239913618"
"501","lobcur","Long-billed Curlew","Numenius americanus","L45395123","The Elkhorn Slough National Estuarine Research Reserve, Royal Oaks US-CA 36.81684, -121.73032","2025-05-18 10:22",2,36.816838,-121.730315,TRUE,FALSE,TRUE,"S239891255"
"502","lobcur","Long-billed Curlew","Numenius americanus","L15112490","Crazy D Ranch (restricted access) - prairies near Turtle Pond","2025-05-18 10:10",3,46.0600983,-109.8173078,TRUE,FALSE,TRUE,"S240599924"
"503","lobcur","Long-billed Curlew","Numenius americanus","L33775772","Warner Wetlands Loop, Plush US-OR 42.47677, -119.84277","2025-05-18 10:09",1,42.476771,-119.842765,TRUE,FALSE,TRUE,"S239861711"
"504","lobcur","Long-billed Curlew","Numenius americanus","L554855","Spiral Jetty","2025-05-18 10:06",1,41.4380294,-112.6685715,TRUE,FALSE,FALSE,"S239936087"
"505","lobcur","Long-billed Curlew","Numenius americanus","L33775752","97637, Plush US-OR 42.47266, -119.84270","2025-05-18 10:00",1,42.472657,-119.842696,TRUE,FALSE,TRUE,"S239861392"
"506","lobcur","Long-billed Curlew","Numenius americanus","L26544787","Capezzoli Lane","2025-05-18 09:59",1,40.3361049,-120.4055694,TRUE,FALSE,FALSE,"S239809424"
"507","lobcur","Long-billed Curlew","Numenius americanus","L1868073","Opportunity Area","2025-05-18 09:52",1,46.1072476,-112.8309201,TRUE,FALSE,TRUE,"S239817496"
"508","lobcur","Long-billed Curlew","Numenius americanus","L45174845","Warner Wetlands Trail, Plush US-OR 42.45979, -119.83926","2025-05-18 09:48",1,42.459789,-119.839256,TRUE,FALSE,TRUE,"S239860636"
"509","lobcur","Long-billed Curlew","Numenius americanus","L7399960","Richvale WTP","2025-05-18 09:30",1,39.4794337,-121.758846,TRUE,FALSE,FALSE,"S239814728"
"510","lobcur","Long-billed Curlew","Numenius americanus","L502380","Heron's Head Park","2025-05-18 09:27",1,37.7381243,-122.3725462,TRUE,FALSE,FALSE,"S239841980"
"511","lobcur","Long-billed Curlew","Numenius americanus","L33775674","Warner Wetlands Loop, Plush US-OR 42.44509, -119.83322","2025-05-18 09:25",1,42.445089,-119.83322,TRUE,FALSE,TRUE,"S239859664"
"512","lobcur","Long-billed Curlew","Numenius americanus","L2589529","Co. Rd 48 to McGinty Point","2025-05-18 09:14",1,41.733223,-120.376396,TRUE,FALSE,TRUE,"S239955528"
"513","lobcur","Long-billed Curlew","Numenius americanus","L301642","Eureka Waterfront--Del Norte Pier","2025-05-18 09:07",1,40.7907363,-124.1876893,TRUE,FALSE,FALSE,"S239783947"
"514","lobcur","Long-billed Curlew","Numenius americanus","L16871073","Coal Oil Point Reserve (if possible, use more specific hotspot)","2025-05-18 09:05",30,34.4151882,-119.8799569,TRUE,FALSE,FALSE,"S239904382"
"515","lobcur","Long-billed Curlew","Numenius americanus","L241666","Cape Disappointment SP","2025-05-18 09:05",1,46.2828429,-124.0696335,TRUE,FALSE,FALSE,"S239885556"
"516","lobcur","Long-billed Curlew","Numenius americanus","L131720","Union Reservoir","2025-05-18 09:04",2,40.1818008,-105.0372009,TRUE,FALSE,FALSE,"S239767918"
"517","lobcur","Long-billed Curlew","Numenius americanus","L518679","Rooney Pk (FWTX 49), Fort Stockton","2025-05-18 08:58",1,30.8843637,-102.8740025,TRUE,FALSE,FALSE,"S240033740"
"518","lobcur","Long-billed Curlew","Numenius americanus","L45729204","44676 Montana 200, Greenough, Montana, US (47.003, -113.371)","2025-05-18 08:50",1,47.0033199,-113.3711476,TRUE,FALSE,TRUE,"S241556992"
"519","lobcur","Long-billed Curlew","Numenius americanus","L32387585","60082 35","2025-05-18 08:43",2,31.814115,-107.8334459,TRUE,FALSE,TRUE,"S239922808"
"520","lobcur","Long-billed Curlew","Numenius americanus","L338760","Highline Lake SP","2025-05-18 08:38",1,39.2741769,-108.8396124,TRUE,FALSE,FALSE,"S240676186"
"521","lobcur","Long-billed Curlew","Numenius americanus","L32386829","60082 34","2025-05-18 08:33",4,31.812286,-107.824676,TRUE,FALSE,TRUE,"S239922635"
"522","lobcur","Long-billed Curlew","Numenius americanus","L1405322","Antelope Island SP--White Rock Bay & Corrals","2025-05-18 08:28",1,41.0276519,-112.2504556,TRUE,FALSE,FALSE,"S239879877"
"523","lobcur","Long-billed Curlew","Numenius americanus","L509134","Elsie Roemer Bird Sanctuary","2025-05-18 08:19",1,37.7525975,-122.2473836,TRUE,FALSE,FALSE,"S239773001"
"524","lobcur","Long-billed Curlew","Numenius americanus","L271476","Pigeon Pt.","2025-05-18 07:58",2,37.182,-122.394,TRUE,FALSE,FALSE,"S239889570"
"525","lobcur","Long-billed Curlew","Numenius americanus","L15112224","Crazy D Ranch - north pastures Dead Beaver Creek area","2025-05-18 07:55",4,46.0527844,-109.8043899,TRUE,FALSE,TRUE,"S240598657"
"526","lobcur","Long-billed Curlew","Numenius americanus","L43930192","Warner Wetlands Trail, Plush US-OR 42.44771, -119.82354","2025-05-18 07:54",2,42.447708,-119.823537,TRUE,FALSE,TRUE,"S239858527"
"527","lobcur","Long-billed Curlew","Numenius americanus","L3322724","Cameron Co.--TX100--Aplomado Viewing Area","2025-05-18 07:50",11,26.0913939,-97.3272438,TRUE,FALSE,FALSE,"S239659108"
"528","lobcur","Long-billed Curlew","Numenius americanus","L15090450","Crazy D Ranch - Upper Glaston Lake loop","2025-05-18 07:45",3,46.0358184,-109.8193062,TRUE,FALSE,TRUE,"S239877754"
"529","lobcur","Long-billed Curlew","Numenius americanus","L45421486","58643, Marmarth US-ND 46.18541, -103.99186","2025-05-18 07:43",5,46.185408,-103.99186,TRUE,FALSE,TRUE,"S240026235"
"530","lobcur","Long-billed Curlew","Numenius americanus","L45357506","Centennial Park Rd, Salome US-AZ 33.81987, -113.55798","2025-05-18 07:37",1,33.819869,-113.557979,TRUE,TRUE,TRUE,"S239720910"
"531","lobcur","Long-billed Curlew","Numenius americanus","L2023918","Mustang Island SP--Corpus Christi Bay side","2025-05-18 07:19",2,27.6920404,-97.1850586,TRUE,FALSE,FALSE,"S239661597"
"532","lobcur","Long-billed Curlew","Numenius americanus","L32389270","60082 18","2025-05-18 07:14",3,31.807851,-107.693731,TRUE,FALSE,TRUE,"S239917765"
"533","lobcur","Long-billed Curlew","Numenius americanus","L45340636","100–170 McKinley St, Lewistown US-MT (47.0576,-109.4398)","2025-05-18 06:24",2,47.057555,-109.439809,TRUE,FALSE,TRUE,"S239630387"
"534","lobcur","Long-billed Curlew","Numenius americanus","L1899682","Rangeland Rd.","2025-05-18 06:19",1,33.0471626,-116.9361269,TRUE,FALSE,FALSE,"S239930330"
"535","lobcur","Long-billed Curlew","Numenius americanus","L45310290","Colorado 14, Walden, Colorado, US (40.611, -106.407)","2025-05-17 19:18",1,40.6110319,-106.4066992,TRUE,FALSE,TRUE,"S239481086"
"536","lobcur","Long-billed Curlew","Numenius americanus","L257970","Tokeland","2025-05-17 19:13",1,46.70642,-123.97198,TRUE,FALSE,FALSE,"S239491023"
"537","lobcur","Long-billed Curlew","Numenius americanus","L2074515","Bolivar Flats Shorebird Survey Start","2025-05-17 18:40",1,29.3794826,-94.7245502,TRUE,FALSE,FALSE,"S239467248"
"538","lobcur","Long-billed Curlew","Numenius americanus","L2363587","Oregon Drain","2025-05-17 18:35",1,42.0243057,-121.8256073,TRUE,FALSE,FALSE,"S240396338"
"539","lobcur","Long-billed Curlew","Numenius americanus","L45306488","Blue Star Memorial Highway, Valentine, Nebraska, US (42.602, -100.538)","2025-05-17 18:13",1,42.6019762,-100.5377688,TRUE,FALSE,TRUE,"S239461861"
"540","lobcur","Long-billed Curlew","Numenius americanus","L5004261","Sunset SB--Palm Beach Unit","2025-05-17 17:45",6,36.8678033,-121.8201697,TRUE,FALSE,FALSE,"S241648354"
"541","lobcur","Long-billed Curlew","Numenius americanus","L45304562","1700 W Glovers Ln, Farmington US-UT 40.96534, -111.92187","2025-05-17 16:54",2,40.965341,-111.921873,TRUE,FALSE,TRUE,"S239451126"
"542","lobcur","Long-billed Curlew","Numenius americanus","L45307673","Center Patrol Rd, Princeton US-OR 42.86963, -118.88851","2025-05-17 16:46",1,42.86963,-118.888514,TRUE,FALSE,TRUE,"S239468225"
"543","lobcur","Long-billed Curlew","Numenius americanus","L45424586","S Shawmut Rd, Shawmut US-MT 46.31431, -109.52803","2025-05-17 16:38",3,46.3260773,-109.5279182,TRUE,FALSE,TRUE,"S239488865"
"544","lobcur","Long-billed Curlew","Numenius americanus","L45311938","S Shawmut Rd, Shawmut US-MT 46.31431, -109.52803","2025-05-17 16:38",3,46.314306,-109.528032,TRUE,FALSE,TRUE,"S239995414"
"545","lobcur","Long-billed Curlew","Numenius americanus","L36551886","State Land Sheridan US-WY 44.82746, -107.10685","2025-05-17 16:26",1,44.827463,-107.106845,TRUE,FALSE,TRUE,"S239440368"
"546","lobcur","Long-billed Curlew","Numenius americanus","L45309129","Lawen Lane, Silvies Crossing","2025-05-17 16:19",2,43.3825988,-118.8351997,TRUE,FALSE,TRUE,"S239475576"
"547","lobcur","Long-billed Curlew","Numenius americanus","L45413311","Medicine Lodge Rd, Dubois US-ID 44.27531, -112.38457","2025-05-17 16:18",2,44.275315,-112.384571,TRUE,FALSE,TRUE,"S239979947"
"548","lobcur","Long-billed Curlew","Numenius americanus","L7936867","Bear River Migratory Bird Refuge, Corinne US-UT (41.4795,-112.2672)","2025-05-17 16:08",4,41.479471,-112.267162,TRUE,FALSE,TRUE,"S239474687"
