"","speciesCode","comName","sciName","locId","locName","obsDt","howMany","lat","lng","obsValid","obsReviewed","locationPrivate","subId"
"1","gofwoo","Golden-fronted Woodpecker","Melanerpes aurifrons","L1867254","My house in Brackettville","2025-05-31 18:37",2,29.3195277,-100.4116973,TRUE,FALSE,TRUE,"S245228550"
"2","gofwoo","Golden-fronted Woodpecker","Melanerpes aurifrons","L29124624","BS Home Hgn US-TX (26.1483,-97.7852)","2025-05-31 17:29",2,26.148288,-97.785234,TRUE,FALSE,TRUE,"S245212321"
"3","gofwoo","Golden-fronted Woodpecker","Melanerpes aurifrons","L46509127","23942 N US Highway 83, Concan US-TX 29.51291, -99.71866","2025-05-31 16:37",1,29.512913,-99.718662,TRUE,FALSE,TRUE,"S245202468"
"4","gofwoo","Golden-fronted Woodpecker","Melanerpes aurifrons","L46506594","Palo Verde","2025-05-31 16:11",1,25.942669,-97.48712,TRUE,FALSE,TRUE,"S245191708"
"5","gofwoo","Golden-fronted Woodpecker","Melanerpes aurifrons","L470609","Sea Bee Park, Abilene","2025-05-31 15:57",1,32.5384381,-99.7138882,TRUE,FALSE,FALSE,"S245197612"
"6","gofwoo","Golden-fronted Woodpecker","Melanerpes aurifrons","L4899787","Menger Springs Home - Boerne","2025-05-31 15:46",1,29.7582676,-98.7307137,TRUE,FALSE,TRUE,"S245198187"
"7","gofwoo","Golden-fronted Woodpecker","Melanerpes aurifrons","L9845309","1102 Harbor Village Drive, Corpus Christi, Texas, US (27.691, -97.321)","2025-05-31 14:41",1,27.6905893,-97.3206588,TRUE,FALSE,TRUE,"S245165461"
"8","gofwoo","Golden-fronted Woodpecker","Melanerpes aurifrons","L454308","Rose Hill Cemetery, Corpus Christi","2025-05-31 14:15",1,27.7908875,-97.4213639,TRUE,FALSE,FALSE,"S245140763"
"9","gofwoo","Golden-fronted Woodpecker","Melanerpes aurifrons","L11910717","San Angelo Nature Trail","2025-05-31 14:10",1,31.3769242,-100.5332816,TRUE,FALSE,FALSE,"S245157080"
"10","gofwoo","Golden-fronted Woodpecker","Melanerpes aurifrons","L1174771","Bentsen-Rio Grande Val. SP--HQ Buildings area","2025-05-31 13:40",1,26.1856055,-98.3799398,TRUE,FALSE,FALSE,"S245174758"
"11","gofwoo","Golden-fronted Woodpecker","Melanerpes aurifrons","L46502532","1008–1022 SH-16, Realitos US-TX 27.44021, -98.67111","2025-05-31 12:36",1,27.440213,-98.671105,TRUE,FALSE,TRUE,"S245175165"
"12","gofwoo","Golden-fronted Woodpecker","Melanerpes aurifrons","L10770230","City of Uvalde Cemetery","2025-05-31 12:17",2,29.1994866,-99.8119926,TRUE,FALSE,FALSE,"S245198849"
"13","gofwoo","Golden-fronted Woodpecker","Melanerpes aurifrons","L24116374","Mom house","2025-05-31 11:45",2,29.4996433,-98.5052338,TRUE,FALSE,TRUE,"S245122449"
"14","gofwoo","Golden-fronted Woodpecker","Melanerpes aurifrons","L551288","Uvalde County, TX--Memorial  Park Leona River","2025-05-31 11:36",2,29.2096758,-99.7784972,TRUE,FALSE,TRUE,"S245097836"
"15","gofwoo","Golden-fronted Woodpecker","Melanerpes aurifrons","L2141842","Woodlands Park & River Place Trail","2025-05-31 11:26",1,30.3559202,-97.8639632,TRUE,FALSE,FALSE,"S245079408"
"16","gofwoo","Golden-fronted Woodpecker","Melanerpes aurifrons","L749212","Caprock Canyons SP--Lake Theo","2025-05-31 11:05",3,34.4172036,-101.0668695,TRUE,FALSE,FALSE,"S245079968"
"17","gofwoo","Golden-fronted Woodpecker","Melanerpes aurifrons","L27573464","Power pole","2025-05-31 11:05",2,29.527349,-98.624096,TRUE,FALSE,TRUE,"S245049671"
"18","gofwoo","Golden-fronted Woodpecker","Melanerpes aurifrons","L209876","Frontera Audubon Center (LTC 058)","2025-05-31 10:57",11,26.1479755,-97.9897937,TRUE,FALSE,FALSE,"S245072678"
"19","gofwoo","Golden-fronted Woodpecker","Melanerpes aurifrons","L46470414","Calhoun-Matson Road, Port Lavaca, Texas, US (28.583, -96.708)","2025-05-31 10:50",1,28.5833975,-96.7076961,TRUE,FALSE,TRUE,"S245042387"
"20","gofwoo","Golden-fronted Woodpecker","Melanerpes aurifrons","L813887","Yorktown  Slickfield Rd","2025-05-31 10:49",4,28.9097983,-97.5023746,TRUE,FALSE,TRUE,"S245051485"
"21","gofwoo","Golden-fronted Woodpecker","Melanerpes aurifrons","L1452501","Caprock Canyons SP--Dry Creek Lake","2025-05-31 10:28",2,34.4147214,-101.073959,TRUE,FALSE,FALSE,"S245047065"
"22","gofwoo","Golden-fronted Woodpecker","Melanerpes aurifrons","L2698038","Yorktown--Coleto Creek Hiking Trail","2025-05-31 10:23",1,28.9785349,-97.5053437,TRUE,FALSE,FALSE,"S245032739"
"23","gofwoo","Golden-fronted Woodpecker","Melanerpes aurifrons","L2087235","Rio Hondo Cemetery area","2025-05-31 09:56",2,26.2261408,-97.5854588,TRUE,FALSE,FALSE,"S245024320"
"24","gofwoo","Golden-fronted Woodpecker","Melanerpes aurifrons","L8854779","347 Shoals Pkwy, Burnet US-TX (30.7202,-98.3916)","2025-05-31 09:45",1,30.720191,-98.39162,TRUE,FALSE,TRUE,"S245040881"
"25","gofwoo","Golden-fronted Woodpecker","Melanerpes aurifrons","L213585","Warbler Woods Bird Sanctuary","2025-05-31 09:28",1,29.609375,-98.2426827,TRUE,FALSE,FALSE,"S245041053"
"26","gofwoo","Golden-fronted Woodpecker","Melanerpes aurifrons","L1137016","Barnhart Q5 Ranch & Nature Retreat","2025-05-31 09:23",1,28.6152678,-97.6663971,TRUE,FALSE,FALSE,"S244997156"
"27","gofwoo","Golden-fronted Woodpecker","Melanerpes aurifrons","L264959","Dick Kleberg Pk (CTC 088)","2025-05-31 09:21",3,27.4725299,-97.8609684,TRUE,FALSE,FALSE,"S245071418"
"28","gofwoo","Golden-fronted Woodpecker","Melanerpes aurifrons","L9000957","Nueces River Road, creek crossing in woods","2025-05-31 09:07",6,29.4843466,-100.2297275,TRUE,FALSE,TRUE,"S245099740"
"29","gofwoo","Golden-fronted Woodpecker","Melanerpes aurifrons","L21529885","Blue Bunting Lodge","2025-05-31 09:03",2,26.140993,-97.883783,TRUE,FALSE,TRUE,"S245038582"
"30","gofwoo","Golden-fronted Woodpecker","Melanerpes aurifrons","L454404","San Angelo SP--South Unit (HOTW 109)","2025-05-31 09:00",3,31.4677918,-100.5033213,TRUE,FALSE,FALSE,"S245060650"
"31","gofwoo","Golden-fronted Woodpecker","Melanerpes aurifrons","L129003","Kerrville-Schreiner Park (HOTW 076)","2025-05-31 08:59",1,30.0108322,-99.1204762,TRUE,FALSE,FALSE,"S245029644"
"32","gofwoo","Golden-fronted Woodpecker","Melanerpes aurifrons","L3258653","San Benito--Vasquez fields CR504 at CR307","2025-05-31 08:45",2,26.1470842,-97.5426271,TRUE,FALSE,FALSE,"S245109252"
"33","gofwoo","Golden-fronted Woodpecker","Melanerpes aurifrons","L8533190","888 Trails End Road, Johnson City, Texas, US (30.328, -98.44)","2025-05-31 08:44",2,30.3278726,-98.4400718,TRUE,FALSE,TRUE,"S244982659"
"34","gofwoo","Golden-fronted Woodpecker","Melanerpes aurifrons","L163665","San Antonio Botanical Garden (HOTE 096)","2025-05-31 08:40",4,29.4574171,-98.4593011,TRUE,FALSE,FALSE,"S245191363"
"35","gofwoo","Golden-fronted Woodpecker","Melanerpes aurifrons","L37146806","McClelland Ranch (Private)","2025-05-31 08:37",1,29.7928248,-99.174295,TRUE,FALSE,TRUE,"S245070844"
"36","gofwoo","Golden-fronted Woodpecker","Melanerpes aurifrons","L1236326","Devil's River--Baker's Crossing","2025-05-31 08:37",2,29.9662647,-101.1494493,TRUE,FALSE,FALSE,"S245112315"
"37","gofwoo","Golden-fronted Woodpecker","Melanerpes aurifrons","L246114","Cibolo Nature Ctr. (HOTE 078)","2025-05-31 08:31",1,29.7812891,-98.7096262,TRUE,FALSE,FALSE,"S245037781"
"38","gofwoo","Golden-fronted Woodpecker","Melanerpes aurifrons","L46487091","19812–19848 SH-163, Del Rio US-TX 29.95387, -101.14465","2025-05-31 08:24",1,29.953869,-101.144645,TRUE,FALSE,TRUE,"S245111501"
"39","gofwoo","Golden-fronted Woodpecker","Melanerpes aurifrons","L2316802","San Benito--Nelson Road resaca","2025-05-31 08:20",2,26.1744336,-97.5661727,TRUE,FALSE,FALSE,"S245102572"
"40","gofwoo","Golden-fronted Woodpecker","Melanerpes aurifrons","L259855","Estero Llano Grande SP WBC (LTC 054)","2025-05-31 08:13",1,26.1268335,-97.9578167,TRUE,FALSE,FALSE,"S245042813"
"41","gofwoo","Golden-fronted Woodpecker","Melanerpes aurifrons","L13126828","682 SH-202, Refugio US-TX 28.37909, -97.36701","2025-05-31 08:12",6,28.379088,-97.367013,TRUE,FALSE,TRUE,"S245005292"
"42","gofwoo","Golden-fronted Woodpecker","Melanerpes aurifrons","L3999804","104 Greenwood Forest Subdivision","2025-05-31 08:08",1,30.0756527,-99.2221072,TRUE,FALSE,TRUE,"S244980065"
"43","gofwoo","Golden-fronted Woodpecker","Melanerpes aurifrons","L18254983","RBMS Trails","2025-05-31 08:03",2,26.442663,-98.9269912,TRUE,FALSE,FALSE,"S245192530"
"44","gofwoo","Golden-fronted Woodpecker","Melanerpes aurifrons","L803232","Muschalek Farms","2025-05-31 08:00",1,29.074897,-97.6535761,TRUE,FALSE,TRUE,"S244972159"
"45","gofwoo","Golden-fronted Woodpecker","Melanerpes aurifrons","L1313964","Bexar Co.--Jungman Road","2025-05-31 07:56",1,29.3523301,-98.789599,TRUE,FALSE,FALSE,"S244966135"
"46","gofwoo","Golden-fronted Woodpecker","Melanerpes aurifrons","L23964939","Town Creek Road between Morris and Schreiner rds.","2025-05-31 07:52",2,30.0677718,-99.1469946,TRUE,FALSE,FALSE,"S245111008"
"47","gofwoo","Golden-fronted Woodpecker","Melanerpes aurifrons","L3466792","my yard","2025-05-31 07:46",1,27.9171921,-97.1575643,TRUE,FALSE,TRUE,"S244942204"
"48","gofwoo","Golden-fronted Woodpecker","Melanerpes aurifrons","L46448664","Home Huisache","2025-05-31 07:44",3,29.455552,-98.486091,TRUE,FALSE,TRUE,"S244941120"
"49","gofwoo","Golden-fronted Woodpecker","Melanerpes aurifrons","L46447806","4263–4265 SH-163, Del Rio US-TX 29.71055, -101.15603","2025-05-31 07:35",2,29.710548,-101.156027,TRUE,FALSE,TRUE,"S244936537"
"50","gofwoo","Golden-fronted Woodpecker","Melanerpes aurifrons","L5595477","144 world of tennis. lakeway Tx","2025-05-31 07:20",1,30.3527751,-97.9966307,TRUE,FALSE,TRUE,"S245091863"
"51","gofwoo","Golden-fronted Woodpecker","Melanerpes aurifrons","L4061084","Masterson Rd. / Hennersby Rd. area (Bexar Co.)","2025-05-31 07:11",1,29.3534179,-98.7649497,TRUE,FALSE,FALSE,"S244942594"
"52","gofwoo","Golden-fronted Woodpecker","Melanerpes aurifrons","L507911","King Ranch--Norias Division (Kenedy Co.)","2025-05-31 07:01",6,26.7876524,-97.7707243,TRUE,FALSE,FALSE,"S245093982"
"53","gofwoo","Golden-fronted Woodpecker","Melanerpes aurifrons","L46415348","5840 Wayside Dr (Fischer, Texas)","2025-05-31 06:59",1,29.968139,-98.198267,TRUE,FALSE,TRUE,"S244986755"
"54","gofwoo","Golden-fronted Woodpecker","Melanerpes aurifrons","L46324071","Frio River Cabins","2025-05-31 06:49",1,29.624202,-99.749265,TRUE,FALSE,TRUE,"S244920145"
"55","gofwoo","Golden-fronted Woodpecker","Melanerpes aurifrons","L16473436","Alamo Country Club","2025-05-31 06:26",2,26.196384,-98.104694,TRUE,FALSE,TRUE,"S244915392"
"56","gofwoo","Golden-fronted Woodpecker","Melanerpes aurifrons","L129086","Santa Margarita Ranch (LTC 079) (restricted access - guided groups only)","2025-05-31 04:44",5,26.4856177,-99.0912337,TRUE,FALSE,FALSE,"S245142535"
"57","gofwoo","Golden-fronted Woodpecker","Melanerpes aurifrons","L16430041","Comanche Springs Astronomy Campus","2025-05-30 20:36",1,33.9900816,-99.9555901,TRUE,FALSE,FALSE,"S244805362"
"58","gofwoo","Golden-fronted Woodpecker","Melanerpes aurifrons","L128890","Bentsen-Rio Grande Val. SP WBC (Mission) (LTC 069)","2025-05-30 20:01",3,26.1849709,-98.3793885,TRUE,FALSE,FALSE,"S244785436"
"59","gofwoo","Golden-fronted Woodpecker","Melanerpes aurifrons","L4413671","Goliad Co.--Clip Road","2025-05-30 19:29",8,28.5814937,-97.4803948,TRUE,FALSE,FALSE,"S244784540"
"60","gofwoo","Golden-fronted Woodpecker","Melanerpes aurifrons","L46411360","1175–1177 RM-189, Del Rio US-TX 30.17607, -101.09241","2025-05-30 19:20",1,30.176066,-101.092414,TRUE,FALSE,TRUE,"S244765668"
"61","gofwoo","Golden-fronted Woodpecker","Melanerpes aurifrons","L5430069","Crosby Co.--FM2591 Camp Rio Blanco / White R. crossing","2025-05-30 19:14",1,33.678972,-101.1704063,TRUE,FALSE,FALSE,"S244767826"
"62","gofwoo","Golden-fronted Woodpecker","Melanerpes aurifrons","L249423","Castroville Regional Pk (HOTE 113)","2025-05-30 19:06",1,29.3424773,-98.8826299,TRUE,FALSE,FALSE,"S244774501"
"63","gofwoo","Golden-fronted Woodpecker","Melanerpes aurifrons","L46410444","Bee-Linney Lane, Beeville, Texas, US (28.446, -97.763)","2025-05-30 19:03",1,28.4455344,-97.7626652,TRUE,FALSE,TRUE,"S244761162"
"64","gofwoo","Golden-fronted Woodpecker","Melanerpes aurifrons","L46067633","24250 Spur Trail, Spicewood US-TX 30.39368, -98.09424","2025-05-30 18:57",1,30.393676,-98.094239,TRUE,FALSE,TRUE,"S244771202"
"65","gofwoo","Golden-fronted Woodpecker","Melanerpes aurifrons","L2745845","Veterans Park, Beeville","2025-05-30 18:30",6,28.4028736,-97.7689033,TRUE,FALSE,FALSE,"S244756610"
"66","gofwoo","Golden-fronted Woodpecker","Melanerpes aurifrons","L46380177","Back Country Rd, Junction US-TX 30.69921, -99.94064","2025-05-30 18:21",2,30.699212,-99.940645,TRUE,FALSE,TRUE,"S244794170"
"67","gofwoo","Golden-fronted Woodpecker","Melanerpes aurifrons","L46407391","Bee-Highway 202, Beeville, Texas, US (28.39, -97.509)","2025-05-30 18:05",1,28.3898038,-97.5094163,TRUE,FALSE,TRUE,"S244746011"
"68","gofwoo","Golden-fronted Woodpecker","Melanerpes aurifrons","L41313551","Pharr","2025-05-30 18:00",4,26.1835548,-98.1820893,TRUE,FALSE,TRUE,"S244793479"
"69","gofwoo","Golden-fronted Woodpecker","Melanerpes aurifrons","L46406439","Bee-County Road 424, Beeville, Texas, US (28.386, -97.399)","2025-05-30 17:48",1,28.3864842,-97.3994572,TRUE,FALSE,TRUE,"S244741713"
"70","gofwoo","Golden-fronted Woodpecker","Melanerpes aurifrons","L46417259","Alamo","2025-05-30 17:43",1,26.1693005,-98.1038582,TRUE,FALSE,TRUE,"S244793228"
"71","gofwoo","Golden-fronted Woodpecker","Melanerpes aurifrons","L2182884","Kinney Co.--FM3199/Tularosa Rd.","2025-05-30 17:23",1,29.4754701,-100.2358246,TRUE,FALSE,FALSE,"S244759487"
"72","gofwoo","Golden-fronted Woodpecker","Melanerpes aurifrons","L20693250","45 Central Park Drive","2025-05-30 17:03",2,25.91531,-97.497779,TRUE,FALSE,TRUE,"S244743060"
"73","gofwoo","Golden-fronted Woodpecker","Melanerpes aurifrons","L20181504","Huebner Creek Greenway","2025-05-30 16:58",1,29.482345,-98.622465,TRUE,FALSE,FALSE,"S244732219"
"74","gofwoo","Golden-fronted Woodpecker","Melanerpes aurifrons","L46403060","Refugio-Farm to Market 2678, Refugio, Texas, US (28.246, -97.252)","2025-05-30 16:56",1,28.2459417,-97.2521269,TRUE,FALSE,TRUE,"S244725576"
"75","gofwoo","Golden-fronted Woodpecker","Melanerpes aurifrons","L8943871","Camp Comal","2025-05-30 16:04",1,29.6926011,-98.0977821,TRUE,FALSE,FALSE,"S244716148"
"76","gofwoo","Golden-fronted Woodpecker","Melanerpes aurifrons","L46398501","3709–3791 RM-189, Del Rio US-TX 30.18185, -101.01356","2025-05-30 15:13",2,30.181846,-101.01356,TRUE,FALSE,TRUE,"S244704102"
"77","gofwoo","Golden-fronted Woodpecker","Melanerpes aurifrons","L128907","Big Bend NP--Rio Grande Village (FWTX 44)","2025-05-30 15:09",1,29.1809226,-102.9557133,TRUE,FALSE,FALSE,"S244724034"
"78","gofwoo","Golden-fronted Woodpecker","Melanerpes aurifrons","L261960","White River Lake (PHP 023)","2025-05-30 14:42",4,33.4737991,-101.086116,TRUE,FALSE,FALSE,"S244739915"
"79","gofwoo","Golden-fronted Woodpecker","Melanerpes aurifrons","L46209804","Unnamed Road, Texas, US (29.112, -99.765)","2025-05-30 13:57",NA,29.1117313,-99.7647859,TRUE,FALSE,TRUE,"S244665047"
"80","gofwoo","Golden-fronted Woodpecker","Melanerpes aurifrons","L46411630","16343–16841 US-277, Sonora US-TX 30.36094, -100.66866","2025-05-30 13:49",1,30.360939,-100.668665,TRUE,FALSE,TRUE,"S244767341"
"81","gofwoo","Golden-fronted Woodpecker","Melanerpes aurifrons","L298417","Fennessey Ranch (CTC 041)","2025-05-30 13:40",3,28.2284325,-97.2509817,TRUE,FALSE,FALSE,"S244683981"
"82","gofwoo","Golden-fronted Woodpecker","Melanerpes aurifrons","L128897","Big Bend NP--Cottonwood Campground (FWTX 40)","2025-05-30 13:04",2,29.1366997,-103.5220032,TRUE,FALSE,FALSE,"S244960163"
"83","gofwoo","Golden-fronted Woodpecker","Melanerpes aurifrons","L128969","Fort Peña Colorado Pk (The Post)(FWTX 28)","2025-05-30 12:26",1,30.152997,-103.2874735,TRUE,FALSE,FALSE,"S244645316"
"84","gofwoo","Golden-fronted Woodpecker","Melanerpes aurifrons","L10535082","500–512 Del Rio Rd, Rocksprings US-TX (30.0156,-100.2140)","2025-05-30 12:25",1,30.015644,-100.214047,TRUE,FALSE,TRUE,"S244651002"
"85","gofwoo","Golden-fronted Woodpecker","Melanerpes aurifrons","L8400277","Harper Park, Water Valley","2025-05-30 12:17",2,31.6600481,-100.7402301,TRUE,FALSE,FALSE,"S244654239"
"86","gofwoo","Golden-fronted Woodpecker","Melanerpes aurifrons","L20853456","Credit Lake Park","2025-05-30 12:11",1,33.2497243,-100.5745339,TRUE,FALSE,FALSE,"S244637055"
"87","gofwoo","Golden-fronted Woodpecker","Melanerpes aurifrons","L33789472","9102 San Diego Rd, Austin US-TX 30.22216, -97.91100","2025-05-30 12:11",2,30.222156,-97.910999,TRUE,FALSE,TRUE,"S244642208"
"88","gofwoo","Golden-fronted Woodpecker","Melanerpes aurifrons","L17549865","Estero Llano Grande State Park, Weslaco US-TX 26.12638, -97.95723","2025-05-30 12:10",1,26.126385,-97.95723,TRUE,FALSE,TRUE,"S244717753"
"89","gofwoo","Golden-fronted Woodpecker","Melanerpes aurifrons","L46404157","Garner SP-feeding station","2025-05-30 12:05",2,29.5907119,-99.7434882,TRUE,FALSE,TRUE,"S244714938"
"90","gofwoo","Golden-fronted Woodpecker","Melanerpes aurifrons","L249887","Quinta Mazatlan WBC (LTC 063)","2025-05-30 11:36",6,26.176876,-98.2309932,TRUE,FALSE,FALSE,"S244681671"
"91","gofwoo","Golden-fronted Woodpecker","Melanerpes aurifrons","L46404322","Garner SP-dam and southern campground area","2025-05-30 11:05",3,29.5815005,-99.7304964,TRUE,FALSE,TRUE,"S244713278"
"92","gofwoo","Golden-fronted Woodpecker","Melanerpes aurifrons","L12604972","Jayton Park","2025-05-30 10:29",3,33.2452559,-100.6176209,TRUE,FALSE,FALSE,"S244615114"
"93","gofwoo","Golden-fronted Woodpecker","Melanerpes aurifrons","L19316714","Buckhollow","2025-05-30 10:27",2,29.635742,-99.859184,TRUE,FALSE,TRUE,"S244638373"
"94","gofwoo","Golden-fronted Woodpecker","Melanerpes aurifrons","L276835","LRGV NWR--La Sal del Rey (LTC 005)","2025-05-30 10:08",1,26.5305713,-98.0540943,TRUE,FALSE,FALSE,"S244805960"
"95","gofwoo","Golden-fronted Woodpecker","Melanerpes aurifrons","L22727308","Mac Wylie Golf Center","2025-05-30 09:55",1,29.5357086,-98.6302699,TRUE,FALSE,FALSE,"S244592921"
"96","gofwoo","Golden-fronted Woodpecker","Melanerpes aurifrons","L46377205","446 County Road 2310 East, Riviera, Texas, US (27.303, -97.802)","2025-05-30 09:53",1,27.3030383,-97.8019082,TRUE,FALSE,TRUE,"S244617518"
"97","gofwoo","Golden-fronted Woodpecker","Melanerpes aurifrons","L497138","LRGV NWR--Cannon Road (LTC-050)","2025-05-30 09:41",8,26.0757882,-97.7853584,TRUE,FALSE,FALSE,"S244603539"
"98","gofwoo","Golden-fronted Woodpecker","Melanerpes aurifrons","L46368180","US-380, Girard US-TX 33.16597, -100.75208","2025-05-30 09:35",2,33.165972,-100.752076,TRUE,FALSE,TRUE,"S244577050"
"99","gofwoo","Golden-fronted Woodpecker","Melanerpes aurifrons","L46364038","SH-163, Ozona US-TX 29.81393, -101.14935","2025-05-30 09:22",1,29.81393,-101.149355,TRUE,FALSE,TRUE,"S244558529"
"100","gofwoo","Golden-fronted Woodpecker","Melanerpes aurifrons","L11981651","1226 FM-126, Merkel US-TX 32.48157, -100.01125","2025-05-30 09:17",1,32.481566,-100.011247,TRUE,FALSE,TRUE,"S244567997"
"101","gofwoo","Golden-fronted Woodpecker","Melanerpes aurifrons","L710729","Welder Wildlife Foundation","2025-05-30 09:11",2,28.1129816,-97.4164058,TRUE,FALSE,FALSE,"S244553276"
"102","gofwoo","Golden-fronted Woodpecker","Melanerpes aurifrons","L776165","Uvalde Memorial Park","2025-05-30 09:10",1,29.2104062,-99.7794843,TRUE,FALSE,FALSE,"S244709974"
"103","gofwoo","Golden-fronted Woodpecker","Melanerpes aurifrons","L7419780","Welder Wildlife Foundation--Hackberry Mott (restricted access)","2025-05-30 08:59",2,28.1158865,-97.4074674,TRUE,FALSE,FALSE,"S244621017"
"104","gofwoo","Golden-fronted Woodpecker","Melanerpes aurifrons","L7389622","Welder Wildlife Foundation--HQ (restricted access)","2025-05-30 08:59",1,28.112236,-97.417349,TRUE,FALSE,FALSE,"S244785931"
"105","gofwoo","Golden-fronted Woodpecker","Melanerpes aurifrons","L5633651","Kerr--Friedrich Crossing on Hwy 1340","2025-05-30 08:56",3,30.0605143,-99.4129872,TRUE,FALSE,TRUE,"S244803143"
"106","gofwoo","Golden-fronted Woodpecker","Melanerpes aurifrons","L2373734","Cibolo Nature Ctr.--Herff Farm","2025-05-30 08:53",1,29.7799761,-98.7134135,TRUE,FALSE,FALSE,"S244784228"
"107","gofwoo","Golden-fronted Woodpecker","Melanerpes aurifrons","L284174","Choke Canyon SP--Calliham Unit (McMullen Co.)(CTC 082)","2025-05-30 08:50",1,28.4717282,-98.3394384,TRUE,FALSE,FALSE,"S244663967"
"108","gofwoo","Golden-fronted Woodpecker","Melanerpes aurifrons","L723082","Laguna Atascosa NWR--Buena Vista Blvd. (within refuge)","2025-05-30 08:36",1,26.2112414,-97.3515916,TRUE,FALSE,FALSE,"S244553332"
"109","gofwoo","Golden-fronted Woodpecker","Melanerpes aurifrons","L458089","Twin Buttes Reservoir","2025-05-30 08:28",2,31.3774555,-100.5366611,TRUE,FALSE,FALSE,"S244628729"
"110","gofwoo","Golden-fronted Woodpecker","Melanerpes aurifrons","L1149810","Whitney Lake Marsh Park","2025-05-30 08:22",1,27.8848228,-97.1914852,TRUE,FALSE,FALSE,"S244554670"
"111","gofwoo","Golden-fronted Woodpecker","Melanerpes aurifrons","L41202525","CC: San Benito- Magarito Gonzalez Rd","2025-05-30 08:20",6,26.1887452,-97.5763946,TRUE,FALSE,TRUE,"S244580555"
"112","gofwoo","Golden-fronted Woodpecker","Melanerpes aurifrons","L15840927","Stage Coach Stop","2025-05-30 08:08",2,30.212078,-97.824279,TRUE,FALSE,TRUE,"S244581964"
"113","gofwoo","Golden-fronted Woodpecker","Melanerpes aurifrons","L4241205","Griffin - Snider Yard Harlingen TX","2025-05-30 07:56",2,26.220541,-97.693782,TRUE,FALSE,TRUE,"S244540831"
"114","gofwoo","Golden-fronted Woodpecker","Melanerpes aurifrons","L15655545","Kent Co.—CR311","2025-05-30 07:45",1,33.162888,-100.901692,TRUE,FALSE,FALSE,"S244534004"
"115","gofwoo","Golden-fronted Woodpecker","Melanerpes aurifrons","L6812261","TX-Burnet: Private Residence, Oak Ridge Dr, Marble Falls US-TX (30.5940,-98.2562)","2025-05-30 07:38",1,30.5938093,-98.2561295,TRUE,FALSE,TRUE,"S244549483"
"116","gofwoo","Golden-fronted Woodpecker","Melanerpes aurifrons","L46359832","Twin Buttes Marina Park Rd, San Angelo US-TX 31.37702, -100.55587","2025-05-30 07:32",2,31.377024,-100.555871,TRUE,FALSE,TRUE,"S244537893"
"117","gofwoo","Golden-fronted Woodpecker","Melanerpes aurifrons","L2979766","Oso Bay Wetlands Preserve","2025-05-30 07:30",1,27.6680951,-97.3299247,TRUE,FALSE,FALSE,"S244538015"
"118","gofwoo","Golden-fronted Woodpecker","Melanerpes aurifrons","L305948","Milton Reimers Ranch Park","2025-05-30 07:28",1,30.3641504,-98.1237811,TRUE,FALSE,FALSE,"S244605835"
"119","gofwoo","Golden-fronted Woodpecker","Melanerpes aurifrons","L37198987","10936 W Cave Blvd, Dripping Springs US-TX 30.27520, -98.06111","2025-05-30 07:25",1,30.275201,-98.061106,TRUE,FALSE,TRUE,"S244534285"
"120","gofwoo","Golden-fronted Woodpecker","Melanerpes aurifrons","L46355663","Trant Rd, Kingsville US-TX","2025-05-30 07:24",1,27.483763,-97.864945,TRUE,FALSE,TRUE,"S244516984"
"121","gofwoo","Golden-fronted Woodpecker","Melanerpes aurifrons","L261812","Dickens Springs Park","2025-05-30 07:04",1,33.6246063,-100.825873,TRUE,FALSE,FALSE,"S244541811"
"122","gofwoo","Golden-fronted Woodpecker","Melanerpes aurifrons","L46003949","Americas Best Value Inn,  The Legends Inn, 1908 Main Street, Junction, Texas, US (30.493, -99.778)","2025-05-30 07:01",1,30.4930617,-99.7779133,TRUE,FALSE,TRUE,"S244524303"
"123","gofwoo","Golden-fronted Woodpecker","Melanerpes aurifrons","L18215794","Retama Village RV Resort","2025-05-30 06:56",7,26.1901016,-98.378191,TRUE,FALSE,FALSE,"S244514044"
"124","gofwoo","Golden-fronted Woodpecker","Melanerpes aurifrons","L1282897","Big Bend NP--Rio Grande Village Nature Trail","2025-05-30 06:55",1,29.1782435,-102.9531759,TRUE,FALSE,FALSE,"S244571900"
"125","gofwoo","Golden-fronted Woodpecker","Melanerpes aurifrons","L24856101","SH-163","2025-05-30 06:34",1,29.687546,-101.171775,TRUE,FALSE,TRUE,"S244553342"
"126","gofwoo","Golden-fronted Woodpecker","Melanerpes aurifrons","L2738310","Las Palomas WMA--Arroyo Colorado Unit (restricted access)","2025-05-30 06:33",1,26.3203445,-97.518425,TRUE,FALSE,FALSE,"S244499563"
"127","gofwoo","Golden-fronted Woodpecker","Melanerpes aurifrons","L1154119","Santa Ana NWR--Observation Tower","2025-05-30 06:19",3,26.0773969,-98.1382392,TRUE,FALSE,FALSE,"S244943152"
"128","gofwoo","Golden-fronted Woodpecker","Melanerpes aurifrons","L2017041","2003 n Fulton Beach Road, pier","2025-05-29 19:29",1,28.099227,-97.028836,TRUE,FALSE,TRUE,"S244386306"
"129","gofwoo","Golden-fronted Woodpecker","Melanerpes aurifrons","L38529315","50 Arkansas River Circle, Brownsville, Texas, US (25.96, -97.577)","2025-05-29 19:05",1,25.959616,-97.57677,TRUE,FALSE,TRUE,"S244370688"
"130","gofwoo","Golden-fronted Woodpecker","Melanerpes aurifrons","L43374914","11011 W Cave Blvd, Dripping Springs US-TX (30.2695,-98.0579)","2025-05-29 18:43",1,30.269465,-98.057869,TRUE,FALSE,TRUE,"S244380617"
"131","gofwoo","Golden-fronted Woodpecker","Melanerpes aurifrons","L486383","Commons Ford Ranch Metro Park","2025-05-29 18:21",2,30.3373826,-97.8930759,TRUE,FALSE,FALSE,"S244401804"
"132","gofwoo","Golden-fronted Woodpecker","Melanerpes aurifrons","L29999416","Caprock Canyons SP—Little Red Campground","2025-05-29 17:42",1,34.4421993,-101.0782569,TRUE,FALSE,FALSE,"S245053804"
"133","gofwoo","Golden-fronted Woodpecker","Melanerpes aurifrons","L23844138","Friedrich Crossing, Hunt US-TX 30.06087, -99.41335","2025-05-29 16:55",1,30.060874,-99.413346,TRUE,FALSE,TRUE,"S244347613"
"134","gofwoo","Golden-fronted Woodpecker","Melanerpes aurifrons","L22318820","Quitaque  East Rails to Trails","2025-05-29 16:21",2,34.3732207,-101.058653,TRUE,FALSE,FALSE,"S244326921"
"135","gofwoo","Golden-fronted Woodpecker","Melanerpes aurifrons","L28622779","My Texas Yard","2025-05-29 16:17",2,26.0590479,-97.625791,TRUE,FALSE,TRUE,"S244326761"
"136","gofwoo","Golden-fronted Woodpecker","Melanerpes aurifrons","L4330987","Saw Grass Residence","2025-05-29 16:00",1,29.8099097,-98.4016147,TRUE,FALSE,TRUE,"S244361990"
"137","gofwoo","Golden-fronted Woodpecker","Melanerpes aurifrons","L783521","Crescent Bend Nature Park (Bexar Co.)","2025-05-29 15:56",3,29.5502272,-98.2325739,TRUE,FALSE,FALSE,"S244382992"
"138","gofwoo","Golden-fronted Woodpecker","Melanerpes aurifrons","L46315461","CR-365, Uvalde","2025-05-29 15:20",2,29.178161,-99.725389,TRUE,FALSE,TRUE,"S244312145"
"139","gofwoo","Golden-fronted Woodpecker","Melanerpes aurifrons","L46313043","Riverside Nature Center","2025-05-29 14:43",1,30.0501508,-99.1486073,TRUE,FALSE,TRUE,"S244301235"
"140","gofwoo","Golden-fronted Woodpecker","Melanerpes aurifrons","L5430559","Americana The Birding Center RV Resort","2025-05-29 14:30",1,26.2181892,-98.3756924,TRUE,FALSE,FALSE,"S244305663"
"141","gofwoo","Golden-fronted Woodpecker","Melanerpes aurifrons","L10822470","304 North Avenue I Street, Knippa, Texas, US (29.298, -99.637)","2025-05-29 13:27",1,29.2984582,-99.6365492,TRUE,FALSE,TRUE,"S244264678"
"142","gofwoo","Golden-fronted Woodpecker","Melanerpes aurifrons","L46326155","Unnamed Road, Rio Hondo, Texas, US (26.328, -97.39)","2025-05-29 12:59",1,26.3284784,-97.3904478,TRUE,FALSE,TRUE,"S244372083"
"143","gofwoo","Golden-fronted Woodpecker","Melanerpes aurifrons","L29360849","DDD Beavers Knoll","2025-05-29 12:52",2,29.196922,-99.750099,TRUE,FALSE,TRUE,"S244269798"
"144","gofwoo","Golden-fronted Woodpecker","Melanerpes aurifrons","L352740","Kerrville--Riverside Nature Ctr. (HOTW 073)","2025-05-29 11:44",2,30.0500592,-99.1487908,TRUE,FALSE,FALSE,"S244269333"
"145","gofwoo","Golden-fronted Woodpecker","Melanerpes aurifrons","L302786","Hazel Bazemore County Park (CTC 078)","2025-05-29 11:32",2,27.8666445,-97.6416233,TRUE,FALSE,FALSE,"S244232976"
"146","gofwoo","Golden-fronted Woodpecker","Melanerpes aurifrons","L46296794","244 Dos Rios Drive, Junction, Texas, US (30.508, -99.778)","2025-05-29 11:06",1,30.5079946,-99.7784444,TRUE,FALSE,TRUE,"S244226062"
"147","gofwoo","Golden-fronted Woodpecker","Melanerpes aurifrons","L36300897","Kinney County-Nueces River Road","2025-05-29 10:51",3,29.44099,-100.1674915,TRUE,FALSE,TRUE,"S244384641"
"148","gofwoo","Golden-fronted Woodpecker","Melanerpes aurifrons","L24882010","415 Oak Run Pt, New Braunfels US-TX 29.72551, -98.17357","2025-05-29 10:46",3,29.725508,-98.173569,TRUE,FALSE,TRUE,"S244215818"
"149","gofwoo","Golden-fronted Woodpecker","Melanerpes aurifrons","L318918","South Padre Is.--Valley Land Fund lots (LTC 036)","2025-05-29 10:37",1,26.0988053,-97.1678612,TRUE,FALSE,FALSE,"S244201132"
"150","gofwoo","Golden-fronted Woodpecker","Melanerpes aurifrons","L36301249","Kinney County-Ranch Road 334","2025-05-29 10:23",1,29.4417896,-100.1131039,TRUE,FALSE,TRUE,"S244301864"
"151","gofwoo","Golden-fronted Woodpecker","Melanerpes aurifrons","L6790510","481 gato del Sol Avenue, Dripping Springs, Texas, US (30.208, -98.013)","2025-05-29 10:18",1,30.2082266,-98.0128928,TRUE,FALSE,TRUE,"S244192584"
"152","gofwoo","Golden-fronted Woodpecker","Melanerpes aurifrons","L1103791","West Guth Park","2025-05-29 10:14",1,27.8337632,-97.5526285,TRUE,FALSE,FALSE,"S244217002"
"153","gofwoo","Golden-fronted Woodpecker","Melanerpes aurifrons","L443142","Medina R. Crossing--Cagnon/Ponder Rds. (HOTE 115)","2025-05-29 10:04",1,29.3504773,-98.7073205,TRUE,FALSE,FALSE,"S244191978"
"154","gofwoo","Golden-fronted Woodpecker","Melanerpes aurifrons","L1868383","Pedernales Hills Ranch","2025-05-29 10:00",1,30.288588,-98.3334882,TRUE,FALSE,TRUE,"S244225476"
"155","gofwoo","Golden-fronted Woodpecker","Melanerpes aurifrons","L40445245","North GATE","2025-05-29 09:59",2,28.762323,-97.8408855,TRUE,FALSE,TRUE,"S244206667"
"156","gofwoo","Golden-fronted Woodpecker","Melanerpes aurifrons","L1323843","Rockport- Port Bay Road","2025-05-29 09:42",1,28.0221362,-97.127037,TRUE,FALSE,FALSE,"S244188104"
"157","gofwoo","Golden-fronted Woodpecker","Melanerpes aurifrons","L7455324","South Llano River SP--Agarita Bird Blind","2025-05-29 09:36",2,30.4446572,-99.8044295,TRUE,FALSE,FALSE,"S244241405"
"158","gofwoo","Golden-fronted Woodpecker","Melanerpes aurifrons","L713564","San Diego Rd","2025-05-29 09:35",2,28.1220476,-98.5150588,TRUE,FALSE,TRUE,"S244182344"
"159","gofwoo","Golden-fronted Woodpecker","Melanerpes aurifrons","L46286894","River Access at Tarpon Haven","2025-05-29 09:32",1,25.958472,-97.204357,TRUE,FALSE,TRUE,"S244180255"
"160","gofwoo","Golden-fronted Woodpecker","Melanerpes aurifrons","L32529003","418 Grand Prairie Circle, Dripping Springs, Texas, US (30.197, -98.083)","2025-05-29 09:26",1,30.1970809,-98.0830543,TRUE,FALSE,TRUE,"S244172353"
"161","gofwoo","Golden-fronted Woodpecker","Melanerpes aurifrons","L24804385","9251-8347 Farm to Market Road 2676, Rio Medina, Texas, US (29.443, -98.92)","2025-05-29 09:23",1,29.4434192,-98.9203872,TRUE,FALSE,TRUE,"S244171249"
"162","gofwoo","Golden-fronted Woodpecker","Melanerpes aurifrons","L1565939","Founders Memorial Park","2025-05-29 09:14",1,30.1996134,-98.0815557,TRUE,FALSE,FALSE,"S244168092"
"163","gofwoo","Golden-fronted Woodpecker","Melanerpes aurifrons","L22272105","1530 County Road 271, Rio Medina, Texas, US (29.426, -98.908)","2025-05-29 09:08",1,29.4255758,-98.9079666,TRUE,FALSE,TRUE,"S244165609"
"164","gofwoo","Golden-fronted Woodpecker","Melanerpes aurifrons","L46283232","3580–3598 CR-234, Orange Grove US-TX 28.05628, -98.17893","2025-05-29 09:04",4,28.056283,-98.17893,TRUE,FALSE,TRUE,"S244163327"
"165","gofwoo","Golden-fronted Woodpecker","Melanerpes aurifrons","L46284481","Massey Road","2025-05-29 09:04",1,25.954468,-97.251382,TRUE,FALSE,TRUE,"S244169176"
"166","gofwoo","Golden-fronted Woodpecker","Melanerpes aurifrons","L284140","Canyon Lake—Guadalupe River South Trail (HOTE073)","2025-05-29 08:58",1,29.8696133,-98.1951008,TRUE,FALSE,FALSE,"S244186850"
"167","gofwoo","Golden-fronted Woodpecker","Melanerpes aurifrons","L36301305","Ranch Road 334, Uvalde, Texas, US (29.423, -100.082)","2025-05-29 08:56",1,29.4232843,-100.0818882,TRUE,FALSE,TRUE,"S244192059"
"168","gofwoo","Golden-fronted Woodpecker","Melanerpes aurifrons","L22271973","1290 County Road 271, Rio Medina, Texas, US (29.419, -98.909)","2025-05-29 08:55",1,29.4194935,-98.9090872,TRUE,FALSE,TRUE,"S244161115"
"169","gofwoo","Golden-fronted Woodpecker","Melanerpes aurifrons","L8706712","Mason Ranch - G","2025-05-29 08:43",1,30.6358149,-99.0843563,TRUE,FALSE,TRUE,"S244162079"
"170","gofwoo","Golden-fronted Woodpecker","Melanerpes aurifrons","L518531","1--Horizontal Heavens: Blanco/Comal County","2025-05-29 08:28",1,29.9445229,-98.407588,TRUE,FALSE,TRUE,"S244150131"
"171","gofwoo","Golden-fronted Woodpecker","Melanerpes aurifrons","L2146702","Uvalde Co.--TX55 Nueces River Bridge area","2025-05-29 08:14",1,29.3978985,-100.0001335,TRUE,FALSE,FALSE,"S244157002"
"172","gofwoo","Golden-fronted Woodpecker","Melanerpes aurifrons","L2922603","US-TX-Laguna Vista-Home Sweet Home","2025-05-29 08:12",3,26.108527,-97.309527,TRUE,FALSE,TRUE,"S244159166"
"173","gofwoo","Golden-fronted Woodpecker","Melanerpes aurifrons","L3256959","River Acres Park, New Braunfels","2025-05-29 08:09",2,29.7155106,-98.1088167,TRUE,FALSE,FALSE,"S244143012"
"174","gofwoo","Golden-fronted Woodpecker","Melanerpes aurifrons","L17048069","TX-Burnet: Hidden Falls Golf Course, Meadowlakes US-TX (30.5628,-98.2937)","2025-05-29 07:59",1,30.5628,-98.293666,TRUE,FALSE,TRUE,"S244203988"
"175","gofwoo","Golden-fronted Woodpecker","Melanerpes aurifrons","L527223","Junction--Easter Pageant Hill","2025-05-29 07:50",1,30.4748638,-99.7592926,TRUE,FALSE,FALSE,"S244183639"
"176","gofwoo","Golden-fronted Woodpecker","Melanerpes aurifrons","L7335929","100-198 Parkglen Drive, San Antonio, Texas, US (29.502, -98.513)","2025-05-29 07:50",3,29.5022167,-98.5133678,TRUE,FALSE,TRUE,"S244168046"
"177","gofwoo","Golden-fronted Woodpecker","Melanerpes aurifrons","L40149315","San Benito - Resaca de los Fresnos at Russell","2025-05-29 07:50",5,26.1525391,-97.6325787,TRUE,FALSE,FALSE,"S244177174"
"178","gofwoo","Golden-fronted Woodpecker","Melanerpes aurifrons","L17600847","Walter Buck WMA","2025-05-29 07:33",2,30.4269172,-99.7999763,TRUE,FALSE,FALSE,"S244255445"
"179","gofwoo","Golden-fronted Woodpecker","Melanerpes aurifrons","L16456309","Boerne City Campus natural area","2025-05-29 07:30",1,29.7991108,-98.7309406,TRUE,FALSE,FALSE,"S244188319"
"180","gofwoo","Golden-fronted Woodpecker","Melanerpes aurifrons","L1026012","Palmito Hill Road","2025-05-29 07:29",3,25.942593,-97.2974431,TRUE,FALSE,FALSE,"S244157371"
"181","gofwoo","Golden-fronted Woodpecker","Melanerpes aurifrons","L4314735","Jim Wells Co.--CR229","2025-05-29 07:25",10,27.98981,-98.094848,TRUE,FALSE,FALSE,"S244159876"
"182","gofwoo","Golden-fronted Woodpecker","Melanerpes aurifrons","L7861278","Headwaters at the Comal (HOTE 069A)","2025-05-29 07:24",4,29.722178,-98.125378,TRUE,FALSE,FALSE,"S244129778"
"183","gofwoo","Golden-fronted Woodpecker","Melanerpes aurifrons","L1118873","Great Hills Neighborhood","2025-05-29 07:16",1,30.4115498,-97.7564979,TRUE,FALSE,TRUE,"S244153201"
"184","gofwoo","Golden-fronted Woodpecker","Melanerpes aurifrons","L46302919","Private Ranch West of Sarita (location intentionally inaccurate)","2025-05-29 07:03",3,27.221621,-97.796101,TRUE,FALSE,TRUE,"S244252681"
"185","gofwoo","Golden-fronted Woodpecker","Melanerpes aurifrons","L1052368","Big Bend NP--Daniels Ranch Rd.","2025-05-29 07:01",3,29.1839794,-102.9645274,TRUE,FALSE,FALSE,"S244259832"
"186","gofwoo","Golden-fronted Woodpecker","Melanerpes aurifrons","L247135","Landa Park (HOTE 069)","2025-05-29 06:55",1,29.7117824,-98.1356484,TRUE,FALSE,FALSE,"S244145890"
"187","gofwoo","Golden-fronted Woodpecker","Melanerpes aurifrons","L967157","Boca Chica Blvd / State Highway 4 (from road)","2025-05-29 06:48",1,25.9534148,-97.3221098,TRUE,FALSE,FALSE,"S244125268"
"188","gofwoo","Golden-fronted Woodpecker","Melanerpes aurifrons","L30795428","Arroyo Colorado (Cameron County)","2025-05-29 06:48",NA,26.3512775,-97.3862289,TRUE,FALSE,FALSE,"S244278878"
"189","gofwoo","Golden-fronted Woodpecker","Melanerpes aurifrons","L1145420","Christoval Hummer House B&B","2025-05-29 06:44",2,31.1669847,-100.4904413,TRUE,FALSE,FALSE,"S244156716"
"190","gofwoo","Golden-fronted Woodpecker","Melanerpes aurifrons","L46272236","22035 Toe Nail Trail, Christoval US-TX (31.1576,-100.4768)","2025-05-29 06:33",1,31.15764,-100.476762,TRUE,FALSE,TRUE,"S244107756"
"191","gofwoo","Golden-fronted Woodpecker","Melanerpes aurifrons","L32571068","CR 239 and 308 (S of SH 281)","2025-05-29 06:31",7,27.96244,-98.040793,TRUE,FALSE,TRUE,"S244123503"
"192","gofwoo","Golden-fronted Woodpecker","Melanerpes aurifrons","L46293275","3673 SH-285, Falfurrias US-TX (27.2625,-98.2647)","2025-05-29 06:28",9,27.262529,-98.264713,TRUE,FALSE,TRUE,"S244208222"
"193","gofwoo","Golden-fronted Woodpecker","Melanerpes aurifrons","L6803508","TX-Burnet: Mustang Ridge subdivision,  Marble Falls US-TX (30.5872,-98.2604)","2025-05-29 06:18",1,30.587172,-98.260442,TRUE,FALSE,TRUE,"S244117560"
"194","gofwoo","Golden-fronted Woodpecker","Melanerpes aurifrons","L46276896","3421 Golf Course Rd, Kingsville US-TX (27.4841,-97.8405)","2025-05-29 06:14",1,27.484057,-97.840457,TRUE,FALSE,TRUE,"S244132011"
"195","gofwoo","Golden-fronted Woodpecker","Melanerpes aurifrons","L39315898","22338–22398 Toe Nail Trail, Christoval US-TX 31.15689, -100.45723","2025-05-29 06:01",1,31.156891,-100.457231,TRUE,FALSE,TRUE,"S244102136"
"196","gofwoo","Golden-fronted Woodpecker","Melanerpes aurifrons","L41313608","Pharr","2025-05-28 20:45",2,26.1835524,-98.1820773,TRUE,FALSE,TRUE,"S244024512"
"197","gofwoo","Golden-fronted Woodpecker","Melanerpes aurifrons","L10290904","Memorial Middla School - 21st St, Harlingen US-TX (26.2142,-97.6739)","2025-05-28 19:23",1,26.21417,-97.6739,TRUE,FALSE,TRUE,"S244003725"
"198","gofwoo","Golden-fronted Woodpecker","Melanerpes aurifrons","L17300903","West wildlife Preserve - nursery","2025-05-28 18:36",2,26.2241986,-97.5226544,TRUE,FALSE,TRUE,"S243997019"
"199","gofwoo","Golden-fronted Woodpecker","Melanerpes aurifrons","L8756160","King Ranch--Laureles Division (Kleberg County)","2025-05-28 18:19",4,27.5182071,-97.7949548,TRUE,FALSE,FALSE,"S244038731"
"200","gofwoo","Golden-fronted Woodpecker","Melanerpes aurifrons","L8761760","Riverside Golf Course Duck Pond, Victoria","2025-05-28 18:19",1,28.8201689,-97.0235581,TRUE,FALSE,FALSE,"S243993284"
"201","gofwoo","Golden-fronted Woodpecker","Melanerpes aurifrons","L46246469","U.S. 84 Picnic Area, Snyder, Texas, US (32.878, -101.048)","2025-05-28 18:07",1,32.8784445,-101.0483025,TRUE,FALSE,TRUE,"S243983995"
"202","gofwoo","Golden-fronted Woodpecker","Melanerpes aurifrons","L4580695","Cedar Hill Cemetery","2025-05-28 15:37",1,30.6928402,-101.2059045,TRUE,FALSE,FALSE,"S243954060"
"203","gofwoo","Golden-fronted Woodpecker","Melanerpes aurifrons","L1154234","Gage Gardens (FWTX 27), Marathon","2025-05-28 15:16",2,30.2044271,-103.2430744,TRUE,FALSE,FALSE,"S244019568"
"204","gofwoo","Golden-fronted Woodpecker","Melanerpes aurifrons","L129017","Kerrville--Louise Hays Pk (HOTW 074)","2025-05-28 15:10",1,30.0445004,-99.1430969,TRUE,FALSE,FALSE,"S243967043"
"205","gofwoo","Golden-fronted Woodpecker","Melanerpes aurifrons","L375162","King Ranch--Santa Gertrudis Unit (CTC 087)","2025-05-28 14:38",2,27.5183197,-97.9093409,TRUE,FALSE,FALSE,"S243978693"
"206","gofwoo","Golden-fronted Woodpecker","Melanerpes aurifrons","L788259","Cypress Bend Park, New Braunfels","2025-05-28 14:34",2,29.711165,-98.1059361,TRUE,FALSE,FALSE,"S243941703"
"207","gofwoo","Golden-fronted Woodpecker","Melanerpes aurifrons","L46245035","2205 SH-141, Kingsville US-TX 27.52025, -97.89706","2025-05-28 14:24",3,27.520249,-97.897064,TRUE,FALSE,TRUE,"S243975899"
"208","gofwoo","Golden-fronted Woodpecker","Melanerpes aurifrons","L2896681","Gladys Porter Zoo/ Dean Porter Park  (UTC 046)","2025-05-28 14:10",3,25.9133345,-97.4954331,TRUE,FALSE,FALSE,"S243940814"
"209","gofwoo","Golden-fronted Woodpecker","Melanerpes aurifrons","L22603679","22311–22399 RM-853, Mertzon US-TX 31.44406, -100.75718","2025-05-28 14:08",1,31.44406,-100.757184,TRUE,FALSE,TRUE,"S243918762"
"210","gofwoo","Golden-fronted Woodpecker","Melanerpes aurifrons","L2125666","King Ranch Visitor Center","2025-05-28 14:05",1,27.5199373,-97.8960156,TRUE,FALSE,FALSE,"S243973175"
"211","gofwoo","Golden-fronted Woodpecker","Melanerpes aurifrons","L1303421","Seguin- Walnut Springs Park","2025-05-28 13:50",1,29.5681102,-97.9677272,TRUE,FALSE,FALSE,"S243966965"
"212","gofwoo","Golden-fronted Woodpecker","Melanerpes aurifrons","L29747138","Twin Buttes Marina Park Rd, San Angelo US-TX 31.37726, -100.55303","2025-05-28 13:02",1,31.37726,-100.553028,TRUE,FALSE,TRUE,"S243938700"
"213","gofwoo","Golden-fronted Woodpecker","Melanerpes aurifrons","L513691","Wright's Pond area","2025-05-28 12:50",1,27.9097131,-97.7807236,TRUE,FALSE,FALSE,"S243890733"
"214","gofwoo","Golden-fronted Woodpecker","Melanerpes aurifrons","L11105380","926 Hill Country Rd, Edinburg US-TX 26.29528, -98.18309","2025-05-28 12:41",2,26.295281,-98.183089,TRUE,FALSE,TRUE,"S243883156"
"215","gofwoo","Golden-fronted Woodpecker","Melanerpes aurifrons","L33668250","4101 Carnation Ave, McAllen US-TX 26.23457, -98.26073","2025-05-28 12:31",3,26.234568,-98.260727,TRUE,FALSE,TRUE,"S243888980"
"216","gofwoo","Golden-fronted Woodpecker","Melanerpes aurifrons","L1652988","North San Antonio Hills","2025-05-28 12:04",1,29.469856,-98.715316,TRUE,FALSE,TRUE,"S243942229"
"217","gofwoo","Golden-fronted Woodpecker","Melanerpes aurifrons","L12011580","Texas State Univ.—Theatre Center Ponds Area","2025-05-28 11:58",1,29.887555,-97.936635,TRUE,FALSE,FALSE,"S243874927"
"218","gofwoo","Golden-fronted Woodpecker","Melanerpes aurifrons","L458126","South Texas Botanical Gardens (CTC 067)","2025-05-28 11:52",2,27.6525275,-97.4068666,TRUE,FALSE,FALSE,"S243867390"
"219","gofwoo","Golden-fronted Woodpecker","Melanerpes aurifrons","L272092","Goliad SP (CTC 039)","2025-05-28 11:47",1,28.649865,-97.3833659,TRUE,FALSE,FALSE,"S243892648"
"220","gofwoo","Golden-fronted Woodpecker","Melanerpes aurifrons","L20995377","Bayside Park, Portland","2025-05-28 11:28",1,27.874705,-97.3093245,TRUE,FALSE,FALSE,"S243858538"
"221","gofwoo","Golden-fronted Woodpecker","Melanerpes aurifrons","L2777931","Junction--Ralph Ingram Memorial Tennis Center","2025-05-28 11:15",4,30.5132114,-99.7665453,TRUE,FALSE,FALSE,"S243867016"
"222","gofwoo","Golden-fronted Woodpecker","Melanerpes aurifrons","L24596287","#5 Town Creek","2025-05-28 11:02",1,30.06307,-99.14698,TRUE,FALSE,TRUE,"S243890292"
"223","gofwoo","Golden-fronted Woodpecker","Melanerpes aurifrons","L27461486","602 North Victoria Road, Donna, Texas, US (26.173, -98.026)","2025-05-28 10:28",2,26.1734848,-98.0264435,TRUE,FALSE,TRUE,"S243845625"
"224","gofwoo","Golden-fronted Woodpecker","Melanerpes aurifrons","L269692","Lake Findley (Lake Alice)","2025-05-28 10:10",5,27.7888887,-98.0641977,TRUE,FALSE,FALSE,"S243993855"
"225","gofwoo","Golden-fronted Woodpecker","Melanerpes aurifrons","L247130","LBJ Natl. Hist. Park (Johnson City)(HOTE 053)","2025-05-28 09:50",3,30.274948,-98.4156966,TRUE,FALSE,FALSE,"S243834579"
"226","gofwoo","Golden-fronted Woodpecker","Melanerpes aurifrons","L7034973","Bryant's Corner","2025-05-28 09:47",2,34.3928873,-99.6720028,TRUE,FALSE,FALSE,"S243970095"
"227","gofwoo","Golden-fronted Woodpecker","Melanerpes aurifrons","L27854413","Crescent Bend Nature Park — Cibolo Creek (Guadalupe Co.)","2025-05-28 09:44",1,29.5546627,-98.2335483,TRUE,FALSE,FALSE,"S244223980"
"228","gofwoo","Golden-fronted Woodpecker","Melanerpes aurifrons","L38397940","6405 N 17th St, McAllen US-TX 26.26240, -98.22922","2025-05-28 09:42",6,26.262401,-98.229218,TRUE,FALSE,TRUE,"S243841247"
"229","gofwoo","Golden-fronted Woodpecker","Melanerpes aurifrons","L14970070","#11s River Trail","2025-05-28 09:31",1,30.0381184,-99.1387672,TRUE,FALSE,TRUE,"S243892837"
"230","gofwoo","Golden-fronted Woodpecker","Melanerpes aurifrons","L16385261","Kerrville--Louise Hays Pk (HOTW 074)","2025-05-28 09:07",1,30.043416,-99.142809,TRUE,FALSE,TRUE,"S244277922"
"231","gofwoo","Golden-fronted Woodpecker","Melanerpes aurifrons","L35084230","Allen Road W. of US277","2025-05-28 08:59",2,31.170107,-100.512894,TRUE,FALSE,FALSE,"S243833186"
"232","gofwoo","Golden-fronted Woodpecker","Melanerpes aurifrons","L922129","Yellow House Canyon--CR7300 crossing","2025-05-28 08:52",7,33.4925199,-101.6235781,TRUE,FALSE,FALSE,"S243891428"
"233","gofwoo","Golden-fronted Woodpecker","Melanerpes aurifrons","L14970304","#10s River Trail Bench","2025-05-28 08:49",1,30.0303045,-99.1375341,TRUE,FALSE,TRUE,"S243895101"
"234","gofwoo","Golden-fronted Woodpecker","Melanerpes aurifrons","L1263591","Laredo- North Central Park","2025-05-28 08:35",3,27.6001374,-99.4713843,TRUE,FALSE,FALSE,"S243935514"
"235","gofwoo","Golden-fronted Woodpecker","Melanerpes aurifrons","L814657","Kerrville--Guadalupe Park","2025-05-28 08:25",1,30.0523796,-99.1630268,TRUE,FALSE,FALSE,"S244401880"
"236","gofwoo","Golden-fronted Woodpecker","Melanerpes aurifrons","L10435182","San Marcos City Cemetery","2025-05-28 08:23",6,29.8884056,-97.9575124,TRUE,FALSE,FALSE,"S243820829"
"237","gofwoo","Golden-fronted Woodpecker","Melanerpes aurifrons","L1080032","Byrd Bottom","2025-05-28 08:22",1,31.1497426,-98.9241385,TRUE,FALSE,TRUE,"S243814006"
"238","gofwoo","Golden-fronted Woodpecker","Melanerpes aurifrons","L4816295","Pugh River Park","2025-05-28 07:59",1,31.1824345,-100.4946127,TRUE,FALSE,FALSE,"S243800966"
"239","gofwoo","Golden-fronted Woodpecker","Melanerpes aurifrons","L337013","Junction--Schreiner Pk (HOTW 091)","2025-05-28 07:45",4,30.4888807,-99.7590351,TRUE,FALSE,FALSE,"S243823757"
"240","gofwoo","Golden-fronted Woodpecker","Melanerpes aurifrons","L2291472","Lakeway City Park and Greenbelt","2025-05-28 07:45",1,30.3759482,-97.9672337,TRUE,FALSE,FALSE,"S243803408"
"241","gofwoo","Golden-fronted Woodpecker","Melanerpes aurifrons","L2590456","3650 CR 437 Cherokee, TX","2025-05-28 07:12",1,30.9623766,-98.6788054,TRUE,FALSE,TRUE,"S243798115"
"242","gofwoo","Golden-fronted Woodpecker","Melanerpes aurifrons","L4856429","North Creek Loop, Comfort, TX","2025-05-28 06:47",1,29.9862541,-98.9085053,TRUE,FALSE,TRUE,"S244115280"
"243","gofwoo","Golden-fronted Woodpecker","Melanerpes aurifrons","L39991019","Wiegand Private Residence","2025-05-27 20:20",1,28.866638,-97.029775,TRUE,FALSE,TRUE,"S243667109"
"244","gofwoo","Golden-fronted Woodpecker","Melanerpes aurifrons","L42713217","800 South Cynthia Street, McAllen, Texas, US (26.194, -98.219)","2025-05-27 20:11",2,26.1939166,-98.2190029,TRUE,FALSE,TRUE,"S243667940"
"245","gofwoo","Golden-fronted Woodpecker","Melanerpes aurifrons","L452855","Stone Oak Park--North","2025-05-27 20:07",1,29.6468989,-98.4688248,TRUE,FALSE,FALSE,"S243671145"
"246","gofwoo","Golden-fronted Woodpecker","Melanerpes aurifrons","L17545551","County Roads N of Agua Dulce","2025-05-27 19:29",1,27.83746,-97.923597,TRUE,FALSE,TRUE,"S244029947"
"247","gofwoo","Golden-fronted Woodpecker","Melanerpes aurifrons","L39633524","County Road 6, Corpus Christi US-TX 27.57206, -97.44882","2025-05-27 19:14",2,27.572055,-97.448817,TRUE,FALSE,TRUE,"S243662821"
"248","gofwoo","Golden-fronted Woodpecker","Melanerpes aurifrons","L28041451","County Road 12","2025-05-27 18:47",1,27.601849,-97.463041,TRUE,FALSE,TRUE,"S243647601"
"249","gofwoo","Golden-fronted Woodpecker","Melanerpes aurifrons","L14920183","Hart Glen","2025-05-27 18:24",1,29.5609712,-98.604063,TRUE,FALSE,TRUE,"S243641250"
"250","gofwoo","Golden-fronted Woodpecker","Melanerpes aurifrons","L278450","UTRGV Brownsville (campus & resacas)","2025-05-27 18:05",3,25.8954255,-97.4872156,TRUE,FALSE,FALSE,"S243658878"
"251","gofwoo","Golden-fronted Woodpecker","Melanerpes aurifrons","L1367882","Texas A&M--Kingsville","2025-05-27 17:47",1,27.5247858,-97.8817252,TRUE,FALSE,FALSE,"S243686378"
"252","gofwoo","Golden-fronted Woodpecker","Melanerpes aurifrons","L129016","Lost Maples SNA (HOTW 061)","2025-05-27 17:24",2,29.8155087,-99.5762582,TRUE,FALSE,FALSE,"S243646775"
"253","gofwoo","Golden-fronted Woodpecker","Melanerpes aurifrons","L1841720","Brownsville Sports Park","2025-05-27 16:20",5,26.0056228,-97.5171881,TRUE,FALSE,FALSE,"S243606944"
"254","gofwoo","Golden-fronted Woodpecker","Melanerpes aurifrons","L12122791","12125 Ranch Road 470, Tarpley, Texas, US (29.657, -99.28)","2025-05-27 15:35",2,29.6565914,-99.280407,TRUE,FALSE,TRUE,"S243587663"
"255","gofwoo","Golden-fronted Woodpecker","Melanerpes aurifrons","L1436968","Howard Murph Airport Park","2025-05-27 15:29",1,28.0949013,-97.0517696,TRUE,FALSE,FALSE,"S243598702"
"256","gofwoo","Golden-fronted Woodpecker","Melanerpes aurifrons","L10979986","Brianna Circle","2025-05-27 15:17",1,30.277845,-98.396314,TRUE,FALSE,TRUE,"S243585648"
"257","gofwoo","Golden-fronted Woodpecker","Melanerpes aurifrons","L38189119","6441 East Lake Road, Abilene, Texas, US (32.535, -99.691)","2025-05-27 14:36",3,32.534965,-99.6910367,TRUE,FALSE,TRUE,"S243588333"
"258","gofwoo","Golden-fronted Woodpecker","Melanerpes aurifrons","L283468","South Llano River SP (HOTW 093)","2025-05-27 13:32",3,30.4391651,-99.8128617,TRUE,FALSE,FALSE,"S243582495"
"259","gofwoo","Golden-fronted Woodpecker","Melanerpes aurifrons","L29031568","21715 Dolan Creek Road, Del Rio, Texas, US (29.94, -100.97) Park Host Site","2025-05-27 12:22",1,29.9396528,-100.9701976,TRUE,FALSE,TRUE,"S243526395"
"260","gofwoo","Golden-fronted Woodpecker","Melanerpes aurifrons","L574897","Uvalde Fish Hatchery (HOTW 027)","2025-05-27 11:51",2,29.1869923,-99.8330212,TRUE,FALSE,FALSE,"S243530120"
"261","gofwoo","Golden-fronted Woodpecker","Melanerpes aurifrons","L30195274","1251 Rich Ln, Buda US-TX 30.06848, -97.78057","2025-05-27 11:50",1,30.06848,-97.780566,TRUE,FALSE,TRUE,"S243568312"
"262","gofwoo","Golden-fronted Woodpecker","Melanerpes aurifrons","L46152688","645 Evergreen Lane, New Braunfels, Texas, US (29.705, -98.161)","2025-05-27 11:30",1,29.7046832,-98.1606629,TRUE,FALSE,TRUE,"S243519902"
"263","gofwoo","Golden-fronted Woodpecker","Melanerpes aurifrons","L273764","Hugh Ramsey Park (Harlingen Arroyo Colorado) WBC (LTC 026)","2025-05-27 10:54",3,26.1857402,-97.6641657,TRUE,FALSE,FALSE,"S243506485"
"264","gofwoo","Golden-fronted Woodpecker","Melanerpes aurifrons","L9391304","Kerr WMA--Check Station area","2025-05-27 10:27",1,30.063393,-99.505582,TRUE,FALSE,FALSE,"S243496357"
"265","gofwoo","Golden-fronted Woodpecker","Melanerpes aurifrons","L7945206","South Llano River SP--Lora’s Bird Blind","2025-05-27 10:25",1,30.4394455,-99.8107186,TRUE,FALSE,FALSE,"S243535336"
"266","gofwoo","Golden-fronted Woodpecker","Melanerpes aurifrons","L18670311","Leon Creek Greenway--Leon Vista Trailhead","2025-05-27 10:24",2,29.5227707,-98.6248112,TRUE,FALSE,FALSE,"S243550849"
"267","gofwoo","Golden-fronted Woodpecker","Melanerpes aurifrons","L21171314","Lake Rhapsody House/Creek","2025-05-27 10:23",2,27.673396,-97.351384,TRUE,FALSE,TRUE,"S243668418"
"268","gofwoo","Golden-fronted Woodpecker","Melanerpes aurifrons","L555439","Five Mile Dam / Dudley Johnson Park","2025-05-27 10:19",1,29.9420687,-97.9026787,TRUE,FALSE,FALSE,"S243657531"
"269","gofwoo","Golden-fronted Woodpecker","Melanerpes aurifrons","L24843493","Devils River Canyon BBS Stop #49","2025-05-27 10:06",1,30.1427263,-101.5723726,TRUE,FALSE,TRUE,"S244390415"
"270","gofwoo","Golden-fronted Woodpecker","Melanerpes aurifrons","L29110795","Kent County, Texas, Lake Alan Henry Wildlife Mitigation Area","2025-05-27 10:05",2,33.0503804,-101.0277375,TRUE,FALSE,TRUE,"S243551778"
"271","gofwoo","Golden-fronted Woodpecker","Melanerpes aurifrons","L284157","Laguna Atascosa NWR--Bahia Grande Unit (restricted access)","2025-05-27 09:45",1,26.041662,-97.282077,TRUE,FALSE,FALSE,"S244805811"
"272","gofwoo","Golden-fronted Woodpecker","Melanerpes aurifrons","L24843347","Devils River Canyon BBS Stop #45","2025-05-27 09:45",2,30.1605619,-101.5521684,TRUE,FALSE,TRUE,"S244381684"
"273","gofwoo","Golden-fronted Woodpecker","Melanerpes aurifrons","L24843312","Devils River Canyon BBS Stop #44","2025-05-27 09:40",1,30.1614261,-101.5438932,TRUE,FALSE,TRUE,"S244381213"
"274","gofwoo","Golden-fronted Woodpecker","Melanerpes aurifrons","L46186771","Entrance Area Choke Canyon","2025-05-27 09:30",6,28.4658241,-98.3542871,TRUE,FALSE,TRUE,"S243687977"
"275","gofwoo","Golden-fronted Woodpecker","Melanerpes aurifrons","L11452047","Sandpipers - Private","2025-05-27 09:26",1,26.3997085,-98.1581075,TRUE,FALSE,TRUE,"S243469476"
"276","gofwoo","Golden-fronted Woodpecker","Melanerpes aurifrons","L24843218","Devils River Canyon BBS Stop #41","2025-05-27 09:26",1,30.1789009,-101.5496646,TRUE,FALSE,TRUE,"S244377177"
"277","gofwoo","Golden-fronted Woodpecker","Melanerpes aurifrons","L24843130","Devils River Canyon BBS Stop #39","2025-05-27 09:18",1,30.1931032,-101.5488669,TRUE,FALSE,TRUE,"S243996850"
"278","gofwoo","Golden-fronted Woodpecker","Melanerpes aurifrons","L38656729","Spring Creek Marina","2025-05-27 09:10",2,31.371994,-100.513198,TRUE,FALSE,TRUE,"S243468321"
"279","gofwoo","Golden-fronted Woodpecker","Melanerpes aurifrons","L46138844","26725 Timberline Drive, San Antonio, Texas, US (29.697, -98.49)","2025-05-27 09:07",1,29.6973923,-98.4899624,TRUE,FALSE,TRUE,"S243455273"
"280","gofwoo","Golden-fronted Woodpecker","Melanerpes aurifrons","L46183286","5742 Cedar Cove, San Antonio US-TX 29.54961, -98.59702","2025-05-27 09:04",2,29.549611,-98.597024,TRUE,FALSE,TRUE,"S243670663"
"281","gofwoo","Golden-fronted Woodpecker","Melanerpes aurifrons","L4742189","SW Snyder Nature Trail","2025-05-27 09:04",1,32.6952723,-100.9397301,TRUE,FALSE,FALSE,"S243459796"
"282","gofwoo","Golden-fronted Woodpecker","Melanerpes aurifrons","L24842859","Devils River Canyon BBS Stop #35","2025-05-27 09:01",1,30.2177943,-101.532372,TRUE,FALSE,TRUE,"S243992644"
"283","gofwoo","Golden-fronted Woodpecker","Melanerpes aurifrons","L16863831","Kingsville (downtown)","2025-05-27 09:00",NA,27.515705,-97.8561305,TRUE,FALSE,FALSE,"S244236751"
"284","gofwoo","Golden-fronted Woodpecker","Melanerpes aurifrons","L24842782","Devils River Canyon BBS Stop #33","2025-05-27 08:52",1,30.2185239,-101.5159447,TRUE,FALSE,TRUE,"S243991899"
"285","gofwoo","Golden-fronted Woodpecker","Melanerpes aurifrons","L4161255","CC: San Benito- Agar peninsula","2025-05-27 08:50",6,26.1492318,-97.6283767,TRUE,FALSE,TRUE,"S243493590"
"286","gofwoo","Golden-fronted Woodpecker","Melanerpes aurifrons","L10848593","Lake Corpus Christi","2025-05-27 08:16",4,28.0635168,-97.871232,TRUE,FALSE,FALSE,"S243541194"
"287","gofwoo","Golden-fronted Woodpecker","Melanerpes aurifrons","L43737154","Mission City Rv Park","2025-05-27 08:09",1,29.436837,-98.416352,TRUE,FALSE,TRUE,"S243432050"
"288","gofwoo","Golden-fronted Woodpecker","Melanerpes aurifrons","L14735525","319 Zoeller Ln, Boerne US-TX","2025-05-27 08:08",1,29.971872,-98.76762,TRUE,FALSE,TRUE,"S243672173"
"289","gofwoo","Golden-fronted Woodpecker","Melanerpes aurifrons","L1937712","Sevenfalls Ranch","2025-05-27 08:00",1,30.2880504,-98.6328506,TRUE,FALSE,TRUE,"S243517306"
"290","gofwoo","Golden-fronted Woodpecker","Melanerpes aurifrons","L656678","Middle Concho Park","2025-05-27 07:55",4,31.3789943,-100.5202675,TRUE,FALSE,FALSE,"S243455184"
"291","gofwoo","Golden-fronted Woodpecker","Melanerpes aurifrons","L15935862","2545–2689 Logans Way, Blanco US-TX 30.03566, -98.38152","2025-05-27 07:48",1,30.035663,-98.381518,TRUE,FALSE,TRUE,"S243672859"
"292","gofwoo","Golden-fronted Woodpecker","Melanerpes aurifrons","L3451037","Boerne Lake","2025-05-27 07:46",1,29.8240748,-98.7686348,TRUE,FALSE,TRUE,"S243556835"
"293","gofwoo","Golden-fronted Woodpecker","Melanerpes aurifrons","L664585","Post City Park","2025-05-27 07:46",1,33.1815972,-101.3763857,TRUE,FALSE,FALSE,"S243425543"
"294","gofwoo","Golden-fronted Woodpecker","Melanerpes aurifrons","L18495857","Turkey Barn Lane","2025-05-27 07:38",1,30.887998,-99.625703,TRUE,FALSE,TRUE,"S243445971"
"295","gofwoo","Golden-fronted Woodpecker","Melanerpes aurifrons","L46132373","26535 Timberline Drive, San Antonio, Texas, US (29.694, -98.491)","2025-05-27 07:28",1,29.6941941,-98.4905433,TRUE,FALSE,TRUE,"S243418857"
"296","gofwoo","Golden-fronted Woodpecker","Melanerpes aurifrons","L38041147","Aegolius Basterds LRGV (Private Residence)","2025-05-27 07:15",4,26.1842336,-98.3811696,TRUE,FALSE,TRUE,"S243419296"
"297","gofwoo","Golden-fronted Woodpecker","Melanerpes aurifrons","L1255898","My Yard","2025-05-27 07:14",1,29.8169186,-98.6157703,TRUE,FALSE,TRUE,"S243693125"
"298","gofwoo","Golden-fronted Woodpecker","Melanerpes aurifrons","L45799709","Dragonfly Cabin, Nueces River","2025-05-27 07:11",2,29.518063,-100.025448,TRUE,FALSE,TRUE,"S244964835"
"299","gofwoo","Golden-fronted Woodpecker","Melanerpes aurifrons","L46131175","26329 Choctaw Pass Street, San Antonio, Texas, US (29.691, -98.489)","2025-05-27 07:10",1,29.6911814,-98.4889071,TRUE,FALSE,TRUE,"S243411190"
"300","gofwoo","Golden-fronted Woodpecker","Melanerpes aurifrons","L4128427","Home","2025-05-27 06:56",1,27.893673,-97.327217,TRUE,FALSE,TRUE,"S243791145"
"301","gofwoo","Golden-fronted Woodpecker","Melanerpes aurifrons","L24819553","Devils River Canyon BBS Stop #5","2025-05-27 06:37",1,30.1660355,-101.3410006,TRUE,FALSE,TRUE,"S243790270"
"302","gofwoo","Golden-fronted Woodpecker","Melanerpes aurifrons","L24819517","Devils River Canyon BBS Stop #4","2025-05-27 06:33",1,30.1596966,-101.3367932,TRUE,FALSE,TRUE,"S243789893"
"303","gofwoo","Golden-fronted Woodpecker","Melanerpes aurifrons","L29116517","Garza County, Texas, Lake Alan Henry Wildlife Mitigation Area","2025-05-27 06:29",2,33.0705994,-101.0434736,TRUE,FALSE,TRUE,"S243471129"
"304","gofwoo","Golden-fronted Woodpecker","Melanerpes aurifrons","L1918641","Oliveira Park, Brownsville","2025-05-26 19:34",1,25.9374284,-97.52159,TRUE,FALSE,FALSE,"S243313952"
"305","gofwoo","Golden-fronted Woodpecker","Melanerpes aurifrons","L299372","Hill Country SNA--(Bandera Co. portion / N. of Bandera Creek rd.)(HOTW 045)","2025-05-26 16:24",1,29.6277682,-99.1819096,TRUE,FALSE,FALSE,"S243246529"
"306","gofwoo","Golden-fronted Woodpecker","Melanerpes aurifrons","L3017144","Bentsen Rd. Area Canals and Fields","2025-05-26 15:30",1,26.2330933,-98.2652378,TRUE,FALSE,TRUE,"S244625365"
"307","gofwoo","Golden-fronted Woodpecker","Melanerpes aurifrons","L46087422","Jackson-E1800/1820 Road, Eldorado, Oklahoma, US (34.407, -99.691)","2025-05-26 15:00",2,34.4070151,-99.691267,TRUE,FALSE,TRUE,"S243189791"
"308","gofwoo","Golden-fronted Woodpecker","Melanerpes aurifrons","L128962","Falcon State Park—SE portion (Starr Co.)  (LTC 084)","2025-05-26 14:25",1,26.5836148,-99.1452921,TRUE,FALSE,FALSE,"S243171851"
"309","gofwoo","Golden-fronted Woodpecker","Melanerpes aurifrons","L2266657","Laguna Atascosa NWR--Lakeside Drive","2025-05-26 14:11",1,26.2335321,-97.3533726,TRUE,FALSE,FALSE,"S243288461"
"310","gofwoo","Golden-fronted Woodpecker","Melanerpes aurifrons","L22478767","Jackson-E 1780 Road, Eldorado, Oklahoma, US (34.436, -99.679)","2025-05-26 14:00",1,34.4358809,-99.6786012,TRUE,FALSE,TRUE,"S243166183"
"311","gofwoo","Golden-fronted Woodpecker","Melanerpes aurifrons","L4238431","Medina River Greenway--Pleasanton Rd Trailhead","2025-05-26 13:53",4,29.270249,-98.494046,TRUE,FALSE,FALSE,"S243181198"
"312","gofwoo","Golden-fronted Woodpecker","Melanerpes aurifrons","L288849","Laguna Atascosa NWR--HQ and Kiskadee Trail","2025-05-26 12:04",1,26.2285086,-97.3475226,TRUE,FALSE,FALSE,"S243145934"
"313","gofwoo","Golden-fronted Woodpecker","Melanerpes aurifrons","L268213","Lake Ransom Canyon and Chapel Garden","2025-05-26 11:49",1,33.5304843,-101.6825438,TRUE,FALSE,FALSE,"S243122094"
"314","gofwoo","Golden-fronted Woodpecker","Melanerpes aurifrons","L965850","Comal Cemetery","2025-05-26 11:40",1,29.7114818,-98.1088758,TRUE,FALSE,FALSE,"S243076386"
"315","gofwoo","Golden-fronted Woodpecker","Melanerpes aurifrons","L22441215","Los Ebanos Golf Course","2025-05-26 11:18",2,26.8992621,-99.2699289,TRUE,FALSE,FALSE,"S243071351"
"316","gofwoo","Golden-fronted Woodpecker","Melanerpes aurifrons","L1529771","Jacob's Well Natural Area","2025-05-26 11:13",1,30.034777,-98.1262026,TRUE,FALSE,FALSE,"S243060381"
"317","gofwoo","Golden-fronted Woodpecker","Melanerpes aurifrons","L46071843","76877, San Saba US-TX (31.4294,-98.7400)","2025-05-26 11:05",1,31.429352,-98.740003,TRUE,FALSE,TRUE,"S243121647"
"318","gofwoo","Golden-fronted Woodpecker","Melanerpes aurifrons","L2710619","Bravo Park, Zapata","2025-05-26 10:36",1,26.9013555,-99.2699178,TRUE,FALSE,FALSE,"S243053082"
"319","gofwoo","Golden-fronted Woodpecker","Melanerpes aurifrons","L4092272","Rincon Del Diablo (near Magnolia and Barron)","2025-05-26 10:19",1,29.350534,-100.8931965,TRUE,FALSE,FALSE,"S243200112"
"320","gofwoo","Golden-fronted Woodpecker","Melanerpes aurifrons","L24818919","Pumpville BBS Stop #45","2025-05-26 10:16",1,30.181339,-101.775909,TRUE,FALSE,TRUE,"S243783957"
"321","gofwoo","Golden-fronted Woodpecker","Melanerpes aurifrons","L46081407","Blaschke Homestead","2025-05-26 10:12",3,28.718045,-98.05524,TRUE,FALSE,TRUE,"S243163112"
"322","gofwoo","Golden-fronted Woodpecker","Melanerpes aurifrons","L5105826","Kerrville--Dietert Center at Guadalupe River","2025-05-26 10:03",1,30.0506966,-99.1577643,TRUE,FALSE,FALSE,"S243038801"
"323","gofwoo","Golden-fronted Woodpecker","Melanerpes aurifrons","L1536154","Chacon Creek Trail","2025-05-26 09:57",2,27.4923829,-99.4757969,TRUE,FALSE,TRUE,"S243005217"
"324","gofwoo","Golden-fronted Woodpecker","Melanerpes aurifrons","L24818547","Pumpville BBS Stop #39","2025-05-26 09:44",1,30.1721332,-101.7279849,TRUE,FALSE,TRUE,"S243669870"
"325","gofwoo","Golden-fronted Woodpecker","Melanerpes aurifrons","L45170076","362 Tegner Creek Rd, Hunt US-TX 30.04917, -99.32847","2025-05-26 09:44",1,30.049169,-99.328471,TRUE,FALSE,TRUE,"S243302931"
"326","gofwoo","Golden-fronted Woodpecker","Melanerpes aurifrons","L17172531","Historic Fort Phantom Hill","2025-05-26 09:39",1,32.6434892,-99.6781825,TRUE,FALSE,FALSE,"S243394675"
"327","gofwoo","Golden-fronted Woodpecker","Melanerpes aurifrons","L716965","Fort Clark Springs (gate check-in required)","2025-05-26 09:36",2,29.3048877,-100.4185581,TRUE,FALSE,FALSE,"S243037077"
"328","gofwoo","Golden-fronted Woodpecker","Melanerpes aurifrons","L1118835","Kreutzberg Canyon Natural Area","2025-05-26 09:32",1,29.8947283,-98.6431674,TRUE,FALSE,FALSE,"S243211589"
"329","gofwoo","Golden-fronted Woodpecker","Melanerpes aurifrons","L572560","Choke Canyon SP--South Shore Unit (Live Oak Co.)","2025-05-26 08:58",1,28.472577,-98.2512474,TRUE,FALSE,FALSE,"S242997516"
"330","gofwoo","Golden-fronted Woodpecker","Melanerpes aurifrons","L129075","Salineño Wildlife Preserve (LTC 080)","2025-05-26 08:47",4,26.5148584,-99.1162062,TRUE,FALSE,FALSE,"S243008273"
"331","gofwoo","Golden-fronted Woodpecker","Melanerpes aurifrons","L129065","Resaca de la Palma SP WBC (Brownsville) (LTC 048)","2025-05-26 08:41",5,25.9965839,-97.5690513,TRUE,FALSE,FALSE,"S242985018"
"332","gofwoo","Golden-fronted Woodpecker","Melanerpes aurifrons","L247117","Palmetto SP (CTC 029)","2025-05-26 08:37",1,29.5887112,-97.5828979,TRUE,FALSE,FALSE,"S243143415"
"333","gofwoo","Golden-fronted Woodpecker","Melanerpes aurifrons","L3042575","San Benito--Kennedy Park","2025-05-26 08:30",4,26.1389884,-97.6322579,TRUE,FALSE,FALSE,"S243033108"
"334","gofwoo","Golden-fronted Woodpecker","Melanerpes aurifrons","L249889","Edinburg Scenic Wetlands WBC (LTC 061)","2025-05-26 08:30",1,26.2905822,-98.1351909,TRUE,FALSE,FALSE,"S242963038"
"335","gofwoo","Golden-fronted Woodpecker","Melanerpes aurifrons","L336009","National Butterfly Center--General & area North of Levee","2025-05-26 08:19",NA,26.1796025,-98.3664483,TRUE,FALSE,FALSE,"S243501939"
"336","gofwoo","Golden-fronted Woodpecker","Melanerpes aurifrons","L568478","Kickapoo Cavern SP (Kinney Co.)","2025-05-26 08:19",1,29.61154,-100.4533,TRUE,FALSE,FALSE,"S243120948"
"337","gofwoo","Golden-fronted Woodpecker","Melanerpes aurifrons","L1276813","Kuykendall Ranch Ranch House Area (Private)","2025-05-26 08:16",3,28.4562162,-98.6989939,TRUE,FALSE,TRUE,"S243028938"
"338","gofwoo","Golden-fronted Woodpecker","Melanerpes aurifrons","L11950361","Barnett Ranch, Mills Co. (restricted access)","2025-05-26 08:13",1,31.4437005,-98.7424494,TRUE,FALSE,FALSE,"S243121343"
"339","gofwoo","Golden-fronted Woodpecker","Melanerpes aurifrons","L46032537","5944 Danforth Rd, Goliad US-TX 28.81197, -97.33726","2025-05-26 08:05",1,28.81197,-97.337257,TRUE,FALSE,TRUE,"S242930992"
"340","gofwoo","Golden-fronted Woodpecker","Melanerpes aurifrons","L16011104","La Paloma","2025-05-26 08:03",1,27.8635606,-98.4142976,TRUE,FALSE,TRUE,"S242993277"
"341","gofwoo","Golden-fronted Woodpecker","Melanerpes aurifrons","L267204","Suter Wildlife Refuge (CTC 069)","2025-05-26 07:53",2,27.7085274,-97.3379721,TRUE,FALSE,FALSE,"S242951041"
"342","gofwoo","Golden-fronted Woodpecker","Melanerpes aurifrons","L46055356","76943, Ozona US-TX (29.9788,-101.1690)","2025-05-26 07:46",1,29.978812,-101.169003,TRUE,FALSE,TRUE,"S243050343"
"343","gofwoo","Golden-fronted Woodpecker","Melanerpes aurifrons","L21916040","Camp Riverview","2025-05-26 07:44",1,29.570271,-99.727389,TRUE,FALSE,TRUE,"S242928724"
"344","gofwoo","Golden-fronted Woodpecker","Melanerpes aurifrons","L45861742","809 Lake Ridge Rd, Kerrville US-TX (30.1536,-99.1583)","2025-05-26 07:41",1,30.153591,-99.158292,TRUE,FALSE,TRUE,"S243042308"
"345","gofwoo","Golden-fronted Woodpecker","Melanerpes aurifrons","L2080893","Frank L. Madla Nat. Area","2025-05-26 07:40",1,29.6051927,-98.6813057,TRUE,FALSE,FALSE,"S242998177"
"346","gofwoo","Golden-fronted Woodpecker","Melanerpes aurifrons","L28010118","Lakeview Drive Ponds","2025-05-26 07:14",11,26.1934195,-98.3529083,TRUE,FALSE,FALSE,"S242946500"
"347","gofwoo","Golden-fronted Woodpecker","Melanerpes aurifrons","L18691547","Alice Municipal Golf Course (limited acccess)","2025-05-26 07:00",10,27.7713135,-98.0601986,TRUE,FALSE,FALSE,"S242992446"
"348","gofwoo","Golden-fronted Woodpecker","Melanerpes aurifrons","L28494561","Choke Canyon SP (Calliham Unit)--Rec Center area","2025-05-26 06:52",4,28.4800631,-98.348663,TRUE,FALSE,FALSE,"S242998824"
"349","gofwoo","Golden-fronted Woodpecker","Melanerpes aurifrons","L46025460","117 Timberwood Road, Kerrville, Texas, US (29.965, -99.114)","2025-05-26 06:43",1,29.9654804,-99.1144594,TRUE,FALSE,TRUE,"S242886151"
"350","gofwoo","Golden-fronted Woodpecker","Melanerpes aurifrons","L12277936","La Casa Oso","2025-05-26 06:41",1,27.6651287,-97.3396652,TRUE,FALSE,TRUE,"S243402466"
"351","gofwoo","Golden-fronted Woodpecker","Melanerpes aurifrons","L46036216","1306 Highland Avenue, McAllen, Texas, US (26.228, -98.23)","2025-05-26 06:27",NA,26.227654,-98.2298137,TRUE,FALSE,TRUE,"S242953038"
"352","gofwoo","Golden-fronted Woodpecker","Melanerpes aurifrons","L2347930","Leakey Hacienda - Private residence","2025-05-26 05:59",1,29.719161,-99.781596,TRUE,FALSE,TRUE,"S243320531"
"353","gofwoo","Golden-fronted Woodpecker","Melanerpes aurifrons","L11289371","Fort Clark Springs—Las Moras Spring Lake/Swimming Pool area (gate check-in required)","2025-05-25 19:15",1,29.3091448,-100.4221351,TRUE,FALSE,FALSE,"S242758836"
"354","gofwoo","Golden-fronted Woodpecker","Melanerpes aurifrons","L6293188","KimRon - Private","2025-05-25 19:06",1,27.755238,-97.380315,TRUE,FALSE,TRUE,"S242888302"
"355","gofwoo","Golden-fronted Woodpecker","Melanerpes aurifrons","L45997326","164 West Main Street, Uvalde, Texas, US (29.243, -100.08)","2025-05-25 18:55",1,29.2433053,-100.0801255,TRUE,FALSE,TRUE,"S242751541"
"356","gofwoo","Golden-fronted Woodpecker","Melanerpes aurifrons","L45995932","101 South Bluebonnet Drive, Uvalde, Texas, US (29.184, -99.777)","2025-05-25 18:35",1,29.1840074,-99.7769931,TRUE,FALSE,TRUE,"S242744812"
"357","gofwoo","Golden-fronted Woodpecker","Melanerpes aurifrons","L45995187","Farm to Market 117, Texas, US (29.091, -99.733)","2025-05-25 18:29",1,29.0911181,-99.7334876,TRUE,FALSE,TRUE,"S242741076"
"358","gofwoo","Golden-fronted Woodpecker","Melanerpes aurifrons","L45994865","9849 Farm to Market 117, Batesville, Texas, US (29.076, -99.717)","2025-05-25 18:24",2,29.0764943,-99.7165225,TRUE,FALSE,TRUE,"S242739614"
"359","gofwoo","Golden-fronted Woodpecker","Melanerpes aurifrons","L34313863","The Lakehouse","2025-05-25 18:14",1,30.393717,-98.094089,TRUE,FALSE,TRUE,"S242739988"
"360","gofwoo","Golden-fronted Woodpecker","Melanerpes aurifrons","L45994500","27 Santiago Street, Batesville, Texas, US (28.947, -99.615)","2025-05-25 18:12",1,28.9465556,-99.6152949,TRUE,FALSE,TRUE,"S242737906"
"361","gofwoo","Golden-fronted Woodpecker","Melanerpes aurifrons","L45994521","Farm to Market 117, Dilley, Texas, US (28.822, -99.417)","2025-05-25 17:57",1,28.8218959,-99.4172728,TRUE,FALSE,TRUE,"S242738010"
"362","gofwoo","Golden-fronted Woodpecker","Melanerpes aurifrons","L45991721","14299 Farm to Market Road 1581, Dilley, Texas, US (28.761, -99.255)","2025-05-25 17:47",1,28.7614288,-99.2552338,TRUE,FALSE,TRUE,"S242724481"
"363","gofwoo","Golden-fronted Woodpecker","Melanerpes aurifrons","L45989113","Farm to Market 624 West, Cotulla, Texas, US (28.389, -99.19)","2025-05-25 17:17",1,28.3887389,-99.1899141,TRUE,FALSE,TRUE,"S242711886"
"364","gofwoo","Golden-fronted Woodpecker","Melanerpes aurifrons","L45987963","2200 Farm to Market 624 West, Tilden, Texas, US (28.183, -98.726)","2025-05-25 16:45",1,28.182553,-98.7262114,TRUE,FALSE,TRUE,"S242706320"
"365","gofwoo","Golden-fronted Woodpecker","Melanerpes aurifrons","L45987910","Farm to Market 624 West, Tilden, Texas, US (28.133, -98.565)","2025-05-25 16:35",1,28.1328313,-98.5649393,TRUE,FALSE,TRUE,"S242706021"
"366","gofwoo","Golden-fronted Woodpecker","Melanerpes aurifrons","L45983554","Farm to Market 624 West, George West, Texas, US (28.104, -98.261)","2025-05-25 16:18",1,28.1043054,-98.2608742,TRUE,FALSE,TRUE,"S242686423"
"367","gofwoo","Golden-fronted Woodpecker","Melanerpes aurifrons","L45982868","Farm to Market 624 West, Orange Grove, Texas, US (28.062, -98.146)","2025-05-25 16:11",1,28.0618895,-98.1463228,TRUE,FALSE,TRUE,"S242683252"
"368","gofwoo","Golden-fronted Woodpecker","Melanerpes aurifrons","L45982114","8066 Highway 281, Orange Grove, Texas, US (27.968, -98.092)","2025-05-25 16:04",1,27.9681051,-98.0921994,TRUE,FALSE,TRUE,"S242680036"
"369","gofwoo","Golden-fronted Woodpecker","Melanerpes aurifrons","L4603374","Saintsgirl","2025-05-25 16:00",2,25.9375635,-97.5161371,TRUE,FALSE,TRUE,"S242727316"
"370","gofwoo","Golden-fronted Woodpecker","Melanerpes aurifrons","L45982642","Evergreen Cemetery, Beeville US-TX 28.27428, -97.69432","2025-05-25 15:53",1,28.274282,-97.694321,TRUE,FALSE,TRUE,"S242682368"
"371","gofwoo","Golden-fronted Woodpecker","Melanerpes aurifrons","L45980000","Auto selected 33.90686, -100.89250","2025-05-25 15:29",1,33.906856,-100.892498,TRUE,FALSE,TRUE,"S242670795"
"372","gofwoo","Golden-fronted Woodpecker","Melanerpes aurifrons","L844445","Kuykendall Ranch (Private)","2025-05-25 15:23",3,28.4551091,-98.6991119,TRUE,FALSE,TRUE,"S242795772"
"373","gofwoo","Golden-fronted Woodpecker","Melanerpes aurifrons","L45981013","100–110 County Road 543, Skidmore US-TX 28.14135, -97.58425","2025-05-25 15:07",1,28.141348,-97.58425,TRUE,FALSE,TRUE,"S242675199"
"374","gofwoo","Golden-fronted Woodpecker","Melanerpes aurifrons","L517989","Bracketville Rest Stop (HOTW 017)","2025-05-25 15:01",1,29.2806906,-100.3235757,TRUE,FALSE,FALSE,"S242657505"
"375","gofwoo","Golden-fronted Woodpecker","Melanerpes aurifrons","L23748178","US281--Falfurrias Checkpoint","2025-05-25 14:53",1,27.03204,-98.140217,TRUE,FALSE,FALSE,"S242650301"
"376","gofwoo","Golden-fronted Woodpecker","Melanerpes aurifrons","L6546910","U.S. 281, Texas, US (26.709, -98.11)","2025-05-25 14:35",1,26.708541,-98.1097547,TRUE,FALSE,TRUE,"S242639479"
"377","gofwoo","Golden-fronted Woodpecker","Melanerpes aurifrons","L692909","Fred Jones Nature Sanctuary (CTC 074)","2025-05-25 14:03",1,27.8795216,-97.40942,TRUE,FALSE,FALSE,"S242636089"
"378","gofwoo","Golden-fronted Woodpecker","Melanerpes aurifrons","L45967489","1444 CR-348, Concan US-TX 29.50866, -99.70106","2025-05-25 13:49",2,29.50866,-99.701064,TRUE,FALSE,TRUE,"S242619915"
"379","gofwoo","Golden-fronted Woodpecker","Melanerpes aurifrons","L45963807","609 Bayview Blvd, Portland US-TX 27.87460, -97.32696","2025-05-25 13:27",1,27.874598,-97.326958,TRUE,FALSE,TRUE,"S242605577"
"380","gofwoo","Golden-fronted Woodpecker","Melanerpes aurifrons","L2527820","La Paloma","2025-05-25 13:15",2,27.864459,-98.424953,TRUE,FALSE,TRUE,"S242689355"
"381","gofwoo","Golden-fronted Woodpecker","Melanerpes aurifrons","L45960283","FM-624, Tilden US-TX 28.10476, -98.35993","2025-05-25 13:06",1,28.104759,-98.359925,TRUE,FALSE,TRUE,"S242591145"
"382","gofwoo","Golden-fronted Woodpecker","Melanerpes aurifrons","L160563","Mitchell Lake Audubon Center (HOTE 103)","2025-05-25 11:44",1,29.3105956,-98.4996938,TRUE,FALSE,FALSE,"S242641374"
"383","gofwoo","Golden-fronted Woodpecker","Melanerpes aurifrons","L46135278","78028, Kerrville US-TX (30.0483,-99.1468)","2025-05-25 11:18",1,30.048342,-99.14684,TRUE,FALSE,TRUE,"S243435819"
"384","gofwoo","Golden-fronted Woodpecker","Melanerpes aurifrons","L44287744","Agarita Blind","2025-05-25 11:13",NA,30.443614,-99.804196,TRUE,FALSE,TRUE,"S242571411"
"385","gofwoo","Golden-fronted Woodpecker","Melanerpes aurifrons","L45943970","708 West Sullivan Street, Skidmore, Texas, US (28.25, -97.692)","2025-05-25 11:06",NA,28.2501327,-97.6920906,TRUE,FALSE,TRUE,"S242523985"
"386","gofwoo","Golden-fronted Woodpecker","Melanerpes aurifrons","L46055337","Oriole/Ani nesting site","2025-05-25 11:05",1,26.0849288,-97.7852972,TRUE,FALSE,TRUE,"S243059645"
"387","gofwoo","Golden-fronted Woodpecker","Melanerpes aurifrons","L4350377","National Butterfly Center--South of levee","2025-05-25 11:02",3,26.1738318,-98.3657885,TRUE,FALSE,FALSE,"S242563610"
"388","gofwoo","Golden-fronted Woodpecker","Melanerpes aurifrons","L1148441","Estero Llano Grande SP--Tropical Zone only","2025-05-25 10:39",5,26.124386,-97.9585648,TRUE,FALSE,FALSE,"S242537792"
"389","gofwoo","Golden-fronted Woodpecker","Melanerpes aurifrons","L45943070","Texas Highway 16, Hebbronville, Texas, US (27.088, -98.956)","2025-05-25 10:37",1,27.0884705,-98.9555333,TRUE,FALSE,TRUE,"S242520005"
"390","gofwoo","Golden-fronted Woodpecker","Melanerpes aurifrons","L875491","Truscott (Brine) Lake","2025-05-25 10:27",2,33.7780059,-99.8451233,TRUE,FALSE,FALSE,"S242673174"
"391","gofwoo","Golden-fronted Woodpecker","Melanerpes aurifrons","L497142","El Zacatal (LTC-052)","2025-05-25 10:16",1,26.0845573,-97.8716183,TRUE,FALSE,FALSE,"S242488240"
"392","gofwoo","Golden-fronted Woodpecker","Melanerpes aurifrons","L45875304","961 Boulder Bluff, San Marcos US-TX 29.97257, -97.96124","2025-05-25 10:09",1,29.972569,-97.961241,TRUE,FALSE,TRUE,"S242481304"
"393","gofwoo","Golden-fronted Woodpecker","Melanerpes aurifrons","L17545670","26010 Fossil Oak Lane, San Antonio, Texas, US (29.691, -98.658)CW11","2025-05-25 10:04",1,29.6906566,-98.6584183,TRUE,FALSE,TRUE,"S242481253"
"394","gofwoo","Golden-fronted Woodpecker","Melanerpes aurifrons","L12241597","844 Upper Turtle Creek Road, Kerrville, Texas, US (29.98, -99.244)","2025-05-25 09:53",1,29.979677,-99.2440974,TRUE,FALSE,TRUE,"S242538037"
"395","gofwoo","Golden-fronted Woodpecker","Melanerpes aurifrons","L45952652","South Llano River State Park, Junction US-TX 30.44425, -99.80431","2025-05-25 09:42",1,30.444252,-99.804307,TRUE,FALSE,TRUE,"S242559889"
"396","gofwoo","Golden-fronted Woodpecker","Melanerpes aurifrons","L548186","Mercedes Settling Basin / Rio Rico rd.","2025-05-25 09:41",1,26.0671147,-97.8907585,TRUE,FALSE,FALSE,"S242475196"
"397","gofwoo","Golden-fronted Woodpecker","Melanerpes aurifrons","L45975368","Smith-Roche Rd","2025-05-25 09:40",1,29.0041893,-98.8213386,TRUE,FALSE,TRUE,"S242652912"
"398","gofwoo","Golden-fronted Woodpecker","Melanerpes aurifrons","L12903541","Inks Dam National Fish Hatchery","2025-05-25 09:00",2,30.7247934,-98.3854866,TRUE,FALSE,TRUE,"S242490394"
"399","gofwoo","Golden-fronted Woodpecker","Melanerpes aurifrons","L45925617","16268–16296 Jimenez Rd, San Benito US-TX (26.0904,-97.7633)","2025-05-25 08:59",1,26.090374,-97.7633,TRUE,FALSE,TRUE,"S242440954"
"400","gofwoo","Golden-fronted Woodpecker","Melanerpes aurifrons","L45922832","10914 Pecan Ranch, Boerne, Texas, US (29.691, -98.707)","2025-05-25 08:44",1,29.6907382,-98.707404,TRUE,FALSE,TRUE,"S242426898"
"401","gofwoo","Golden-fronted Woodpecker","Melanerpes aurifrons","L19348505","Quiet Valley Ranch","2025-05-25 08:40",2,29.95992,-99.215635,TRUE,FALSE,TRUE,"S242481311"
"402","gofwoo","Golden-fronted Woodpecker","Melanerpes aurifrons","L15444020","CR 3600/3700 Canyon Cut","2025-05-25 08:40",7,33.5140552,-101.6173988,TRUE,FALSE,TRUE,"S243104354"
"403","gofwoo","Golden-fronted Woodpecker","Melanerpes aurifrons","L129085","Santa Ana NWR (LTC 059)","2025-05-25 08:39",2,26.0813003,-98.1351399,TRUE,FALSE,FALSE,"S242801346"
"404","gofwoo","Golden-fronted Woodpecker","Melanerpes aurifrons","L11457633","Bird paradise private","2025-05-25 08:37",2,29.970211,-98.253251,TRUE,FALSE,TRUE,"S242448550"
"405","gofwoo","Golden-fronted Woodpecker","Melanerpes aurifrons","L17544423","Pecan Bluff, Boerne, Texas, US (29.705, -98.719)CW6","2025-05-25 08:34",1,29.7050211,-98.7187479,TRUE,FALSE,TRUE,"S242418412"
"406","gofwoo","Golden-fronted Woodpecker","Melanerpes aurifrons","L5112380","Marble Falls--Park View Park","2025-05-25 08:34",1,30.5914987,-98.2571375,TRUE,FALSE,FALSE,"S242456274"
"407","gofwoo","Golden-fronted Woodpecker","Melanerpes aurifrons","L1797405","Laredo- Ranchito Road Ponds","2025-05-25 08:33",1,27.5461038,-99.4430847,TRUE,FALSE,FALSE,"S242449224"
"408","gofwoo","Golden-fronted Woodpecker","Melanerpes aurifrons","L46053227","16300–16760 Jimenez Rd, San Benito US-TX 26.09038, -97.75825","2025-05-25 08:29",2,26.090375,-97.758252,TRUE,FALSE,TRUE,"S243040415"
"409","gofwoo","Golden-fronted Woodpecker","Melanerpes aurifrons","L46111066","633 Lake Point Street, La Joya, Texas, US (26.238, -98.472)","2025-05-25 08:28",4,26.2381124,-98.471648,TRUE,FALSE,TRUE,"S243312045"
"410","gofwoo","Golden-fronted Woodpecker","Melanerpes aurifrons","L3259791","San Angelo--Spring Creek Marina area","2025-05-25 08:15",1,31.3767776,-100.51162,TRUE,FALSE,FALSE,"S242450076"
"411","gofwoo","Golden-fronted Woodpecker","Melanerpes aurifrons","L45916580","4473 Kent Creek Rd, Leakey US-TX 29.88032, -99.81370","2025-05-25 08:00",1,29.880325,-99.813696,TRUE,FALSE,TRUE,"S242393335"
"412","gofwoo","Golden-fronted Woodpecker","Melanerpes aurifrons","L1050878","Melrose ","2025-05-25 07:51",8,28.8088998,-97.515142,TRUE,FALSE,TRUE,"S242525304"
"413","gofwoo","Golden-fronted Woodpecker","Melanerpes aurifrons","L15642134","CR 3600 Canyon Cut south","2025-05-25 07:35",2,33.4853868,-101.621347,TRUE,FALSE,TRUE,"S243100640"
"414","gofwoo","Golden-fronted Woodpecker","Melanerpes aurifrons","L1866452","Cactus Creek Ranch (private - restricted access)","2025-05-25 07:35",2,26.215797,-97.429897,TRUE,FALSE,FALSE,"S243906644"
"415","gofwoo","Golden-fronted Woodpecker","Melanerpes aurifrons","L3277954","CC: San Benito- N Sam Houston Blvd resacas","2025-05-25 07:30",6,26.1570591,-97.6089669,TRUE,FALSE,TRUE,"S242482750"
"416","gofwoo","Golden-fronted Woodpecker","Melanerpes aurifrons","L29973333","250 Jung Frau Hill Rd, Comfort US-TX 29.94227, -98.85395","2025-05-25 07:30",2,29.942268,-98.853947,TRUE,FALSE,TRUE,"S242751240"
"417","gofwoo","Golden-fronted Woodpecker","Melanerpes aurifrons","L44377031","2822 Little John Dr, San Antonio US-TX 29.49883, -98.44496","2025-05-25 07:26",1,29.498832,-98.444959,TRUE,FALSE,TRUE,"S242421632"
"418","gofwoo","Golden-fronted Woodpecker","Melanerpes aurifrons","L41793948","3421 Golf Course Rd, Kingsville US-TX 27.48401, -97.84049","2025-05-25 07:15",1,27.484015,-97.84049,TRUE,FALSE,TRUE,"S242425371"
"419","gofwoo","Golden-fronted Woodpecker","Melanerpes aurifrons","L45911402","Home 2 Suites Ware Rd, McAllen US-TX","2025-05-25 07:14",1,26.20236,-98.262008,TRUE,FALSE,TRUE,"S242364906"
"420","gofwoo","Golden-fronted Woodpecker","Melanerpes aurifrons","L9481574","Goldthwaite Municipal Park","2025-05-25 07:11",1,31.443586,-98.568796,TRUE,FALSE,FALSE,"S242573167"
"421","gofwoo","Golden-fronted Woodpecker","Melanerpes aurifrons","L1673682","CC: San Benito- Resaca Shores yard","2025-05-25 07:10",1,26.1519982,-97.6257509,TRUE,FALSE,TRUE,"S242368508"
"422","gofwoo","Golden-fronted Woodpecker","Melanerpes aurifrons","L10754179","Harmony Hills","2025-05-25 07:09",1,29.5309854,-98.5057918,TRUE,FALSE,TRUE,"S242740403"
"423","gofwoo","Golden-fronted Woodpecker","Melanerpes aurifrons","L8723555","C.B. Banner Place, 1012 Grand Central Ave, O'Brien US-TX (33.3773,-99.8440)","2025-05-25 07:08",2,33.37729,-99.844028,TRUE,FALSE,TRUE,"S242418681"
"424","gofwoo","Golden-fronted Woodpecker","Melanerpes aurifrons","L3939315","Medina County US90 Rest Area","2025-05-25 06:57",1,29.313986,-99.385256,TRUE,FALSE,FALSE,"S242359118"
"425","gofwoo","Golden-fronted Woodpecker","Melanerpes aurifrons","L142170","Park Place","2025-05-25 06:55",1,29.8576916,-98.7555456,TRUE,FALSE,TRUE,"S242577781"
"426","gofwoo","Golden-fronted Woodpecker","Melanerpes aurifrons","L13511181","La Paloma","2025-05-25 06:50",1,27.8595588,-98.4188303,TRUE,FALSE,TRUE,"S242417697"
"427","gofwoo","Golden-fronted Woodpecker","Melanerpes aurifrons","L160560","Friedrich Wilderness Pk (HOTE 086)","2025-05-25 06:45",2,29.6406755,-98.6260967,TRUE,FALSE,FALSE,"S242447489"
"428","gofwoo","Golden-fronted Woodpecker","Melanerpes aurifrons","L46056432","Bus US-77, Kingsville US-TX 27.55079, -97.83999","2025-05-25 06:35",1,27.550786,-97.839994,TRUE,FALSE,TRUE,"S243055243"
"429","gofwoo","Golden-fronted Woodpecker","Melanerpes aurifrons","L9501168","Mackenzie Park--Prairie Dog Town","2025-05-25 06:35",1,33.5985546,-101.8343792,TRUE,FALSE,FALSE,"S242384408"
"430","gofwoo","Golden-fronted Woodpecker","Melanerpes aurifrons","L45924910","197 Salineño Road, Starr, Texas, US (26.522, -99.103)","2025-05-25 06:31",1,26.5217125,-99.1034043,TRUE,FALSE,TRUE,"S242437503"
"431","gofwoo","Golden-fronted Woodpecker","Melanerpes aurifrons","L45563318","Blaha Oaks Road","2025-05-25 06:30",2,30.3425936,-99.0872906,TRUE,FALSE,TRUE,"S242382684"
"432","gofwoo","Golden-fronted Woodpecker","Melanerpes aurifrons","L3713511","Pear Valley BBS Route","2025-05-25 05:51",3,31.3016397,-99.5396951,TRUE,FALSE,TRUE,"S244019494"
"433","gofwoo","Golden-fronted Woodpecker","Melanerpes aurifrons","L9451143","Mil Angeles Ranch","2025-05-25 05:50",4,28.0434064,-99.310273,TRUE,FALSE,FALSE,"S242789649"
"434","gofwoo","Golden-fronted Woodpecker","Melanerpes aurifrons","L45883140","44817 North Expressway 281, Linn, Texas, US (26.682, -98.115)","2025-05-24 20:23",1,26.6820188,-98.1153973,TRUE,FALSE,TRUE,"S242237319"
"435","gofwoo","Golden-fronted Woodpecker","Melanerpes aurifrons","L2662405","McAllen--E.Houston Ave. Red-crowned Parrot roost","2025-05-24 20:06",1,26.1952144,-98.2214856,TRUE,FALSE,FALSE,"S242242514"
"436","gofwoo","Golden-fronted Woodpecker","Melanerpes aurifrons","L38328123","Falfurrias (Brooks Co. TX)","2025-05-24 19:49",1,27.2266031,-98.1397645,TRUE,FALSE,TRUE,"S242228205"
"437","gofwoo","Golden-fronted Woodpecker","Melanerpes aurifrons","L1586667","(-1) Alamo - Cottage Bird Sanctuary","2025-05-24 19:30",1,26.1796802,-98.1180856,TRUE,FALSE,TRUE,"S242561684"
"438","gofwoo","Golden-fronted Woodpecker","Melanerpes aurifrons","L45878229","1503 U.S. 77, Kingsville, Texas, US (27.53, -97.842)","2025-05-24 19:06",1,27.529847,-97.8417537,TRUE,FALSE,TRUE,"S242213743"
"439","gofwoo","Golden-fronted Woodpecker","Melanerpes aurifrons","L4107897","US-TX-Weslaco-1300 S Border Ave - 26.1451x-97.9989","2025-05-24 18:59",2,26.145056,-97.998919,TRUE,FALSE,TRUE,"S242231277"
"440","gofwoo","Golden-fronted Woodpecker","Melanerpes aurifrons","L21554369","271 Soaring Eagles Dr, Fredericksburg US-TX 30.24270, -98.99365","2025-05-24 18:13",1,30.242701,-98.993648,TRUE,FALSE,TRUE,"S242213599"
"441","gofwoo","Golden-fronted Woodpecker","Melanerpes aurifrons","L299624","Starr County Park (Falcon Heights)(LTC 082)","2025-05-24 18:08",1,26.5651323,-99.1261541,TRUE,FALSE,FALSE,"S242205231"
"442","gofwoo","Golden-fronted Woodpecker","Melanerpes aurifrons","L6610585","Ranado windmill area","2025-05-24 17:18",2,27.0767945,-98.884982,TRUE,FALSE,FALSE,"S242195444"
"443","gofwoo","Golden-fronted Woodpecker","Melanerpes aurifrons","L45881430","Big Bend National Park, Terlingua US-TX 29.18621, -102.96937","2025-05-24 17:00",1,29.186213,-102.96937,TRUE,FALSE,TRUE,"S242229347"
"444","gofwoo","Golden-fronted Woodpecker","Melanerpes aurifrons","L45910431","Hwy 359 Realitos","2025-05-24 16:45",10,27.452744,-98.5199385,TRUE,FALSE,TRUE,"S242361317"
"445","gofwoo","Golden-fronted Woodpecker","Melanerpes aurifrons","L5077870","Pandale Crossing River Resort","2025-05-24 16:42",1,30.1290089,-101.5726594,TRUE,FALSE,FALSE,"S244031990"
"446","gofwoo","Golden-fronted Woodpecker","Melanerpes aurifrons","L22227544","Laughlin AFB (restricted access)","2025-05-24 16:33",1,29.3567994,-100.7878017,TRUE,FALSE,FALSE,"S242167554"
"447","gofwoo","Golden-fronted Woodpecker","Melanerpes aurifrons","L2127225","Benavides WTP","2025-05-24 16:30",2,27.5946416,-98.3875566,TRUE,FALSE,FALSE,"S242358621"
"448","gofwoo","Golden-fronted Woodpecker","Melanerpes aurifrons","L45909629","Road to Benavides","2025-05-24 16:15",1,27.5593893,-98.1549926,TRUE,FALSE,TRUE,"S242356194"
"449","gofwoo","Golden-fronted Woodpecker","Melanerpes aurifrons","L18113427","Welborn Ranch","2025-05-24 16:00",1,34.3328345,-99.6726759,TRUE,FALSE,TRUE,"S242997746"
"450","gofwoo","Golden-fronted Woodpecker","Melanerpes aurifrons","L45866570","McCulloch CR112","2025-05-24 15:26",1,31.025623,-99.464025,TRUE,FALSE,TRUE,"S242159144"
"451","gofwoo","Golden-fronted Woodpecker","Melanerpes aurifrons","L27515312","Summerwood Cove","2025-05-24 14:26",2,29.8910612,-97.969862,TRUE,FALSE,TRUE,"S242521675"
"452","gofwoo","Golden-fronted Woodpecker","Melanerpes aurifrons","L45860734","76821, Ballinger US-TX 31.80218, -99.79806","2025-05-24 14:09",1,31.802177,-99.79806,TRUE,FALSE,TRUE,"S242135423"
"453","gofwoo","Golden-fronted Woodpecker","Melanerpes aurifrons","L29508935","Lake Stamford—Lakeshore Sites Road","2025-05-24 13:17",2,33.0915384,-99.6008989,TRUE,FALSE,FALSE,"S242231594"
"454","gofwoo","Golden-fronted Woodpecker","Melanerpes aurifrons","L271737","Dupree Park, Lubbock","2025-05-24 13:04",1,33.5425885,-101.9101763,TRUE,FALSE,FALSE,"S242066420"
"455","gofwoo","Golden-fronted Woodpecker","Melanerpes aurifrons","L45853840","SH-39, Hunt US-TX 29.96465, -99.45271","2025-05-24 12:57",1,29.964651,-99.452705,TRUE,FALSE,TRUE,"S242108354"
"456","gofwoo","Golden-fronted Woodpecker","Melanerpes aurifrons","L45852508","Cottonwood Campground Rd, Terlingua US-TX 29.13703, -103.52347","2025-05-24 12:28",2,29.137032,-103.52347,TRUE,FALSE,TRUE,"S242102987"
"457","gofwoo","Golden-fronted Woodpecker","Melanerpes aurifrons","L38916334","Starr Co.—Old 83 Rd X Santa Margarita Rd","2025-05-24 12:17",1,26.4981706,-99.0760829,TRUE,FALSE,FALSE,"S242044143"
"458","gofwoo","Golden-fronted Woodpecker","Melanerpes aurifrons","L1549243","Spring Lake Natural Area (Hays Co.)","2025-05-24 11:44",1,29.903545,-97.929607,TRUE,FALSE,FALSE,"S242132267"
"459","gofwoo","Golden-fronted Woodpecker","Melanerpes aurifrons","L355719","Falfurrias Rest Area (LTC 004)","2025-05-24 11:26",2,27.094091,-98.146384,TRUE,FALSE,FALSE,"S242028486"
"460","gofwoo","Golden-fronted Woodpecker","Melanerpes aurifrons","L5254868","Green Hill Cemetry","2025-05-24 10:43",6,27.3536448,-98.7504036,TRUE,FALSE,FALSE,"S241995760"
"461","gofwoo","Golden-fronted Woodpecker","Melanerpes aurifrons","L1090714","Shaffer Bend Recr. Area (LCRA)","2025-05-24 10:37",2,30.5413431,-98.1792784,TRUE,FALSE,FALSE,"S242099743"
"462","gofwoo","Golden-fronted Woodpecker","Melanerpes aurifrons","L9358421","Comstock BBS 83081 Stop 50","2025-05-24 10:32",1,29.8157653,-101.1497235,TRUE,FALSE,TRUE,"S243136129"
"463","gofwoo","Golden-fronted Woodpecker","Melanerpes aurifrons","L46096286","2578–2586 S Bentsen Palm Dr, Mission US-TX 26.18620, -98.37881","2025-05-24 10:22",1,26.186203,-98.378813,TRUE,FALSE,TRUE,"S243231815"
"464","gofwoo","Golden-fronted Woodpecker","Melanerpes aurifrons","L26825542","5120 CR 77","2025-05-24 10:13",1,27.8566576,-97.7065146,TRUE,FALSE,TRUE,"S241973634"
"465","gofwoo","Golden-fronted Woodpecker","Melanerpes aurifrons","L2392487","Laguna Vista Nature Trail","2025-05-24 10:05",2,26.1009454,-97.29914,TRUE,FALSE,FALSE,"S242031424"
"466","gofwoo","Golden-fronted Woodpecker","Melanerpes aurifrons","L45827035","The Other Place","2025-05-24 09:54",NA,29.7011762,-98.117802,TRUE,FALSE,TRUE,"S242000447"
"467","gofwoo","Golden-fronted Woodpecker","Melanerpes aurifrons","L9838959","405 Rodeo Drive, Boerne, Texas, US (29.845, -98.749)","2025-05-24 09:53",1,29.8448189,-98.7491599,TRUE,FALSE,TRUE,"S241960793"
"468","gofwoo","Golden-fronted Woodpecker","Melanerpes aurifrons","L9358267","Comstock BBS 83081 Stop 40","2025-05-24 09:40",1,29.7481542,-101.137823,TRUE,FALSE,TRUE,"S243106997"
"469","gofwoo","Golden-fronted Woodpecker","Melanerpes aurifrons","L45981353","104 Poplar Dr, Mountain City US-TX 30.04517, -97.89056","2025-05-24 08:57",1,30.045171,-97.890562,TRUE,FALSE,TRUE,"S242676626"
"470","gofwoo","Golden-fronted Woodpecker","Melanerpes aurifrons","L16525718","Lucas Home 116 Doeskin Dr, Boerne US-TX 29.80787, -98.76411","2025-05-24 08:55",2,29.807869,-98.76411,TRUE,FALSE,TRUE,"S241978330"
"471","gofwoo","Golden-fronted Woodpecker","Melanerpes aurifrons","L24018447","Classen-Steubing Ranch Park","2025-05-24 08:41",1,29.629643,-98.4787556,TRUE,FALSE,FALSE,"S241980794"
"472","gofwoo","Golden-fronted Woodpecker","Melanerpes aurifrons","L9659059","L E Ramey County Park","2025-05-24 08:37",1,27.4762076,-97.8297101,TRUE,FALSE,FALSE,"S242264079"
"473","gofwoo","Golden-fronted Woodpecker","Melanerpes aurifrons","L9356548","Comstock BBS 83081 Stop 27","2025-05-24 08:34",1,29.7008892,-101.1933397,TRUE,FALSE,TRUE,"S243082197"
"474","gofwoo","Golden-fronted Woodpecker","Melanerpes aurifrons","L128957","Emma Long Metro Park","2025-05-24 08:24",1,30.3316943,-97.8387451,TRUE,FALSE,FALSE,"S241939992"
"475","gofwoo","Golden-fronted Woodpecker","Melanerpes aurifrons","L246727","Anzalduas Park (LTC 068)","2025-05-24 08:21",5,26.1384105,-98.3327866,TRUE,FALSE,FALSE,"S241931406"
"476","gofwoo","Golden-fronted Woodpecker","Melanerpes aurifrons","L575840","Greenbelt Reservoir (Donley Co.) PHP078","2025-05-24 08:15",2,35.0083465,-100.8989525,TRUE,FALSE,FALSE,"S242106206"
"477","gofwoo","Golden-fronted Woodpecker","Melanerpes aurifrons","L9356377","Comstock BBS 83081 Stop 21","2025-05-24 07:58",1,29.7384231,-101.2168637,TRUE,FALSE,TRUE,"S243037250"
"478","gofwoo","Golden-fronted Woodpecker","Melanerpes aurifrons","L31129519","118 Quail Run Dr W, Hunt US-TX (30.0946,-99.3300)","2025-05-24 07:54",1,30.094632,-99.330023,TRUE,FALSE,TRUE,"S242397455"
"479","gofwoo","Golden-fronted Woodpecker","Melanerpes aurifrons","L9356219","Comstock BBS 83081 Stop 19","2025-05-24 07:46",1,29.7518185,-101.2204855,TRUE,FALSE,TRUE,"S243034624"
"480","gofwoo","Golden-fronted Woodpecker","Melanerpes aurifrons","L21356825","RTFC Rd (off Carbon Plant)","2025-05-24 07:44",2,27.855546,-97.559127,TRUE,FALSE,TRUE,"S241886607"
"481","gofwoo","Golden-fronted Woodpecker","Melanerpes aurifrons","L15343269","Medina House","2025-05-24 07:30",2,29.79411,-99.266057,TRUE,FALSE,TRUE,"S241910396"
"482","gofwoo","Golden-fronted Woodpecker","Melanerpes aurifrons","L40644911","Reynolds’ Ranch","2025-05-24 07:18",1,27.906831,-97.867263,TRUE,FALSE,TRUE,"S241871853"
"483","gofwoo","Golden-fronted Woodpecker","Melanerpes aurifrons","L45846181","1101 S Texas Blvd, Weslaco US-TX 26.14788, -97.99040","2025-05-24 07:06",2,26.147881,-97.990399,TRUE,FALSE,TRUE,"S242078566"
"484","gofwoo","Golden-fronted Woodpecker","Melanerpes aurifrons","L8875035","Chaetura Canyon Sanctuary (restricted access)","2025-05-24 07:04",1,30.3764071,-97.9223597,TRUE,FALSE,FALSE,"S241997355"
"485","gofwoo","Golden-fronted Woodpecker","Melanerpes aurifrons","L4561883","Montesino Ranch","2025-05-24 07:02",2,29.9837934,-98.0519271,TRUE,FALSE,TRUE,"S242006923"
"486","gofwoo","Golden-fronted Woodpecker","Melanerpes aurifrons","L9355693","Comstock BBS 83081 Stop 8","2025-05-24 06:50",1,29.829897,-101.2321974,TRUE,FALSE,TRUE,"S243020603"
"487","gofwoo","Golden-fronted Woodpecker","Melanerpes aurifrons","L45795016","3008 Briana Circle, Harlingen, Texas, US (26.164, -97.723)","2025-05-24 06:43",1,26.1642394,-97.7229998,TRUE,FALSE,TRUE,"S241849933"
"488","gofwoo","Golden-fronted Woodpecker","Melanerpes aurifrons","L16238788","La Paloma","2025-05-24 06:38",2,27.8639052,-98.4210248,TRUE,FALSE,TRUE,"S242351548"
"489","gofwoo","Golden-fronted Woodpecker","Melanerpes aurifrons","L26032115","Corpus Christi West Hawkwatch Site (restricted access)","2025-05-24 06:31",1,27.906239,-97.868932,TRUE,FALSE,FALSE,"S242242805"
"490","gofwoo","Golden-fronted Woodpecker","Melanerpes aurifrons","L45793838","418b East Tyler Avenue, Harlingen, Texas, US (26.19, -97.691)","2025-05-24 06:28",2,26.1895359,-97.691287,TRUE,FALSE,TRUE,"S241843338"
"491","gofwoo","Golden-fronted Woodpecker","Melanerpes aurifrons","L45794006","500 S Kansas Ave, Weslaco US-TX 26.15639, -97.98966","2025-05-24 06:28",1,26.156388,-97.989658,TRUE,FALSE,TRUE,"S241844309"
"492","gofwoo","Golden-fronted Woodpecker","Melanerpes aurifrons","L45861726","159–187 Santa Margarita Rd, Roma US-TX 26.47718, -99.08684","2025-05-24 06:10",1,26.477181,-99.086845,TRUE,FALSE,TRUE,"S242139440"
"493","gofwoo","Golden-fronted Woodpecker","Melanerpes aurifrons","L45816918","Duval Co.: County Roads between Realitos and Ramirez","2025-05-24 06:03",16,27.413144,-98.522418,TRUE,FALSE,TRUE,"S241957195"
"494","gofwoo","Golden-fronted Woodpecker","Melanerpes aurifrons","L280913","Rancho Lomitas","2025-05-23 20:16",1,26.4871971,-98.8227511,TRUE,FALSE,FALSE,"S241748034"
"495","gofwoo","Golden-fronted Woodpecker","Melanerpes aurifrons","L21747362","12439 Command Post St, San Antonio US-TX 29.55366, -98.37635","2025-05-23 19:59",1,29.553664,-98.37635,TRUE,FALSE,TRUE,"S241738905"
"496","gofwoo","Golden-fronted Woodpecker","Melanerpes aurifrons","L32751535","Wilshire Terrace east (Karen Dr.)","2025-05-23 19:01",2,29.483726,-98.435493,TRUE,FALSE,TRUE,"S241736168"
"497","gofwoo","Golden-fronted Woodpecker","Melanerpes aurifrons","L2023174","Mills Pond at Wells Branch","2025-05-23 17:40",1,30.45,-97.68012,TRUE,FALSE,FALSE,"S241713753"
"498","gofwoo","Golden-fronted Woodpecker","Melanerpes aurifrons","L13280927","Paul Jones Ave Pond","2025-05-23 17:27",1,27.679997,-97.33064,TRUE,FALSE,TRUE,"S242156708"
"499","gofwoo","Golden-fronted Woodpecker","Melanerpes aurifrons","L45759290","Baffin Bay Seafood (Riviera, Texas)","2025-05-23 16:26",3,27.288821,-97.661706,TRUE,FALSE,TRUE,"S241690261"
"500","gofwoo","Golden-fronted Woodpecker","Melanerpes aurifrons","L6528400","Thompson Memorial Park--Ross Rogers Golf Course Lake area","2025-05-23 14:15",1,35.2473253,-101.8376076,TRUE,FALSE,FALSE,"S241662054"
"501","gofwoo","Golden-fronted Woodpecker","Melanerpes aurifrons","L18175768","Bar K Park Lago Vista (limited access)","2025-05-23 14:05",2,30.4665526,-97.9966934,TRUE,FALSE,FALSE,"S241675308"
"502","gofwoo","Golden-fronted Woodpecker","Melanerpes aurifrons","L7071943","Bentsen-Rio Grande Valley SP--La Familia Nature ctr. area","2025-05-23 14:00",NA,26.183803,-98.38074,TRUE,FALSE,FALSE,"S241714632"
"503","gofwoo","Golden-fronted Woodpecker","Melanerpes aurifrons","L160490","Brackenridge Park (Avenue A & River Rd.)","2025-05-23 13:52",1,29.4545528,-98.4777029,TRUE,FALSE,FALSE,"S241643561"
"504","gofwoo","Golden-fronted Woodpecker","Melanerpes aurifrons","L12703180","Hidalgo Co.—Jara Chinas Road","2025-05-23 13:15",3,26.435237,-98.452928,TRUE,FALSE,FALSE,"S241627892"
"505","gofwoo","Golden-fronted Woodpecker","Melanerpes aurifrons","L3857013","Reagan North County Park","2025-05-23 13:13",1,31.2024659,-101.4553452,TRUE,FALSE,FALSE,"S241627346"
"506","gofwoo","Golden-fronted Woodpecker","Melanerpes aurifrons","L36405587","427 Summit Ridge Rd, Burnet US-TX 30.75857, -98.20086","2025-05-23 13:01",3,30.758574,-98.200859,TRUE,FALSE,TRUE,"S241647111"
"507","gofwoo","Golden-fronted Woodpecker","Melanerpes aurifrons","L39353320","McCook Area Wind Farms","2025-05-23 12:43",1,26.4668406,-98.4575237,TRUE,FALSE,TRUE,"S242942085"
"508","gofwoo","Golden-fronted Woodpecker","Melanerpes aurifrons","L45739034","462–498 CR-320, Alice US-TX 27.87116, -97.96090","2025-05-23 11:43",3,27.871156,-97.960895,TRUE,FALSE,TRUE,"S241601060"
"509","gofwoo","Golden-fronted Woodpecker","Melanerpes aurifrons","L36292142","Lake House Mlcak","2025-05-23 11:05",2,29.8698852,-98.276719,TRUE,FALSE,TRUE,"S241605261"
"510","gofwoo","Golden-fronted Woodpecker","Melanerpes aurifrons","L17513365","7510 Secretariat Ln, Fair Oaks Ranch US-TX 29.72552, -98.63218 , LEGO, Grid 20883, Site12/12","2025-05-23 10:11",1,29.725516,-98.632176,TRUE,FALSE,TRUE,"S241554372"
"511","gofwoo","Golden-fronted Woodpecker","Melanerpes aurifrons","L45731059","2162 Farm to Market Road 883, Tuleta, Texas, US (28.641, -97.763)","2025-05-23 10:08",1,28.6405897,-97.7625078,TRUE,FALSE,TRUE,"S241565550"
"512","gofwoo","Golden-fronted Woodpecker","Melanerpes aurifrons","L338583","Egery Road Marsh (near Bayside)","2025-05-23 09:45",2,28.0643215,-97.2124471,TRUE,FALSE,FALSE,"S241547423"
"513","gofwoo","Golden-fronted Woodpecker","Melanerpes aurifrons","L260936","Palo Duro Canyon  SP (PHP 040)","2025-05-23 09:44",1,34.9651086,-101.671257,TRUE,FALSE,FALSE,"S241674552"
"514","gofwoo","Golden-fronted Woodpecker","Melanerpes aurifrons","L38134322","8629 Rochelle Rd, San Antonio US-TX 29.52307, -98.62483","2025-05-23 09:35",2,29.523066,-98.624833,TRUE,FALSE,TRUE,"S241550604"
"515","gofwoo","Golden-fronted Woodpecker","Melanerpes aurifrons","L29722343","MH FM 631 (private)","2025-05-23 08:32",3,28.073169,-97.375776,TRUE,FALSE,TRUE,"S241521140"
"516","gofwoo","Golden-fronted Woodpecker","Melanerpes aurifrons","L45724615","1700–1898 Creek Rd, Dripping Springs US-TX (30.1905,-98.1231)","2025-05-23 08:19",1,30.190513,-98.123053,TRUE,FALSE,TRUE,"S241534834"
"517","gofwoo","Golden-fronted Woodpecker","Melanerpes aurifrons","L45729935","Private Property near Camp Creek Park","2025-05-23 08:05",1,30.565834,-98.172462,TRUE,FALSE,TRUE,"S241560528"
"518","gofwoo","Golden-fronted Woodpecker","Melanerpes aurifrons","L23884712","Los Arrieros Loop","2025-05-23 07:58",12,26.506871,-99.08065,TRUE,FALSE,TRUE,"S241537267"
"519","gofwoo","Golden-fronted Woodpecker","Melanerpes aurifrons","L1008164","Love Creek Preserve (limited access by permission-TNC)","2025-05-23 07:44",1,29.7744493,-99.410525,TRUE,FALSE,FALSE,"S241525176"
"520","gofwoo","Golden-fronted Woodpecker","Melanerpes aurifrons","L293455","Boerne City Lake Park","2025-05-23 07:37",1,29.8267792,-98.7707455,TRUE,FALSE,FALSE,"S241521279"
"521","gofwoo","Golden-fronted Woodpecker","Melanerpes aurifrons","L4185806","Archie's Ranch","2025-05-23 07:30",1,29.751226,-98.5419774,TRUE,FALSE,TRUE,"S241580522"
"522","gofwoo","Golden-fronted Woodpecker","Melanerpes aurifrons","L2059332","Comfort WTP (restricted access)","2025-05-23 07:24",1,29.9759101,-98.8921314,TRUE,FALSE,FALSE,"S241659866"
"523","gofwoo","Golden-fronted Woodpecker","Melanerpes aurifrons","L22521882","Koonce Loop (CR's 3265, 2250, 67)","2025-05-23 06:55",9,27.888044,-97.409662,TRUE,FALSE,TRUE,"S241498837"
"524","gofwoo","Golden-fronted Woodpecker","Melanerpes aurifrons","L1161881","Brushwood South","2025-05-23 06:30",1,26.3735215,-98.1917882,TRUE,FALSE,TRUE,"S241631533"
"525","gofwoo","Golden-fronted Woodpecker","Melanerpes aurifrons","L4858295","San Patricio Co.--FM63 to Whites Point","2025-05-23 06:22",2,27.8860739,-97.47787,TRUE,FALSE,FALSE,"S241476038"
"526","gofwoo","Golden-fronted Woodpecker","Melanerpes aurifrons","L16146808","Indian Mtn BBS, Edwards","2025-05-23 06:12",1,29.8305934,-100.4024117,TRUE,FALSE,TRUE,"S244288255"
"527","gofwoo","Golden-fronted Woodpecker","Melanerpes aurifrons","L246721","Brownsville","2025-05-23",3,25.911388,-97.4904876,TRUE,FALSE,TRUE,"S242000635"
