"","speciesCode","comName","sciName","locId","locName","obsDt","howMany","lat","lng","obsValid","obsReviewed","locationPrivate","subId"
"1","chclon","Chestnut-collared Longspur","Calcarius ornatus","L48672005","6786–7098 340th St SE, Driscoll US-ND (46.7208,-100.2482)","2025-06-28 16:42",1,46.720832,-100.248173,TRUE,FALSE,TRUE,"S255005433"
"2","chclon","Chestnut-collared Longspur","Calcarius ornatus","L247318","Benton Lake NWR","2025-06-28 13:07",4,47.6641904,-111.3007221,TRUE,FALSE,FALSE,"S254995150"
"3","chclon","Chestnut-collared Longspur","Calcarius ornatus","L48651190","3501–3537 30th St SE, Dawson US-ND 46.98091, -99.74939","2025-06-28 12:39",1,46.980914,-99.749386,TRUE,FALSE,TRUE,"S254928906"
"4","chclon","Chestnut-collared Longspur","Calcarius ornatus","L9645810","Pawnee NG Bird Tour—Stops 9-11 (CR-104)","2025-06-28 11:49",1,40.7396581,-104.4454206,TRUE,FALSE,FALSE,"S254940665"
"5","chclon","Chestnut-collared Longspur","Calcarius ornatus","L3717689","Kunkel School Section Prairie","2025-06-28 10:53",31,47.0314048,-99.6821221,TRUE,FALSE,FALSE,"S254911169"
"6","chclon","Chestnut-collared Longspur","Calcarius ornatus","L48639872","3917–3963 28th St SE, Tappen US-ND 47.00968, -99.65775","2025-06-28 09:58",2,47.009683,-99.657755,TRUE,FALSE,TRUE,"S254886695"
"7","chclon","Chestnut-collared Longspur","Calcarius ornatus","L48632596","Faulk Co. 15 & 165th St.","2025-06-28 09:31",2,44.998672,-98.9609119,TRUE,FALSE,TRUE,"S254856949"
"8","chclon","Chestnut-collared Longspur","Calcarius ornatus","L24668118","Manitou School Section","2025-06-28 07:00",9,48.3798758,-102.6357752,TRUE,FALSE,FALSE,"S254920019"
"9","chclon","Chestnut-collared Longspur","Calcarius ornatus","L47039450","Lemmon Lake Road (HWY 73 West to Pasture 7)","2025-06-28 05:29",18,45.804577,-102.157072,TRUE,FALSE,TRUE,"S254887740"
"10","chclon","Chestnut-collared Longspur","Calcarius ornatus","L48623588","DCFS (NEON plots)—E of 62nd Ave.","2025-06-28 05:12",2,47.203756,-99.179447,TRUE,FALSE,TRUE,"S254815855"
"11","chclon","Chestnut-collared Longspur","Calcarius ornatus","L48657737","BN1","2025-06-28 04:40",115,48.986854,-107.00581,TRUE,FALSE,TRUE,"S254952834"
"12","chclon","Chestnut-collared Longspur","Calcarius ornatus","L48599857","6637–6699 140th Ave SW, Amidon US-ND (46.4428,-103.2798)","2025-06-27 20:10",1,46.442798,-103.279841,TRUE,FALSE,TRUE,"S254709911"
"13","chclon","Chestnut-collared Longspur","Calcarius ornatus","L48586398","4752–4768 Moffat Rd, Chester US-MT 48.29778, -110.98353","2025-06-27 13:33",1,48.297783,-110.983528,TRUE,FALSE,TRUE,"S254654128"
"14","chclon","Chestnut-collared Longspur","Calcarius ornatus","L2866101","Long Lake NWR--C Dike","2025-06-27 10:51",3,46.6916678,-100.1845517,TRUE,FALSE,FALSE,"S254579774"
"15","chclon","Chestnut-collared Longspur","Calcarius ornatus","L48590881","County Road 134, Grover US-CO (40.9600,-103.9859)","2025-06-27 10:25",21,40.959954,-103.985874,TRUE,FALSE,TRUE,"S254672263"
"16","chclon","Chestnut-collared Longspur","Calcarius ornatus","L48562159","13018 47th Street Southwest, Belfield, North Dakota, US (46.731, -103.194) Grasslands","2025-06-27 08:50",1,46.7312884,-103.1939126,TRUE,FALSE,TRUE,"S254559736"
"17","chclon","Chestnut-collared Longspur","Calcarius ornatus","L43846583","Ben's","2025-06-27 08:03",1,45.992434,-102.5387652,TRUE,FALSE,TRUE,"S254539768"
"18","chclon","Chestnut-collared Longspur","Calcarius ornatus","L15841218","Old Gap Road","2025-06-27 07:25",15,46.5669615,-109.8085087,TRUE,FALSE,TRUE,"S254570629"
"19","chclon","Chestnut-collared Longspur","Calcarius ornatus","L48595469","47th St SW, Belfield","2025-06-27 05:24",2,46.731234,-103.242913,TRUE,FALSE,TRUE,"S254692045"
"20","chclon","Chestnut-collared Longspur","Calcarius ornatus","L48563936","BN6","2025-06-27 04:42",59,48.711132,-106.817979,TRUE,FALSE,TRUE,"S254566894"
"21","chclon","Chestnut-collared Longspur","Calcarius ornatus","L34456263","92nd Ave SW, Halliday US-ND (47.3791,-102.5033)","2025-06-26 19:11",2,47.37908,-102.503307,TRUE,FALSE,TRUE,"S254414027"
"22","chclon","Chestnut-collared Longspur","Calcarius ornatus","L159552","John E. Williams Preserve (The Nature Conservancy)","2025-06-26 14:02",3,47.5450593,-100.7798884,TRUE,FALSE,FALSE,"S254417299"
"23","chclon","Chestnut-collared Longspur","Calcarius ornatus","L6061718","Oka Rd.","2025-06-26 12:28",20,46.6208073,-109.8042172,TRUE,FALSE,FALSE,"S254694812"
"24","chclon","Chestnut-collared Longspur","Calcarius ornatus","L9645819","Pawnee NG Bird Tour--Stops 12-13 (CR-61)","2025-06-26 11:27",1,40.6664292,-104.4865896,TRUE,FALSE,FALSE,"S254370459"
"25","chclon","Chestnut-collared Longspur","Calcarius ornatus","L48506030","45th St NW, Palermo US-ND 48.06655, -102.11647","2025-06-26 10:54",2,48.066553,-102.116473,TRUE,FALSE,TRUE,"S254303494"
"26","chclon","Chestnut-collared Longspur","Calcarius ornatus","L18896362","31st St. Prairie (Stark Co.)","2025-06-26 10:39",2,46.9630658,-103.2259106,TRUE,FALSE,FALSE,"S254327998"
"27","chclon","Chestnut-collared Longspur","Calcarius ornatus","L45838891","8801–8805 23rd St SW, Richardton US-ND (47.0826,-102.3352)","2025-06-26 08:15",10,47.082622,-102.335248,TRUE,FALSE,TRUE,"S254598374"
"28","chclon","Chestnut-collared Longspur","Calcarius ornatus","L48588574","(46.80723, -105.99696) Deadman Road (Custer Co.)","2025-06-26 08:01",1,46.80723,-105.99696,TRUE,FALSE,TRUE,"S254663600"
"29","chclon","Chestnut-collared Longspur","Calcarius ornatus","L6073262","Chase Lake NWR--Headquarters","2025-06-26 05:07",4,47.1368209,-99.2446295,TRUE,FALSE,FALSE,"S254426313"
"30","chclon","Chestnut-collared Longspur","Calcarius ornatus","L48500905","BN3","2025-06-26 04:59",4,48.621666,-106.816315,TRUE,FALSE,TRUE,"S254283389"
"31","chclon","Chestnut-collared Longspur","Calcarius ornatus","L48470354","53rd St SW, Belfield US-ND 46.64428, -103.23559","2025-06-25 19:06",2,46.644276,-103.235588,TRUE,FALSE,TRUE,"S254142125"
"32","chclon","Chestnut-collared Longspur","Calcarius ornatus","L48469419","53rd St SW, Belfield US-ND 46.64425, -103.24438","2025-06-25 18:49",1,46.644248,-103.244385,TRUE,FALSE,TRUE,"S254137987"
"33","chclon","Chestnut-collared Longspur","Calcarius ornatus","L48473405","Hwy 47 (44.926, -99.451)","2025-06-25 17:52",1,44.926329,-99.4505092,TRUE,FALSE,TRUE,"S254154834"
"34","chclon","Chestnut-collared Longspur","Calcarius ornatus","L27799449","Pasture 7","2025-06-25 17:29",4,45.8006136,-102.0937578,TRUE,FALSE,FALSE,"S254144855"
"35","chclon","Chestnut-collared Longspur","Calcarius ornatus","L34483262","47th St SW, Belfield US-ND 46.73127, -103.19586","2025-06-25 16:10",4,46.73127,-103.195862,TRUE,FALSE,TRUE,"S254140387"
"36","chclon","Chestnut-collared Longspur","Calcarius ornatus","L48459828","6301–6477 140th Ave SW, Amidon US-ND 46.49073, -103.27993","2025-06-25 14:01",5,46.490732,-103.279929,TRUE,FALSE,TRUE,"S254092105"
"37","chclon","Chestnut-collared Longspur","Calcarius ornatus","L48495865","47th St. SW Grassland - Between 132nd and 134th","2025-06-25 11:28",13,46.7312247,-103.252326,TRUE,FALSE,TRUE,"S254262439"
"38","chclon","Chestnut-collared Longspur","Calcarius ornatus","L9644406","Pawnee NG Bird Tour—Stops 5-8","2025-06-25 11:25",1,40.683148,-104.410754,TRUE,FALSE,FALSE,"S254045505"
"39","chclon","Chestnut-collared Longspur","Calcarius ornatus","L1430693","Willow Creek Reservoir","2025-06-25 11:23",1,47.5568924,-112.4456007,TRUE,FALSE,FALSE,"S254041820"
"40","chclon","Chestnut-collared Longspur","Calcarius ornatus","L48441701","Weld County Road 49, Nunn, Colorado, US (40.776, -104.604)","2025-06-25 10:35",3,40.7760271,-104.6037775,TRUE,FALSE,TRUE,"S254015248"
"41","chclon","Chestnut-collared Longspur","Calcarius ornatus","L48598103","Dry Creek Road--north segment","2025-06-25 07:24",6,47.459826,-112.2218016,TRUE,FALSE,TRUE,"S253980877"
"42","chclon","Chestnut-collared Longspur","Calcarius ornatus","L48434825","Sunny Slope Township, North Dakota, US (46.135, -104.021)","2025-06-25 04:22",40,46.13499,-104.020801,TRUE,FALSE,TRUE,"S253985821"
"43","chclon","Chestnut-collared Longspur","Calcarius ornatus","L48402093","Unnamed Road, Amidon, North Dakota, US (46.533, -103.28)","2025-06-24 17:26",2,46.532744,-103.2799782,TRUE,FALSE,TRUE,"S253828411"
"44","chclon","Chestnut-collared Longspur","Calcarius ornatus","L9490963","Grand River NG--Blacktail Picnic Area","2025-06-24 11:08",2,45.719473,-102.1599763,TRUE,FALSE,FALSE,"S253761776"
"45","chclon","Chestnut-collared Longspur","Calcarius ornatus","L48379441","9871 Midale Rd, Malta US-MT 47.96807, -108.11462","2025-06-24 11:01",3,47.968066,-108.114617,TRUE,FALSE,TRUE,"S253744894"
"46","chclon","Chestnut-collared Longspur","Calcarius ornatus","L48384368","Pawnee NG—CR-114","2025-06-24 10:22",2,40.811333,-104.619224,TRUE,FALSE,TRUE,"S253764435"
"47","chclon","Chestnut-collared Longspur","Calcarius ornatus","L3662688","Henry Road, north","2025-06-24 10:02",4,42.6191178,-104.04984,TRUE,FALSE,FALSE,"S254092694"
"48","chclon","Chestnut-collared Longspur","Calcarius ornatus","L4657832","Custer State Park--Airport","2025-06-24 09:37",1,43.7303302,-103.3529913,TRUE,FALSE,FALSE,"S253845767"
"49","chclon","Chestnut-collared Longspur","Calcarius ornatus","L42446058","Restricted Access Study Site","2025-06-24 09:15",3,46.315498,-105.873558,TRUE,FALSE,TRUE,"S253741983"
"50","chclon","Chestnut-collared Longspur","Calcarius ornatus","L8006141","Agate Fossil Beds NM--Daemonelix Trail","2025-06-24 05:40",1,42.4275829,-103.7876573,TRUE,FALSE,FALSE,"S254093266"
"51","chclon","Chestnut-collared Longspur","Calcarius ornatus","L48400897","501 Third St NE,Harlowton to JudithGap","2025-06-24 05:30",8,46.438628,-109.825662,TRUE,FALSE,TRUE,"S253822704"
"52","chclon","Chestnut-collared Longspur","Calcarius ornatus","L6196151","Pawnee NG--Weld CR 47 near CR 116","2025-06-23 14:27",2,40.8208245,-104.6189404,TRUE,FALSE,FALSE,"S253517051"
"53","chclon","Chestnut-collared Longspur","Calcarius ornatus","L44213512","Stang","2025-06-23 11:00",7,46.0608972,-102.7232419,TRUE,FALSE,TRUE,"S253480000"
"54","chclon","Chestnut-collared Longspur","Calcarius ornatus","L48323562","Sioux Co. Private Property (restricted access)","2025-06-23 04:40",28,42.1598848,-103.7393131,TRUE,TRUE,TRUE,"S253494152"
"55","chclon","Chestnut-collared Longspur","Calcarius ornatus","L14493832","Old Gap Road","2025-06-22 19:03",3,46.5625274,-109.8149009,TRUE,FALSE,FALSE,"S253325026"
"56","chclon","Chestnut-collared Longspur","Calcarius ornatus","L48271150","114th Ave SW, Killdeer US-ND (47.3544,-102.9074)","2025-06-22 10:40",5,47.354398,-102.907358,TRUE,FALSE,TRUE,"S253258970"
"57","chclon","Chestnut-collared Longspur","Calcarius ornatus","L48276521","16100–16152 SD-79, Newell US-SD 45.06827, -103.34224","2025-06-22 09:42",2,45.068272,-103.342239,TRUE,FALSE,TRUE,"S253281753"
"58","chclon","Chestnut-collared Longspur","Calcarius ornatus","L48235087","11086–11174 SD-79, Ralph US-SD 45.80605, -102.98418","2025-06-22 08:44",1,45.806049,-102.984184,TRUE,FALSE,TRUE,"S253114754"
"59","chclon","Chestnut-collared Longspur","Calcarius ornatus","L158809","Horsehead Lake WMA","2025-06-22 07:05",2,47.0535923,-99.8160667,TRUE,FALSE,FALSE,"S253657453"
"60","chclon","Chestnut-collared Longspur","Calcarius ornatus","L158584","Bowdoin NWR","2025-06-21 17:34",3,48.4018332,-107.6784611,TRUE,FALSE,FALSE,"S252925343"
"61","chclon","Chestnut-collared Longspur","Calcarius ornatus","L48193036","Erk Road, Newell, South Dakota, US (44.956, -103.421)","2025-06-21 16:56",5,44.9560384,-103.4211154,TRUE,FALSE,TRUE,"S252917830"
"62","chclon","Chestnut-collared Longspur","Calcarius ornatus","L11616585","3098 49th Street, Mandan, North Dakota, US (46.704, -101.111)","2025-06-21 16:50",3,46.7038346,-101.1108312,TRUE,FALSE,TRUE,"S252877947"
"63","chclon","Chestnut-collared Longspur","Calcarius ornatus","L8951898","CC Dam Rd","2025-06-21 14:58",1,47.862799,-103.604887,TRUE,FALSE,FALSE,"S252847781"
"64","chclon","Chestnut-collared Longspur","Calcarius ornatus","L11777569","American Prairie Reserve--Antelope Creek Campground","2025-06-21 12:44",1,47.733777,-108.724295,TRUE,FALSE,FALSE,"S252933235"
"65","chclon","Chestnut-collared Longspur","Calcarius ornatus","L247312","Freezout Lake WMA","2025-06-21 12:08",1,47.6657859,-112.0112392,TRUE,FALSE,FALSE,"S252869324"
"66","chclon","Chestnut-collared Longspur","Calcarius ornatus","L48533857","S Camp Crook Rd, Belle Fourche US-SD 44.95831, -103.87391","2025-06-21 11:31",1,44.958314,-103.873908,TRUE,FALSE,TRUE,"S254423494"
"67","chclon","Chestnut-collared Longspur","Calcarius ornatus","L24465855","Pawnee National Grassland, Ault US-CO 40.78439, -104.60099","2025-06-21 10:02",2,40.784389,-104.60099,TRUE,FALSE,TRUE,"S252777479"
"68","chclon","Chestnut-collared Longspur","Calcarius ornatus","L48409247","Old Gap Road, Harlowton","2025-06-21 08:00",5,46.4560136,-109.820868,TRUE,FALSE,TRUE,"S253864316"
"69","chclon","Chestnut-collared Longspur","Calcarius ornatus","L6002914","Golva BBS, stops 26-30","2025-06-21 06:51",1,46.7964364,-103.7979936,TRUE,FALSE,TRUE,"S253063214"
"70","chclon","Chestnut-collared Longspur","Calcarius ornatus","L43212644","14600–14640 Ebersole Rd, Oral US-SD Dam","2025-06-21 06:24",1,43.375876,-103.152169,TRUE,FALSE,TRUE,"S252670672"
"71","chclon","Chestnut-collared Longspur","Calcarius ornatus","L6002881","Golva BBS, stops 06-10","2025-06-21 04:59",1,46.7310882,-103.913046,TRUE,FALSE,TRUE,"S253056245"
"72","chclon","Chestnut-collared Longspur","Calcarius ornatus","L6002873","Golva BBS, stops 01-05","2025-06-21 04:31",1,46.7310754,-103.9657386,TRUE,FALSE,TRUE,"S253053621"
"73","chclon","Chestnut-collared Longspur","Calcarius ornatus","L48165688","Theodore Roosevelt National Park - South Unit, Belfield US-ND (46.9376,-103.3389)","2025-06-21 03:48",1,46.93763,-103.338903,TRUE,FALSE,TRUE,"S252810836"
"74","chclon","Chestnut-collared Longspur","Calcarius ornatus","L5663560","Judith Gap (Town)","2025-06-20 09:26",1,46.67765,-109.752454,TRUE,FALSE,FALSE,"S252468856"
"75","chclon","Chestnut-collared Longspur","Calcarius ornatus","L48047973","58756, Makoti US-ND (48.0072,-101.8175)","2025-06-20 07:21",1,48.007163,-101.817523,TRUE,FALSE,TRUE,"S252301850"
"76","chclon","Chestnut-collared Longspur","Calcarius ornatus","L48057900","Little Missouri National Grassland, Amidon US-ND 46.55192, -103.27997","2025-06-20 06:34",10,46.551919,-103.279966,TRUE,FALSE,TRUE,"S252411325"
"77","chclon","Chestnut-collared Longspur","Calcarius ornatus","L48047629","2329–2399 S-248, Peerless US-MT 48.80945, -105.94002","2025-06-20 06:15",2,48.809446,-105.940017,TRUE,FALSE,TRUE,"S252299829"
"78","chclon","Chestnut-collared Longspur","Calcarius ornatus","L48058691","577 Larson Loop Road, Hammond, Montana, US (45.509, -104.471)","2025-06-19 10:09",2,45.5086697,-104.4706239,TRUE,FALSE,TRUE,"S252355502"
"79","chclon","Chestnut-collared Longspur","Calcarius ornatus","L48052510","Little Missouri National Grassland, Belfield US-ND (46.7276,-103.2628)","2025-06-19 08:57",4,46.727568,-103.26276,TRUE,FALSE,TRUE,"S252324298"
"80","chclon","Chestnut-collared Longspur","Calcarius ornatus","L47984391","47th St SW, Belfield US-ND 46.73125, -103.22113","2025-06-19 08:44",2,46.731252,-103.22113,TRUE,FALSE,TRUE,"S252025684"
"81","chclon","Chestnut-collared Longspur","Calcarius ornatus","L48010986","Snake Trail","2025-06-19 08:34",3,46.608774,-104.156024,TRUE,FALSE,TRUE,"S252130082"
"82","chclon","Chestnut-collared Longspur","Calcarius ornatus","L48196724","Old Gap Road","2025-06-19 07:10",5,46.6339036,-109.8086207,TRUE,FALSE,TRUE,"S252932644"
"83","chclon","Chestnut-collared Longspur","Calcarius ornatus","L46248557","103rd St, Fortuna US-ND (48.9091,-103.8159)","2025-06-19 05:59",6,48.909146,-103.81592,TRUE,FALSE,TRUE,"S252124517"
"84","chclon","Chestnut-collared Longspur","Calcarius ornatus","L479505","Pine Bluffs--exit 1","2025-06-19 04:52",1,41.1768451,-104.039669,TRUE,FALSE,FALSE,"S252008680"
"85","chclon","Chestnut-collared Longspur","Calcarius ornatus","L48094537","16994 SD-34, Union Center US-SD (44.5609,-102.6637)","2025-06-19 04:20",13,44.560904,-102.663722,TRUE,FALSE,TRUE,"S252499011"
