"","speciesCode","comName","sciName","locId","locName","obsDt","howMany","lat","lng","obsValid","obsReviewed","locationPrivate","subId"
"1","grpchi","Greater Prairie-Chicken","Tympanuchus cupido","L46595229","Hinman Precinct, Nebraska, US (41.198, -100.893)","2025-06-01 12:58",1,41.1981443,-100.8932199,TRUE,FALSE,TRUE,"S245603731"
"2","grpchi","Greater Prairie-Chicken","Tympanuchus cupido","L46567786","290th Ave, Rothsay US-MN 46.55222, -96.38643","2025-06-01 09:52",1,46.552221,-96.386435,TRUE,FALSE,TRUE,"S245485878"
"3","grpchi","Greater Prairie-Chicken","Tympanuchus cupido","L1195796","Buena Vista Grasslands/Marsh--Co. W and Meyers Ln.","2025-06-01 08:47",1,44.3355136,-89.5681,TRUE,FALSE,FALSE,"S245465413"
"4","grpchi","Greater Prairie-Chicken","Tympanuchus cupido","L3383482","Buena Vista Grasslands/Marsh--Townline Rd","2025-06-01 07:56",1,44.3412463,-89.6073461,TRUE,FALSE,FALSE,"S245444843"
"5","grpchi","Greater Prairie-Chicken","Tympanuchus cupido","L251100","Burchard WMA","2025-06-01 06:48",6,40.1671126,-96.302982,TRUE,FALSE,FALSE,"S245420963"
"6","grpchi","Greater Prairie-Chicken","Tympanuchus cupido","L635868","Bluestem Prairie SNA","2025-05-31 19:19",1,46.855253,-96.473875,TRUE,FALSE,FALSE,"S245242194"
"7","grpchi","Greater Prairie-Chicken","Tympanuchus cupido","L43804315","Pond","2025-05-31 18:52",NA,41.524636,-99.128687,TRUE,FALSE,TRUE,"S245275432"
"8","grpchi","Greater Prairie-Chicken","Tympanuchus cupido","L12411350","Buena Vista Grasslands/Marsh--Historical Marker/Kiosk","2025-05-31 12:10",2,44.3370373,-89.6438193,TRUE,FALSE,FALSE,"S245163081"
"9","grpchi","Greater Prairie-Chicken","Tympanuchus cupido","L45168225","Paul J. Olson SWA","2025-05-31 08:22",1,44.5175314,-89.8676491,TRUE,TRUE,FALSE,"S244964798"
"10","grpchi","Greater Prairie-Chicken","Tympanuchus cupido","L1447419","Fox Ranch (restricted access)","2025-05-31 07:45",1,39.7612188,-102.4607247,TRUE,FALSE,FALSE,"S245229839"
"11","grpchi","Greater Prairie-Chicken","Tympanuchus cupido","L15227698","BBS Stop 1","2025-05-31 05:33",2,41.596339,-99.115897,TRUE,FALSE,TRUE,"S245213485"
"12","grpchi","Greater Prairie-Chicken","Tympanuchus cupido","L360145","Konza Prairie (restricted access)","2025-05-31 05:33",4,39.0838384,-96.5905952,TRUE,FALSE,FALSE,"S245604661"
"13","grpchi","Greater Prairie-Chicken","Tympanuchus cupido","L3659592","Skyline Rd. Scenic Drive","2025-05-31 05:22",6,39.0017601,-96.2363613,TRUE,FALSE,TRUE,"S245110269"
"14","grpchi","Greater Prairie-Chicken","Tympanuchus cupido","L46404197","Loup County, Nebraska","2025-05-31 04:30",1,42.0733824,-99.5156331,TRUE,FALSE,TRUE,"S245140086"
"15","grpchi","Greater Prairie-Chicken","Tympanuchus cupido","L6653062","Buena Vista Grasslands/Marsh--Mill Rd.","2025-05-30 20:09",4,44.302804,-89.5767548,TRUE,FALSE,FALSE,"S245649339"
"16","grpchi","Greater Prairie-Chicken","Tympanuchus cupido","L46403456","50 Rd, Kensington US-KS (39.9450,-99.0578)","2025-05-30 15:52",2,39.944964,-99.057818,TRUE,FALSE,TRUE,"S244727427"
"17","grpchi","Greater Prairie-Chicken","Tympanuchus cupido","L46369926","SWM - Crane Trust (Private Access)","2025-05-30 10:02",1,40.794203,-98.421574,TRUE,FALSE,TRUE,"S244585073"
"18","grpchi","Greater Prairie-Chicken","Tympanuchus cupido","L46367901","Auto selected 38.45513, -96.55938","2025-05-30 09:59",7,38.455134,-96.559381,TRUE,FALSE,TRUE,"S244575847"
"19","grpchi","Greater Prairie-Chicken","Tympanuchus cupido","L42487313","200–298 E Yankee Rd, Glade US-KS (39.6548,-99.2742)","2025-05-30 09:55",3,39.654836,-99.274246,TRUE,FALSE,TRUE,"S244793086"
"20","grpchi","Greater Prairie-Chicken","Tympanuchus cupido","L46357789","Small Lek You Can Hear From Rd","2025-05-30 07:02",2,40.2504233,-102.2454842,TRUE,FALSE,TRUE,"S244527714"
"21","grpchi","Greater Prairie-Chicken","Tympanuchus cupido","L46356939","46894 U.S. Highway 385, Wray, Colorado, US (40.245, -102.246)","2025-05-30 07:00",1,40.245368,-102.245525,TRUE,FALSE,TRUE,"S244523346"
"22","grpchi","Greater Prairie-Chicken","Tympanuchus cupido","L129200","Tallgrass Prairie N PRES","2025-05-30 06:20",6,38.4322805,-96.5583041,TRUE,FALSE,FALSE,"S244653526"
"23","grpchi","Greater Prairie-Chicken","Tympanuchus cupido","L5481371","Buena Vista Grasslands/Marsh--Lake Rd.","2025-05-30 06:01",15,44.366692,-89.5774984,TRUE,FALSE,FALSE,"S244502197"
"24","grpchi","Greater Prairie-Chicken","Tympanuchus cupido","L46347736","559th Ave, Hartington US-NE 42.53416, -97.34802","2025-05-30 05:52",3,42.534158,-97.348016,TRUE,TRUE,TRUE,"S244474862"
"25","grpchi","Greater Prairie-Chicken","Tympanuchus cupido","L1564788","Medicine Creek WMA--Trail 16","2025-05-30 05:48",2,40.4688613,-100.2886939,TRUE,FALSE,FALSE,"S244549681"
"26","grpchi","Greater Prairie-Chicken","Tympanuchus cupido","L30602632","County Road 50, Akron US-CO 40.29179, -103.43413","2025-05-30 04:43",7,40.291786,-103.43413,TRUE,FALSE,TRUE,"S244682360"
"27","grpchi","Greater Prairie-Chicken","Tympanuchus cupido","L46305386","Open Range Road, Matfield Green, Kansas, US (38.154, -96.59)","2025-05-29 13:23",1,38.1544359,-96.5895482,TRUE,FALSE,TRUE,"S244263945"
"28","grpchi","Greater Prairie-Chicken","Tympanuchus cupido","L46300076","K Road, Cedar Point, Kansas, US (38.234, -96.677)","2025-05-29 10:57",7,38.2336377,-96.6766889,TRUE,FALSE,TRUE,"S244240156"
"29","grpchi","Greater Prairie-Chicken","Tympanuchus cupido","L3616836","Buena Vista Grasslands/Marsh--130th St. (south)","2025-05-29 08:35",11,44.3312467,-89.6269798,TRUE,FALSE,FALSE,"S244447049"
"30","grpchi","Greater Prairie-Chicken","Tympanuchus cupido","L281389","Dunn Ranch","2025-05-29 07:39",1,40.499,-94.099,TRUE,FALSE,FALSE,"S244265332"
"31","grpchi","Greater Prairie-Chicken","Tympanuchus cupido","L157683","Buena Vista Grasslands/Marsh","2025-05-29 07:03",18,44.3214,-89.5895,TRUE,FALSE,FALSE,"S245476979"
"32","grpchi","Greater Prairie-Chicken","Tympanuchus cupido","L26117831","Valentine NWR--Pony Lake Road","2025-05-29 06:03",3,42.48714,-100.5284298,TRUE,FALSE,FALSE,"S244165783"
"33","grpchi","Greater Prairie-Chicken","Tympanuchus cupido","L46250785","3401 Rd, Mullen US-NE 41.75114, -101.25674","2025-05-28 17:57",1,41.751143,-101.256738,TRUE,FALSE,TRUE,"S244006785"
"34","grpchi","Greater Prairie-Chicken","Tympanuchus cupido","L46236083","205–299 Diamond Bar Rd, Sutherland US-NE 41.53438, -101.30989","2025-05-28 14:47",4,41.534379,-101.309889,TRUE,FALSE,TRUE,"S243929695"
"35","grpchi","Greater Prairie-Chicken","Tympanuchus cupido","L636233","Felton Prairie SNA--Bicentennial Prairie","2025-05-28 10:11",1,47.0537214,-96.420393,TRUE,FALSE,FALSE,"S243877557"
"36","grpchi","Greater Prairie-Chicken","Tympanuchus cupido","L46210827","Brownlee Rd, Thedford US-NE 42.36525, -100.73169","2025-05-28 08:35",2,42.365253,-100.731689,TRUE,FALSE,TRUE,"S243810820"
"37","grpchi","Greater Prairie-Chicken","Tympanuchus cupido","L46205121","County Road 50, Akron, Colorado, US (40.293, -103.433)","2025-05-28 05:28",5,40.2930283,-103.4330013,TRUE,FALSE,TRUE,"S243781127"
"38","grpchi","Greater Prairie-Chicken","Tympanuchus cupido","L677664","Norden","2025-05-28 04:49",4,42.8667015,-100.0734758,TRUE,FALSE,FALSE,"S243996846"
"39","grpchi","Greater Prairie-Chicken","Tympanuchus cupido","L7650989","Beaver Valley Rd","2025-05-27 15:00",NA,41.8574903,-98.1844934,TRUE,FALSE,TRUE,"S244029816"
"40","grpchi","Greater Prairie-Chicken","Tympanuchus cupido","L9757770","502 Ave","2025-05-27 13:30",NA,41.8373893,-98.4504752,TRUE,FALSE,TRUE,"S244029631"
"41","grpchi","Greater Prairie-Chicken","Tympanuchus cupido","L46142568","88501–88599 533 Ave, Center US-NE 42.68362, -97.84774","2025-05-27 10:03",1,42.683616,-97.847735,TRUE,FALSE,TRUE,"S243473505"
"42","grpchi","Greater Prairie-Chicken","Tympanuchus cupido","L43156235","876 Rd, Winnetoon US-NE (42.5247,-98.0211)","2025-05-27 05:44",5,42.524661,-98.021083,TRUE,FALSE,TRUE,"S243382286"
"43","grpchi","Greater Prairie-Chicken","Tympanuchus cupido","L475245","Felton Prairie--170th St N, 3.0 mi N of 90th Ave N (CR 26)","2025-05-27 05:44",3,47.0200133,-96.4347482,TRUE,FALSE,FALSE,"S243428130"
"44","grpchi","Greater Prairie-Chicken","Tympanuchus cupido","L475229","Felton Prairie--170th St N, 1.0 mi N of 90th Ave N (CR 26)","2025-05-26 20:47",5,46.9914945,-96.4366579,TRUE,FALSE,FALSE,"S243428326"
"45","grpchi","Greater Prairie-Chicken","Tympanuchus cupido","L1007709","Niobrara River--Pischelville","2025-05-26 19:29",1,42.740961,-98.2228374,TRUE,FALSE,FALSE,"S243294716"
"46","grpchi","Greater Prairie-Chicken","Tympanuchus cupido","L46173802","3494–3598 N-23, Wellfleet US-NE 40.82935, -100.83175","2025-05-26 18:12",1,40.829354,-100.831749,TRUE,FALSE,TRUE,"S243617990"
"47","grpchi","Greater Prairie-Chicken","Tympanuchus cupido","L46084693","Blue Star Memorial Highway, Valentine, Nebraska, US (42.708, -100.536)","2025-05-26 14:58",1,42.7076081,-100.5362921,TRUE,FALSE,TRUE,"S243177277"
"48","grpchi","Greater Prairie-Chicken","Tympanuchus cupido","L36322471","Flint Hills Pasture","2025-05-26 13:00",4,38.5401072,-96.5249324,TRUE,FALSE,TRUE,"S243294984"
"49","grpchi","Greater Prairie-Chicken","Tympanuchus cupido","L46067107","Dead Horse Creek","2025-05-26 08:56",1,46.786401,-95.511794,TRUE,FALSE,TRUE,"S243101848"
"50","grpchi","Greater Prairie-Chicken","Tympanuchus cupido","L46030751","Tympanuchus WMA — north end","2025-05-26 05:19",8,47.701826,-96.430989,TRUE,FALSE,TRUE,"S242919871"
"51","grpchi","Greater Prairie-Chicken","Tympanuchus cupido","L715625","Buena Vista Grasslands/Marsh--Cty. F & Quarry Rd.","2025-05-25 18:32",3,44.3183829,-89.6465492,TRUE,FALSE,FALSE,"S242799266"
"52","grpchi","Greater Prairie-Chicken","Tympanuchus cupido","L2064162","Cookstove dam","2025-05-25 17:12",1,44.2113465,-100.3671203,TRUE,FALSE,FALSE,"S242717107"
"53","grpchi","Greater Prairie-Chicken","Tympanuchus cupido","L45989398","N-10, Hazard US-NE (41.0225,-99.0837)","2025-05-25 16:45",1,41.022541,-99.083666,TRUE,FALSE,TRUE,"S242713224"
"54","grpchi","Greater Prairie-Chicken","Tympanuchus cupido","L281391","Pawnee Prairie NA","2025-05-25 07:25",2,40.518,-94.155,TRUE,TRUE,FALSE,"S242427481"
"55","grpchi","Greater Prairie-Chicken","Tympanuchus cupido","L45863481","Nebraska 4, Steinauer, Nebraska, US (40.189, -96.249)","2025-05-24 16:10",1,40.1894876,-96.2493393,TRUE,FALSE,TRUE,"S242146451"
"56","grpchi","Greater Prairie-Chicken","Tympanuchus cupido","L384333","Red Lake Falls WTP","2025-05-24 14:23",2,47.8851253,-96.297226,TRUE,FALSE,FALSE,"S242109166"
"57","grpchi","Greater Prairie-Chicken","Tympanuchus cupido","L45885288","Back Roads, Vivian","2025-05-24 12:24",1,44.064093,-100.324935,TRUE,FALSE,TRUE,"S242246493"
"58","grpchi","Greater Prairie-Chicken","Tympanuchus cupido","L31951696","Seier NWR--East Unit (restricted access)","2025-05-24 09:30",1,42.2023945,-99.5556983,TRUE,FALSE,FALSE,"S242047210"
"59","grpchi","Greater Prairie-Chicken","Tympanuchus cupido","L638651","Wood Duck WMA--woods","2025-05-24 08:58",1,41.9315285,-97.2846222,TRUE,FALSE,FALSE,"S242052629"
"60","grpchi","Greater Prairie-Chicken","Tympanuchus cupido","L8724386","Buena Vista Prairie Chicken Meadow SNA","2025-05-23 12:43",2,44.3532223,-89.6328163,TRUE,FALSE,FALSE,"S241642907"
"61","grpchi","Greater Prairie-Chicken","Tympanuchus cupido","L45849364","29400–29798 County Line Rd, Fort Pierre US-SD 44.19515, -100.10435","2025-05-23 06:22",10,44.195151,-100.104346,TRUE,FALSE,TRUE,"S242237037"
"62","grpchi","Greater Prairie-Chicken","Tympanuchus cupido","L1580947","Tympanuchus WMA","2025-05-23 06:02",NA,47.6947392,-96.4058957,TRUE,FALSE,FALSE,"S241488017"
"63","grpchi","Greater Prairie-Chicken","Tympanuchus cupido","L3316848","Pankratz Memorial Prairie","2025-05-23 05:46",10,47.7385153,-96.4596391,TRUE,FALSE,FALSE,"S241460271"
"64","grpchi","Greater Prairie-Chicken","Tympanuchus cupido","L46391015","17021–17199 320th St SW, Crookston US-MN 47.70148, -96.43094","2025-05-23 04:33",3,47.701477,-96.430941,TRUE,FALSE,TRUE,"S244668252"
