"","speciesCode","comName","sciName","locId","locName","obsDt","howMany","lat","lng","obsValid","obsReviewed","locationPrivate","subId"
"1","linspa","Lincoln's Sparrow","Melospiza lincolnii","L7744700","Puffer Lake","2025-06-25 15:23",1,38.3159642,-112.3651955,TRUE,FALSE,FALSE,"S254115363"
"2","linspa","Lincoln's Sparrow","Melospiza lincolnii","L16372402","Meadow Fishing Access, Steamboat Lake SP","2025-06-25 14:43",3,40.793902,-106.9825,TRUE,FALSE,TRUE,"S254113551"
"3","linspa","Lincoln's Sparrow","Melospiza lincolnii","L19794139","Steamboat Lake Meadow Peninsula","2025-06-25 14:39",3,40.793841,-106.982439,TRUE,FALSE,TRUE,"S254113486"
"4","linspa","Lincoln's Sparrow","Melospiza lincolnii","L5884131","Rocky Mountain NP--Coyote Valley Trail","2025-06-25 14:19",2,40.3445489,-105.8606315,TRUE,FALSE,FALSE,"S254099692"
"5","linspa","Lincoln's Sparrow","Melospiza lincolnii","L48459479","CR-3, Leadville US-CO 39.25809, -106.21998","2025-06-25 14:13",2,39.258092,-106.219979,TRUE,FALSE,TRUE,"S254090738"
"6","linspa","Lincoln's Sparrow","Melospiza lincolnii","L2897911","Chugach SP--Wolverine Bowl Trail","2025-06-25 14:03",1,61.1401528,-149.6926582,TRUE,FALSE,FALSE,"S254109694"
"7","linspa","Lincoln's Sparrow","Melospiza lincolnii","L1509081","Lake Colby Railroad Tracks","2025-06-25 14:01",1,44.3364468,-74.1524597,TRUE,FALSE,FALSE,"S254071386"
"8","linspa","Lincoln's Sparrow","Melospiza lincolnii","L48447180","Natalie Road, Newberry, Michigan, US (46.346, -85.576)","2025-06-25 14:01",1,46.3461425,-85.5760213,TRUE,FALSE,TRUE,"S254039205"
"9","linspa","Lincoln's Sparrow","Melospiza lincolnii","L6085147","Wild Basin entrance road--Hwy 7 to Wild Basin Ranger Station","2025-06-25 13:35",1,40.2159145,-105.547328,TRUE,FALSE,FALSE,"S254118402"
"10","linspa","Lincoln's Sparrow","Melospiza lincolnii","L750599","Sequoia NP--Giant Forest (Museum/Beetle Rock/Big Trees Trail)","2025-06-25 13:24",3,36.5660125,-118.7729788,TRUE,FALSE,FALSE,"S254101449"
"11","linspa","Lincoln's Sparrow","Melospiza lincolnii","L1232973","Little Crater Lake","2025-06-25 13:10",1,45.1482952,-121.7507833,TRUE,FALSE,FALSE,"S254094983"
"12","linspa","Lincoln's Sparrow","Melospiza lincolnii","L7577469","Kings Canyon NP--Grant Grove Village","2025-06-25 12:13",1,36.7400706,-118.9627719,TRUE,FALSE,FALSE,"S254076441"
"13","linspa","Lincoln's Sparrow","Melospiza lincolnii","L1658697","Santa Fe NF--Holy Ghost Campground","2025-06-25 11:52",3,35.7723802,-105.7002053,TRUE,FALSE,FALSE,"S254122072"
"14","linspa","Lincoln's Sparrow","Melospiza lincolnii","L35983484","25-Mile Marsh","2025-06-25 11:52",1,59.4202754,-135.9609914,TRUE,FALSE,FALSE,"S254118582"
"15","linspa","Lincoln's Sparrow","Melospiza lincolnii","L354335","Big Cottonwood Canyon--Brighton to Twin Lakes Hike","2025-06-25 11:07",5,40.6018575,-111.5858888,TRUE,FALSE,FALSE,"S254088051"
"16","linspa","Lincoln's Sparrow","Melospiza lincolnii","L48450370","Iron Ore Heritage Trail, Autio Lake section","2025-06-25 10:57",1,46.463999,-87.914541,TRUE,FALSE,TRUE,"S254051997"
"17","linspa","Lincoln's Sparrow","Melospiza lincolnii","L1405485","Big Cottonwood Canyon--Brighton Loop Rd.","2025-06-25 10:52",2,40.5995375,-111.5822537,TRUE,FALSE,FALSE,"S254037779"
"18","linspa","Lincoln's Sparrow","Melospiza lincolnii","L1604104","Pearl Lake SP","2025-06-25 10:48",4,40.7880734,-106.8853902,TRUE,FALSE,FALSE,"S254079675"
"19","linspa","Lincoln's Sparrow","Melospiza lincolnii","L48457221","Pearl Lake, Clark US-CO (40.7842,-106.8876)","2025-06-25 10:43",4,40.784234,-106.88758,TRUE,FALSE,TRUE,"S254079779"
"20","linspa","Lincoln's Sparrow","Melospiza lincolnii","L325223","Rocky Mountain NP--Upper Beaver Meadows","2025-06-25 10:41",1,40.3730498,-105.6140614,TRUE,FALSE,FALSE,"S254118212"
"21","linspa","Lincoln's Sparrow","Melospiza lincolnii","L585126","Palmer Hay Flats SGR--Reflections Lake","2025-06-25 10:33",2,61.4860865,-149.2568207,TRUE,FALSE,FALSE,"S254073324"
"22","linspa","Lincoln's Sparrow","Melospiza lincolnii","L20497422","Three Creek Meadow Campground","2025-06-25 10:30",2,44.1121321,-121.6225684,TRUE,FALSE,FALSE,"S254097194"
"23","linspa","Lincoln's Sparrow","Melospiza lincolnii","L7709925","Beaver Ranch Park","2025-06-25 10:30",6,39.5064701,-105.2983205,TRUE,FALSE,FALSE,"S254070790"
"24","linspa","Lincoln's Sparrow","Melospiza lincolnii","L2376984","Homer--Beluga Lake (east end & overlook)","2025-06-25 10:20",1,59.6446348,-151.4919913,TRUE,FALSE,FALSE,"S254065357"
"25","linspa","Lincoln's Sparrow","Melospiza lincolnii","L964078","Glacier NP--Two Medicine-South Shore Trail","2025-06-25 10:14",1,48.4794583,-113.3714546,TRUE,FALSE,FALSE,"S254055006"
"26","linspa","Lincoln's Sparrow","Melospiza lincolnii","L626092","Eagle River Nature Center","2025-06-25 10:10",4,61.2342515,-149.2712295,TRUE,FALSE,FALSE,"S254097260"
"27","linspa","Lincoln's Sparrow","Melospiza lincolnii","L763879","Potter Marsh Boardwalk","2025-06-25 10:08",3,61.0775802,-149.8262,TRUE,FALSE,FALSE,"S254091767"
"28","linspa","Lincoln's Sparrow","Melospiza lincolnii","L1772244","Flathead House","2025-06-25 10:06",3,48.1768708,-114.1377721,TRUE,FALSE,TRUE,"S254044914"
"29","linspa","Lincoln's Sparrow","Melospiza lincolnii","L6121208","Palisades Campground, Red Lodge","2025-06-25 10:05",1,45.1711764,-109.3078923,TRUE,FALSE,TRUE,"S254085598"
"30","linspa","Lincoln's Sparrow","Melospiza lincolnii","L3794799","Glacier NP--Swiftcurrent Pass Trail","2025-06-25 10:02",1,48.7792419,-113.7624407,TRUE,FALSE,FALSE,"S254119245"
"31","linspa","Lincoln's Sparrow","Melospiza lincolnii","L339971","Rocky Mountain NP--Endovalley/Fall River","2025-06-25 09:52",1,40.4114602,-105.648394,TRUE,FALSE,FALSE,"S254118177"
"32","linspa","Lincoln's Sparrow","Melospiza lincolnii","L4774737","Dumont Lake","2025-06-25 09:48",4,40.4045425,-106.6301787,TRUE,FALSE,FALSE,"S254036846"
"33","linspa","Lincoln's Sparrow","Melospiza lincolnii","L212478","Paul Smith's College--Visitor Interpretive Center","2025-06-25 09:23",1,44.4486136,-74.2594002,TRUE,FALSE,FALSE,"S254045538"
"34","linspa","Lincoln's Sparrow","Melospiza lincolnii","L212481","Bloomingdale Bog Trail","2025-06-25 09:16",1,44.4128015,-74.121715,TRUE,FALSE,FALSE,"S254088471"
"35","linspa","Lincoln's Sparrow","Melospiza lincolnii","L31103927","Seward Airport, Seward US-AK 60.12773, -149.42217","2025-06-25 09:13",1,60.127732,-149.422173,TRUE,FALSE,TRUE,"S254043325"
"36","linspa","Lincoln's Sparrow","Melospiza lincolnii","L33973303","Mesa Top Trail, Molina US-CO 39.02827, -108.04847","2025-06-25 08:57",1,39.028268,-108.048469,TRUE,FALSE,TRUE,"S254093454"
"37","linspa","Lincoln's Sparrow","Melospiza lincolnii","L48458603","115–199 Friendship Dr, Fraser US-CO 39.92986, -105.77532","2025-06-25 08:54",1,39.929859,-105.77532,TRUE,FALSE,TRUE,"S254085910"
"38","linspa","Lincoln's Sparrow","Melospiza lincolnii","L1235897","Sourdough Nature Trail","2025-06-25 08:44",1,45.6398026,-111.0306966,TRUE,FALSE,FALSE,"S254076268"
"39","linspa","Lincoln's Sparrow","Melospiza lincolnii","L925450","Hebgen Lake--Grayling Arm","2025-06-25 08:35",1,44.7972567,-111.1744959,TRUE,FALSE,FALSE,"S254043653"
"40","linspa","Lincoln's Sparrow","Melospiza lincolnii","L27332455","W Turner Lake Rd.","2025-06-25 08:20",NA,45.9069644,-90.0565925,TRUE,FALSE,TRUE,"S254024764"
"41","linspa","Lincoln's Sparrow","Melospiza lincolnii","L48447770","Hog Trough","2025-06-25 08:14",1,38.814412,-106.612088,TRUE,FALSE,TRUE,"S254041207"
"42","linspa","Lincoln's Sparrow","Melospiza lincolnii","L48462792","82325, Encampment US-WY (41.1411,-106.8788)","2025-06-25 07:56",3,41.141097,-106.8788,TRUE,FALSE,TRUE,"S254106354"
"43","linspa","Lincoln's Sparrow","Melospiza lincolnii","L1653357","Yosemite NP--Soda Springs","2025-06-25 07:44",2,37.8785056,-119.3675837,TRUE,FALSE,FALSE,"S254089475"
"44","linspa","Lincoln's Sparrow","Melospiza lincolnii","L580005","Loney Meadow","2025-06-25 07:44",2,39.4206463,-120.6529284,TRUE,FALSE,FALSE,"S254097329"
"45","linspa","Lincoln's Sparrow","Melospiza lincolnii","L2221192","Middle Cottonwood Canyon Trail","2025-06-25 07:40",2,45.76595,-110.98293,TRUE,FALSE,FALSE,"S253997660"
"46","linspa","Lincoln's Sparrow","Melospiza lincolnii","L8181697","Chugach SP--Hidden Lake","2025-06-25 07:28",1,61.0921692,-149.5743695,TRUE,FALSE,FALSE,"S254104511"
"47","linspa","Lincoln's Sparrow","Melospiza lincolnii","L48429946","222 Wade Lake Rd, Cameron US-MT 44.80357, -111.56128","2025-06-25 07:10",1,44.80357,-111.561279,TRUE,FALSE,TRUE,"S253964217"
"48","linspa","Lincoln's Sparrow","Melospiza lincolnii","L587909","Rocky Mountain NP--Alluvial Fan/Fan Lake area","2025-06-25 07:01",2,40.4102611,-105.6351221,TRUE,FALSE,FALSE,"S253977253"
"49","linspa","Lincoln's Sparrow","Melospiza lincolnii","L2464461","Blue Lakes","2025-06-25 07:01",1,39.3872373,-106.1009359,TRUE,FALSE,FALSE,"S254012766"
"50","linspa","Lincoln's Sparrow","Melospiza lincolnii","L11045511","Girdwood Junction general area","2025-06-25 06:54",7,60.9407178,-149.1729013,TRUE,FALSE,FALSE,"S254001084"
"51","linspa","Lincoln's Sparrow","Melospiza lincolnii","L11570251","Harriman State Park","2025-06-25 06:51",1,44.3230444,-111.4603958,TRUE,FALSE,FALSE,"S253980128"
"52","linspa","Lincoln's Sparrow","Melospiza lincolnii","L4785491","Glacier NP--Saint Mary Campground","2025-06-25 06:46",1,48.753709,-113.442264,TRUE,FALSE,FALSE,"S253969566"
"53","linspa","Lincoln's Sparrow","Melospiza lincolnii","L16651473","Bethel--Lion's Club River Walk","2025-06-25 06:42",1,60.7885012,-161.7720547,TRUE,FALSE,FALSE,"S253989893"
"54","linspa","Lincoln's Sparrow","Melospiza lincolnii","L576775","Farm Truck Trail","2025-06-25 06:10",3,46.6448947,-85.1347904,TRUE,FALSE,FALSE,"S253924359"
"55","linspa","Lincoln's Sparrow","Melospiza lincolnii","L241872","Sax-Zim Bog","2025-06-25 06:00",2,47.2212004,-92.7009201,TRUE,FALSE,FALSE,"S254119152"
"56","linspa","Lincoln's Sparrow","Melospiza lincolnii","L48442473","Manti-La Sal National Forest, Mount Pleasant US-UT 39.43931, -111.40540","2025-06-25 06:00",2,39.439307,-111.405396,TRUE,FALSE,TRUE,"S254018997"
"57","linspa","Lincoln's Sparrow","Melospiza lincolnii","L48435038","Franklin Basin","2025-06-25 05:58",1,42.0823688,-111.5898611,TRUE,FALSE,TRUE,"S253981784"
"58","linspa","Lincoln's Sparrow","Melospiza lincolnii","L716993","Chester Creek & Fish Creek Mouths (Audubon Bench & Fish Creek Bench)","2025-06-25 05:48",1,61.2075708,-149.9289732,TRUE,FALSE,FALSE,"S253977876"
"59","linspa","Lincoln's Sparrow","Melospiza lincolnii","L48427177","Railroad Bridge at Henry's Fork Boat Launch","2025-06-25 05:44",1,44.496808,-111.2714111,TRUE,FALSE,TRUE,"S253950919"
"60","linspa","Lincoln's Sparrow","Melospiza lincolnii","L48017020","MRS","2025-06-25 05:37",1,40.032026,-105.536539,TRUE,FALSE,TRUE,"S254043235"
"61","linspa","Lincoln's Sparrow","Melospiza lincolnii","L12348493","N. Preachers Rd.","2025-06-25 05:31",1,46.6229919,-85.1152112,TRUE,FALSE,FALSE,"S253908782"
"62","linspa","Lincoln's Sparrow","Melospiza lincolnii","L48460031","Bridger-Teton NF--Black Canyon","2025-06-25 05:30",2,42.887897,-110.704654,TRUE,FALSE,TRUE,"S254092958"
"63","linspa","Lincoln's Sparrow","Melospiza lincolnii","L48445196","Shoshone National Forest (44.0285, -109.1179)","2025-06-25 05:28",2,44.028471,-109.117923,TRUE,FALSE,TRUE,"S254030738"
"64","linspa","Lincoln's Sparrow","Melospiza lincolnii","L555865","Grand Teton NP--Teton Science School","2025-06-25 05:10",2,43.6700291,-110.5983031,TRUE,FALSE,FALSE,"S254069988"
"65","linspa","Lincoln's Sparrow","Melospiza lincolnii","L3822570","Berthoud Pass (Grand Co)","2025-06-25 04:51",6,39.8306863,-105.7636428,TRUE,FALSE,FALSE,"S253952265"
"66","linspa","Lincoln's Sparrow","Melospiza lincolnii","L4491511","Copper River Hwy.--Pavilion","2025-06-25 04:40",5,60.5014816,-145.5113786,TRUE,FALSE,FALSE,"S254028323"
"67","linspa","Lincoln's Sparrow","Melospiza lincolnii","L48281171","Steamboat Lake State Park, Clark US-CO 40.80675, -106.97809","2025-06-24 20:55",NA,40.806746,-106.978092,TRUE,FALSE,TRUE,"S253862395"
"68","linspa","Lincoln's Sparrow","Melospiza lincolnii","L1545609","Big Cottonwood Canyon--Silver Lake","2025-06-24 19:41",1,40.6041979,-111.5884771,TRUE,FALSE,FALSE,"S253858838"
"69","linspa","Lincoln's Sparrow","Melospiza lincolnii","L559954","Lamb's Canyon","2025-06-24 19:11",1,40.7233235,-111.6625071,TRUE,FALSE,FALSE,"S253867743"
"70","linspa","Lincoln's Sparrow","Melospiza lincolnii","L340651","Brainard Lake","2025-06-24 18:38",4,40.077887,-105.57454,TRUE,FALSE,FALSE,"S253859604"
"71","linspa","Lincoln's Sparrow","Melospiza lincolnii","L48402649","Grand Loop Road, Yellowstone National Park, Wyoming, US (44.596, -110.387)","2025-06-24 16:51",1,44.596003,-110.3874855,TRUE,FALSE,TRUE,"S253831170"
"72","linspa","Lincoln's Sparrow","Melospiza lincolnii","L208905","Mendenhall Wetlands SGR--W of river","2025-06-24 16:48",3,58.3553602,-134.6259499,TRUE,FALSE,FALSE,"S253864859"
"73","linspa","Lincoln's Sparrow","Melospiza lincolnii","L123631","Guanella Pass (Clear Creek Co.; intended for tundra/krummholz)","2025-06-24 16:18",5,39.5967721,-105.710239,TRUE,FALSE,FALSE,"S253828754"
"74","linspa","Lincoln's Sparrow","Melospiza lincolnii","L2400030","State Forest SP--Ranger Lakes Campground area","2025-06-24 16:09",2,40.5030389,-105.9695546,TRUE,FALSE,FALSE,"S253810225"
"75","linspa","Lincoln's Sparrow","Melospiza lincolnii","L191685","Mendenhall Wetlands SGR--Fish Creek Delta","2025-06-24 16:08",1,58.3311702,-134.5996857,TRUE,FALSE,FALSE,"S253847261"
"76","linspa","Lincoln's Sparrow","Melospiza lincolnii","L4843985","Guanella Pass Campground","2025-06-24 15:59",2,39.6117552,-105.7176322,TRUE,FALSE,FALSE,"S253828624"
"77","linspa","Lincoln's Sparrow","Melospiza lincolnii","L2579057","Chugach NF--Lily Pad Lake Boardwalk","2025-06-24 15:35",2,60.2957508,-149.3515898,TRUE,FALSE,FALSE,"S253831136"
"78","linspa","Lincoln's Sparrow","Melospiza lincolnii","L1339539","Kenai Flats--Sea Catch Dr. & Cannery Rd.","2025-06-24 15:15",2,60.5351637,-151.2629414,TRUE,FALSE,FALSE,"S253835860"
"79","linspa","Lincoln's Sparrow","Melospiza lincolnii","L961319","Beluga--North Bog","2025-06-24 14:54",1,61.2094437,-151.0248041,TRUE,FALSE,FALSE,"S253850376"
"80","linspa","Lincoln's Sparrow","Melospiza lincolnii","L48407878","Bear Creek Loop","2025-06-24 14:54",4,37.48921,-107.500479,TRUE,FALSE,TRUE,"S253857440"
"81","linspa","Lincoln's Sparrow","Melospiza lincolnii","L46402018","Grand Mesa Uncompahgre and Gunnison National Forests, Almont US-CO 38.81801, -106.58321","2025-06-24 14:34",1,38.81801,-106.583208,TRUE,FALSE,TRUE,"S253798879"
"82","linspa","Lincoln's Sparrow","Melospiza lincolnii","L26198113","Buckskin--south","2025-06-24 14:22",1,45.5182833,-111.0071317,TRUE,FALSE,TRUE,"S253956460"
"83","linspa","Lincoln's Sparrow","Melospiza lincolnii","L748510","Chilkat SP","2025-06-24 14:05",1,59.115182,-135.3598022,TRUE,FALSE,FALSE,"S253860800"
"84","linspa","Lincoln's Sparrow","Melospiza lincolnii","L3774653","West Eagle Creek Campground","2025-06-24 14:03",2,45.0804907,-117.4773431,TRUE,FALSE,FALSE,"S253866832"
"85","linspa","Lincoln's Sparrow","Melospiza lincolnii","L31473499","Snow Mountain Ranch--Rowley Homestead (restricted access)","2025-06-24 13:38",1,39.9833846,-105.9470093,TRUE,FALSE,TRUE,"S253851579"
"86","linspa","Lincoln's Sparrow","Melospiza lincolnii","L2217477","Pine Creek Recreation Area","2025-06-24 13:31",4,45.4988935,-110.5227971,TRUE,FALSE,FALSE,"S253806702"
"87","linspa","Lincoln's Sparrow","Melospiza lincolnii","L11384591","Empire Quarry (private, view from US 40)","2025-06-24 13:25",1,39.7593915,-105.7011409,TRUE,FALSE,FALSE,"S253779915"
"88","linspa","Lincoln's Sparrow","Melospiza lincolnii","L1067145","Kasilof--Kasilof River Mouth","2025-06-24 13:15",2,60.3859137,-151.302166,TRUE,FALSE,FALSE,"S253842926"
"89","linspa","Lincoln's Sparrow","Melospiza lincolnii","L1211362","Turkey Creek Canyon","2025-06-24 13:00",1,39.62222,-105.18861,TRUE,FALSE,FALSE,"S253873344"
"90","linspa","Lincoln's Sparrow","Melospiza lincolnii","L48392440","Colorado Trail—Breckenridge vicinity","2025-06-24 13:00",3,39.542059,-106.034011,TRUE,FALSE,TRUE,"S253792705"
"91","linspa","Lincoln's Sparrow","Melospiza lincolnii","L2982318","Yellowstone NP--Beaver Ponds Trail (MT)","2025-06-24 12:56",1,44.998711,-110.7180262,TRUE,FALSE,FALSE,"S253779134"
"92","linspa","Lincoln's Sparrow","Melospiza lincolnii","L48425004","Landmark Stanley Rd, Cascade US-ID 44.65187, -115.54418","2025-06-24 12:55",4,44.651869,-115.544182,TRUE,FALSE,TRUE,"S253939543"
"93","linspa","Lincoln's Sparrow","Melospiza lincolnii","L16017411","Dimond Park","2025-06-24 12:10",1,58.376799,-134.5948316,TRUE,FALSE,TRUE,"S253808742"
"94","linspa","Lincoln's Sparrow","Melospiza lincolnii","L534241","Fairbanks--Peat Ponds Wildlife Area","2025-06-24 12:07",2,64.9110145,-147.9393518,TRUE,FALSE,FALSE,"S253792854"
"95","linspa","Lincoln's Sparrow","Melospiza lincolnii","L4741699","Hahns Peak Lake","2025-06-24 12:03",1,40.8375154,-106.9908071,TRUE,FALSE,FALSE,"S254079834"
"96","linspa","Lincoln's Sparrow","Melospiza lincolnii","L20324446","West Mountain Road, Cascade, Idaho, US (44.545, -116.137)","2025-06-24 11:40",2,44.5454826,-116.1371514,TRUE,FALSE,TRUE,"S253776746"
"97","linspa","Lincoln's Sparrow","Melospiza lincolnii","L45278581","Chena Flood Plain Pond","2025-06-24 11:36",3,64.7216001,-147.258081,TRUE,FALSE,TRUE,"S253786224"
"98","linspa","Lincoln's Sparrow","Melospiza lincolnii","L48388209","Napaskiak—lagoon/meadows","2025-06-24 11:30",2,60.705697,-161.744718,TRUE,FALSE,TRUE,"S253779913"
"99","linspa","Lincoln's Sparrow","Melospiza lincolnii","L21806214","Wood Ridge","2025-06-24 11:20",1,48.2814597,-114.1579765,TRUE,FALSE,TRUE,"S253744199"
"100","linspa","Lincoln's Sparrow","Melospiza lincolnii","L48386606","Valles Caldera National Preserve--Hidden Valley Trail","2025-06-24 11:02",1,35.83894,-106.491928,TRUE,FALSE,TRUE,"S253773400"
"101","linspa","Lincoln's Sparrow","Melospiza lincolnii","L1574003","Glacier NP--Beaver Pond Loop Trail","2025-06-24 10:56",1,48.7353764,-113.4377469,TRUE,FALSE,FALSE,"S253777049"
"102","linspa","Lincoln's Sparrow","Melospiza lincolnii","L48394863","KIWA stand NW of Heath and N Fairview Rd","2025-06-24 10:52",1,44.438634,-84.235418,TRUE,FALSE,TRUE,"S253801342"
"103","linspa","Lincoln's Sparrow","Melospiza lincolnii","L1893170","Cordova--Eyak River Weir","2025-06-24 10:51",1,60.53125,-145.64471,TRUE,FALSE,FALSE,"S253791270"
"104","linspa","Lincoln's Sparrow","Melospiza lincolnii","L1659859","Trout Creek Swamp","2025-06-24 10:46",4,44.2461577,-121.6949676,TRUE,FALSE,FALSE,"S253784879"
"105","linspa","Lincoln's Sparrow","Melospiza lincolnii","L48410758","38846 Highway 12 W, Lolo US-MT 46.68899, -114.55580","2025-06-24 10:36",1,46.688989,-114.555799,TRUE,FALSE,TRUE,"S253870552"
"106","linspa","Lincoln's Sparrow","Melospiza lincolnii","L160120","Rocky Mountain NP--Glacier Gorge/Loch Vale","2025-06-24 10:33",1,40.2984567,-105.6397864,TRUE,FALSE,FALSE,"S253732786"
"107","linspa","Lincoln's Sparrow","Melospiza lincolnii","L15613744","Eielson AFB--Scout Lake","2025-06-24 10:26",1,64.6711516,-147.1264143,TRUE,FALSE,FALSE,"S253773376"
"108","linspa","Lincoln's Sparrow","Melospiza lincolnii","L48391604","Brent Creek Road, Dubois US-WY 43.66278, -109.65786","2025-06-24 10:25",1,43.662775,-109.657864,TRUE,FALSE,TRUE,"S253791830"
"109","linspa","Lincoln's Sparrow","Melospiza lincolnii","L44988599","Klutina Trail","2025-06-24 10:22",1,61.180669,-149.721165,TRUE,FALSE,TRUE,"S253771844"
"110","linspa","Lincoln's Sparrow","Melospiza lincolnii","L9383212","Rocky Mountain NP--Fern Lake Trailhead","2025-06-24 10:05",3,40.3549495,-105.6312275,TRUE,FALSE,FALSE,"S253756497"
"111","linspa","Lincoln's Sparrow","Melospiza lincolnii","L981925","Yellowstone NP--Fishing Bridge","2025-06-24 10:02",1,44.56641,-110.3820848,TRUE,FALSE,FALSE,"S253724915"
"112","linspa","Lincoln's Sparrow","Melospiza lincolnii","L4407339","Telluride (town)","2025-06-24 10:00",3,37.9379023,-107.8124213,TRUE,FALSE,FALSE,"S253760282"
"113","linspa","Lincoln's Sparrow","Melospiza lincolnii","L1160359","Campbell Tract--Campbell Creek Science Center","2025-06-24 09:57",2,61.164522,-149.7774482,TRUE,FALSE,FALSE,"S253823774"
"114","linspa","Lincoln's Sparrow","Melospiza lincolnii","L26197134","Mesa Top, Whitewater US-CO 39.02853, -108.04844","2025-06-24 09:49",1,39.028533,-108.048442,TRUE,FALSE,TRUE,"S253799742"
"115","linspa","Lincoln's Sparrow","Melospiza lincolnii","L3228305","Chicken (town)","2025-06-24 09:45",2,64.0731702,-141.9336983,TRUE,FALSE,FALSE,"S253792030"
"116","linspa","Lincoln's Sparrow","Melospiza lincolnii","L4560793","Clackamas Lake Meadows","2025-06-24 09:42",2,45.0981698,-121.7460573,TRUE,FALSE,FALSE,"S253750779"
"117","linspa","Lincoln's Sparrow","Melospiza lincolnii","L6112853","Jumbo Reservoir & Campground","2025-06-24 09:41",1,39.0531515,-108.0911136,TRUE,FALSE,TRUE,"S254087562"
"118","linspa","Lincoln's Sparrow","Melospiza lincolnii","L11874743","Dillon Nature Preserve","2025-06-24 09:30",1,39.6159379,-106.0341045,TRUE,FALSE,FALSE,"S253742734"
"119","linspa","Lincoln's Sparrow","Melospiza lincolnii","L5821705","US-MT-Whitefish-DNRC","2025-06-24 09:29",4,48.327575,-114.318398,TRUE,FALSE,TRUE,"S253740985"
"120","linspa","Lincoln's Sparrow","Melospiza lincolnii","L48379433","Far North Bicentennial Park, Anchorage US-AK 61.16973, -149.78231","2025-06-24 09:21",1,61.169734,-149.782314,TRUE,FALSE,TRUE,"S253744877"
"121","linspa","Lincoln's Sparrow","Melospiza lincolnii","L45572928","Far North Bicentennial Park, Anchorage US-AK 61.17216, -149.79189","2025-06-24 09:09",2,61.172157,-149.791887,TRUE,FALSE,TRUE,"S253742599"
"122","linspa","Lincoln's Sparrow","Melospiza lincolnii","L11897082","Bonfils-Stanton Outdoor Center","2025-06-24 09:01",5,39.8820542,-105.7540807,TRUE,FALSE,FALSE,"S253729672"
"123","linspa","Lincoln's Sparrow","Melospiza lincolnii","L48464171","Big Bog Boardwalk Trail, Waskish US-MN 48.28792, -94.56755","2025-06-24 09:01",2,48.287917,-94.567551,TRUE,FALSE,TRUE,"S254113062"
"124","linspa","Lincoln's Sparrow","Melospiza lincolnii","L935833","Rocky Mountain NP--Holzwarth Historic Site","2025-06-24 08:53",1,40.3723662,-105.8604813,TRUE,FALSE,FALSE,"S253742051"
"125","linspa","Lincoln's Sparrow","Melospiza lincolnii","L935822","Rocky Mountain NP--Colorado River Trail","2025-06-24 08:51",1,40.4016707,-105.8484167,TRUE,FALSE,FALSE,"S253743353"
"126","linspa","Lincoln's Sparrow","Melospiza lincolnii","L25397505","Barronette Meadow","2025-06-24 08:45",3,44.952009,-110.075803,TRUE,FALSE,TRUE,"S253773312"
"127","linspa","Lincoln's Sparrow","Melospiza lincolnii","L2268054","Fourmile Lake","2025-06-24 08:45",1,42.467032,-122.2440147,TRUE,FALSE,FALSE,"S253781578"
"128","linspa","Lincoln's Sparrow","Melospiza lincolnii","L618446","Seward--Lagoon & Benny Benson Memorial Park","2025-06-24 08:41",1,60.1185392,-149.4424081,TRUE,FALSE,FALSE,"S253746192"
"129","linspa","Lincoln's Sparrow","Melospiza lincolnii","L1904567","Petersburg (town)","2025-06-24 08:35",4,56.8119983,-132.955513,TRUE,FALSE,FALSE,"S253797967"
"130","linspa","Lincoln's Sparrow","Melospiza lincolnii","L1204413","Yellowstone NP--Trout Lake & Trail","2025-06-24 08:34",1,44.8987782,-110.1246786,TRUE,FALSE,FALSE,"S253739818"
"131","linspa","Lincoln's Sparrow","Melospiza lincolnii","L9467739","forest edge east pond","2025-06-24 08:30",2,41.198216,-107.2416097,TRUE,FALSE,TRUE,"S253779440"
"132","linspa","Lincoln's Sparrow","Melospiza lincolnii","L48368856","Colorado Trail, Colorado, US (38.301, -106.37)","2025-06-24 08:29",1,38.3010032,-106.3699416,TRUE,FALSE,TRUE,"S253701282"
"133","linspa","Lincoln's Sparrow","Melospiza lincolnii","L5851974","Lassen Volcanic NP -- Sulphur Works","2025-06-24 08:23",1,40.4494107,-121.534431,TRUE,FALSE,FALSE,"S253856660"
"134","linspa","Lincoln's Sparrow","Melospiza lincolnii","L27167838","Mountain Village","2025-06-24 08:20",4,62.0906499,-163.7289067,TRUE,FALSE,TRUE,"S253896588"
"135","linspa","Lincoln's Sparrow","Melospiza lincolnii","L159271","Kincaid Park","2025-06-24 08:19",2,61.1530512,-150.0387812,TRUE,FALSE,FALSE,"S253729107"
"136","linspa","Lincoln's Sparrow","Melospiza lincolnii","L26806627","Snow Gauging, Provo US-UT 40.42854, -111.61908","2025-06-24 08:15",1,40.42854,-111.619075,TRUE,FALSE,TRUE,"S253761266"
"137","linspa","Lincoln's Sparrow","Melospiza lincolnii","L9743163","Rocky Mountain NP--Nymph Lake area","2025-06-24 08:10",3,40.3103152,-105.6511351,TRUE,FALSE,FALSE,"S253757693"
"138","linspa","Lincoln's Sparrow","Melospiza lincolnii","L23371644","Far North Bicentennial Park-North Bivouac Trails","2025-06-24 08:09",2,61.154017,-149.738259,TRUE,FALSE,TRUE,"S253754570"
"139","linspa","Lincoln's Sparrow","Melospiza lincolnii","L490685","Sax-Zim Bog--CR 213 (McDavitt Rd), 1.0 mi N of CR 28","2025-06-24 08:04",1,47.225791,-92.6420403,TRUE,FALSE,FALSE,"S253680591"
"140","linspa","Lincoln's Sparrow","Melospiza lincolnii","L1217734","Toolik Field Station","2025-06-24 07:55",1,68.627808,-149.593389,TRUE,FALSE,FALSE,"S253741979"
"141","linspa","Lincoln's Sparrow","Melospiza lincolnii","L481094","Rocky Mountain NP--Sprague Lake area","2025-06-24 07:55",4,40.3205562,-105.6059933,TRUE,FALSE,FALSE,"S253756064"
"142","linspa","Lincoln's Sparrow","Melospiza lincolnii","L7790874","Ridgway SP--below the dam","2025-06-24 07:36",1,38.2445957,-107.7607089,TRUE,FALSE,FALSE,"S253725333"
"143","linspa","Lincoln's Sparrow","Melospiza lincolnii","L723471","Sax-Zim Bog--Stickney Rd","2025-06-24 07:34",1,47.1921622,-92.6631546,TRUE,FALSE,FALSE,"S253671076"
"144","linspa","Lincoln's Sparrow","Melospiza lincolnii","L163667","Starrigavan Estuary Recreation Area","2025-06-24 07:26",1,57.13212,-135.36794,TRUE,FALSE,FALSE,"S253740659"
"145","linspa","Lincoln's Sparrow","Melospiza lincolnii","L589632","Grand Lake--East Inlet Trail","2025-06-24 07:20",3,40.2385882,-105.7928467,TRUE,FALSE,FALSE,"S253750019"
"146","linspa","Lincoln's Sparrow","Melospiza lincolnii","L2281343","Sylvan Lake SP--Sylvan Lake","2025-06-24 07:16",2,39.4788573,-106.7332077,TRUE,FALSE,FALSE,"S253750320"
"147","linspa","Lincoln's Sparrow","Melospiza lincolnii","L661683","Sax-Zim Bog--CR 52 (Arkola Rd), 0.5 mi E of Owl Ave","2025-06-24 07:04",1,47.1673682,-92.7054691,TRUE,FALSE,FALSE,"S253659791"
"148","linspa","Lincoln's Sparrow","Melospiza lincolnii","L8033247","Yosemite NP--Crane Flat Campground","2025-06-24 06:57",1,37.7480533,-119.8000489,TRUE,FALSE,FALSE,"S253845429"
"149","linspa","Lincoln's Sparrow","Melospiza lincolnii","L1101227","Cottonwood Lake","2025-06-24 06:50",2,38.7823574,-106.2819958,TRUE,FALSE,FALSE,"S253822667"
"150","linspa","Lincoln's Sparrow","Melospiza lincolnii","L21290618","Mammoth Lakes--Town Loop Trail-west","2025-06-24 06:44",2,37.6329501,-118.9833998,TRUE,FALSE,FALSE,"S253690637"
"151","linspa","Lincoln's Sparrow","Melospiza lincolnii","L48384013","Trail Creek Ranch Road, Wilson, Wyoming, US (43.49, -110.904)","2025-06-24 06:39",1,43.4901716,-110.9040609,TRUE,FALSE,TRUE,"S253763005"
"152","linspa","Lincoln's Sparrow","Melospiza lincolnii","L15709964","Carson National Forest, Taos Ski Valley US-NM 36.59622, -105.45502","2025-06-24 06:39",1,36.596221,-105.455019,TRUE,FALSE,TRUE,"S253703317"
"153","linspa","Lincoln's Sparrow","Melospiza lincolnii","L48397866","Tenmile Grade, Mariposa US-CA 37.52072, -119.73035","2025-06-24 06:37",1,37.520718,-119.730346,TRUE,FALSE,TRUE,"S253808864"
"154","linspa","Lincoln's Sparrow","Melospiza lincolnii","L2216182","Big Cottonwood Canyon--Twin Lakes to Lake Solitude","2025-06-24 06:34",5,40.5992192,-111.6006875,TRUE,FALSE,FALSE,"S253726153"
"155","linspa","Lincoln's Sparrow","Melospiza lincolnii","L3781865","Kaibab Park","2025-06-24 06:30",1,40.0821247,-105.9316648,TRUE,FALSE,FALSE,"S253697117"
"156","linspa","Lincoln's Sparrow","Melospiza lincolnii","L48400995","82325, Encampment US-WY (41.0976,-106.8466)","2025-06-24 06:26",2,41.097587,-106.846628,TRUE,FALSE,TRUE,"S253823162"
"157","linspa","Lincoln's Sparrow","Melospiza lincolnii","L48375389","Elkhorn Mountains - Mill Creek","2025-06-24 06:26",2,46.456005,-111.907048,TRUE,FALSE,TRUE,"S253729679"
"158","linspa","Lincoln's Sparrow","Melospiza lincolnii","L48331736","Frye Lake","2025-06-24 05:49",2,42.706369,-108.882043,TRUE,FALSE,TRUE,"S253729555"
"159","linspa","Lincoln's Sparrow","Melospiza lincolnii","L48383547","6262–6298 Guanella Pass Rd, Idaho Springs US-CO 39.62376, -105.71315","2025-06-24 05:44",1,39.623762,-105.713148,TRUE,FALSE,TRUE,"S253761164"
"160","linspa","Lincoln's Sparrow","Melospiza lincolnii","L48377182","WY-BNF-SG13","2025-06-24 05:40",7,44.7653913,-107.6122618,TRUE,FALSE,TRUE,"S253736305"
"161","linspa","Lincoln's Sparrow","Melospiza lincolnii","L24569619","35040 Jcr 21, Walden,


Gould, Colorado, US (40.522, -106.035)","2025-06-24 05:34",1,40.5220611,-106.0353742,TRUE,FALSE,TRUE,"S253646499"
"162","linspa","Lincoln's Sparrow","Melospiza lincolnii","L48388702","Bridger-Teton NF--Moose Flat area","2025-06-24 05:30",2,42.977295,-110.769982,TRUE,FALSE,TRUE,"S253781968"
"163","linspa","Lincoln's Sparrow","Melospiza lincolnii","L48361983","Yankee Doodle trail","2025-06-24 05:21",2,39.919751,-105.776123,TRUE,FALSE,TRUE,"S253666107"
"164","linspa","Lincoln's Sparrow","Melospiza lincolnii","L7529934","Bridger-Teton NF - Horse Pasture Draw","2025-06-24 05:20",1,43.1354,-110.413629,TRUE,FALSE,TRUE,"S254114120"
"165","linspa","Lincoln's Sparrow","Melospiza lincolnii","L48399484","LV15","2025-06-24 05:07",3,40.430823,-121.536195,TRUE,FALSE,TRUE,"S253816208"
"166","linspa","Lincoln's Sparrow","Melospiza lincolnii","L48349310","Girdwood Ski Hill Parking Lot","2025-06-23 22:06",1,60.958304,-149.1124307,TRUE,FALSE,TRUE,"S253604632"
"167","linspa","Lincoln's Sparrow","Melospiza lincolnii","L24131470","59802, Missoula US-MT (46.9052,-113.9353)","2025-06-23 20:18",1,46.905204,-113.935253,TRUE,FALSE,TRUE,"S253594646"
"168","linspa","Lincoln's Sparrow","Melospiza lincolnii","L48069138","Big Creek, Wyoming","2025-06-23 19:53",2,41.0271355,-106.5978666,TRUE,FALSE,TRUE,"S253587538"
"169","linspa","Lincoln's Sparrow","Melospiza lincolnii","L48312952","Steamboat Lake State Park, Clark US-CO 40.80678, -106.97803 Wheeler Loop, Site 142","2025-06-23 19:53",1,40.806782,-106.978028,TRUE,FALSE,TRUE,"S253582177"
"170","linspa","Lincoln's Sparrow","Melospiza lincolnii","L2177644","swan pond","2025-06-23 19:26",1,62.1561181,-150.0985781,TRUE,FALSE,TRUE,"S253595299"
"171","linspa","Lincoln's Sparrow","Melospiza lincolnii","L25734690","Little Bear Road (to FS gate)","2025-06-23 19:14",1,45.5330691,-111.1571422,TRUE,FALSE,FALSE,"S254049837"
"172","linspa","Lincoln's Sparrow","Melospiza lincolnii","L388014","Estes Park YMCA Camp","2025-06-23 19:04",1,40.3426295,-105.5726118,TRUE,FALSE,FALSE,"S253577979"
"173","linspa","Lincoln's Sparrow","Melospiza lincolnii","L48341910","415 Mountain Village Boulevard, Mountain Village, Colorado, US (37.934, -107.853)","2025-06-23 18:46",2,37.9338773,-107.8534509,TRUE,FALSE,TRUE,"S253570121"
"174","linspa","Lincoln's Sparrow","Melospiza lincolnii","L950301","Flat Creek Ranch HQ area","2025-06-23 17:53",1,43.5267398,-110.5438328,TRUE,FALSE,TRUE,"S253839431"
"175","linspa","Lincoln's Sparrow","Melospiza lincolnii","L1300612","Foy's Lake","2025-06-23 17:33",1,48.163223,-114.3558311,TRUE,FALSE,FALSE,"S253551497"
"176","linspa","Lincoln's Sparrow","Melospiza lincolnii","L48343820","Steamboat Lake State Park, Clark US-CO 40.79337, -106.98375","2025-06-23 16:44",4,40.793366,-106.983755,TRUE,FALSE,TRUE,"S253578581"
"177","linspa","Lincoln's Sparrow","Melospiza lincolnii","L3673539","YMCA bird banding site","2025-06-23 15:47",1,40.3434777,-105.5737129,TRUE,FALSE,TRUE,"S253557776"
"178","linspa","Lincoln's Sparrow","Melospiza lincolnii","L48194631","19 Starlight Overlook, Angel Fire US-NM 36.36927, -105.24708","2025-06-23 15:43",1,36.369273,-105.247078,TRUE,FALSE,TRUE,"S253531297"
"179","linspa","Lincoln's Sparrow","Melospiza lincolnii","L2904913","Carson NF--Williams Lake Trailhead Area","2025-06-23 15:38",1,36.5771536,-105.4387012,TRUE,FALSE,FALSE,"S253583544"
"180","linspa","Lincoln's Sparrow","Melospiza lincolnii","L631721","Muddy Pass Lake","2025-06-23 15:38",3,40.3867133,-106.5871026,TRUE,FALSE,FALSE,"S253533977"
"181","linspa","Lincoln's Sparrow","Melospiza lincolnii","L26782128","95–99 Jackpine, Jackson US-WY 43.32328, -110.43670","2025-06-23 15:08",1,43.323283,-110.4367,TRUE,FALSE,TRUE,"S254112618"
"182","linspa","Lincoln's Sparrow","Melospiza lincolnii","L388025","Rocky Mountain NP--Bear Lake area","2025-06-23 14:50",1,40.3137959,-105.6468487,TRUE,FALSE,FALSE,"S253823455"
"183","linspa","Lincoln's Sparrow","Melospiza lincolnii","L48343172","Crescent Meadow-Tharps Log, California, US (36.558, -118.744)","2025-06-23 14:35",1,36.5584127,-118.7435326,TRUE,FALSE,TRUE,"S253575852"
"184","linspa","Lincoln's Sparrow","Melospiza lincolnii","L3392173","Morrell Falls National Recreation Trail","2025-06-23 14:19",1,47.272867,-113.4510469,TRUE,FALSE,FALSE,"S253546406"
"185","linspa","Lincoln's Sparrow","Melospiza lincolnii","L20389206","Garnet Ghost Town NHS","2025-06-23 13:42",1,46.8225013,-113.3423018,TRUE,FALSE,FALSE,"S254010420"
"186","linspa","Lincoln's Sparrow","Melospiza lincolnii","L2459688","Tikishla Park (S of E. 20th Ave.)","2025-06-23 13:39",2,61.2014151,-149.824713,TRUE,FALSE,FALSE,"S253543652"
"187","linspa","Lincoln's Sparrow","Melospiza lincolnii","L16057638","Upper Hazard Lake Trail","2025-06-23 13:37",1,45.185345,-116.138632,TRUE,FALSE,FALSE,"S253568634"
"188","linspa","Lincoln's Sparrow","Melospiza lincolnii","L3031275","HUE Greenhorn Mountain Rd","2025-06-23 13:36",1,37.8929745,-105.0391245,TRUE,FALSE,TRUE,"S253522769"
"189","linspa","Lincoln's Sparrow","Melospiza lincolnii","L33470527","Auto selected 58.41268, -135.77848 dude creek ditch","2025-06-23 13:23",2,58.412684,-135.778485,TRUE,FALSE,TRUE,"S253540380"
"190","linspa","Lincoln's Sparrow","Melospiza lincolnii","L15676297","Eielson AFB--Pipeline Access Rd. MP 475 wetlands (restricted access)","2025-06-23 13:19",3,64.7003843,-147.0933133,TRUE,FALSE,FALSE,"S253724229"
"191","linspa","Lincoln's Sparrow","Melospiza lincolnii","L11024213","Bramante Yard","2025-06-23 13:18",1,48.286826,-114.151542,TRUE,FALSE,TRUE,"S253525480"
"192","linspa","Lincoln's Sparrow","Melospiza lincolnii","L807570","Rocky Mountain NP--Fall River Visitor Center area","2025-06-23 13:10",1,40.4018627,-105.5869871,TRUE,FALSE,FALSE,"S253823629"
"193","linspa","Lincoln's Sparrow","Melospiza lincolnii","L33600534","Eielson AFB--Manchu Rd. (restricted access)","2025-06-23 13:06",1,64.6937875,-147.0552243,TRUE,FALSE,FALSE,"S253523469"
"194","linspa","Lincoln's Sparrow","Melospiza lincolnii","L48331275","Pipeline Access Rd, North Pole US-AK 64.65894, -147.01158","2025-06-23 13:01",2,64.658943,-147.011581,TRUE,FALSE,TRUE,"S253522530"
"195","linspa","Lincoln's Sparrow","Melospiza lincolnii","L48374674","Cantwell, Alaska, US (63.105, -147.514)","2025-06-23 12:38",1,63.1052119,-147.5144603,TRUE,FALSE,TRUE,"S253726837"
"196","linspa","Lincoln's Sparrow","Melospiza lincolnii","L14737733","Eielson AFB--North 13 (restricted access)","2025-06-23 12:26",1,64.7292427,-147.0848718,TRUE,FALSE,TRUE,"S253515911"
"197","linspa","Lincoln's Sparrow","Melospiza lincolnii","L14730021","Eilelson AFB -- Transmitter Lake (Restricted Access)","2025-06-23 12:13",1,64.729733,-147.0897001,TRUE,FALSE,TRUE,"S253514692"
"198","linspa","Lincoln's Sparrow","Melospiza lincolnii","L949234","Mt. San Jacinto State Wilderness","2025-06-23 12:10",3,33.8139548,-116.6799545,TRUE,TRUE,FALSE,"S253971015"
"199","linspa","Lincoln's Sparrow","Melospiza lincolnii","L4806806","Tioga Rd.--Warren Fork","2025-06-23 11:51",1,37.9522242,-119.2261219,TRUE,FALSE,FALSE,"S253569458"
"200","linspa","Lincoln's Sparrow","Melospiza lincolnii","L25992932","Big Cottonwood Canyon--Redman CG, Utah, US","2025-06-23 11:48",2,40.6132103,-111.5896277,TRUE,FALSE,FALSE,"S253490832"
"201","linspa","Lincoln's Sparrow","Melospiza lincolnii","L1036411","Kings Canyon NP--Zumwalt Meadow","2025-06-23 11:45",1,36.7918109,-118.5964465,TRUE,FALSE,FALSE,"S253544685"
"202","linspa","Lincoln's Sparrow","Melospiza lincolnii","L734588","Mendocino NF--Spruce Grove area","2025-06-23 11:41",1,39.581972,-122.9356975,TRUE,FALSE,FALSE,"S253526261"
"203","linspa","Lincoln's Sparrow","Melospiza lincolnii","L11910041","Sitka--Mosquito Cove Trail (NE off of Starrigavan Bay)","2025-06-23 11:38",1,57.1351686,-135.3669427,TRUE,FALSE,FALSE,"S253535787"
"204","linspa","Lincoln's Sparrow","Melospiza lincolnii","L5829215","Fairbanks International Airport--Perimeter Rd./Tria Rd. pond","2025-06-23 11:31",2,64.7984675,-147.8698182,TRUE,FALSE,FALSE,"S253511569"
"205","linspa","Lincoln's Sparrow","Melospiza lincolnii","L21169364","Hyalite Canyon Road","2025-06-23 11:31",2,45.4772618,-110.9578722,TRUE,FALSE,TRUE,"S254080508"
"206","linspa","Lincoln's Sparrow","Melospiza lincolnii","L9673053","Stariski Tern Colony","2025-06-23 11:25",1,59.8374996,-151.8067878,TRUE,FALSE,FALSE,"S253515150"
"207","linspa","Lincoln's Sparrow","Melospiza lincolnii","L2708878","Rampart Range Rd at Hwy 67","2025-06-23 11:25",1,39.3771618,-105.0944316,TRUE,FALSE,FALSE,"S253547492"
"208","linspa","Lincoln's Sparrow","Melospiza lincolnii","L109141","Ferd's Bog","2025-06-23 10:39",1,43.7886933,-74.749732,TRUE,FALSE,FALSE,"S253477299"
"209","linspa","Lincoln's Sparrow","Melospiza lincolnii","L790957","Skagway--Dyea (Klondike Gold Rush Nat. His. Pk.)","2025-06-23 10:38",1,59.4990499,-135.3541374,TRUE,FALSE,FALSE,"S253527235"
"210","linspa","Lincoln's Sparrow","Melospiza lincolnii","L1235908","Langohr Campground","2025-06-23 10:24",1,45.5344463,-111.0164273,TRUE,FALSE,FALSE,"S254080291"
"211","linspa","Lincoln's Sparrow","Melospiza lincolnii","L48381253","Horse Flat Trail, Provo, Utah, US (40.427, -111.618)","2025-06-23 10:22",2,40.4267417,-111.618445,TRUE,FALSE,TRUE,"S253751862"
"212","linspa","Lincoln's Sparrow","Melospiza lincolnii","L5850627","Grand Lake Metropolitan Recreation Trails","2025-06-23 10:21",1,40.2510677,-105.8543873,TRUE,FALSE,FALSE,"S253593052"
"213","linspa","Lincoln's Sparrow","Melospiza lincolnii","L25729577","Spring Creek North","2025-06-23 10:07",2,43.81737,-111.133139,TRUE,FALSE,TRUE,"S253479184"
"214","linspa","Lincoln's Sparrow","Melospiza lincolnii","L1365212","(1A private)-At Forest Creek","2025-06-23 10:00",1,45.584697,-111.0806178,TRUE,FALSE,TRUE,"S253674369"
"215","linspa","Lincoln's Sparrow","Melospiza lincolnii","L48339308","Frost Pocket","2025-06-23 10:00",2,44.7968,-84.1397,TRUE,FALSE,TRUE,"S253559598"
"216","linspa","Lincoln's Sparrow","Melospiza lincolnii","L6334751","Chasm Lake","2025-06-23 09:28",1,40.2589126,-105.6047809,TRUE,FALSE,FALSE,"S253474710"
"217","linspa","Lincoln's Sparrow","Melospiza lincolnii","L4741939","BBS Route Guanella Pass 17-211 Stop 50","2025-06-23 09:25",1,39.478941,-105.7777861,TRUE,FALSE,TRUE,"S253495743"
"218","linspa","Lincoln's Sparrow","Melospiza lincolnii","L29873983","Chevallier Dr. South - Ranch HQ - Little Sheep Cr.","2025-06-23 09:24",2,46.8308851,-112.2021777,TRUE,FALSE,FALSE,"S253499679"
"219","linspa","Lincoln's Sparrow","Melospiza lincolnii","L782177","Gustavus--Forelands (W of dock to Critical Habitat boundary)","2025-06-23 09:16",7,58.3921763,-135.7899857,TRUE,FALSE,FALSE,"S253567276"
"220","linspa","Lincoln's Sparrow","Melospiza lincolnii","L4741933","BBS Route Guanella Pass 17-211 Stop 48","2025-06-23 09:15",1,39.4733862,-105.7607527,TRUE,FALSE,TRUE,"S253494852"
"221","linspa","Lincoln's Sparrow","Melospiza lincolnii","L4741928","BBS Route Guanella Pass 17-211 Stop 47","2025-06-23 09:08",3,39.4720083,-105.7546768,TRUE,FALSE,TRUE,"S253494696"
"222","linspa","Lincoln's Sparrow","Melospiza lincolnii","L11636686","Lower Green Belt, El Camino Real, Angel Fire US-NM 36.37294, -105.26773","2025-06-23 08:55",1,36.37294,-105.267726,TRUE,FALSE,TRUE,"S253462707"
"223","linspa","Lincoln's Sparrow","Melospiza lincolnii","L554724","Eldorado Mountain Open Space","2025-06-23 08:48",1,39.9256011,-105.2762747,TRUE,FALSE,FALSE,"S253762329"
"224","linspa","Lincoln's Sparrow","Melospiza lincolnii","L2295556","Rocky Mountain NP--Lake Irene area","2025-06-23 08:46",1,40.4125893,-105.8207658,TRUE,FALSE,FALSE,"S253528522"
"225","linspa","Lincoln's Sparrow","Melospiza lincolnii","L737445","Palmer Hay Flats SGR--Rabbit Slough Access Rd.","2025-06-23 08:43",6,61.5368722,-149.2616701,TRUE,FALSE,FALSE,"S253469371"
"226","linspa","Lincoln's Sparrow","Melospiza lincolnii","L4741910","BBS Route Guanella Pass 17-211 Stop 43","2025-06-23 08:42",1,39.457009,-105.7222684,TRUE,FALSE,TRUE,"S253493116"
"227","linspa","Lincoln's Sparrow","Melospiza lincolnii","L1437329","Quake Lake","2025-06-23 08:38",4,44.8506622,-111.3992849,TRUE,FALSE,FALSE,"S253564233"
"228","linspa","Lincoln's Sparrow","Melospiza lincolnii","L2327189","Rocky Mountain Biological Laboratory","2025-06-23 08:36",1,38.9572308,-106.9891119,TRUE,FALSE,FALSE,"S253546669"
"229","linspa","Lincoln's Sparrow","Melospiza lincolnii","L22580347","Fall River House","2025-06-23 08:33",1,40.388329,-105.561432,TRUE,FALSE,TRUE,"S253433767"
"230","linspa","Lincoln's Sparrow","Melospiza lincolnii","L4854947","Lost Man Loop Trail","2025-06-23 08:31",3,39.1225404,-106.6254285,TRUE,FALSE,FALSE,"S253723411"
"231","linspa","Lincoln's Sparrow","Melospiza lincolnii","L4012716","Peaceful Valley Campground","2025-06-23 08:29",2,40.1318953,-105.5070305,TRUE,FALSE,FALSE,"S253520234"
"232","linspa","Lincoln's Sparrow","Melospiza lincolnii","L48316093","Box Road to Box Canyon","2025-06-23 08:28",1,39.1249274,-105.4560387,TRUE,FALSE,TRUE,"S253463826"
"233","linspa","Lincoln's Sparrow","Melospiza lincolnii","L496326","Outer Point Trail","2025-06-23 08:24",1,58.302364,-134.6786499,TRUE,FALSE,FALSE,"S253514405"
"234","linspa","Lincoln's Sparrow","Melospiza lincolnii","L48315615","Sea Mountain Golf","2025-06-23 08:17",2,57.104433,-135.395283,TRUE,FALSE,TRUE,"S253462037"
"235","linspa","Lincoln's Sparrow","Melospiza lincolnii","L199372","Kings Canyon NP--Grant Grove","2025-06-23 08:17",1,36.7433115,-118.9679553,TRUE,FALSE,FALSE,"S253553078"
"236","linspa","Lincoln's Sparrow","Melospiza lincolnii","L6159230","Craig Mountain WMA--Kruze Meadows","2025-06-23 08:15",4,46.1463897,-116.7858129,TRUE,TRUE,FALSE,"S253570213"
"237","linspa","Lincoln's Sparrow","Melospiza lincolnii","L42259740","Warbler Meadow (Bullard's Landing, lower Taku River)","2025-06-23 08:12",1,58.446632,-133.928459,TRUE,FALSE,TRUE,"S253577335"
"238","linspa","Lincoln's Sparrow","Melospiza lincolnii","L48323657","Sturgeon Area,, Minnesota, US (47.806, -92.805)","2025-06-23 08:07",1,47.806325,-92.8046733,TRUE,FALSE,TRUE,"S253493254"
"239","linspa","Lincoln's Sparrow","Melospiza lincolnii","L33699908","Mp 116, Taylor Hwy, Delta Junction US-AK 64.34790, -141.40427","2025-06-23 08:01",1,64.347896,-141.404266,TRUE,FALSE,TRUE,"S253741784"
"240","linspa","Lincoln's Sparrow","Melospiza lincolnii","L109304","Rocky Mountain NP (Larimer Co) (Please use a more specific location)","2025-06-23 08:00",2,40.3570097,-105.68367,TRUE,FALSE,FALSE,"S254092704"
"241","linspa","Lincoln's Sparrow","Melospiza lincolnii","L14433980","Piney's place","2025-06-23 08:00",1,45.1744565,-109.2570642,TRUE,FALSE,TRUE,"S253430114"
"242","linspa","Lincoln's Sparrow","Melospiza lincolnii","L4741857","BBS Route Guanella Pass 17-211 Stop 32","2025-06-23 07:50",3,39.5105263,-105.7107738,TRUE,FALSE,TRUE,"S253491740"
"243","linspa","Lincoln's Sparrow","Melospiza lincolnii","L600148","Santa Fe NF--Las Conchas Trailhead","2025-06-23 07:49",5,35.8153772,-106.533308,TRUE,FALSE,FALSE,"S253502159"
"244","linspa","Lincoln's Sparrow","Melospiza lincolnii","L12162272","Singleton Springs vicinity","2025-06-23 07:48",6,38.636392,-120.244019,TRUE,FALSE,FALSE,"S253526346"
"245","linspa","Lincoln's Sparrow","Melospiza lincolnii","L4741859","BBS Route Guanella Pass 17-211 Stop 31","2025-06-23 07:46",2,39.5153581,-105.7184167,TRUE,FALSE,TRUE,"S253491533"
"246","linspa","Lincoln's Sparrow","Melospiza lincolnii","L4741851","BBS Route Guanella Pass 17-211 Stop 30","2025-06-23 07:41",1,39.5183066,-105.725422,TRUE,FALSE,TRUE,"S253491411"
"247","linspa","Lincoln's Sparrow","Melospiza lincolnii","L2961788","Williams Fork Reservoir","2025-06-23 07:39",1,40.0165063,-106.2103271,TRUE,FALSE,FALSE,"S253445799"
"248","linspa","Lincoln's Sparrow","Melospiza lincolnii","L10541416","Worthen Meadow Reservoir","2025-06-23 07:34",4,42.6994392,-108.9261293,TRUE,FALSE,FALSE,"S253523831"
"249","linspa","Lincoln's Sparrow","Melospiza lincolnii","L1625282","Yellowstone NP--Fairy Falls Trail","2025-06-23 07:28",1,44.5271294,-110.8447537,TRUE,FALSE,FALSE,"S253505846"
"250","linspa","Lincoln's Sparrow","Melospiza lincolnii","L9628713","Private residence near Sugarloaf-Forest Loop","2025-06-23 07:25",1,40.003761,-105.478791,TRUE,FALSE,TRUE,"S253427612"
"251","linspa","Lincoln's Sparrow","Melospiza lincolnii","L33700174","Mp 119.5, Taylor Hwy, Delta Junction US-AK 64.38648, -141.41418","2025-06-23 07:19",1,64.386476,-141.414182,TRUE,FALSE,TRUE,"S253741314"
"252","linspa","Lincoln's Sparrow","Melospiza lincolnii","L34144856","home","2025-06-23 07:00",1,39.6674624,-106.5429107,TRUE,FALSE,TRUE,"S253592233"
"253","linspa","Lincoln's Sparrow","Melospiza lincolnii","L48331164","Auto selected 39.52273, -106.75032","2025-06-23 06:52",3,39.522735,-106.750321,TRUE,FALSE,TRUE,"S253522151"
"254","linspa","Lincoln's Sparrow","Melospiza lincolnii","L4739777","BBS Route Guanella Pass 17-211 Stop 21","2025-06-23 06:49",1,39.5683322,-105.7243645,TRUE,FALSE,TRUE,"S253490692"
"255","linspa","Lincoln's Sparrow","Melospiza lincolnii","L48342546","Taylor Mt Area","2025-06-23 06:47",2,40.201168,-105.479676,TRUE,FALSE,TRUE,"S253573218"
"256","linspa","Lincoln's Sparrow","Melospiza lincolnii","L1312792","Ketchikan Airport Perimeter","2025-06-23 06:45",13,55.3612831,-131.7197227,TRUE,FALSE,FALSE,"S253593602"
"257","linspa","Lincoln's Sparrow","Melospiza lincolnii","L33700280","Mp 122, Taylor Hwy, Delta Junction US-AK 64.40498, -141.39680","2025-06-23 06:42",1,64.404977,-141.396797,TRUE,FALSE,TRUE,"S253740776"
"258","linspa","Lincoln's Sparrow","Melospiza lincolnii","L26624120","Golden Gate Canyon SP--Reverends Ridge Campground","2025-06-23 06:39",1,39.8757395,-105.4496098,TRUE,FALSE,FALSE,"S253398217"
"259","linspa","Lincoln's Sparrow","Melospiza lincolnii","L33700299","Mp 122.5, Taylor Hwy, Delta Junction US-AK 64.41124, -141.38877","2025-06-23 06:36",1,64.411239,-141.388766,TRUE,FALSE,TRUE,"S253740733"
"260","linspa","Lincoln's Sparrow","Melospiza lincolnii","L1224307","Mt. Rainier NP--White River Campground","2025-06-23 06:32",1,46.9025695,-121.6414404,TRUE,FALSE,FALSE,"S253449473"
"261","linspa","Lincoln's Sparrow","Melospiza lincolnii","L32044329","Beluga—Airstrip Bog","2025-06-23 06:31",1,61.174467,-151.056734,TRUE,FALSE,TRUE,"S253445283"
"262","linspa","Lincoln's Sparrow","Melospiza lincolnii","L5609326","Cordova--Goose Cove (Pt. Whitshed)","2025-06-23 06:30",2,60.4598416,-145.9562016,TRUE,FALSE,FALSE,"S253752875"
"263","linspa","Lincoln's Sparrow","Melospiza lincolnii","L955708","Caribou Town Site","2025-06-23 06:30",3,39.9810499,-105.5792892,TRUE,FALSE,FALSE,"S253530600"
"264","linspa","Lincoln's Sparrow","Melospiza lincolnii","L33700350","Mp 123.5, Taylor Hwy, Delta Junction US-AK 64.41952, -141.37847","2025-06-23 06:22",1,64.419522,-141.378472,TRUE,FALSE,TRUE,"S253740456"
"265","linspa","Lincoln's Sparrow","Melospiza lincolnii","L759131","Yosemite NP--McGurk Meadow","2025-06-23 06:20",2,37.6780464,-119.6334743,TRUE,FALSE,FALSE,"S253485650"
"266","linspa","Lincoln's Sparrow","Melospiza lincolnii","L4739757","BBS Route Guanella Pass 17-211 Stop 16","2025-06-23 06:20",2,39.598671,-105.7093757,TRUE,FALSE,TRUE,"S253489593"
"267","linspa","Lincoln's Sparrow","Melospiza lincolnii","L48324683","Townline Rd south of Helmer Lake Rd","2025-06-23 06:16",1,44.732671,-84.248894,TRUE,FALSE,TRUE,"S253498127"
"268","linspa","Lincoln's Sparrow","Melospiza lincolnii","L33700378","Mp 124, Taylor Hwy, Delta Junction US-AK 64.42525, -141.36105","2025-06-23 06:16",1,64.425255,-141.361046,TRUE,FALSE,TRUE,"S253740361"
"269","linspa","Lincoln's Sparrow","Melospiza lincolnii","L10541429","Shoshone NF--Louis Lake","2025-06-23 06:15",2,42.59326,-108.8466256,TRUE,FALSE,FALSE,"S253480878"
"270","linspa","Lincoln's Sparrow","Melospiza lincolnii","L19171713","Forest Road 10038, Alpine, Wyoming, US (43.055, -110.824)","2025-06-23 06:15",1,43.0554141,-110.8240958,TRUE,FALSE,TRUE,"S253576809"
"271","linspa","Lincoln's Sparrow","Melospiza lincolnii","L33700405","Mp 125, Taylor Hwy, Delta Junction US-AK 64.43795, -141.34665","2025-06-23 06:00",1,64.437946,-141.346651,TRUE,FALSE,TRUE,"S253740234"
"272","linspa","Lincoln's Sparrow","Melospiza lincolnii","L3217707","East Longs Peak Trail (below treeline)","2025-06-23 05:58",2,40.2736813,-105.5600417,TRUE,FALSE,FALSE,"S253474556"
"273","linspa","Lincoln's Sparrow","Melospiza lincolnii","L4738614","BBS Route Guanella Pass 17-211 Stop 12","2025-06-23 05:57",2,39.6153691,-105.7161234,TRUE,FALSE,TRUE,"S253488061"
"274","linspa","Lincoln's Sparrow","Melospiza lincolnii","L4738611","BBS Route Guanella Pass 17-211 Stop 11","2025-06-23 05:51",1,39.6235105,-105.7133413,TRUE,FALSE,TRUE,"S253487760"
"275","linspa","Lincoln's Sparrow","Melospiza lincolnii","L48132148","Walker Family Reunion - Fraser","2025-06-23 05:19",5,39.963783,-105.86609,TRUE,FALSE,TRUE,"S253405063"
"276","linspa","Lincoln's Sparrow","Melospiza lincolnii","L33700543","Mp 128, Taylor Hwy, Delta Junction US-AK 64.45954, -141.26224","2025-06-23 05:16",1,64.459543,-141.262241,TRUE,FALSE,TRUE,"S253739740"
"277","linspa","Lincoln's Sparrow","Melospiza lincolnii","L391210","Point Bridget SP","2025-06-23 05:15",10,58.6640847,-134.9630928,TRUE,FALSE,FALSE,"S253531770"
"278","linspa","Lincoln's Sparrow","Melospiza lincolnii","L33700574","Mp 128.5, Taylor Hwy, Delta Junction US-AK 64.46263, -141.25127","2025-06-23 05:09",1,64.462635,-141.25127,TRUE,FALSE,TRUE,"S253739683"
"279","linspa","Lincoln's Sparrow","Melospiza lincolnii","L33700889","Mp 129, Taylor Hwy, Delta Junction US-AK 64.46789, -141.23699","2025-06-23 05:02",1,64.467894,-141.236991,TRUE,FALSE,TRUE,"S253739608"
"280","linspa","Lincoln's Sparrow","Melospiza lincolnii","L10839271","Twomey Williams Forest Road","2025-06-23 04:58",1,48.247253,-93.9822677,TRUE,FALSE,FALSE,"S253449814"
"281","linspa","Lincoln's Sparrow","Melospiza lincolnii","L48328668","LV04","2025-06-23 04:52",6,40.437673,-121.533727,TRUE,FALSE,TRUE,"S253512114"
"282","linspa","Lincoln's Sparrow","Melospiza lincolnii","L48312477","Wallface Ponds - MBW 159","2025-06-23 04:48",2,44.147215,-74.040529,TRUE,FALSE,TRUE,"S253449828"
"283","linspa","Lincoln's Sparrow","Melospiza lincolnii","L33701032","Mp 132, Taylor Hwy, Delta Junction US-AK 64.49803, -141.19734","2025-06-23 04:20",1,64.498027,-141.197345,TRUE,FALSE,TRUE,"S253739127"
"284","linspa","Lincoln's Sparrow","Melospiza lincolnii","L33701130","Mp 133.5, Taylor Hwy, Delta Junction US-AK 64.51548, -141.20725","2025-06-23 04:00",1,64.51548,-141.207249,TRUE,FALSE,TRUE,"S253735213"
"285","linspa","Lincoln's Sparrow","Melospiza lincolnii","L33701214","Mp 135, Taylor Hwy, Delta Junction US-AK 64.53026, -141.23760","2025-06-23 03:39",1,64.530259,-141.2376,TRUE,FALSE,TRUE,"S253735034"
"286","linspa","Lincoln's Sparrow","Melospiza lincolnii","L33701308","Mp 137, Taylor Hwy, Delta Junction US-AK 64.54899, -141.27791","2025-06-23 03:09",1,64.548995,-141.277915,TRUE,FALSE,TRUE,"S253734770"
"287","linspa","Lincoln's Sparrow","Melospiza lincolnii","L2510814","Soldotna--Slikok Creek SRS","2025-06-22 21:20",1,60.4816566,-151.1297536,TRUE,FALSE,FALSE,"S253334929"
"288","linspa","Lincoln's Sparrow","Melospiza lincolnii","L48303979","5855 Alaska 6, Fairbanks, Alaska, US (65.162, -147.325)","2025-06-22 20:50",1,65.1620117,-147.3254617,TRUE,FALSE,TRUE,"S253413177"
"289","linspa","Lincoln's Sparrow","Melospiza lincolnii","L9642805","North Michigan Creek Reservoir","2025-06-22 20:12",1,40.5539892,-105.99999,TRUE,FALSE,FALSE,"S253768163"
"290","linspa","Lincoln's Sparrow","Melospiza lincolnii","L44773323","Old Seward Highway- Backside Potter’s marsh","2025-06-22 18:57",1,61.068857,-149.802796,TRUE,FALSE,TRUE,"S253319510"
"291","linspa","Lincoln's Sparrow","Melospiza lincolnii","L48279364","130 Moose Run Road,","2025-06-22 18:42",1,44.6827921,-111.1998833,TRUE,FALSE,TRUE,"S253295358"
"292","linspa","Lincoln's Sparrow","Melospiza lincolnii","L48275314","910A Lakepoint Circle, Frisco, Colorado, US (39.591, -106.087)","2025-06-22 17:24",1,39.59056,-106.0872071,TRUE,FALSE,TRUE,"S253276470"
"293","linspa","Lincoln's Sparrow","Melospiza lincolnii","L2708061","Glacier Bay NP--Moose Flats","2025-06-22 16:21",2,58.4513637,-135.7815034,TRUE,FALSE,FALSE,"S253309249"
"294","linspa","Lincoln's Sparrow","Melospiza lincolnii","L48338977","12634 U.S. 34, Grand Lake, Colorado, US (40.226, -105.852)","2025-06-22 16:06",1,40.2257169,-105.8523247,TRUE,FALSE,TRUE,"S253556392"
"295","linspa","Lincoln's Sparrow","Melospiza lincolnii","L4606931","Palmer Hay Flats SGR--Wasilla Creek Boardwalk","2025-06-22 16:04",2,61.5504655,-149.2958629,TRUE,FALSE,FALSE,"S253299781"
"296","linspa","Lincoln's Sparrow","Melospiza lincolnii","L4977613","Sax-Zim Bog--South Logging Rd. Trail","2025-06-22 15:49",1,47.2479336,-92.6422607,TRUE,FALSE,FALSE,"S253287813"
"297","linspa","Lincoln's Sparrow","Melospiza lincolnii","L2386178","Campbell Creek Estuary Natural Area","2025-06-22 15:44",2,61.1332266,-149.9665131,TRUE,FALSE,FALSE,"S253295517"
"298","linspa","Lincoln's Sparrow","Melospiza lincolnii","L525854","Old Matanuska Townsite","2025-06-22 14:51",1,61.548467,-149.229269,TRUE,FALSE,FALSE,"S253279945"
"299","linspa","Lincoln's Sparrow","Melospiza lincolnii","L48285303","Pebble Creek Rd, Bancroft US-ID (42.7660,-112.0955)","2025-06-22 14:45",1,42.766025,-112.095458,TRUE,FALSE,TRUE,"S253320753"
"300","linspa","Lincoln's Sparrow","Melospiza lincolnii","L998890","Bethel--Hangar Lake","2025-06-22 14:39",1,60.8037385,-161.7179775,TRUE,FALSE,FALSE,"S253322514"
"301","linspa","Lincoln's Sparrow","Melospiza lincolnii","L9324326","Hosmer Lake, Sisters US-OR (43.9624,-121.7810)","2025-06-22 14:30",1,43.962355,-121.780963,TRUE,FALSE,TRUE,"S253278855"
"302","linspa","Lincoln's Sparrow","Melospiza lincolnii","L152823","Mendenhall Wetlands SGR--Airport Dike Trail","2025-06-22 14:26",3,58.3523993,-134.5945144,TRUE,FALSE,FALSE,"S254085611"
"303","linspa","Lincoln's Sparrow","Melospiza lincolnii","L24886517","Grand Teton NP--Snake River Float Trip","2025-06-22 14:26",1,43.759496,-110.628321,TRUE,FALSE,TRUE,"S253318038"
"304","linspa","Lincoln's Sparrow","Melospiza lincolnii","L45227932","33 Upper Hoback rd.","2025-06-22 14:21",1,43.15587,-110.368487,TRUE,FALSE,TRUE,"S253242542"
"305","linspa","Lincoln's Sparrow","Melospiza lincolnii","L22666262","Denali Hwy.--mm 124.5 Ponds","2025-06-22 13:55",1,63.390321,-148.6076472,TRUE,FALSE,FALSE,"S253750934"
"306","linspa","Lincoln's Sparrow","Melospiza lincolnii","L19216923","Bullard's Landing (lower Taku River)","2025-06-22 13:47",6,58.4508786,-133.9314903,TRUE,FALSE,TRUE,"S253321429"
"307","linspa","Lincoln's Sparrow","Melospiza lincolnii","L48331663","Stough Creek Lakes Trail, Lander US-WY 42.68529, -109.00156","2025-06-22 13:46",1,42.685294,-109.00156,TRUE,FALSE,TRUE,"S253524147"
"308","linspa","Lincoln's Sparrow","Melospiza lincolnii","L5713380","Pickle Gulch Picnic Area","2025-06-22 13:35",1,39.8433294,-105.5279517,TRUE,FALSE,FALSE,"S253280032"
"309","linspa","Lincoln's Sparrow","Melospiza lincolnii","L48329796","National Forest Development Road 21, Heppner, Oregon, US (45.128, -119.344)","2025-06-22 13:30",1,45.1277921,-119.3436888,TRUE,FALSE,TRUE,"S253516607"
"310","linspa","Lincoln's Sparrow","Melospiza lincolnii","L47828601","Leek Spring Valley Meadow","2025-06-22 13:10",8,38.630256,-120.252695,TRUE,FALSE,TRUE,"S253326505"
"311","linspa","Lincoln's Sparrow","Melospiza lincolnii","L955858","Grand Teton NP--Schwabacher Landing","2025-06-22 13:07",1,43.7116651,-110.6705832,TRUE,FALSE,FALSE,"S253318016"
"312","linspa","Lincoln's Sparrow","Melospiza lincolnii","L829848","Snowline Lake","2025-06-22 13:01",3,39.8862469,-105.5087551,TRUE,FALSE,FALSE,"S253279930"
"313","linspa","Lincoln's Sparrow","Melospiza lincolnii","L6250306","North Inlet Trail to Cascade Falls","2025-06-22 12:20",3,40.2645618,-105.7892632,TRUE,FALSE,FALSE,"S253232923"
"314","linspa","Lincoln's Sparrow","Melospiza lincolnii","L6136876","Rocky Mountain NP--Endovalley Picnic Area","2025-06-22 12:00",1,40.4133327,-105.6588435,TRUE,FALSE,FALSE,"S253425934"
"315","linspa","Lincoln's Sparrow","Melospiza lincolnii","L390227","Eagle Beach SRA","2025-06-22 11:45",2,58.5283716,-134.8270512,TRUE,FALSE,FALSE,"S253703093"
"316","linspa","Lincoln's Sparrow","Melospiza lincolnii","L582649","Grand Teton NP--Phelps Lake area","2025-06-22 11:42",1,43.6430942,-110.7963467,TRUE,FALSE,FALSE,"S253250854"
"317","linspa","Lincoln's Sparrow","Melospiza lincolnii","L500447","Sabattis Bog","2025-06-22 11:31",1,44.0707984,-74.5388353,TRUE,FALSE,FALSE,"S253139114"
"318","linspa","Lincoln's Sparrow","Melospiza lincolnii","L355421","Whyte Rd / Stony River F.R.","2025-06-22 11:29",1,47.47481,-91.53173,TRUE,FALSE,FALSE,"S253225939"
"319","linspa","Lincoln's Sparrow","Melospiza lincolnii","L7486919","Tall Pines","2025-06-22 11:26",1,44.6867112,-84.8607159,TRUE,TRUE,TRUE,"S253147865"
"320","linspa","Lincoln's Sparrow","Melospiza lincolnii","L7906717","Alyeska Ski Area, Anchorage US-AK (60.9618,-149.1068)","2025-06-22 10:43",1,60.961786,-149.106792,TRUE,FALSE,TRUE,"S253328466"
"321","linspa","Lincoln's Sparrow","Melospiza lincolnii","L4905178","Yellowstone NP--Hellroaring Creek Trail","2025-06-22 10:43",2,44.9495226,-110.4499555,TRUE,FALSE,FALSE,"S253231535"
"322","linspa","Lincoln's Sparrow","Melospiza lincolnii","L7217099","The Lakes","2025-06-22 10:42",1,48.3823498,-114.3191063,TRUE,FALSE,FALSE,"S253271063"
"323","linspa","Lincoln's Sparrow","Melospiza lincolnii","L48285739","Tahoe National Forest, Sierra City US-CA (39.6723,-120.5970)","2025-06-22 10:42",2,39.672278,-120.596964,TRUE,FALSE,TRUE,"S253322921"
"324","linspa","Lincoln's Sparrow","Melospiza lincolnii","L989543","Trillium Lake","2025-06-22 10:32",2,45.2737086,-121.7377853,TRUE,FALSE,FALSE,"S253265305"
"325","linspa","Lincoln's Sparrow","Melospiza lincolnii","L2265481","Brotherhood Bridge Trail","2025-06-22 10:30",8,58.3711175,-134.6019495,TRUE,FALSE,FALSE,"S253261842"
"326","linspa","Lincoln's Sparrow","Melospiza lincolnii","L48346988","Strawberry Reservoir, Wyoming, US (42.905, -110.855)","2025-06-22 10:27",1,42.9051602,-110.8546933,TRUE,FALSE,TRUE,"S253592619"
"327","linspa","Lincoln's Sparrow","Melospiza lincolnii","L946363","Sequoia NP--Crescent Meadow","2025-06-22 10:10",5,36.5563263,-118.7479591,TRUE,FALSE,FALSE,"S253303666"
"328","linspa","Lincoln's Sparrow","Melospiza lincolnii","L48253939","Lost Lake","2025-06-22 10:06",1,39.949254,-105.535057,TRUE,FALSE,TRUE,"S253579630"
"329","linspa","Lincoln's Sparrow","Melospiza lincolnii","L565754","Community Gardens","2025-06-22 10:05",1,58.4132114,-134.6065092,TRUE,FALSE,FALSE,"S253201745"
"330","linspa","Lincoln's Sparrow","Melospiza lincolnii","L27014202","Incline Lake Road/Trail","2025-06-22 10:05",1,39.2985257,-119.9278678,TRUE,FALSE,FALSE,"S253282795"
"331","linspa","Lincoln's Sparrow","Melospiza lincolnii","L48285844","Okanogan - Wenatchee National Forest, Cle Elum US-WA (47.3031,-120.6043)","2025-06-22 09:55",1,47.303106,-120.604256,TRUE,FALSE,TRUE,"S253323445"
"332","linspa","Lincoln's Sparrow","Melospiza lincolnii","L561441","Tongass NF--Moose Lake area","2025-06-22 09:42",1,58.4057814,-134.5713186,TRUE,FALSE,FALSE,"S253210069"
"333","linspa","Lincoln's Sparrow","Melospiza lincolnii","L436451","Saddlebag Lake","2025-06-22 09:41",1,37.9669368,-119.2672348,TRUE,FALSE,FALSE,"S253305997"
"334","linspa","Lincoln's Sparrow","Melospiza lincolnii","L48228637","599 North Southgate Drive, Gwinn, Michigan, US (46.299, -87.418)","2025-06-22 09:33",6,46.2993627,-87.4175761,TRUE,FALSE,TRUE,"S253085661"
"335","linspa","Lincoln's Sparrow","Melospiza lincolnii","L129129","Westchester Lagoon","2025-06-22 09:32",1,61.2070462,-149.9198785,TRUE,FALSE,FALSE,"S253320493"
"336","linspa","Lincoln's Sparrow","Melospiza lincolnii","L18292125","Bad dog wetlands","2025-06-22 09:31",1,58.362019,-134.604725,TRUE,FALSE,TRUE,"S253326177"
"337","linspa","Lincoln's Sparrow","Melospiza lincolnii","L48238556","Faraway Farm Personal Bog [Spruce Swamp]","2025-06-22 09:31",1,47.4244365,-92.2257587,TRUE,FALSE,TRUE,"S253129200"
"338","linspa","Lincoln's Sparrow","Melospiza lincolnii","L2222722","Church Meadow Rd.","2025-06-22 09:30",1,39.674586,-120.6204972,TRUE,FALSE,FALSE,"S253509027"
"339","linspa","Lincoln's Sparrow","Melospiza lincolnii","L15945026","Anderson Marsh State Historic Park, Lower Lake US-CA 38.92436, -122.61793","2025-06-22 09:29",1,38.924358,-122.61793,TRUE,FALSE,TRUE,"S253178706"
"340","linspa","Lincoln's Sparrow","Melospiza lincolnii","L48263656","Dream Lake-Lake Haiyaha Trail, Estes Park US-CO 40.31016, -105.66475","2025-06-22 09:27",2,40.31016,-105.664748,TRUE,FALSE,TRUE,"S253226520"
"341","linspa","Lincoln's Sparrow","Melospiza lincolnii","L9404154","Golden Gate Canyon SP--Mule Deer Trail","2025-06-22 09:26",1,39.8521971,-105.4443409,TRUE,FALSE,FALSE,"S253154593"
"342","linspa","Lincoln's Sparrow","Melospiza lincolnii","L566943","Wolf Creek Summit","2025-06-22 09:25",1,40.4823726,-111.0319734,TRUE,FALSE,FALSE,"S253183446"
"343","linspa","Lincoln's Sparrow","Melospiza lincolnii","L48262210","Mount Stanley","2025-06-22 09:19",1,39.770785,-105.853598,TRUE,FALSE,TRUE,"S253220985"
"344","linspa","Lincoln's Sparrow","Melospiza lincolnii","L25901288","Moose Wilson Road","2025-06-22 08:45",1,43.6582332,-110.7316806,TRUE,FALSE,FALSE,"S253317786"
"345","linspa","Lincoln's Sparrow","Melospiza lincolnii","L366208","Hedbom Logging Trail Road","2025-06-22 08:45",1,46.9106988,-93.0777168,TRUE,FALSE,FALSE,"S253718541"
"346","linspa","Lincoln's Sparrow","Melospiza lincolnii","L388463","East Portal","2025-06-22 08:44",2,39.9022304,-105.6475353,TRUE,FALSE,FALSE,"S253278377"
"347","linspa","Lincoln's Sparrow","Melospiza lincolnii","L490667","Sax-Zim Bog--Admiral Rd, 4.0 mi S of CR 27","2025-06-22 08:40",1,47.2483875,-92.6252174,TRUE,FALSE,FALSE,"S253192366"
"348","linspa","Lincoln's Sparrow","Melospiza lincolnii","L279294","Yuba Pass","2025-06-22 08:39",3,39.6169093,-120.4889524,TRUE,FALSE,FALSE,"S253229914"
"349","linspa","Lincoln's Sparrow","Melospiza lincolnii","L48279740","Muskegs Sitka, Alaska, US (57.438, -135.67)","2025-06-22 08:37",1,57.4382657,-135.6702814,TRUE,FALSE,TRUE,"S253296900"
"350","linspa","Lincoln's Sparrow","Melospiza lincolnii","L48001234","Seventeenmile Lake, Sutton US-AK (61.7148,-148.9769)","2025-06-22 08:35",2,61.714825,-148.976899,TRUE,FALSE,TRUE,"S253171730"
"351","linspa","Lincoln's Sparrow","Melospiza lincolnii","L11666678","Madison River Between Hebgen & Quake","2025-06-22 08:35",1,44.8650573,-111.3514466,TRUE,FALSE,TRUE,"S253205868"
"352","linspa","Lincoln's Sparrow","Melospiza lincolnii","L950776","Big Four Ice Caves","2025-06-22 08:25",1,48.0651548,-121.5151566,TRUE,FALSE,FALSE,"S253343106"
"353","linspa","Lincoln's Sparrow","Melospiza lincolnii","L33667186","3842 North Fork Fall Creek Road, Jackson, Wyoming, US (43.37, -110.863)","2025-06-22 08:15",5,43.3697219,-110.8630135,TRUE,FALSE,TRUE,"S253141511"
"354","linspa","Lincoln's Sparrow","Melospiza lincolnii","L6644443","Eklutna Lake","2025-06-22 08:13",1,61.3815029,-149.0399387,TRUE,FALSE,FALSE,"S253291791"
"355","linspa","Lincoln's Sparrow","Melospiza lincolnii","L18287537","Behrend's avalanche area","2025-06-22 08:11",1,58.3090641,-134.4301215,TRUE,FALSE,TRUE,"S253164612"
"356","linspa","Lincoln's Sparrow","Melospiza lincolnii","L711377","Girdwood--Alyeska Resort","2025-06-22 07:57",1,60.9706759,-149.0990317,TRUE,FALSE,FALSE,"S253151970"
"357","linspa","Lincoln's Sparrow","Melospiza lincolnii","L48230841","82520, Lander US-WY 42.47102, -108.90268","2025-06-22 07:57",1,42.471016,-108.902675,TRUE,FALSE,TRUE,"S253096016"
"358","linspa","Lincoln's Sparrow","Melospiza lincolnii","L933503","Rocky Mountain NP--Wild Basin area","2025-06-22 07:53",4,40.2081802,-105.5667579,TRUE,FALSE,FALSE,"S253227544"
"359","linspa","Lincoln's Sparrow","Melospiza lincolnii","L48282606","HWY 12 - Little Henderson Canyon","2025-06-22 07:44",1,37.6678525,-112.1098519,TRUE,FALSE,TRUE,"S253309243"
"360","linspa","Lincoln's Sparrow","Melospiza lincolnii","L2514380","Rockefeller Preserve","2025-06-22 07:39",1,43.6275643,-110.7754469,TRUE,FALSE,FALSE,"S253673770"
"361","linspa","Lincoln's Sparrow","Melospiza lincolnii","L48242068","Richardson Hwy, Delta Junction US-AK 63.27025, -145.67565","2025-06-22 07:38",1,63.27025,-145.675652,TRUE,FALSE,TRUE,"S253142949"
"362","linspa","Lincoln's Sparrow","Melospiza lincolnii","L4012502","Fulford Cave area","2025-06-22 07:37",5,39.4923841,-106.6588354,TRUE,FALSE,FALSE,"S253468499"
"363","linspa","Lincoln's Sparrow","Melospiza lincolnii","L48235181","26746 Light Lane, Colorado, US (39.523, -105.296)","2025-06-22 07:25",1,39.5229159,-105.2959859,TRUE,FALSE,TRUE,"S253115160"
"364","linspa","Lincoln's Sparrow","Melospiza lincolnii","L3811321","Grand Teton NP--Moose Wilson Rd. wetlands overlook","2025-06-22 07:15",1,43.65416,-110.73764,TRUE,FALSE,FALSE,"S253073528"
"365","linspa","Lincoln's Sparrow","Melospiza lincolnii","L48190359","CR-67J, Red Feather Lakes US-CO 40.82899, -105.56348","2025-06-22 07:11",1,40.828992,-105.563478,TRUE,FALSE,TRUE,"S253120633"
"366","linspa","Lincoln's Sparrow","Melospiza lincolnii","L3678422","Blue River Campground","2025-06-22 07:11",1,39.7259491,-106.1314487,TRUE,FALSE,FALSE,"S253585184"
"367","linspa","Lincoln's Sparrow","Melospiza lincolnii","L19312122","Beaver Creek Ponds, Gallatin county, Montana","2025-06-22 07:11",1,44.861784,-111.370952,TRUE,FALSE,TRUE,"S253206263"
"368","linspa","Lincoln's Sparrow","Melospiza lincolnii","L915996","Calaveras Big Trees SP--North Grove","2025-06-22 07:00",2,38.2787612,-120.3080392,TRUE,FALSE,FALSE,"S253328135"
"369","linspa","Lincoln's Sparrow","Melospiza lincolnii","L8318147","Upper O'Malley Trailhead, Chugach State Park","2025-06-22 06:46",2,61.1193972,-149.714427,TRUE,FALSE,FALSE,"S253169362"
"370","linspa","Lincoln's Sparrow","Melospiza lincolnii","L341396","Grand Teton NP--Taggart Lake","2025-06-22 06:43",2,43.6991816,-110.7528703,TRUE,FALSE,FALSE,"S253101565"
"371","linspa","Lincoln's Sparrow","Melospiza lincolnii","L7809996","Rocky Mountain NP--Green Mountain Trail","2025-06-22 06:41",5,40.3089914,-105.8344733,TRUE,FALSE,FALSE,"S253142591"
"372","linspa","Lincoln's Sparrow","Melospiza lincolnii","L48264006","Bear Lake Loop Trail, Estes Park US-CO 40.31195, -105.64574","2025-06-22 06:36",3,40.311951,-105.645736,TRUE,FALSE,TRUE,"S253228209"
"373","linspa","Lincoln's Sparrow","Melospiza lincolnii","L840172","Whittier (town)","2025-06-22 06:32",1,60.777602,-148.7033844,TRUE,FALSE,FALSE,"S253106597"
"374","linspa","Lincoln's Sparrow","Melospiza lincolnii","L33417550","Forest Road 30980, Wilson, Wyoming, US (43.449, -110.962)","2025-06-22 06:25",7,43.4488852,-110.9622575,TRUE,FALSE,TRUE,"S253142570"
"375","linspa","Lincoln's Sparrow","Melospiza lincolnii","L8108381","Mount Rose Trail","2025-06-22 06:02",1,39.3124016,-119.8992555,TRUE,FALSE,FALSE,"S253166871"
"376","linspa","Lincoln's Sparrow","Melospiza lincolnii","L6168163","Maroon Lake area","2025-06-22 05:41",1,39.0979779,-106.9430745,TRUE,FALSE,FALSE,"S253706219"
"377","linspa","Lincoln's Sparrow","Melospiza lincolnii","L589444","Yosemite NP--Hodgdon Meadow","2025-06-22 05:40",2,37.7955424,-119.8623848,TRUE,FALSE,FALSE,"S253291358"
"378","linspa","Lincoln's Sparrow","Melospiza lincolnii","L3753457","Lost Lake area","2025-06-22 05:28",1,46.9825122,-92.3344016,TRUE,FALSE,TRUE,"S253159100"
"379","linspa","Lincoln's Sparrow","Melospiza lincolnii","L153926","Tongass NF--Mendenhall Visitor Center & Trails","2025-06-22 05:23",NA,58.4165947,-134.5469507,TRUE,FALSE,FALSE,"S254085225"
"380","linspa","Lincoln's Sparrow","Melospiza lincolnii","L191057","Rocky Mountain NP--Cow Creek","2025-06-22 05:22",3,40.42682,-105.524994,TRUE,FALSE,FALSE,"S253174348"
"381","linspa","Lincoln's Sparrow","Melospiza lincolnii","L48240593","Devils thumb trail","2025-06-22 05:14",7,39.979864,-105.70734,TRUE,FALSE,TRUE,"S253137249"
"382","linspa","Lincoln's Sparrow","Melospiza lincolnii","L12864930","Mirror Lake Trail #664","2025-06-22 01:36",2,45.297778,-121.791667,TRUE,FALSE,FALSE,"S253264397"
"383","linspa","Lincoln's Sparrow","Melospiza lincolnii","L2693297","Chugach NF--Child's Glacier RA","2025-06-21 22:53",1,60.6652138,-144.7568906,TRUE,FALSE,FALSE,"S252971866"
"384","linspa","Lincoln's Sparrow","Melospiza lincolnii","L937659","Kenai--Tarbox Wildlife Viewing Platform","2025-06-21 21:30",2,60.5420341,-151.2194681,TRUE,FALSE,FALSE,"S252969968"
"385","linspa","Lincoln's Sparrow","Melospiza lincolnii","L47473085","Fence Corner","2025-06-21 17:48",2,61.172523,-150.048316,TRUE,FALSE,TRUE,"S252936358"
"386","linspa","Lincoln's Sparrow","Melospiza lincolnii","L48191157","Shoshone National Forest, Meeteetse US-WY 44.01228, -109.12927","2025-06-21 17:46",3,44.012285,-109.129269,TRUE,FALSE,TRUE,"S252910113"
"387","linspa","Lincoln's Sparrow","Melospiza lincolnii","L594031","Ackerson Meadow","2025-06-21 17:25",1,37.835,-119.847,TRUE,FALSE,FALSE,"S253181881"
"388","linspa","Lincoln's Sparrow","Melospiza lincolnii","L7975957","Marshall Pass area","2025-06-21 17:12",1,38.393213,-106.2475068,TRUE,FALSE,FALSE,"S252915218"
"389","linspa","Lincoln's Sparrow","Melospiza lincolnii","L1187601","James Kipp Recreation Area--boat landing","2025-06-21 17:08",1,47.6234919,-108.6800194,TRUE,FALSE,FALSE,"S252933208"
"390","linspa","Lincoln's Sparrow","Melospiza lincolnii","L16081974","Kootenai National Forest, Eureka US-MT 48.85565, -115.05163","2025-06-21 17:03",3,48.855648,-115.051628,TRUE,FALSE,TRUE,"S252891451"
"391","linspa","Lincoln's Sparrow","Melospiza lincolnii","L1793610","Georgetown Lake--Phillipsburg Bay","2025-06-21 16:47",1,46.2058648,-113.2850073,TRUE,FALSE,FALSE,"S252918114"
"392","linspa","Lincoln's Sparrow","Melospiza lincolnii","L23135369","Campbell Creek Park--2022 Elmore burn","2025-06-21 16:32",3,61.168675,-149.812882,TRUE,FALSE,FALSE,"S252933666"
"393","linspa","Lincoln's Sparrow","Melospiza lincolnii","L668818","Carson River Park","2025-06-21 16:00",1,39.1414778,-119.7051001,TRUE,FALSE,FALSE,"S253561822"
"394","linspa","Lincoln's Sparrow","Melospiza lincolnii","L48196955","2999 E 154th Ave, Anchorage US-AK (61.0775,-149.8261)","2025-06-21 15:59",2,61.077474,-149.82608,TRUE,FALSE,TRUE,"S252933082"
"395","linspa","Lincoln's Sparrow","Melospiza lincolnii","L14958126","Willow marsh N of Packer lake/Sardine lake roads jct","2025-06-21 14:39",3,39.6230901,-120.614543,TRUE,FALSE,TRUE,"S252922870"
"396","linspa","Lincoln's Sparrow","Melospiza lincolnii","L4744017","Yellowstone NP--Petrified Tree","2025-06-21 14:30",2,44.9165894,-110.4406106,TRUE,FALSE,FALSE,"S252903337"
"397","linspa","Lincoln's Sparrow","Melospiza lincolnii","L5479886","Michigan River wetlands near Jackson CR 30","2025-06-21 13:51",1,40.6127145,-106.0859317,TRUE,FALSE,FALSE,"S253200223"
"398","linspa","Lincoln's Sparrow","Melospiza lincolnii","L8066118","Platoro (town)","2025-06-21 13:43",2,37.3546849,-106.5332115,TRUE,FALSE,FALSE,"S252908832"
"399","linspa","Lincoln's Sparrow","Melospiza lincolnii","L515634","Arapaho NWR--Auto Loop","2025-06-21 13:41",2,40.6686604,-106.322937,TRUE,FALSE,FALSE,"S253510721"
"400","linspa","Lincoln's Sparrow","Melospiza lincolnii","L1493943","Rabbit Ears Pass (Grand County)","2025-06-21 13:40",1,40.3853896,-106.6129589,TRUE,FALSE,FALSE,"S252838736"
"401","linspa","Lincoln's Sparrow","Melospiza lincolnii","L20441807","Brush Creek Cabin","2025-06-21 13:33",1,39.332454,-107.840987,TRUE,FALSE,TRUE,"S253196458"
"402","linspa","Lincoln's Sparrow","Melospiza lincolnii","L19796126","Suce Creek Trail","2025-06-21 13:30",NA,45.5736543,-110.5064153,TRUE,FALSE,FALSE,"S253450425"
"403","linspa","Lincoln's Sparrow","Melospiza lincolnii","L3354428","Green Ridge Campground area","2025-06-21 13:12",3,40.2055581,-105.8481932,TRUE,FALSE,FALSE,"S252938004"
"404","linspa","Lincoln's Sparrow","Melospiza lincolnii","L748775","Grand Lake complex--East Shore Trailhead","2025-06-21 12:54",1,40.240263,-105.8255106,TRUE,FALSE,FALSE,"S252880486"
"405","linspa","Lincoln's Sparrow","Melospiza lincolnii","L2366471","Valles Caldera National Preserve--Entrance Station","2025-06-21 12:17",1,35.8568553,-106.4906716,TRUE,FALSE,FALSE,"S252937690"
"406","linspa","Lincoln's Sparrow","Melospiza lincolnii","L48179311","Peaks Trail, Frisco US-CO 39.56896, -106.09953","2025-06-21 12:15",1,39.568957,-106.099527,TRUE,FALSE,TRUE,"S252862144"
"407","linspa","Lincoln's Sparrow","Melospiza lincolnii","L48197699","Bear Lake Trail","2025-06-21 12:09",1,40.311928,-105.645509,TRUE,FALSE,TRUE,"S252936048"
"408","linspa","Lincoln's Sparrow","Melospiza lincolnii","L48183986","Hemlock Knob Trail, Anchorage US-AK 61.11678, -149.69056","2025-06-21 12:07",1,61.116782,-149.690564,TRUE,FALSE,TRUE,"S252879858"
"409","linspa","Lincoln's Sparrow","Melospiza lincolnii","L579085","Forest Road 3344","2025-06-21 11:53",1,46.2237012,-85.0449085,TRUE,FALSE,FALSE,"S254086665"
"410","linspa","Lincoln's Sparrow","Melospiza lincolnii","L48182188","Beaver Ponds Trail, Gunnison US-CO 38.81304, -107.09300","2025-06-21 11:46",4,38.81304,-107.092996,TRUE,FALSE,TRUE,"S252873050"
"411","linspa","Lincoln's Sparrow","Melospiza lincolnii","L48200562","Chapel On The R
Rock- 10758 Colorado 7, Allenspark, Colorado, US (40.247, -105.537)","2025-06-21 11:44",1,40.2472116,-105.5366413,TRUE,FALSE,TRUE,"S252948836"
"412","linspa","Lincoln's Sparrow","Melospiza lincolnii","L824314","Wildernest (community)","2025-06-21 11:43",1,39.6208299,-106.0907221,TRUE,FALSE,FALSE,"S252810223"
"413","linspa","Lincoln's Sparrow","Melospiza lincolnii","L48170940","Toomey Williams Rd.--North End","2025-06-21 11:37",2,48.2821719,-94.0332568,TRUE,FALSE,TRUE,"S252830869"
"414","linspa","Lincoln's Sparrow","Melospiza lincolnii","L521432","Scout Camp Trail","2025-06-21 11:36",6,58.5225682,-134.8283815,TRUE,FALSE,FALSE,"S254085771"
"415","linspa","Lincoln's Sparrow","Melospiza lincolnii","L3695461","Tahoe Meadows--Interpretive Loop Trail","2025-06-21 11:33",1,39.3071942,-119.9062066,TRUE,FALSE,FALSE,"S252838309"
"416","linspa","Lincoln's Sparrow","Melospiza lincolnii","L48160796","Dog Creek","2025-06-21 11:17",1,46.580689,-112.357788,TRUE,FALSE,TRUE,"S252792094"
"417","linspa","Lincoln's Sparrow","Melospiza lincolnii","L753439","Cowdrey Reservoir","2025-06-21 11:15",1,40.8376777,-106.3133454,TRUE,FALSE,FALSE,"S253508394"
"418","linspa","Lincoln's Sparrow","Melospiza lincolnii","L48346405","Missouri Lakes Trail, Basalt US-CO 39.38746, -106.47424","2025-06-21 11:07",1,39.387461,-106.474239,TRUE,FALSE,TRUE,"S253589824"
"419","linspa","Lincoln's Sparrow","Melospiza lincolnii","L5965604","Eagle (town)","2025-06-21 11:04",2,64.7877662,-141.1995077,TRUE,FALSE,FALSE,"S252921078"
"420","linspa","Lincoln's Sparrow","Melospiza lincolnii","L28009101","Fairplay Beach","2025-06-21 10:59",1,39.2220127,-106.0037037,TRUE,FALSE,FALSE,"S252810087"
"421","linspa","Lincoln's Sparrow","Melospiza lincolnii","L48182839","WY-130, Encampment US-WY 41.32248, -106.33841","2025-06-21 10:45",2,41.322475,-106.338414,TRUE,FALSE,TRUE,"S252875627"
"422","linspa","Lincoln's Sparrow","Melospiza lincolnii","L48166054","Trail Creek Ranch Road, Wilson, Wyoming, US (43.49, -110.906)","2025-06-21 10:41",1,43.4896544,-110.9064582,TRUE,FALSE,TRUE,"S252812142"
"423","linspa","Lincoln's Sparrow","Melospiza lincolnii","L7749029","Staunton SP (Park Co)","2025-06-21 10:40",1,39.515879,-105.402151,TRUE,FALSE,FALSE,"S252861302"
"424","linspa","Lincoln's Sparrow","Melospiza lincolnii","L9534738","Mesa Top TH","2025-06-21 10:35",2,39.028719,-108.0483913,TRUE,FALSE,TRUE,"S252903423"
"425","linspa","Lincoln's Sparrow","Melospiza lincolnii","L15337096","Austin Mullan Pass Rd, Elliston US-MT 46.63018, -112.32791","2025-06-21 10:34",2,46.630182,-112.327911,TRUE,FALSE,TRUE,"S252785796"
"426","linspa","Lincoln's Sparrow","Melospiza lincolnii","L1321662","Rocky Mountain NP--Hidden Valley Beaver Ponds","2025-06-21 10:30",1,40.3997813,-105.6418678,TRUE,FALSE,FALSE,"S253319997"
"427","linspa","Lincoln's Sparrow","Melospiza lincolnii","L1258678","Kings Canyon NP--Azalea Campground (Tulare Co. side)","2025-06-21 10:27",1,36.7410077,-118.9674926,TRUE,FALSE,FALSE,"S252792602"
"428","linspa","Lincoln's Sparrow","Melospiza lincolnii","L1625236","Little Cottonwood Canyon--Cecret Lake Hike","2025-06-21 10:19",1,40.57049,-111.6218697,TRUE,FALSE,FALSE,"S252849422"
"429","linspa","Lincoln's Sparrow","Melospiza lincolnii","L12691685","Forest Service Road 706","2025-06-21 10:15",2,38.8836554,-107.2133904,TRUE,FALSE,TRUE,"S253395620"
"430","linspa","Lincoln's Sparrow","Melospiza lincolnii","L48195903","Grand Lake, Colorado, US (40.329, -105.861)","2025-06-21 10:07",1,40.3294496,-105.8606297,TRUE,FALSE,TRUE,"S252929161"
"431","linspa","Lincoln's Sparrow","Melospiza lincolnii","L33829684","339 County Road 832, Fraser US-CO (39.9469,-105.8015)","2025-06-21 10:03",5,39.946886,-105.801504,TRUE,FALSE,TRUE,"S252784699"
"432","linspa","Lincoln's Sparrow","Melospiza lincolnii","L2096098","Potter Marsh (general area)","2025-06-21 10:00",NA,61.0715323,-149.8160934,TRUE,FALSE,FALSE,"S253324448"
"433","linspa","Lincoln's Sparrow","Melospiza lincolnii","L1217685","Tony Grove -- Tony Grove Rd","2025-06-21 10:00",NA,41.8861766,-111.6077042,TRUE,FALSE,FALSE,"S253131317"
"434","linspa","Lincoln's Sparrow","Melospiza lincolnii","L9792780","Mendenhall Wetlands SGR (E of Mendenhall River mouth)","2025-06-21 09:45",8,58.3504297,-134.6000631,TRUE,FALSE,FALSE,"S252900487"
"435","linspa","Lincoln's Sparrow","Melospiza lincolnii","L1249423","Sequoia NF (Hume Lake RD)--Big Meadows","2025-06-21 09:42",2,36.7172426,-118.8340359,TRUE,FALSE,FALSE,"S252859591"
"436","linspa","Lincoln's Sparrow","Melospiza lincolnii","L1432948","Bloomingdale Bog Trail--CR 55 to Bigelow Rd.","2025-06-21 09:32",1,44.4167104,-74.1195601,TRUE,FALSE,FALSE,"S252785969"
"437","linspa","Lincoln's Sparrow","Melospiza lincolnii","L15713985","200 South Willow Street, Telluride, Colorado, US (37.935, -107.809)","2025-06-21 09:29",1,37.9348419,-107.8091635,TRUE,FALSE,TRUE,"S252768612"
"438","linspa","Lincoln's Sparrow","Melospiza lincolnii","L48183380","Windfall Lake Trail, Juneau US-AK","2025-06-21 09:25",1,58.523103,-134.793791,TRUE,FALSE,TRUE,"S252877612"
"439","linspa","Lincoln's Sparrow","Melospiza lincolnii","L11619419","Scotland Trailhead","2025-06-21 09:22",1,39.0076426,-107.9936877,TRUE,FALSE,TRUE,"S252813431"
"440","linspa","Lincoln's Sparrow","Melospiza lincolnii","L5683370","Campbell Tract--Smokejumper Trailhead","2025-06-21 09:15",1,61.1586579,-149.8011723,TRUE,FALSE,FALSE,"S253276588"
"441","linspa","Lincoln's Sparrow","Melospiza lincolnii","L340679","Grand Teton NP--Leigh & String Lakes","2025-06-21 09:08",1,43.7944172,-110.7262938,TRUE,FALSE,FALSE,"S253658006"
"442","linspa","Lincoln's Sparrow","Melospiza lincolnii","L880721","Pine Beach Picnic Site (Grand Co.)","2025-06-21 09:04",2,40.2183231,-105.8549559,TRUE,FALSE,FALSE,"S252895342"
"443","linspa","Lincoln's Sparrow","Melospiza lincolnii","L1271112","Little Lakes Valley Trail (INY Co.)","2025-06-21 09:02",1,37.4126112,-118.7562941,TRUE,FALSE,FALSE,"S252858805"
"444","linspa","Lincoln's Sparrow","Melospiza lincolnii","L48292330","Bean Creek","2025-06-21 08:56",2,47.391973,-120.872878,TRUE,FALSE,TRUE,"S253352323"
"445","linspa","Lincoln's Sparrow","Melospiza lincolnii","L35491131","Granite Canyon Trail","2025-06-21 08:51",2,43.6073503,-110.7928388,TRUE,FALSE,TRUE,"S252767982"
"446","linspa","Lincoln's Sparrow","Melospiza lincolnii","L14243217","Eagle River 35","2025-06-21 08:50",1,45.78477,-89.17553,TRUE,FALSE,TRUE,"S252705597"
"447","linspa","Lincoln's Sparrow","Melospiza lincolnii","L48155706","Highline Spur A Trail, Bondurant US-WY 43.09177, -110.49069","2025-06-21 08:29",3,43.091766,-110.490694,TRUE,FALSE,TRUE,"S252772117"
"448","linspa","Lincoln's Sparrow","Melospiza lincolnii","L14243212","Eagle River 30","2025-06-21 08:26",1,45.80585,-89.15296,TRUE,FALSE,TRUE,"S252694271"
"449","linspa","Lincoln's Sparrow","Melospiza lincolnii","L128537","Creamer's Field MWR","2025-06-21 08:25",1,64.86305,-147.7381727,TRUE,FALSE,FALSE,"S252807664"
"450","linspa","Lincoln's Sparrow","Melospiza lincolnii","L2988624","Elk Park, Elk Creek RNF","2025-06-21 08:25",8,39.8668592,-105.5952001,TRUE,FALSE,TRUE,"S253535508"
"451","linspa","Lincoln's Sparrow","Melospiza lincolnii","L128553","Chugach NF--Tern Lake","2025-06-21 08:24",1,60.5340384,-149.5476663,TRUE,FALSE,FALSE,"S252771493"
"452","linspa","Lincoln's Sparrow","Melospiza lincolnii","L34480873","Hoback Peak Trail","2025-06-21 08:20",6,43.086353,-110.520709,TRUE,FALSE,TRUE,"S252892047"
"453","linspa","Lincoln's Sparrow","Melospiza lincolnii","L1371380","Mount Ellis North Flank","2025-06-21 08:15",2,45.6248332,-110.9620242,TRUE,FALSE,FALSE,"S252809364"
"454","linspa","Lincoln's Sparrow","Melospiza lincolnii","L48394432","Silver Cliff, Colorado, US (37.993, -105.613)","2025-06-21 08:09",1,37.9926795,-105.6128185,TRUE,FALSE,TRUE,"S253799228"
"455","linspa","Lincoln's Sparrow","Melospiza lincolnii","L2977155","Medicine Bow NF--Blair Picnic Site","2025-06-21 07:54",1,41.1892316,-105.3928435,TRUE,FALSE,FALSE,"S252765089"
"456","linspa","Lincoln's Sparrow","Melospiza lincolnii","L2271195","Staunton SP (Jefferson Co)","2025-06-21 07:54",1,39.5174412,-105.3884554,TRUE,FALSE,FALSE,"S252860999"
"457","linspa","Lincoln's Sparrow","Melospiza lincolnii","L27087461","Kilgore Creek","2025-06-21 07:50",6,43.091357,-110.491271,TRUE,FALSE,TRUE,"S252892013"
"458","linspa","Lincoln's Sparrow","Melospiza lincolnii","L1312587","Ketchikan--Brown Mountain Road","2025-06-21 07:50",1,55.4330677,-131.6133356,TRUE,FALSE,FALSE,"S252841565"
"459","linspa","Lincoln's Sparrow","Melospiza lincolnii","L48145913","Triangle X","2025-06-21 07:50",1,43.763812,-110.565319,TRUE,FALSE,TRUE,"S252735401"
"460","linspa","Lincoln's Sparrow","Melospiza lincolnii","L48184664","Mount Lion","2025-06-21 07:48",3,38.050167,-106.396488,TRUE,FALSE,TRUE,"S252883510"
"461","linspa","Lincoln's Sparrow","Melospiza lincolnii","L510429","Cameron Pass (Jackson Co.)","2025-06-21 07:45",4,40.5137992,-105.8870888,TRUE,FALSE,FALSE,"S253216376"
"462","linspa","Lincoln's Sparrow","Melospiza lincolnii","L48172040","Grand Teton National Park, east of Bear Paw Trail","2025-06-21 07:37",1,43.596379,-110.795868,TRUE,FALSE,TRUE,"S252834582"
"463","linspa","Lincoln's Sparrow","Melospiza lincolnii","L48157487","Idaho, US (42.219, -114.05)","2025-06-21 07:35",1,42.2185091,-114.0497344,TRUE,FALSE,TRUE,"S252778787"
"464","linspa","Lincoln's Sparrow","Melospiza lincolnii","L389662","Yosemite NP--Crane Flat","2025-06-21 07:31",1,37.755049,-119.7984409,TRUE,FALSE,FALSE,"S252775107"
"465","linspa","Lincoln's Sparrow","Melospiza lincolnii","L8101122","Yuba Pass Campground","2025-06-21 07:30",1,39.6151108,-120.4909658,TRUE,FALSE,FALSE,"S253547236"
"466","linspa","Lincoln's Sparrow","Melospiza lincolnii","L570454","Page Meadows","2025-06-21 07:25",2,39.1511963,-120.187726,TRUE,FALSE,FALSE,"S252933040"
"467","linspa","Lincoln's Sparrow","Melospiza lincolnii","L48136853","US-26, Moran US-WY 43.75291, -110.06837","2025-06-21 07:24",1,43.752914,-110.068373,TRUE,FALSE,TRUE,"S252696630"
"468","linspa","Lincoln's Sparrow","Melospiza lincolnii","L48161669","Nebo loop - sheepherder hill trail","2025-06-21 07:23",2,39.942805,-111.675844,TRUE,FALSE,TRUE,"S252795702"
"469","linspa","Lincoln's Sparrow","Melospiza lincolnii","L11554657","Jackson Creek forest Rd # 977","2025-06-21 07:23",3,45.6951654,-110.8016937,TRUE,FALSE,FALSE,"S252807689"
"470","linspa","Lincoln's Sparrow","Melospiza lincolnii","L3678872","South Potter Marsh","2025-06-21 07:21",1,61.0554068,-149.7984847,TRUE,FALSE,FALSE,"S252752184"
"471","linspa","Lincoln's Sparrow","Melospiza lincolnii","L25872341","Hiway 105 Sulphur Springs","2025-06-21 07:19",9,35.9066894,-106.6203746,TRUE,FALSE,FALSE,"S252843664"
"472","linspa","Lincoln's Sparrow","Melospiza lincolnii","L15082055","Mile 2 to 3 Denali Highway","2025-06-21 07:18",1,63.3746873,-148.8308557,TRUE,FALSE,TRUE,"S252834024"
"473","linspa","Lincoln's Sparrow","Melospiza lincolnii","L594030","Pinecrest Lake","2025-06-21 07:11",2,38.1932002,-119.9935341,TRUE,FALSE,FALSE,"S252781568"
"474","linspa","Lincoln's Sparrow","Melospiza lincolnii","L1545612","Big Cottonwood Canyon--Willow Heights","2025-06-21 07:10",1,40.6341226,-111.6013117,TRUE,FALSE,FALSE,"S252729495"
"475","linspa","Lincoln's Sparrow","Melospiza lincolnii","L618282","Viestenz-Smith Park","2025-06-21 07:03",1,40.4193201,-105.2814916,TRUE,FALSE,FALSE,"S252757010"
"476","linspa","Lincoln's Sparrow","Melospiza lincolnii","L342179","Alfred M. Bailey Bird Nesting Area","2025-06-21 07:02",1,39.6988182,-106.1820868,TRUE,FALSE,FALSE,"S252796280"
"477","linspa","Lincoln's Sparrow","Melospiza lincolnii","L6842204","Grand Teton NP--Murie Ranch","2025-06-21 07:00",3,43.6505453,-110.728991,TRUE,FALSE,FALSE,"S253142626"
"478","linspa","Lincoln's Sparrow","Melospiza lincolnii","L48149250","Gustavus Airport","2025-06-21 07:00",1,58.4285498,-135.7043206,TRUE,FALSE,TRUE,"S252748167"
"479","linspa","Lincoln's Sparrow","Melospiza lincolnii","L16031568","Evergreen Lake","2025-06-21 06:58",1,39.631377,-105.331175,TRUE,FALSE,TRUE,"S252727324"
"480","linspa","Lincoln's Sparrow","Melospiza lincolnii","L5971376","North Tenmile Trailhead","2025-06-21 06:53",6,39.5753796,-106.1148405,TRUE,FALSE,FALSE,"S253293081"
"481","linspa","Lincoln's Sparrow","Melospiza lincolnii","L781318","Gustavus--Forelands","2025-06-21 06:50",4,58.4121436,-135.724411,TRUE,FALSE,FALSE,"S252788214"
"482","linspa","Lincoln's Sparrow","Melospiza lincolnii","L3756641","Newton Park","2025-06-21 06:47",1,39.5131483,-105.2996778,TRUE,FALSE,FALSE,"S252728251"
"483","linspa","Lincoln's Sparrow","Melospiza lincolnii","L48177164","34292–34298 Glacier Hwy, Juneau US-AK 58.65017, -134.92124","2025-06-21 06:34",1,58.650175,-134.921236,TRUE,FALSE,TRUE,"S252853927"
"484","linspa","Lincoln's Sparrow","Melospiza lincolnii","L1833636","Carman Valley Meadows","2025-06-21 06:24",3,39.6979598,-120.4499817,TRUE,FALSE,FALSE,"S253322675"
"485","linspa","Lincoln's Sparrow","Melospiza lincolnii","L48144682","Buffalo Valley Road, Moran, Wyoming, US (43.845, -110.433)","2025-06-21 06:19",4,43.8454448,-110.4327402,TRUE,FALSE,TRUE,"S252730243"
"486","linspa","Lincoln's Sparrow","Melospiza lincolnii","L48180202","Swift Creek To MacLeod Lake","2025-06-21 06:18",4,43.3571875,-110.4069281,TRUE,FALSE,TRUE,"S252865615"
"487","linspa","Lincoln's Sparrow","Melospiza lincolnii","L48191512","Bear Creek Trail, Telluride US-CO 37.92505, -107.80680","2025-06-21 06:16",2,37.925049,-107.806799,TRUE,FALSE,TRUE,"S252911535"
"488","linspa","Lincoln's Sparrow","Melospiza lincolnii","L48165567","Continental Divide National Scenic Trail, Granite US-CO 38.96669, -106.45803","2025-06-21 06:16",1,38.966693,-106.458034,TRUE,FALSE,TRUE,"S252810387"
"489","linspa","Lincoln's Sparrow","Melospiza lincolnii","L48161917","Endovalley/Fall River Road","2025-06-21 06:14",5,40.4137493,-105.6579638,TRUE,FALSE,TRUE,"S252801023"
"490","linspa","Lincoln's Sparrow","Melospiza lincolnii","L526888","Tanana Lakes Recreation Area","2025-06-21 06:10",1,64.7966492,-147.7180481,TRUE,FALSE,FALSE,"S252891638"
"491","linspa","Lincoln's Sparrow","Melospiza lincolnii","L2700894","Gustavus--Lake Gustavus","2025-06-21 06:09",3,58.4246351,-135.6892713,TRUE,FALSE,FALSE,"S252748460"
"492","linspa","Lincoln's Sparrow","Melospiza lincolnii","L48198889","Smokey Lodge (LDS Camp)","2025-06-21 06:00",1,43.923853,-114.862369,TRUE,FALSE,TRUE,"S252941107"
"493","linspa","Lincoln's Sparrow","Melospiza lincolnii","L48128188","Washington Gulch","2025-06-21 05:55",1,38.931981,-107.01735,TRUE,FALSE,TRUE,"S252651982"
"494","linspa","Lincoln's Sparrow","Melospiza lincolnii","L3053337","Kings Canyon NP--Sunset Campground","2025-06-21 05:42",1,36.7377406,-118.9667469,TRUE,FALSE,FALSE,"S252687384"
"495","linspa","Lincoln's Sparrow","Melospiza lincolnii","L503161","Nebo Loop (Utah Co.)","2025-06-21 05:35",2,39.9425154,-111.6724148,TRUE,FALSE,FALSE,"S252795806"
"496","linspa","Lincoln's Sparrow","Melospiza lincolnii","L48141332","Pennsylvania Creek Ranch","2025-06-21 05:33",2,39.248174,-106.053431,TRUE,FALSE,TRUE,"S252716357"
"497","linspa","Lincoln's Sparrow","Melospiza lincolnii","L3036900","Larimer CR 44H","2025-06-21 05:22",3,40.5801691,-105.4974342,TRUE,FALSE,FALSE,"S252859580"
"498","linspa","Lincoln's Sparrow","Melospiza lincolnii","L1131857","Lassen Volcanic NP--Warner Creek Meadows","2025-06-21 05:05",1,40.4196234,-121.3352895,TRUE,FALSE,FALSE,"S253088441"
"499","linspa","Lincoln's Sparrow","Melospiza lincolnii","L39132057","Manchester Point (Private)","2025-06-21 04:41",1,44.2945384,-68.3032639,TRUE,FALSE,TRUE,"S252648735"
"500","linspa","Lincoln's Sparrow","Melospiza lincolnii","L302479","Yellowstone NP--Swan Lake","2025-06-20 19:48",1,44.9193872,-110.7345425,TRUE,FALSE,FALSE,"S252542983"
"501","linspa","Lincoln's Sparrow","Melospiza lincolnii","L48167107","95–99 Jackpine, Jackson US-WY 43.32318, -110.43665","2025-06-20 19:36",1,43.323177,-110.436647,TRUE,FALSE,TRUE,"S252816493"
"502","linspa","Lincoln's Sparrow","Melospiza lincolnii","L693483","Chugach SP--Prospect Heights Trailhead","2025-06-20 18:41",1,61.1388026,-149.7107792,TRUE,FALSE,FALSE,"S252550038"
"503","linspa","Lincoln's Sparrow","Melospiza lincolnii","L27318045","Kincaid Park--Sisson Loop","2025-06-20 18:40",1,61.1705301,-150.0531137,TRUE,FALSE,FALSE,"S252571262"
"504","linspa","Lincoln's Sparrow","Melospiza lincolnii","L739849","Big Cottonwood Canyon--Silver Lake to Lake Solitude Hike","2025-06-20 18:26",4,40.6100397,-111.5959064,TRUE,FALSE,FALSE,"S252544727"
"505","linspa","Lincoln's Sparrow","Melospiza lincolnii","L48187731","Mount Huron Trail, bottom half","2025-06-20 17:27",1,38.9687712,-106.4574766,TRUE,FALSE,TRUE,"S252895044"
"506","linspa","Lincoln's Sparrow","Melospiza lincolnii","L34230397","Lost Creek Road","2025-06-20 17:27",1,40.3360827,-121.4392933,TRUE,FALSE,TRUE,"S252548452"
"507","linspa","Lincoln's Sparrow","Melospiza lincolnii","L45420064","KIWA Field House (Private)","2025-06-20 16:25",1,44.715712,-84.392692,TRUE,FALSE,TRUE,"S252845609"
"508","linspa","Lincoln's Sparrow","Melospiza lincolnii","L1194459","Big Bog State Recreation Area","2025-06-20 15:37",1,48.2857058,-94.5655145,TRUE,FALSE,FALSE,"S252507630"
"509","linspa","Lincoln's Sparrow","Melospiza lincolnii","L8260554","Dry Lake Campground","2025-06-20 15:06",1,40.5362126,-106.7818619,TRUE,FALSE,FALSE,"S252512779"
"510","linspa","Lincoln's Sparrow","Melospiza lincolnii","L25475955","Eielson AFB--Range 5 (restricted access)","2025-06-20 14:31",3,64.6692266,-147.0409884,TRUE,FALSE,TRUE,"S252498205"
"511","linspa","Lincoln's Sparrow","Melospiza lincolnii","L1224744","Hyder--tidal flats","2025-06-20 14:06",2,55.9074003,-130.0157639,TRUE,FALSE,FALSE,"S252481992"
"512","linspa","Lincoln's Sparrow","Melospiza lincolnii","L32937572","Eielson AFB--Pipeline 13 (restricted access)","2025-06-20 13:48",1,64.67722,-147.044025,TRUE,FALSE,TRUE,"S252485736"
"513","linspa","Lincoln's Sparrow","Melospiza lincolnii","L42961569","Potter’s Marsh Boardwalk","2025-06-20 13:43",2,61.077869,-149.826986,TRUE,FALSE,TRUE,"S252508945"
"514","linspa","Lincoln's Sparrow","Melospiza lincolnii","L9398408","Eielson AFB--Military Pipeline Rd. MP 478 wetlands E (restricted access)","2025-06-20 13:21",4,64.6689497,-147.0235198,TRUE,FALSE,FALSE,"S252480057"
"515","linspa","Lincoln's Sparrow","Melospiza lincolnii","L48394122","Coghill River, Valdez US-AK (61.0782,-147.8833)","2025-06-20 13:08",2,61.07817,-147.88325,TRUE,FALSE,TRUE,"S253797221"
"516","linspa","Lincoln's Sparrow","Melospiza lincolnii","L15676478","Eielson AFB--Pipeline Access Rd. MP 479 wetlands (restricted access)","2025-06-20 13:08",3,64.6643491,-147.0216581,TRUE,FALSE,FALSE,"S252475653"
"517","linspa","Lincoln's Sparrow","Melospiza lincolnii","L20065839","Santa Fe NF - Apache Canyon","2025-06-20 13:00",2,35.6300309,-105.8361557,TRUE,FALSE,TRUE,"S252545662"
"518","linspa","Lincoln's Sparrow","Melospiza lincolnii","L48081986","Camp Rd, Roscommon US-MI (44.5518,-84.4002)","2025-06-20 12:47",1,44.551823,-84.400244,TRUE,FALSE,TRUE,"S252448276"
"519","linspa","Lincoln's Sparrow","Melospiza lincolnii","L2063935","Echo Cove Campground","2025-06-20 12:45",1,58.662565,-134.9058587,TRUE,FALSE,FALSE,"S252875447"
"520","linspa","Lincoln's Sparrow","Melospiza lincolnii","L48104426","Cascade, Idaho, US (44.578, -115.808)","2025-06-20 12:43",1,44.5783129,-115.8081572,TRUE,FALSE,TRUE,"S252541088"
"521","linspa","Lincoln's Sparrow","Melospiza lincolnii","L737323","Eklutna Tailrace","2025-06-20 12:34",1,61.4758628,-149.1500232,TRUE,FALSE,FALSE,"S252474236"
"522","linspa","Lincoln's Sparrow","Melospiza lincolnii","L48256872","King’s Bay","2025-06-20 12:26",1,60.458273,-148.714972,TRUE,FALSE,TRUE,"S253198858"
"523","linspa","Lincoln's Sparrow","Melospiza lincolnii","L16920717","Lake Solitude","2025-06-20 11:27",3,40.6043674,-111.5996897,TRUE,FALSE,FALSE,"S252460626"
"524","linspa","Lincoln's Sparrow","Melospiza lincolnii","L11831443","Mormon Pioneer Trail","2025-06-20 11:25",1,40.832681,-111.623262,TRUE,FALSE,FALSE,"S253039476"
"525","linspa","Lincoln's Sparrow","Melospiza lincolnii","L5965437","Dot Lake","2025-06-20 11:23",1,63.6633196,-144.0706032,TRUE,FALSE,FALSE,"S252447724"
"526","linspa","Lincoln's Sparrow","Melospiza lincolnii","L2467271","Monarch Lake","2025-06-20 11:07",1,40.1091286,-105.7458115,TRUE,FALSE,FALSE,"S252472763"
"527","linspa","Lincoln's Sparrow","Melospiza lincolnii","L7912098","Chugach SP--Rabbit Lake","2025-06-20 11:00",2,61.0419216,-149.5816249,TRUE,FALSE,FALSE,"S252905123"
"528","linspa","Lincoln's Sparrow","Melospiza lincolnii","L566915","Rocky Mountain NP--Lily Lake area","2025-06-20 10:56",1,40.3073545,-105.540247,TRUE,FALSE,FALSE,"S252408987"
"529","linspa","Lincoln's Sparrow","Melospiza lincolnii","L282342","Santa Fe NF--Santa Fe Ski Area","2025-06-20 10:54",1,35.794529,-105.8007431,TRUE,FALSE,FALSE,"S252406554"
"530","linspa","Lincoln's Sparrow","Melospiza lincolnii","L490669","Sax-Zim Bog--Admiral Rd, 4.5 mi S of CR 27","2025-06-20 10:49",1,47.2411769,-92.6244235,TRUE,FALSE,FALSE,"S252393894"
"531","linspa","Lincoln's Sparrow","Melospiza lincolnii","L48104871","Lackawaxen Lake, Midway US-UT (40.5923,-111.5556)","2025-06-20 10:43",1,40.592302,-111.555556,TRUE,FALSE,TRUE,"S252542787"
"532","linspa","Lincoln's Sparrow","Melospiza lincolnii","L3033095","West Baldy Trail No. 94","2025-06-20 10:30",1,33.948262,-109.528473,TRUE,FALSE,FALSE,"S252885332"
"533","linspa","Lincoln's Sparrow","Melospiza lincolnii","L7537332","Old Stump Road","2025-06-20 10:25",2,39.3188774,-111.4743608,TRUE,FALSE,TRUE,"S253872109"
"534","linspa","Lincoln's Sparrow","Melospiza lincolnii","L4051783","Sink Hollow","2025-06-20 10:05",3,41.9905654,-111.5344262,TRUE,FALSE,FALSE,"S252523773"
"535","linspa","Lincoln's Sparrow","Melospiza lincolnii","L48314288","California Section H, Independence, California, US (36.759, -118.406)","2025-06-20 10:02",1,36.759062,-118.4059442,TRUE,FALSE,TRUE,"S253457720"
"536","linspa","Lincoln's Sparrow","Melospiza lincolnii","L1603501","Coal Bank Pass","2025-06-20 09:43",2,37.6985639,-107.7777801,TRUE,FALSE,FALSE,"S252433133"
"537","linspa","Lincoln's Sparrow","Melospiza lincolnii","L610739","Bear Creek Park East (El Paso)","2025-06-20 09:42",1,38.822265,-104.8551464,TRUE,FALSE,FALSE,"S252378153"
"538","linspa","Lincoln's Sparrow","Melospiza lincolnii","L1603496","Haviland Lake Area","2025-06-20 09:38",1,37.5325309,-107.8092241,TRUE,FALSE,FALSE,"S252494973"
"539","linspa","Lincoln's Sparrow","Melospiza lincolnii","L6424608","Big Cottonwood Canyon--Butler Fork/Mill A Basin","2025-06-20 09:35",1,40.662357,-111.688203,TRUE,FALSE,FALSE,"S252523430"
"540","linspa","Lincoln's Sparrow","Melospiza lincolnii","L15759514","Stikine River","2025-06-20 09:23",5,56.6841364,-132.2554298,TRUE,FALSE,TRUE,"S252949843"
"541","linspa","Lincoln's Sparrow","Melospiza lincolnii","L8682934","Chugach SP--Glen Alps Trailhead","2025-06-20 09:19",1,61.103076,-149.6836299,TRUE,FALSE,FALSE,"S252408002"
"542","linspa","Lincoln's Sparrow","Melospiza lincolnii","L48085281","Leavitt Lake Rd and Deadman Creek","2025-06-20 09:00",1,38.2947926,-119.6040864,TRUE,FALSE,TRUE,"S252463902"
"543","linspa","Lincoln's Sparrow","Melospiza lincolnii","L7663043","Womens Forest Trail","2025-06-20 08:55",6,38.9852329,-105.1722908,TRUE,FALSE,FALSE,"S252541816"
"544","linspa","Lincoln's Sparrow","Melospiza lincolnii","L48052403","W North Down River Rd, Grayling US-MI 44.68371, -84.63502","2025-06-20 08:54",2,44.683709,-84.63502,TRUE,FALSE,TRUE,"S252323872"
"545","linspa","Lincoln's Sparrow","Melospiza lincolnii","L48028565","255–355 Whispering Meadows Ave, Homer US-AK 59.66139, -151.54900","2025-06-20 08:53",1,59.661386,-151.549005,TRUE,FALSE,TRUE,"S252434062"
"546","linspa","Lincoln's Sparrow","Melospiza lincolnii","L889611","Grand Mesa--Mesa Lakes area","2025-06-20 08:38",1,39.0486918,-108.0912909,TRUE,FALSE,FALSE,"S252424699"
"547","linspa","Lincoln's Sparrow","Melospiza lincolnii","L20585231","Sacramento Creek Ranch","2025-06-20 08:30",1,39.2279479,-106.0424176,TRUE,FALSE,FALSE,"S252785049"
"548","linspa","Lincoln's Sparrow","Melospiza lincolnii","L1601321","Big Cottonwood Canyon--Lake Mary Trail","2025-06-20 08:22",9,40.5916267,-111.5814715,TRUE,FALSE,FALSE,"S252418509"
"549","linspa","Lincoln's Sparrow","Melospiza lincolnii","L770088","Rocky Mountain NP--Fern Lake Trail","2025-06-20 08:17",1,40.352596,-105.6432556,TRUE,FALSE,FALSE,"S252440149"
"550","linspa","Lincoln's Sparrow","Melospiza lincolnii","L339968","Rocky Mountain NP--Moraine Park","2025-06-20 08:09",1,40.3549822,-105.6050062,TRUE,FALSE,FALSE,"S252360687"
"551","linspa","Lincoln's Sparrow","Melospiza lincolnii","L9434494","Girdwood to Bird--Bike Path","2025-06-20 08:04",5,60.945048,-149.176858,TRUE,FALSE,TRUE,"S252395963"
"552","linspa","Lincoln's Sparrow","Melospiza lincolnii","L273687","Roger Lake","2025-06-20 07:49",1,48.6474774,-119.9691343,TRUE,FALSE,FALSE,"S252436056"
"553","linspa","Lincoln's Sparrow","Melospiza lincolnii","L33920088","Mp 52, Taylor Hwy, Tok US-AK 63.92653, -142.19787","2025-06-20 07:45",1,63.926527,-142.197872,TRUE,FALSE,TRUE,"S252447046"
"554","linspa","Lincoln's Sparrow","Melospiza lincolnii","L764587","Rocky Mountain NP--Hollowell Park","2025-06-20 07:43",1,40.3417523,-105.6052423,TRUE,FALSE,FALSE,"S252337149"
"555","linspa","Lincoln's Sparrow","Melospiza lincolnii","L9603895","Mountain time loop","2025-06-20 07:39",1,40.239246,-105.513366,TRUE,FALSE,TRUE,"S252727973"
"556","linspa","Lincoln's Sparrow","Melospiza lincolnii","L2937276","Ochoco Divide Campground","2025-06-20 07:38",1,44.4999643,-120.3857803,TRUE,FALSE,FALSE,"S252538185"
"557","linspa","Lincoln's Sparrow","Melospiza lincolnii","L5820301","Hardy Bridge FAS","2025-06-20 07:37",NA,47.1680311,-111.8354049,TRUE,FALSE,FALSE,"S252331264"
"558","linspa","Lincoln's Sparrow","Melospiza lincolnii","L929964","Beluga--South Bog","2025-06-20 07:30",2,61.1223093,-151.1026955,TRUE,FALSE,FALSE,"S252565749"
"559","linspa","Lincoln's Sparrow","Melospiza lincolnii","L724714","Chena Lake RA","2025-06-20 07:30",3,64.7706866,-147.2272682,TRUE,FALSE,FALSE,"S252478379"
"560","linspa","Lincoln's Sparrow","Melospiza lincolnii","L17618198","Fir tree at top of embankment","2025-06-20 07:28",1,48.855833,-115.051451,TRUE,FALSE,TRUE,"S252349671"
