"","speciesCode","comName","sciName","locId","locName","obsDt","howMany","lat","lng","obsValid","obsReviewed","locationPrivate","subId","exoticCategory"
"1","javspa","Java Sparrow","Padda oryzivora","L392604","Lyon Arboretum","2025-05-19 11:16",2,21.333713,-157.8006649,TRUE,FALSE,FALSE,"S240399626","N"
"2","javspa","Java Sparrow","Padda oryzivora","L38809511","Princeville Neighborhood (General)","2025-05-19 07:54",6,22.2271855,-159.47762,TRUE,FALSE,FALSE,"S240296157","N"
"3","javspa","Java Sparrow","Padda oryzivora","L45470096","4100 Wailea Alanui Dr, Kihei US-HI 20.67446, -156.44145","2025-05-19 07:07",12,20.674457,-156.44145,TRUE,FALSE,TRUE,"S240264996","N"
"4","javspa","Java Sparrow","Padda oryzivora","L45369397","Kamaole I Park, Kihei US-HI (20.7201,-156.4474)","2025-05-19 05:44",2,20.720148,-156.447397,TRUE,FALSE,TRUE,"S240229681","N"
"5","javspa","Java Sparrow","Padda oryzivora","L3923009","Kamaʻole Beach Park III","2025-05-18 16:37",4,20.712973,-156.445725,TRUE,FALSE,FALSE,"S240055173","N"
"6","javspa","Java Sparrow","Padda oryzivora","L40291084","99 Okupu St, Eleele","2025-05-18 14:30",14,21.903936,-159.588349,TRUE,FALSE,TRUE,"S240015106","N"
"7","javspa","Java Sparrow","Padda oryzivora","L45420469","Lili'uokalani Botanical Garden","2025-05-18 14:24",50,21.3198833,-157.8559173,TRUE,FALSE,TRUE,"S240020802","N"
"8","javspa","Java Sparrow","Padda oryzivora","L45404649","1 Arizona Memorial Place, Honolulu, Hawaii, US (21.367, -157.938)","2025-05-18 10:34",2,21.3669426,-157.9382007,TRUE,FALSE,TRUE,"S239936070","N"
"9","javspa","Java Sparrow","Padda oryzivora","L1114410","Point Panic Beach Park and Kewalo Marine Laboratory","2025-05-18 08:58",5,21.290469,-157.8611799,TRUE,FALSE,FALSE,"S239884498","N"
"10","javspa","Java Sparrow","Padda oryzivora","L45422374","Kapalua Coastal Trail, Lahaina US-HI (21.0039,-156.6639)","2025-05-18 08:27",2,21.003938,-156.663872,TRUE,FALSE,TRUE,"S240030978","N"
"11","javspa","Java Sparrow","Padda oryzivora","L285760","Kapiolani Park","2025-05-18 08:15",2,21.2666546,-157.8193562,TRUE,FALSE,FALSE,"S239881609","N"
"12","javspa","Java Sparrow","Padda oryzivora","L45494935","Waikoloa Beach Marriott Resort","2025-05-18 06:52",7,19.925483,-155.866175,TRUE,FALSE,TRUE,"S240385718","N"
"13","javspa","Java Sparrow","Padda oryzivora","L12014169","462 Keolu Drive, Kailua, Hawaii, US (21.378, -157.741)","2025-05-17 09:22",4,21.3784417,-157.740634,TRUE,FALSE,TRUE,"S239357624","N"
"14","javspa","Java Sparrow","Padda oryzivora","L45274061","Honolulu, Hawaii, US (21.295, -157.817)","2025-05-17 07:56",2,21.2952164,-157.8170915,TRUE,FALSE,TRUE,"S239312560","N"
"15","javspa","Java Sparrow","Padda oryzivora","L992310","Hawaiʻi Volcanoes NP--ʻIliahi Trail","2025-05-17 07:40",1,19.4270154,-155.2611923,TRUE,FALSE,FALSE,"S239497569","N"
"16","javspa","Java Sparrow","Padda oryzivora","L7900924","Lanai","2025-05-17 07:07",4,21.9065438,-159.5822563,TRUE,FALSE,TRUE,"S239293353","N"
"17","javspa","Java Sparrow","Padda oryzivora","L16728381","73-1222 Loloa Dr, Kailua Kona US-HI 19.72479, -155.98006","2025-05-17 07:00",6,19.7247493,-155.9799775,TRUE,FALSE,TRUE,"S239846481","N"
"18","javspa","Java Sparrow","Padda oryzivora","L12821001","Waiau Neighborhood Park","2025-05-16 18:00",3,21.399517,-157.954491,TRUE,FALSE,TRUE,"S239001627","N"
"19","javspa","Java Sparrow","Padda oryzivora","L28678474","Waiau Gardens Mini Park","2025-05-16 17:37",5,21.396403,-157.956229,TRUE,FALSE,TRUE,"S238999491","N"
"20","javspa","Java Sparrow","Padda oryzivora","L871261","Fort Derussy Beach Park","2025-05-16 14:24",45,21.2801171,-157.8342676,TRUE,FALSE,FALSE,"S238986546","N"
"21","javspa","Java Sparrow","Padda oryzivora","L44611277","54A Lono Street, Hilo, Hawaii, US (19.709, -155.078)","2025-05-16 07:56",12,19.7088522,-155.0775442,TRUE,FALSE,TRUE,"S238837542","N"
"22","javspa","Java Sparrow","Padda oryzivora","L1371416","Pearl Harbor--WWII Valor in the Pacific NM","2025-05-16 06:47",1,21.3681354,-157.9388321,TRUE,FALSE,FALSE,"S238923701","N"
"23","javspa","Java Sparrow","Padda oryzivora","L7569747","Kona International Airport","2025-05-15 18:01",50,19.7369762,-156.0429382,TRUE,FALSE,FALSE,"S238465740","N"
"24","javspa","Java Sparrow","Padda oryzivora","L1509699","Old Kona Airport SRA","2025-05-15 17:28",14,19.6443054,-156.0110613,TRUE,FALSE,FALSE,"S238463545","N"
"25","javspa","Java Sparrow","Padda oryzivora","L45094364","76-6299 Haku Place, Kailua-Kona, Hawaii, US (19.613, -155.967)","2025-05-15 16:42",2,19.6126641,-155.9667138,TRUE,FALSE,TRUE,"S238459623","N"
"26","javspa","Java Sparrow","Padda oryzivora","L45183841","1670 RT-30, Waikapū US-HI (20.8488,-156.5058)","2025-05-15 15:45",6,20.848843,-156.505788,TRUE,FALSE,TRUE,"S238866661","N"
"27","javspa","Java Sparrow","Padda oryzivora","L21499989","Maui Tropical Plantation","2025-05-15 15:21",5,20.848983,-156.506629,TRUE,FALSE,TRUE,"S238447238","N"
"28","javspa","Java Sparrow","Padda oryzivora","L45090889","444 Kānekapōlei Street, Honolulu, Hawaii, US (21.279, -157.824)","2025-05-15 14:45",2,21.279068,-157.8237185,TRUE,FALSE,TRUE,"S238441007","N"
"29","javspa","Java Sparrow","Padda oryzivora","L45088568","68-3622–68-3636 Paniolo Ave, Waikoloa US-HI 19.94480, -155.78992","2025-05-15 13:41",6,19.944805,-155.789919,TRUE,FALSE,TRUE,"S238427510","N"
"30","javspa","Java Sparrow","Padda oryzivora","L45012567","47-653 ʻĀhuimanu Rd, ʻĀhuimanu US-HI 21.43759, -157.84528","2025-05-15 13:20",15,21.437591,-157.84528,TRUE,FALSE,TRUE,"S238477132","N"
"31","javspa","Java Sparrow","Padda oryzivora","L8471220","Waikoloa Skatepark","2025-05-15 13:17",1,19.956208,-155.789264,TRUE,FALSE,FALSE,"S238410540","N"
"32","javspa","Java Sparrow","Padda oryzivora","L7830812","Makapu’u PointLighthouse Trail (Seawatch)","2025-05-15 13:15",9,21.2997417,-157.652397,TRUE,FALSE,FALSE,"S238451292","N"
"33","javspa","Java Sparrow","Padda oryzivora","L45313861","84-1120 Telephone Exchange Rd, Hōnaunau-Nāpōʻopoʻo US-HI 19.42518, -155.87646","2025-05-15 12:10",1,19.425179,-155.876459,TRUE,FALSE,TRUE,"S239497925","N"
"34","javspa","Java Sparrow","Padda oryzivora","L45080214","Nuupia Ponds WMA--Halekou Pond (Restricted Access)","2025-05-15 10:34",1,21.437559,-157.752262,TRUE,FALSE,TRUE,"S238377231","N"
"35","javspa","Java Sparrow","Padda oryzivora","L44613483","Koa Yard","2025-05-15 06:14",7,19.589578,-155.967123,TRUE,FALSE,TRUE,"S238204794","N"
"36","javspa","Java Sparrow","Padda oryzivora","L22478812","Forever Home","2025-05-15 05:46",5,21.426435,-157.744917,TRUE,FALSE,TRUE,"S238188227","N"
"37","javspa","Java Sparrow","Padda oryzivora","L45012371","Princeville Makai Golf Club, Princeville US-HI 22.22312, -159.48491","2025-05-14 16:59",7,22.223119,-159.484912,TRUE,FALSE,TRUE,"S238004767","N"
"38","javspa","Java Sparrow","Padda oryzivora","L45017429","3-307–3-321 Kuhio Hwy, Lihue US-HI 22.02257, -159.34165","2025-05-14 15:55",15,22.022568,-159.341655,TRUE,FALSE,TRUE,"S238030573","N"
"39","javspa","Java Sparrow","Padda oryzivora","L1038716","Kawainui Marsh","2025-05-14 14:30",2,21.4060093,-157.7558184,TRUE,FALSE,FALSE,"S238025358","N"
"40","javspa","Java Sparrow","Padda oryzivora","L45211024","Hoʻomaluhia Botanical Garden, Kaneohe US-HI (21.3868,-157.8091)","2025-05-14 14:30",NA,21.386792,-157.809134,TRUE,FALSE,TRUE,"S239009153","N"
"41","javspa","Java Sparrow","Padda oryzivora","L7907575","Kauai Coffee Company--Self Tour","2025-05-14 12:00",3,21.8993227,-159.5607402,TRUE,FALSE,FALSE,"S237948400","N"
"42","javspa","Java Sparrow","Padda oryzivora","L45008914","Hoʻomaluhia Botanical Garden, Kaneohe US-HI 21.38662, -157.80861","2025-05-14 11:14",2,21.386617,-157.808608,TRUE,FALSE,TRUE,"S237985781","N"
"43","javspa","Java Sparrow","Padda oryzivora","L45008896","Hoʻomaluhia Botanical Garden, Kaneohe US-HI 21.38674, -157.80855","2025-05-14 11:14",2,21.386744,-157.808553,TRUE,FALSE,TRUE,"S237985688","N"
"44","javspa","Java Sparrow","Padda oryzivora","L44982796","Fort Derussy Park","2025-05-14 07:05",30,21.2786262,-157.833932,TRUE,FALSE,TRUE,"S237839169","N"
"45","javspa","Java Sparrow","Padda oryzivora","L13731549","hula (21.957, -159.668)","2025-05-13 18:45",21,21.9570547,-159.6681639,TRUE,FALSE,TRUE,"S238851642","N"
"46","javspa","Java Sparrow","Padda oryzivora","L44945636","Kealaho Rd (21.291, -157.665)","2025-05-13 16:49",12,21.290955,-157.6653933,TRUE,FALSE,TRUE,"S237625005","N"
"47","javspa","Java Sparrow","Padda oryzivora","L44936189","470731 Ahuimanu Loop, Kaneohe, Hawaii, US (21.435, -157.845)","2025-05-13 14:10",8,21.4346333,-157.845387,TRUE,FALSE,TRUE,"S237570763","N"
"48","javspa","Java Sparrow","Padda oryzivora","L870747","Diamond Head Crater Park","2025-05-13 08:30",11,21.2629407,-157.8047848,TRUE,FALSE,FALSE,"S237488279","N"
"49","javspa","Java Sparrow","Padda oryzivora","L44916098","96743, Kamuela US-HI 19.95255, -155.86049","2025-05-13 06:51",2,19.952547,-155.860494,TRUE,FALSE,TRUE,"S237440842","N"
"50","javspa","Java Sparrow","Padda oryzivora","L19347455","Princeville Makai Golf Course","2025-05-12 19:03",15,22.2202636,-159.4802692,TRUE,FALSE,FALSE,"S237186977","N"
"51","javspa","Java Sparrow","Padda oryzivora","L44787998","DLNR Baseyard","2025-05-12 18:29",1,21.380013,-157.758543,TRUE,FALSE,TRUE,"S237180000","N"
"52","javspa","Java Sparrow","Padda oryzivora","L44824752","Sheraton Waikiki","2025-05-12 09:39",10,21.277607,-157.830016,TRUE,FALSE,TRUE,"S237031719","N"
"53","javspa","Java Sparrow","Padda oryzivora","L16733567","University of the Nations Kona, Kailua Kona US-HI 19.63118, -155.98136","2025-05-12 09:00",1,19.63118,-155.981356,TRUE,FALSE,TRUE,"S237029001","N"
"54","javspa","Java Sparrow","Padda oryzivora","L16633740","Kahako","2025-05-12 06:11",12,21.3619099,-157.7336395,TRUE,FALSE,TRUE,"S236951533","N"
"55","javspa","Java Sparrow","Padda oryzivora","L45097999","Launiupoko Beach Park","2025-05-11 17:51",7,20.843688,-156.652775,TRUE,FALSE,TRUE,"S238479320","N"
"56","javspa","Java Sparrow","Padda oryzivora","L44789161","77-6410 Pualani Street, Kailua-Kona, Hawaii, US (19.609, -155.961) (Private)","2025-05-11 15:28",1,19.6093028,-155.9606481,TRUE,FALSE,TRUE,"S236699275","N"
"57","javspa","Java Sparrow","Padda oryzivora","L715154","Hanauma Bay Beach Park","2025-05-11 08:31",1,21.2717791,-157.6973248,TRUE,FALSE,FALSE,"S236645002","N"
"58","javspa","Java Sparrow","Padda oryzivora","L16906929","Backyard","2025-05-10 18:24",15,21.3675669,-157.7351502,TRUE,FALSE,TRUE,"S236052824","N"
"59","javspa","Java Sparrow","Padda oryzivora","L31051024","Alii Park Place","2025-05-10 17:08",1,19.620778,-155.983036,TRUE,FALSE,TRUE,"S236046323","N"
"60","javspa","Java Sparrow","Padda oryzivora","L44750217","Keauhou Kona Surf and Racquet Club (restricted access) 78-6800 Aliʻi Dr, Keauhou US-HI 19.57138, -155.96672","2025-05-10 15:00",2,19.571381,-155.966721,TRUE,FALSE,TRUE,"S236498032","N"
"61","javspa","Java Sparrow","Padda oryzivora","L28266182","75-311 Malulani Dr, Kailua Kona US-HI 19.64725, -155.97953","2025-05-10 14:55",8,19.64725,-155.97953,TRUE,FALSE,TRUE,"S235997837","N"
"62","javspa","Java Sparrow","Padda oryzivora","L12010944","75-268 Malulani Dr, Kailua Kona US-HI 19.64500, -155.98219","2025-05-10 14:04",8,19.645004,-155.98219,TRUE,FALSE,TRUE,"S236006071","N"
"63","javspa","Java Sparrow","Padda oryzivora","L3195285","Lana'i'hale and Munro Trail","2025-05-10 14:00",10,20.8196665,-156.8806458,TRUE,FALSE,FALSE,"S236046835","N"
"64","javspa","Java Sparrow","Padda oryzivora","L43163525","Kapolei Community Park, Kapolei US-HI (21.3331,-158.0677)","2025-05-10 08:50",42,21.333063,-158.067724,TRUE,FALSE,TRUE,"S235808967","N"
"65","javspa","Java Sparrow","Padda oryzivora","L10019665","University of the Nations-Kona","2025-05-10 08:12",2,19.6320952,-155.982406,TRUE,FALSE,TRUE,"S235736460","N"
"66","javspa","Java Sparrow","Padda oryzivora","L42356230","Magic Island Honolulu","2025-05-10 07:57",20,21.2882459,-157.8452972,TRUE,FALSE,TRUE,"S235739547","N"
"67","javspa","Java Sparrow","Padda oryzivora","L44601190","Kahului Airport","2025-05-10 07:31",3,20.892854,-156.441877,TRUE,FALSE,TRUE,"S235700829","N"
"68","javspa","Java Sparrow","Padda oryzivora","L44599884","68-1796 Uala Place, Waikoloa Village, Hawaii, US (19.942, -155.787)","2025-05-10 07:28",2,19.9420658,-155.7867772,TRUE,FALSE,TRUE,"S235694875","N"
"69","javspa","Java Sparrow","Padda oryzivora","L22146386","59-580 Pupukea","2025-05-10 07:25",7,21.6451144,-158.0383121,TRUE,FALSE,TRUE,"S236027897","N"
"70","javspa","Java Sparrow","Padda oryzivora","L1127546","Ala Moana Park and State Recreation Area","2025-05-10 07:05",13,21.2894543,-157.8464985,TRUE,FALSE,FALSE,"S235708012","N"
"71","javspa","Java Sparrow","Padda oryzivora","L44798209","War Memorial Complex","2025-05-10 07:03",5,20.891654,-156.488214,TRUE,FALSE,TRUE,"S236746389","N"
"72","javspa","Java Sparrow","Padda oryzivora","L26686242","Home","2025-05-10 07:02",2,19.7185276,-155.9799411,TRUE,FALSE,TRUE,"S236047867","N"
