"","speciesCode","comName","sciName","locId","locName","obsDt","howMany","lat","lng","obsValid","obsReviewed","locationPrivate","subId"
"1","norwat","Northern Waterthrush","Parkesia noveboracensis","L4695640","Robert Treman SP--Gorge Trail","2025-06-12 16:04",3,42.399566,-76.567597,TRUE,FALSE,FALSE,"S249635383"
"2","norwat","Northern Waterthrush","Parkesia noveboracensis","L252149","Ridges Sanctuary","2025-06-12 14:48",1,45.0678256,-87.1239137,TRUE,FALSE,FALSE,"S249628388"
"3","norwat","Northern Waterthrush","Parkesia noveboracensis","L295591","Au Train--Songbird Trail","2025-06-12 14:20",1,46.3933292,-86.8332666,TRUE,FALSE,FALSE,"S249617120"
"4","norwat","Northern Waterthrush","Parkesia noveboracensis","L11647128","Honeoye Lake Inlet, Canadice-Richmond TL","2025-06-12 14:09",2,42.720006,-77.5107216,TRUE,FALSE,FALSE,"S249637349"
"5","norwat","Northern Waterthrush","Parkesia noveboracensis","L44773632","Old Seward Highway- Backside of Potter’s Marsh","2025-06-12 13:51",3,61.063335,-149.798615,TRUE,FALSE,TRUE,"S249654636"
"6","norwat","Northern Waterthrush","Parkesia noveboracensis","L737445","Palmer Hay Flats SGR--Rabbit Slough Access Rd.","2025-06-12 13:30",1,61.5368722,-149.2616701,TRUE,FALSE,FALSE,"S249643474"
"7","norwat","Northern Waterthrush","Parkesia noveboracensis","L1208334","Rifle River RA","2025-06-12 13:14",3,44.4075426,-84.0203476,TRUE,FALSE,FALSE,"S249604817"
"8","norwat","Northern Waterthrush","Parkesia noveboracensis","L47441039","McKinley Bridge, Evans Road, Mio, Michigan, US (44.643, -83.941)","2025-06-12 12:27",1,44.6428133,-83.94079,TRUE,FALSE,TRUE,"S249559889"
"9","norwat","Northern Waterthrush","Parkesia noveboracensis","L16651473","Bethel--Lion's Club River Walk","2025-06-12 12:26",2,60.7885012,-161.7720547,TRUE,FALSE,FALSE,"S249630802"
"10","norwat","Northern Waterthrush","Parkesia noveboracensis","L1588243","Tower Street Open Space Park","2025-06-12 12:12",1,46.870963,-114.0631281,TRUE,FALSE,FALSE,"S249602559"
"11","norwat","Northern Waterthrush","Parkesia noveboracensis","L11002864","Old Steel Bridge Trails, Kalispell US-MT 48.20997, -114.25875","2025-06-12 11:48",1,48.209968,-114.258751,TRUE,FALSE,TRUE,"S249587363"
"12","norwat","Northern Waterthrush","Parkesia noveboracensis","L9439457","Clearwater River Hiking and Canoe Trails","2025-06-12 11:41",12,47.2159591,-113.5265333,TRUE,FALSE,FALSE,"S249611958"
"13","norwat","Northern Waterthrush","Parkesia noveboracensis","L1289447","Dingman Marsh","2025-06-12 11:39",1,45.7144697,-84.685588,TRUE,FALSE,FALSE,"S249570326"
"14","norwat","Northern Waterthrush","Parkesia noveboracensis","L2898838","Nome-Council Rd.--East Fork Solomon River","2025-06-12 11:37",1,64.6923069,-164.2767835,TRUE,FALSE,FALSE,"S249648767"
"15","norwat","Northern Waterthrush","Parkesia noveboracensis","L17112850","Hasty Brook","2025-06-12 11:27",1,46.769154,-92.89225,TRUE,FALSE,TRUE,"S249560193"
"16","norwat","Northern Waterthrush","Parkesia noveboracensis","L561441","Tongass NF--Moose Lake area","2025-06-12 11:27",1,58.4057814,-134.5713186,TRUE,FALSE,FALSE,"S249652602"
"17","norwat","Northern Waterthrush","Parkesia noveboracensis","L47451693","Denali Hwy, Healy US-AK 63.37778, -148.85296","2025-06-12 11:15",1,63.377783,-148.852956,TRUE,FALSE,TRUE,"S249604525"
"18","norwat","Northern Waterthrush","Parkesia noveboracensis","L272172","Missisquoi NWR--Stephen Young Marsh","2025-06-12 11:05",1,44.9537903,-73.2070595,TRUE,FALSE,FALSE,"S249579894"
"19","norwat","Northern Waterthrush","Parkesia noveboracensis","L128537","Creamer's Field MWR","2025-06-12 11:02",1,64.86305,-147.7381727,TRUE,FALSE,FALSE,"S249631638"
"20","norwat","Northern Waterthrush","Parkesia noveboracensis","L4606931","Palmer Hay Flats SGR--Wasilla Creek Boardwalk","2025-06-12 10:47",1,61.5504655,-149.2958629,TRUE,FALSE,FALSE,"S249615320"
"21","norwat","Northern Waterthrush","Parkesia noveboracensis","L9326867","Going to the Sun Rd From Avalanche To Red Rock","2025-06-12 10:46",1,48.6794678,-113.8198321,TRUE,FALSE,TRUE,"S249582589"
"22","norwat","Northern Waterthrush","Parkesia noveboracensis","L301864","Beaver Lake Nature Center","2025-06-12 10:42",4,43.1804351,-76.4021532,TRUE,FALSE,FALSE,"S249594473"
"23","norwat","Northern Waterthrush","Parkesia noveboracensis","L1501116","High Point SP--Dryden Kuser Natural Area","2025-06-12 10:26",1,41.3289508,-74.6583062,TRUE,FALSE,FALSE,"S249606804"
"24","norwat","Northern Waterthrush","Parkesia noveboracensis","L959596","Nome-Council Rd.--Hastings Creek","2025-06-12 10:17",1,64.4557741,-165.1001358,TRUE,FALSE,FALSE,"S249596187"
"25","norwat","Northern Waterthrush","Parkesia noveboracensis","L1542457","Carp River Rd. Fishing Access","2025-06-12 10:07",1,46.0238982,-84.6939652,TRUE,FALSE,FALSE,"S249622066"
"26","norwat","Northern Waterthrush","Parkesia noveboracensis","L9706980","Glacier NP--Lake Josephine Trail","2025-06-12 10:02",12,48.7797747,-113.6705744,TRUE,FALSE,FALSE,"S249630659"
"27","norwat","Northern Waterthrush","Parkesia noveboracensis","L155141","Nome--Center Creek Rd.","2025-06-12 09:44",2,64.52735,-165.41586,TRUE,FALSE,FALSE,"S249593960"
"28","norwat","Northern Waterthrush","Parkesia noveboracensis","L2096098","Potter Marsh (general area)","2025-06-12 09:36",4,61.0715323,-149.8160934,TRUE,FALSE,FALSE,"S249595947"
"29","norwat","Northern Waterthrush","Parkesia noveboracensis","L2830287","Drinking Horse Trail","2025-06-12 09:33",2,45.70549,-110.9743166,TRUE,FALSE,FALSE,"S249565964"
"30","norwat","Northern Waterthrush","Parkesia noveboracensis","L1030214","Lake Fairlee - boat ramp","2025-06-12 09:03",1,43.8904664,-72.2268462,TRUE,FALSE,TRUE,"S249559500"
"31","norwat","Northern Waterthrush","Parkesia noveboracensis","L2403326","Searsmont--Moody Mountain Road yard","2025-06-12 09:00",2,44.3354061,-69.1767025,TRUE,FALSE,TRUE,"S249506963"
"32","norwat","Northern Waterthrush","Parkesia noveboracensis","L20755934","Great Swamp Management Area--Great Neck Road/Deer Check Station","2025-06-12 08:57",1,41.4758196,-71.5739822,TRUE,FALSE,FALSE,"S249561188"
"33","norwat","Northern Waterthrush","Parkesia noveboracensis","L47444138","Beaver Lake Nature Center, Baldwinsville US-NY 43.18059, -76.40206","2025-06-12 08:53",3,43.180589,-76.402056,TRUE,FALSE,TRUE,"S249572634"
"34","norwat","Northern Waterthrush","Parkesia noveboracensis","L32718465","Whites Brook, Bucksport US-ME (44.5964,-68.7309)","2025-06-12 08:50",3,44.596444,-68.730851,TRUE,FALSE,TRUE,"S249499453"
"35","norwat","Northern Waterthrush","Parkesia noveboracensis","L15037358","Ladd Road Railroad Bed--East","2025-06-12 08:45",1,44.4529204,-71.8308131,TRUE,FALSE,FALSE,"S249508597"
"36","norwat","Northern Waterthrush","Parkesia noveboracensis","L47450442","Appalachian National Scenic Trail, Great Barrington US-MA 42.14714, -73.38683","2025-06-12 08:40",2,42.147137,-73.386831,TRUE,FALSE,TRUE,"S249599170"
"37","norwat","Northern Waterthrush","Parkesia noveboracensis","L17669080","Alpena Twp. Nature Preserve","2025-06-12 08:24",1,45.0781048,-83.3264159,TRUE,FALSE,FALSE,"S249514713"
"38","norwat","Northern Waterthrush","Parkesia noveboracensis","L1526714","Knik River PUA--Jim Lake","2025-06-12 08:24",2,61.556399,-148.925173,TRUE,FALSE,FALSE,"S249583483"
"39","norwat","Northern Waterthrush","Parkesia noveboracensis","L28789992","Wolf Track Rd","2025-06-12 08:20",2,62.270912,-150.09464,TRUE,FALSE,TRUE,"S249560349"
"40","norwat","Northern Waterthrush","Parkesia noveboracensis","L17021093","Douglas-Treadwell/Sandy Beach area","2025-06-12 08:14",1,58.2738107,-134.3896902,TRUE,FALSE,TRUE,"S249560176"
"41","norwat","Northern Waterthrush","Parkesia noveboracensis","L2948040","Loverens Mill Cedar Swamp, Antrim","2025-06-12 08:12",2,43.0726498,-72.027998,TRUE,FALSE,FALSE,"S249537565"
"42","norwat","Northern Waterthrush","Parkesia noveboracensis","L2144035","Palmer Hay Flats SGR general area","2025-06-12 08:11",1,61.5321881,-149.2884064,TRUE,FALSE,FALSE,"S249558191"
"43","norwat","Northern Waterthrush","Parkesia noveboracensis","L47395092","George Washington State campground","2025-06-12 07:45",2,41.9220296,-71.7550349,TRUE,FALSE,TRUE,"S249540747"
"44","norwat","Northern Waterthrush","Parkesia noveboracensis","L97555","Sapsucker Woods","2025-06-12 07:45",2,42.4787599,-76.4529133,TRUE,FALSE,FALSE,"S249589614"
"45","norwat","Northern Waterthrush","Parkesia noveboracensis","L11498359","Camp Pet-O-Se-Ga","2025-06-12 07:40",2,45.3904036,-84.7411108,TRUE,FALSE,FALSE,"S249499367"
"46","norwat","Northern Waterthrush","Parkesia noveboracensis","L24247414","Superior National Forest, Ely US-MN 47.97978, -91.81603","2025-06-12 07:35",2,47.979776,-91.816032,TRUE,FALSE,TRUE,"S249500383"
"47","norwat","Northern Waterthrush","Parkesia noveboracensis","L7417405","Joint Base Elmendorf-Richardson--Otter Lake (restricted access)","2025-06-12 07:33",1,61.289489,-149.7371964,TRUE,FALSE,FALSE,"S249561760"
"48","norwat","Northern Waterthrush","Parkesia noveboracensis","L47429348","Bear Creek Recreation Park","2025-06-12 07:30",1,41.207648,-75.789871,TRUE,FALSE,TRUE,"S249510359"
"49","norwat","Northern Waterthrush","Parkesia noveboracensis","L32679607","Narramissic River, Orland US-ME (44.5942,-68.7270)","2025-06-12 07:28",1,44.594174,-68.727033,TRUE,FALSE,TRUE,"S249604868"
"50","norwat","Northern Waterthrush","Parkesia noveboracensis","L43498559","201–499 Mirror Lake Rd, Berlin US-VT (Berlin Pond)","2025-06-12 07:26",1,44.178716,-72.59003,TRUE,FALSE,TRUE,"S249474843"
"51","norwat","Northern Waterthrush","Parkesia noveboracensis","L553371","High Point State Park","2025-06-12 07:14",1,41.3030224,-74.6778059,TRUE,FALSE,TRUE,"S249500192"
"52","norwat","Northern Waterthrush","Parkesia noveboracensis","L11641149","Treasure Point Road, St. George, ME","2025-06-12 07:07",1,44.0120099,-69.2095863,TRUE,FALSE,TRUE,"S249486510"
"53","norwat","Northern Waterthrush","Parkesia noveboracensis","L442903","Zurich Bog","2025-06-12 07:07",1,43.1505969,-77.0560455,TRUE,FALSE,FALSE,"S249509893"
"54","norwat","Northern Waterthrush","Parkesia noveboracensis","L763879","Potter Marsh Boardwalk","2025-06-12 07:02",1,61.0775802,-149.8262,TRUE,FALSE,FALSE,"S249558906"
"55","norwat","Northern Waterthrush","Parkesia noveboracensis","L20106846","Pictured Rocks NL - Sand Pt Board Walk","2025-06-12 07:01",1,46.4476033,-86.6039314,TRUE,FALSE,TRUE,"S249552406"
"56","norwat","Northern Waterthrush","Parkesia noveboracensis","L11529435","Fort Missoula grounds","2025-06-12 06:33",3,46.8435647,-114.0615454,TRUE,FALSE,TRUE,"S249604419"
"57","norwat","Northern Waterthrush","Parkesia noveboracensis","L8893127","Warren NH, Mt. Meadow Rd, feeders","2025-06-12 06:31",1,43.911817,-71.9010031,TRUE,FALSE,TRUE,"S249491860"
"58","norwat","Northern Waterthrush","Parkesia noveboracensis","L2832638","Richardson Memorial Preserve (SRLT)","2025-06-12 06:30",2,44.5624046,-69.2910719,TRUE,FALSE,FALSE,"S249677178"
"59","norwat","Northern Waterthrush","Parkesia noveboracensis","L3544677","Dutchman Pond","2025-06-12 06:30",1,46.1807515,-112.8508973,TRUE,FALSE,FALSE,"S249671204"
"60","norwat","Northern Waterthrush","Parkesia noveboracensis","L14217757","Wild Road, Piseco NY","2025-06-12 06:22",1,43.4308377,-74.5115317,TRUE,FALSE,TRUE,"S249497817"
"61","norwat","Northern Waterthrush","Parkesia noveboracensis","L34421274","Dog Rock, Wilderness Field Station, Low Lake, Ely MN","2025-06-12 06:22",1,47.981189,-91.822416,TRUE,FALSE,TRUE,"S249465481"
"62","norwat","Northern Waterthrush","Parkesia noveboracensis","L9482456","Steese Hwy.--mm 26 vicinity","2025-06-12 06:22",3,65.1016367,-147.446695,TRUE,FALSE,FALSE,"S249564721"
"63","norwat","Northern Waterthrush","Parkesia noveboracensis","L7304843","596 Garfield Rd, Auburn US-ME (44.0970,-70.2903)","2025-06-12 06:17",1,44.096989,-70.290296,TRUE,FALSE,TRUE,"S249479356"
"64","norwat","Northern Waterthrush","Parkesia noveboracensis","L47115223","Broad Cove Road -- Dolf Brook, Hopkinton","2025-06-12 06:05",1,43.2286739,-71.6622546,TRUE,FALSE,TRUE,"S249458595"
"65","norwat","Northern Waterthrush","Parkesia noveboracensis","L1371002","Shoe Lake area","2025-06-12 05:59",1,43.9453321,-87.986371,TRUE,FALSE,FALSE,"S249487074"
"66","norwat","Northern Waterthrush","Parkesia noveboracensis","L7169365","Silvio O. Conte NWR--Nulhegan Basin Division","2025-06-12 05:56",2,44.8433371,-71.7497596,TRUE,FALSE,FALSE,"S249600762"
"67","norwat","Northern Waterthrush","Parkesia noveboracensis","L2999574","Denali Park Village","2025-06-12 05:49",1,63.655667,-148.833078,TRUE,FALSE,FALSE,"S249505349"
"68","norwat","Northern Waterthrush","Parkesia noveboracensis","L31987872","Eagle Harbor-Waterport Rd, Albion US-NY","2025-06-12 05:46",1,43.293288,-78.251636,TRUE,FALSE,TRUE,"S249462375"
"69","norwat","Northern Waterthrush","Parkesia noveboracensis","L17276543","Oxbow Lake Outlet / Piseco Lake Inlet, Piseco NY","2025-06-12 05:44",1,43.4298919,-74.4998173,TRUE,FALSE,TRUE,"S249497392"
"70","norwat","Northern Waterthrush","Parkesia noveboracensis","L5993100","Mt. McKinley Princess Wilderness Lodge","2025-06-12 02:31",1,62.5584721,-150.2295613,TRUE,FALSE,FALSE,"S249445101"
"71","norwat","Northern Waterthrush","Parkesia noveboracensis","L4702202","Bethel--Sewage Ponds","2025-06-11 19:54",1,60.8098089,-161.7706561,TRUE,FALSE,FALSE,"S249401360"
"72","norwat","Northern Waterthrush","Parkesia noveboracensis","L765144","Jennings EEC (Jennings Prairie)","2025-06-11 19:42",1,41.0100283,-80.0049251,TRUE,FALSE,FALSE,"S249367267"
"73","norwat","Northern Waterthrush","Parkesia noveboracensis","L33269646","Moose Pond, Errol US-NH 44.73032, -71.23205","2025-06-11 19:32",1,44.730322,-71.232046,TRUE,FALSE,TRUE,"S249386870"
"74","norwat","Northern Waterthrush","Parkesia noveboracensis","L5980353","Bridge Creek Reservoir","2025-06-11 18:12",1,59.678553,-151.5487517,TRUE,FALSE,FALSE,"S249412945"
"75","norwat","Northern Waterthrush","Parkesia noveboracensis","L47398943","Table Rock Trail via Stubtown Road","2025-06-11 17:48",1,41.5002706,-71.7724639,TRUE,FALSE,TRUE,"S249356958"
"76","norwat","Northern Waterthrush","Parkesia noveboracensis","L252154","Mud Lake SWA (Door Co.)","2025-06-11 16:43",2,45.13461,-87.10409,TRUE,FALSE,FALSE,"S249323807"
"77","norwat","Northern Waterthrush","Parkesia noveboracensis","L2821267","Willowdale SF","2025-06-11 16:33",1,42.6733728,-70.8994157,TRUE,FALSE,FALSE,"S249347583"
"78","norwat","Northern Waterthrush","Parkesia noveboracensis","L47388621","12350–12798 Wilson Rd, North East US-PA 42.10393, -79.76999","2025-06-11 16:25",1,42.103926,-79.769991,TRUE,FALSE,TRUE,"S249307080"
"79","norwat","Northern Waterthrush","Parkesia noveboracensis","L47407975","Kuzitrin Rd, Nome US-AK 65.13127, -164.73804","2025-06-11 16:07",1,65.131274,-164.73804,TRUE,FALSE,TRUE,"S249401671"
"80","norwat","Northern Waterthrush","Parkesia noveboracensis","L47399468","Talkeetna Fishing Spot","2025-06-11 16:02",2,62.3666191,-150.0181015,TRUE,FALSE,TRUE,"S249359712"
"81","norwat","Northern Waterthrush","Parkesia noveboracensis","L47399677","Bob Blodgett Highway, Nome, Alaska, US (64.569, -165.621)","2025-06-11 15:47",1,64.5690198,-165.6211121,TRUE,FALSE,TRUE,"S249360837"
"82","norwat","Northern Waterthrush","Parkesia noveboracensis","L109241","Boston Hollow/Yale Forest","2025-06-11 15:40",1,41.9333333,-72.15,TRUE,FALSE,FALSE,"S249372069"
"83","norwat","Northern Waterthrush","Parkesia noveboracensis","L47391816","1–599 Lewis Pond Trail, Island Pond US-VT 44.87984, -71.77728","2025-06-11 15:16",1,44.879838,-71.777283,TRUE,FALSE,TRUE,"S249321990"
"84","norwat","Northern Waterthrush","Parkesia noveboracensis","L912900","Hatcher Pass--Gold Mint Trail","2025-06-11 15:00",2,61.7787853,-149.1961384,TRUE,FALSE,FALSE,"S249393975"
"85","norwat","Northern Waterthrush","Parkesia noveboracensis","L875986","Barton River Marshes","2025-06-11 14:40",1,44.8555037,-72.2047234,TRUE,FALSE,FALSE,"S249290266"
"86","norwat","Northern Waterthrush","Parkesia noveboracensis","L961319","Beluga--North Bog","2025-06-11 14:31",1,61.2094437,-151.0248041,TRUE,FALSE,FALSE,"S249409613"
"87","norwat","Northern Waterthrush","Parkesia noveboracensis","L3901801","Sprague Farm Town Forest (Glocester Land Trust)","2025-06-11 14:13",2,41.9029159,-71.7132139,TRUE,FALSE,FALSE,"S249300298"
"88","norwat","Northern Waterthrush","Parkesia noveboracensis","L1498735","Sapsucker Woods--Stadlen and Hoyt-Pileated Trail","2025-06-11 13:55",1,42.4777154,-76.4481604,TRUE,FALSE,FALSE,"S249320463"
"89","norwat","Northern Waterthrush","Parkesia noveboracensis","L11627076","Kinney Hollow Rd, Union","2025-06-11 13:30",1,41.966818,-72.1513519,TRUE,FALSE,FALSE,"S249277744"
"90","norwat","Northern Waterthrush","Parkesia noveboracensis","L47404584","3103 US-89, Babb US-MT 48.71289, -113.41344","2025-06-11 13:28",1,48.712891,-113.413444,TRUE,FALSE,TRUE,"S249385946"
"91","norwat","Northern Waterthrush","Parkesia noveboracensis","L47389456","Glacier National Park, West Glacier US-MT Fish Creek Picnic Area","2025-06-11 13:03",1,48.54632,-113.982947,TRUE,FALSE,TRUE,"S249311077"
"92","norwat","Northern Waterthrush","Parkesia noveboracensis","L7650379","Denali SP--Curry Ridge Trail","2025-06-11 12:44",2,62.5923986,-150.2231048,TRUE,FALSE,FALSE,"S249333564"
"93","norwat","Northern Waterthrush","Parkesia noveboracensis","L16695932","Bethel--Mission Lake","2025-06-11 12:37",2,60.7918468,-161.764819,TRUE,FALSE,FALSE,"S249308576"
"94","norwat","Northern Waterthrush","Parkesia noveboracensis","L14931291","Bethel--Lomack Beach","2025-06-11 12:27",2,60.7911941,-161.7585498,TRUE,FALSE,FALSE,"S249305174"
"95","norwat","Northern Waterthrush","Parkesia noveboracensis","L47405024","59833, Florence US-MT (46.6391,-114.0551)","2025-06-11 12:06",5,46.639096,-114.055145,TRUE,FALSE,TRUE,"S249387969"
"96","norwat","Northern Waterthrush","Parkesia noveboracensis","L47368131","Blackwater Falls State Park, Thomas US-WV 39.10902, -79.48397","2025-06-11 11:56",1,39.109022,-79.483972,TRUE,FALSE,TRUE,"S249221157"
"97","norwat","Northern Waterthrush","Parkesia noveboracensis","L328016","Orono Bog Walk","2025-06-11 11:55",1,44.8673976,-68.7270248,TRUE,FALSE,FALSE,"S249246928"
"98","norwat","Northern Waterthrush","Parkesia noveboracensis","L47391129","Denali Hwy, Delta Junction US-AK (63.0460,-146.0181)","2025-06-11 11:48",1,63.046002,-146.01814,TRUE,FALSE,TRUE,"S249320152"
"99","norwat","Northern Waterthrush","Parkesia noveboracensis","L47361510","Beaver Lake Nature Center, Baldwinsville US-NY 43.18336, -76.40209 TB","2025-06-11 11:24",2,43.183363,-76.402091,TRUE,FALSE,TRUE,"S249219903"
"100","norwat","Northern Waterthrush","Parkesia noveboracensis","L4818997","Talkeetna River Mouth","2025-06-11 11:23",1,62.3257305,-150.1173055,TRUE,FALSE,FALSE,"S249288401"
"101","norwat","Northern Waterthrush","Parkesia noveboracensis","L1173410","Ducks Unlimited Warm Springs Ponds","2025-06-11 11:18",3,46.1809001,-112.8020382,TRUE,FALSE,FALSE,"S249320451"
"102","norwat","Northern Waterthrush","Parkesia noveboracensis","L871898","Eno River SP--Few's Ford","2025-06-11 11:15",1,36.0732448,-79.0061617,TRUE,TRUE,FALSE,"S249228823"
"103","norwat","Northern Waterthrush","Parkesia noveboracensis","L47374005","Wiouwash Recreational Trail, Eland, Wisconsin, US (44.845, -89.196)","2025-06-11 11:13",NA,44.8453271,-89.1957256,TRUE,FALSE,TRUE,"S249246165"
"104","norwat","Northern Waterthrush","Parkesia noveboracensis","L24478247","Cranesville Swamp (WV)--White Trail","2025-06-11 11:05",1,39.5323075,-79.4860772,TRUE,FALSE,FALSE,"S249354271"
"105","norwat","Northern Waterthrush","Parkesia noveboracensis","L47395308","165 Littleton Road, Harvard, Massachusetts, US (42.517, -71.563)","2025-06-11 11:00",1,42.5167644,-71.5627943,TRUE,FALSE,TRUE,"S249338293"
"106","norwat","Northern Waterthrush","Parkesia noveboracensis","L515899","Cranesville Swamp (WV)","2025-06-11 11:00",1,39.5348286,-79.4826508,TRUE,FALSE,FALSE,"S249386661"
"107","norwat","Northern Waterthrush","Parkesia noveboracensis","L47400335","clearwater river canoe trail","2025-06-11 11:00",25,47.2256888,-113.535912,TRUE,FALSE,TRUE,"S249370442"
"108","norwat","Northern Waterthrush","Parkesia noveboracensis","L47320605","C A A Site Road, Nome, Alaska, US (64.497, -165.322)","2025-06-11 10:59",1,64.4968014,-165.3221355,TRUE,FALSE,TRUE,"S249365889"
"109","norwat","Northern Waterthrush","Parkesia noveboracensis","L823675","Arctic Valley Rd.","2025-06-11 10:57",1,61.2350621,-149.569931,TRUE,FALSE,FALSE,"S249299992"
"110","norwat","Northern Waterthrush","Parkesia noveboracensis","L39990775","Bellingham High School, Bellingham US-MA 42.07434, -71.46878","2025-06-11 10:56",1,42.074342,-71.468778,TRUE,FALSE,TRUE,"S249209924"
"111","norwat","Northern Waterthrush","Parkesia noveboracensis","L929964","Beluga--South Bog","2025-06-11 10:52",1,61.1223093,-151.1026955,TRUE,FALSE,FALSE,"S249281253"
"112","norwat","Northern Waterthrush","Parkesia noveboracensis","L3743060","Mickey Elverum Bog Walk","2025-06-11 10:43",1,48.0456832,-92.8364736,TRUE,FALSE,FALSE,"S249238084"
"113","norwat","Northern Waterthrush","Parkesia noveboracensis","L47398516","WI.LangladeCo.E Hollister Rd at Ninemile Creek","2025-06-11 10:30",1,45.2477662,-88.7888047,TRUE,FALSE,TRUE,"S249355679"
"114","norwat","Northern Waterthrush","Parkesia noveboracensis","L47369946","CR-438, Gwinn US-MI","2025-06-11 10:19",1,46.197163,-87.485673,TRUE,FALSE,TRUE,"S249229001"
"115","norwat","Northern Waterthrush","Parkesia noveboracensis","L3493345","Cottage at Spruce Cove, St. George, ME. Knox Cty","2025-06-11 10:08",1,43.953535,-69.2665478,TRUE,FALSE,TRUE,"S249183005"
"116","norwat","Northern Waterthrush","Parkesia noveboracensis","L1772244","Flathead House","2025-06-11 10:05",1,48.1768708,-114.1377721,TRUE,FALSE,TRUE,"S249247956"
"117","norwat","Northern Waterthrush","Parkesia noveboracensis","L47395011","MP 115 Denali Highway, Alaska, US (63.357, -148.337)","2025-06-11 10:00",2,63.3571325,-148.3372964,TRUE,FALSE,TRUE,"S249336830"
"118","norwat","Northern Waterthrush","Parkesia noveboracensis","L573245","Three Mile Bay WMA--Fishing Access","2025-06-11 09:56",1,43.2415373,-76.0871512,TRUE,FALSE,FALSE,"S249206955"
"119","norwat","Northern Waterthrush","Parkesia noveboracensis","L47407908","Kuzitrin Rd, Nome US-AK 65.10160, -164.68640","2025-06-11 09:56",1,65.101602,-164.686403,TRUE,FALSE,TRUE,"S249401323"
"120","norwat","Northern Waterthrush","Parkesia noveboracensis","L46669031","SSW07","2025-06-11 09:50",1,42.476497,-76.449147,TRUE,FALSE,TRUE,"S249180366"
"121","norwat","Northern Waterthrush","Parkesia noveboracensis","L132036","Bashakill State WMA","2025-06-11 09:50",1,41.5384264,-74.5156422,TRUE,FALSE,FALSE,"S249249971"
"122","norwat","Northern Waterthrush","Parkesia noveboracensis","L47362878","Camp Lake Road, Ely US-MN (47.8305,-92.0856)","2025-06-11 09:50",1,47.830492,-92.085604,TRUE,FALSE,TRUE,"S249198574"
"123","norwat","Northern Waterthrush","Parkesia noveboracensis","L47391998","Baxter SP Grassy Pond Trail","2025-06-11 09:45",3,45.8849276,-69.0062568,TRUE,FALSE,TRUE,"S249326575"
"124","norwat","Northern Waterthrush","Parkesia noveboracensis","L752036","Lefferts Pond - Chittenden (55 acres)","2025-06-11 09:43",6,43.7151985,-72.9018244,TRUE,FALSE,FALSE,"S249226221"
"125","norwat","Northern Waterthrush","Parkesia noveboracensis","L15672353","Parks Hwy.--Jack River","2025-06-11 09:38",2,63.385799,-148.9088805,TRUE,FALSE,FALSE,"S249281429"
"126","norwat","Northern Waterthrush","Parkesia noveboracensis","L2898413","Nome-Teller Hwy.--Penny River","2025-06-11 09:37",3,64.5855733,-165.6668141,TRUE,FALSE,FALSE,"S249362396"
"127","norwat","Northern Waterthrush","Parkesia noveboracensis","L7472172","State Game Lands 109","2025-06-11 09:30",1,41.985795,-79.9774164,TRUE,FALSE,FALSE,"S249175828"
"128","norwat","Northern Waterthrush","Parkesia noveboracensis","L2725332","Beluga--Threemile Creek Mouth","2025-06-11 09:29",1,61.1428624,-151.0732877,TRUE,FALSE,FALSE,"S249251136"
"129","norwat","Northern Waterthrush","Parkesia noveboracensis","L7055383","Atwood Reservoir WMA","2025-06-11 09:28",1,41.8656107,-70.7747926,TRUE,FALSE,FALSE,"S249215714"
"130","norwat","Northern Waterthrush","Parkesia noveboracensis","L3869276","White Ranch.","2025-06-11 09:18",1,41.545642,-106.179408,TRUE,FALSE,TRUE,"S249339223"
"131","norwat","Northern Waterthrush","Parkesia noveboracensis","L372020","Toad Harbor","2025-06-11 09:10",1,43.2400757,-76.0751724,TRUE,FALSE,FALSE,"S249329462"
"132","norwat","Northern Waterthrush","Parkesia noveboracensis","L12148942","Denali SP--Kesugi Ridge Trail (Ermine Hill area)","2025-06-11 09:00",2,62.7943744,-149.8691187,TRUE,FALSE,FALSE,"S249573111"
"133","norwat","Northern Waterthrush","Parkesia noveboracensis","L949330","Glacier NP--Logging Creek Ranger Station","2025-06-11 09:00",2,48.6978014,-114.1929889,TRUE,FALSE,FALSE,"S249658621"
"134","norwat","Northern Waterthrush","Parkesia noveboracensis","L2897911","Chugach SP--Wolverine Bowl Trail","2025-06-11 08:59",2,61.1401528,-149.6926582,TRUE,FALSE,FALSE,"S249267146"
"135","norwat","Northern Waterthrush","Parkesia noveboracensis","L3569193","Haines Hwy.--MP 5 wetland","2025-06-11 08:55",2,59.2610348,-135.5670462,TRUE,FALSE,FALSE,"S249286573"
"136","norwat","Northern Waterthrush","Parkesia noveboracensis","L2979032","Arcadia Management Area--Roaring Brook","2025-06-11 08:53",2,41.5601052,-71.6816926,TRUE,FALSE,FALSE,"S249212290"
"137","norwat","Northern Waterthrush","Parkesia noveboracensis","L278283","Thompson Wildlife Sanctuary, Sandwich","2025-06-11 08:46",1,43.835513,-71.3710221,TRUE,FALSE,FALSE,"S249170350"
"138","norwat","Northern Waterthrush","Parkesia noveboracensis","L47407898","Beam Rd, Nome US-AK 64.70838, -165.29360","2025-06-11 08:46",1,64.708376,-165.293596,TRUE,FALSE,TRUE,"S249401275"
"139","norwat","Northern Waterthrush","Parkesia noveboracensis","L47394790","MP90, Denali Highway, Alaska, US (63.214, -147.674)","2025-06-11 08:33",1,63.2139056,-147.6742136,TRUE,FALSE,TRUE,"S249335878"
"140","norwat","Northern Waterthrush","Parkesia noveboracensis","L47431069","WI.LangladeCo.Wolf River at Wolf Landing Rd","2025-06-11 08:30",1,45.276469,-88.8400101,TRUE,FALSE,TRUE,"S249519564"
"141","norwat","Northern Waterthrush","Parkesia noveboracensis","L621720","Tubbs Hill Rd, Richford","2025-06-11 08:25",1,42.3483635,-76.1646831,TRUE,FALSE,TRUE,"S249229829"
"142","norwat","Northern Waterthrush","Parkesia noveboracensis","L47422324","Wompatuck State Park, Hingham US-MA 42.19651, -70.84008","2025-06-11 08:24",1,42.196512,-70.840082,TRUE,FALSE,TRUE,"S249474211"
"143","norwat","Northern Waterthrush","Parkesia noveboracensis","L38461982","Helsing Road, Radisson, Wisconsin, US (45.825, -91.173)","2025-06-11 08:15",4,45.8253762,-91.1731006,TRUE,FALSE,TRUE,"S249293589"
"144","norwat","Northern Waterthrush","Parkesia noveboracensis","L15554775","Klondike SF","2025-06-11 08:14",2,43.3646146,-75.9897866,TRUE,FALSE,FALSE,"S249215085"
"145","norwat","Northern Waterthrush","Parkesia noveboracensis","L16136682","West Rutland Marsh--Whipple Hollow Trail","2025-06-11 08:04",3,43.6227849,-73.0652851,TRUE,FALSE,FALSE,"S249449327"
"146","norwat","Northern Waterthrush","Parkesia noveboracensis","L34570982","Shaw Pond","2025-06-11 08:03",1,42.255325,-73.128732,TRUE,FALSE,TRUE,"S249243630"
"147","norwat","Northern Waterthrush","Parkesia noveboracensis","L294954","Kougarok Rd. (please use a more specific location)","2025-06-11 07:59",2,64.7875103,-165.2113724,TRUE,FALSE,FALSE,"S249397267"
"148","norwat","Northern Waterthrush","Parkesia noveboracensis","L207427","Canoe Meadows Wildlife Sanctuary (Mass Audubon)","2025-06-11 07:58",2,42.4303016,-73.2367135,TRUE,FALSE,FALSE,"S249170146"
"149","norwat","Northern Waterthrush","Parkesia noveboracensis","L501895","Youghiogheny River Reservoir--Old Morgantown Road","2025-06-11 07:55",1,39.6871763,-79.3847609,TRUE,FALSE,FALSE,"S249355799"
"150","norwat","Northern Waterthrush","Parkesia noveboracensis","L4044514","Bird Haven/stakeout Black-throated Gray Warbler (2015-2016) (permission required)","2025-06-11 07:51",1,45.4380171,-87.5469536,TRUE,FALSE,FALSE,"S249181859"
"151","norwat","Northern Waterthrush","Parkesia noveboracensis","L47362951","Canoe Trail Return, Seeley Lake US-MT (47.2258,-113.5357)","2025-06-11 07:50",1,47.225814,-113.535748,TRUE,FALSE,TRUE,"S249198933"
"152","norwat","Northern Waterthrush","Parkesia noveboracensis","L5578408","Kenai Fjords NP--Exit Glacier Nature Center","2025-06-11 07:47",NA,60.1883826,-149.6311375,TRUE,FALSE,FALSE,"S249268940"
"153","norwat","Northern Waterthrush","Parkesia noveboracensis","L47390780","Glacier National Park-Magee Meadow","2025-06-11 07:44",1,48.593661,-114.035984,TRUE,FALSE,TRUE,"S249317202"
"154","norwat","Northern Waterthrush","Parkesia noveboracensis","L3658262","Old Cherry Mt. Rd., Carroll/Jefferson","2025-06-11 07:40",1,44.2713246,-71.4720726,TRUE,FALSE,FALSE,"S249222989"
"155","norwat","Northern Waterthrush","Parkesia noveboracensis","L2317642","Janack's Landing trail","2025-06-11 07:30",2,44.1330151,-74.915278,TRUE,FALSE,TRUE,"S249197856"
"156","norwat","Northern Waterthrush","Parkesia noveboracensis","L47264144","47442 S Yancey Dr, Talkeetna US-AK 62.02631, -150.07041","2025-06-11 07:29",3,62.026312,-150.070411,TRUE,FALSE,TRUE,"S249400405"
"157","norwat","Northern Waterthrush","Parkesia noveboracensis","L526888","Tanana Lakes Recreation Area","2025-06-11 07:28",5,64.7966492,-147.7180481,TRUE,FALSE,FALSE,"S249282055"
"158","norwat","Northern Waterthrush","Parkesia noveboracensis","L6039665","Dalton Hwy.--Marion Creek BLM Campground","2025-06-11 07:22",1,67.3169804,-150.1606269,TRUE,FALSE,FALSE,"S249389592"
"159","norwat","Northern Waterthrush","Parkesia noveboracensis","L47434615","Bob Blodgett Hwy, Nome US-AK 64.71859, -165.92298","2025-06-11 07:21",1,64.718592,-165.922983,TRUE,FALSE,TRUE,"S249534246"
"160","norwat","Northern Waterthrush","Parkesia noveboracensis","L2281679","Anchor River--South Fork","2025-06-11 07:20",1,59.7168153,-151.647141,TRUE,FALSE,FALSE,"S249215449"
"161","norwat","Northern Waterthrush","Parkesia noveboracensis","L4146099","Anaconda, MT Sunnyside Road","2025-06-11 07:16",1,46.1229563,-112.9839788,TRUE,FALSE,TRUE,"S249477046"
"162","norwat","Northern Waterthrush","Parkesia noveboracensis","L46659071","SSW01","2025-06-11 07:10",1,42.474079,-76.449154,TRUE,FALSE,TRUE,"S249122540"
"163","norwat","Northern Waterthrush","Parkesia noveboracensis","L1312278","Arco Ponds","2025-06-11 07:06",1,46.1624744,-112.7791214,TRUE,FALSE,FALSE,"S249310150"
"164","norwat","Northern Waterthrush","Parkesia noveboracensis","L24337650","East Fork Lolo Creek","2025-06-11 06:50",1,46.7105812,-114.5312415,TRUE,FALSE,TRUE,"S249409994"
"165","norwat","Northern Waterthrush","Parkesia noveboracensis","L1175836","Marguerite Gahagan Nature Preserve","2025-06-11 06:50",1,44.4882397,-84.6086311,TRUE,FALSE,FALSE,"S249145653"
"166","norwat","Northern Waterthrush","Parkesia noveboracensis","L32747561","7 Loop A Rd, Browning US-MT (48.4888,-113.3662)","2025-06-11 06:49",1,48.488808,-113.36624,TRUE,FALSE,TRUE,"S249199846"
"167","norwat","Northern Waterthrush","Parkesia noveboracensis","L18721336","Derby Bike path wetland","2025-06-11 06:45",2,44.9815534,-72.186432,TRUE,FALSE,TRUE,"S249129772"
"168","norwat","Northern Waterthrush","Parkesia noveboracensis","L160586","Beaver Meadow Audubon Center","2025-06-11 06:45",4,42.6730027,-78.3831251,TRUE,FALSE,FALSE,"S249152722"
"169","norwat","Northern Waterthrush","Parkesia noveboracensis","L47434654","Bob Blodgett Hwy, Nome US-AK 64.58589, -165.66706","2025-06-11 06:36",2,64.585885,-165.667061,TRUE,FALSE,TRUE,"S249534371"
"170","norwat","Northern Waterthrush","Parkesia noveboracensis","L941889","Denali Hwy.--Clearwater Creek Bridge (MP 55.7)","2025-06-11 06:25",1,63.0420051,-146.8837738,TRUE,FALSE,FALSE,"S249334697"
"171","norwat","Northern Waterthrush","Parkesia noveboracensis","L20552412","Job Corps Ponds","2025-06-11 06:11",1,46.2054302,-112.7771166,TRUE,FALSE,FALSE,"S249317412"
"172","norwat","Northern Waterthrush","Parkesia noveboracensis","L201121","Roy Mountain WMA","2025-06-11 05:52",9,44.2731946,-72.1304588,TRUE,FALSE,FALSE,"S249166545"
"173","norwat","Northern Waterthrush","Parkesia noveboracensis","L41259541","Itasca SP--Dr. Roberts Trail","2025-06-11 05:47",1,47.1924028,-95.1725489,TRUE,FALSE,FALSE,"S249187747"
"174","norwat","Northern Waterthrush","Parkesia noveboracensis","L25381583","Biscuit Creek Road","2025-06-11 05:40",1,46.208587,-84.7963343,TRUE,FALSE,TRUE,"S249311020"
"175","norwat","Northern Waterthrush","Parkesia noveboracensis","L956797","Three Pines Bird Sanctuary, Bar Harbor","2025-06-11 04:58",1,44.4087829,-68.3345959,TRUE,FALSE,FALSE,"S249094542"
"176","norwat","Northern Waterthrush","Parkesia noveboracensis","L20587681","Denali Hwy.--Landmark Gap Lake Trail","2025-06-11 04:16",2,63.0696402,-146.1012397,TRUE,FALSE,FALSE,"S249333629"
"177","norwat","Northern Waterthrush","Parkesia noveboracensis","L47334079","335 Foster Ln, Whitefish US-MT 48.39703, -114.35797","2025-06-10 20:50",2,48.397027,-114.357973,TRUE,FALSE,TRUE,"S249056800"
"178","norwat","Northern Waterthrush","Parkesia noveboracensis","L15378702","Oil Spill Road","2025-06-10 20:21",2,60.787498,-161.879031,TRUE,FALSE,TRUE,"S249079293"
"179","norwat","Northern Waterthrush","Parkesia noveboracensis","L47334184","Richardson Highway, Delta Junction, Alaska, US (63.222, -145.649)","2025-06-10 19:40",1,63.2216906,-145.6489586,TRUE,FALSE,TRUE,"S249057216"
"180","norwat","Northern Waterthrush","Parkesia noveboracensis","L159269","Earthquake Park","2025-06-10 19:36",1,61.196908,-149.9752557,TRUE,FALSE,FALSE,"S249062819"
"181","norwat","Northern Waterthrush","Parkesia noveboracensis","L24690630","Wind lake portage area","2025-06-10 19:03",3,48.0037992,-91.4985488,TRUE,FALSE,TRUE,"S249048453"
"182","norwat","Northern Waterthrush","Parkesia noveboracensis","L585126","Palmer Hay Flats SGR--Reflections Lake","2025-06-10 18:44",1,61.4860865,-149.2568207,TRUE,FALSE,FALSE,"S249060210"
"183","norwat","Northern Waterthrush","Parkesia noveboracensis","L3901886","Avalanche Picnic Area","2025-06-10 18:30",1,48.6789125,-113.8206553,TRUE,FALSE,TRUE,"S249284873"
"184","norwat","Northern Waterthrush","Parkesia noveboracensis","L3778865","Bridge Lake","2025-06-10 18:05",1,44.6384142,-85.7883954,TRUE,FALSE,FALSE,"S248999364"
"185","norwat","Northern Waterthrush","Parkesia noveboracensis","L41066956","Mill Brook Way, Hanover US-MA","2025-06-10 17:38",1,42.130332,-70.887772,TRUE,FALSE,TRUE,"S249015871"
"186","norwat","Northern Waterthrush","Parkesia noveboracensis","L7846024","Kalispell Drive, Talkeetna, Alaska, US (62.131, -150.02)","2025-06-10 16:43",2,62.131277,-150.020365,TRUE,FALSE,TRUE,"S249041133"
"187","norwat","Northern Waterthrush","Parkesia noveboracensis","L12356502","Home: 16 WBH, Harvard","2025-06-10 16:42",1,42.480259,-71.589306,TRUE,FALSE,TRUE,"S248986647"
"188","norwat","Northern Waterthrush","Parkesia noveboracensis","L1502605","Cherry River FAS","2025-06-10 15:21",1,45.7110534,-111.0505077,TRUE,FALSE,FALSE,"S248979981"
"189","norwat","Northern Waterthrush","Parkesia noveboracensis","L8597085","Turtle Mtns.--Pelican Lake","2025-06-10 14:54",1,48.9458399,-100.2663504,TRUE,FALSE,FALSE,"S248995475"
"190","norwat","Northern Waterthrush","Parkesia noveboracensis","L1902098","Upper River Road","2025-06-10 14:50",2,44.3092599,-85.8613628,TRUE,FALSE,TRUE,"S248996867"
"191","norwat","Northern Waterthrush","Parkesia noveboracensis","L2725342","Beluga Airport","2025-06-10 14:34",2,61.1723634,-151.0434079,TRUE,FALSE,FALSE,"S249002938"
"192","norwat","Northern Waterthrush","Parkesia noveboracensis","L1805485","Missisquoi NWR--Maquam Bog / Old Railroad Passage","2025-06-10 14:33",1,44.943726,-73.1989391,TRUE,FALSE,FALSE,"S248951066"
"193","norwat","Northern Waterthrush","Parkesia noveboracensis","L2216602","Gulkana Airport (east side)","2025-06-10 14:19",2,62.1575985,-145.4525669,TRUE,FALSE,FALSE,"S249558998"
"194","norwat","Northern Waterthrush","Parkesia noveboracensis","L47323091","Echo Lake Campground","2025-06-10 14:13",1,48.171147,-92.492046,TRUE,FALSE,TRUE,"S249002286"
"195","norwat","Northern Waterthrush","Parkesia noveboracensis","L769366","Denali Hwy.--Tangle Lakes general area","2025-06-10 13:58",1,63.0507586,-145.985899,TRUE,FALSE,FALSE,"S249427517"
"196","norwat","Northern Waterthrush","Parkesia noveboracensis","L10573090","Bearskin Lodge","2025-06-10 13:50",1,48.0350379,-90.4038548,TRUE,FALSE,FALSE,"S248947566"
"197","norwat","Northern Waterthrush","Parkesia noveboracensis","L47324686","Beam Rd, Nome US-AK 64.60829, -165.29931","2025-06-10 13:33",2,64.60829,-165.299312,TRUE,FALSE,TRUE,"S249010691"
"198","norwat","Northern Waterthrush","Parkesia noveboracensis","L10067912","Knik River PUA--Rippy Trail (trailhead to Jim Creek Overlook)","2025-06-10 13:19",3,61.5590338,-148.9187793,TRUE,FALSE,FALSE,"S249000169"
"199","norwat","Northern Waterthrush","Parkesia noveboracensis","L21977032","Washoe Park","2025-06-10 13:15",1,46.1350027,-112.9652452,TRUE,FALSE,FALSE,"S249005612"
"200","norwat","Northern Waterthrush","Parkesia noveboracensis","L47333582","Bodenstein Creek at Woodpecker Lane","2025-06-10 13:10",2,48.4052205,-116.2949074,TRUE,FALSE,TRUE,"S249055042"
"201","norwat","Northern Waterthrush","Parkesia noveboracensis","L1397820","Northwoods, alder swale, black spruce bog and mixed northern hardwood border by 30 acre hayfield.","2025-06-10 13:09",1,45.6009477,-91.0091972,TRUE,FALSE,TRUE,"S248937951"
"202","norwat","Northern Waterthrush","Parkesia noveboracensis","L3119829","Bass Lake Trails","2025-06-10 13:02",1,47.9583106,-91.8634701,TRUE,FALSE,FALSE,"S249144476"
"203","norwat","Northern Waterthrush","Parkesia noveboracensis","L1145281","Missisquoi NWR--headquarters Vicinity / Discovery Trail","2025-06-10 13:00",2,44.9644184,-73.2005846,TRUE,FALSE,FALSE,"S248936980"
"204","norwat","Northern Waterthrush","Parkesia noveboracensis","L47335611","Denali Hwy, Nenana US-AK 63.38003, -148.86093","2025-06-10 12:33",2,63.380026,-148.860933,TRUE,FALSE,TRUE,"S249064265"
"205","norwat","Northern Waterthrush","Parkesia noveboracensis","L18726044","Sportsman`s Landing","2025-06-10 12:14",6,60.4866666,-150.0027171,TRUE,FALSE,FALSE,"S249025767"
"206","norwat","Northern Waterthrush","Parkesia noveboracensis","L464529","Cape Nome","2025-06-10 11:55",1,64.4353696,-165.0103838,TRUE,FALSE,FALSE,"S249040859"
"207","norwat","Northern Waterthrush","Parkesia noveboracensis","L7612234","Cupsuptic Rive--Lake Boat Launch","2025-06-10 11:51",2,45.0142705,-70.8500361,TRUE,FALSE,FALSE,"S248914288"
"208","norwat","Northern Waterthrush","Parkesia noveboracensis","L7558872","Clausen Road","2025-06-10 10:56",2,46.5698169,-112.2565985,TRUE,FALSE,TRUE,"S248916471"
"209","norwat","Northern Waterthrush","Parkesia noveboracensis","L9272341","13808 Interstate 90 Frontage Road, Anaconda, Montana, US (46.181, -112.786)","2025-06-10 10:50",1,46.1807655,-112.7861588,TRUE,FALSE,TRUE,"S248911113"
"210","norwat","Northern Waterthrush","Parkesia noveboracensis","L1667663","Nome--East End Park","2025-06-10 10:48",1,64.493702,-165.3742526,TRUE,FALSE,FALSE,"S248949167"
"211","norwat","Northern Waterthrush","Parkesia noveboracensis","L18500386","PondView Side 2 atlas block","2025-06-10 10:43",1,43.416588,-75.967539,TRUE,FALSE,TRUE,"S248869391"
"212","norwat","Northern Waterthrush","Parkesia noveboracensis","L47309149","N Parks Hwy, Big Lake US-AK 63.17530, -149.37989","2025-06-10 10:43",1,63.175299,-149.379894,TRUE,FALSE,TRUE,"S248942658"
"213","norwat","Northern Waterthrush","Parkesia noveboracensis","L224783","Verona Beach SP","2025-06-10 10:42",1,43.1761478,-75.7278295,TRUE,FALSE,FALSE,"S248858541"
"214","norwat","Northern Waterthrush","Parkesia noveboracensis","L47318492","2701–3099 S Admiral Rd, Forbes US-MN 47.32589, -92.63005","2025-06-10 10:40",1,47.325891,-92.630049,TRUE,FALSE,TRUE,"S248981320"
"215","norwat","Northern Waterthrush","Parkesia noveboracensis","L47320378","Lakeside Rd, Errol NH","2025-06-10 10:33",1,44.696998,-71.067429,TRUE,FALSE,TRUE,"S248989569"
"216","norwat","Northern Waterthrush","Parkesia noveboracensis","L597194","Kenai Fjords NP--Exit Glacier","2025-06-10 10:26",1,60.1805665,-149.64651,TRUE,FALSE,FALSE,"S249034311"
"217","norwat","Northern Waterthrush","Parkesia noveboracensis","L47407774","Beam Rd, Nome US-AK 64.80523, -165.21182","2025-06-10 10:25",1,64.80523,-165.211823,TRUE,FALSE,TRUE,"S249400575"
"218","norwat","Northern Waterthrush","Parkesia noveboracensis","L454769","Finzel Swamp","2025-06-10 10:10",1,39.6999228,-78.9458442,TRUE,FALSE,FALSE,"S248897740"
"219","norwat","Northern Waterthrush","Parkesia noveboracensis","L473077","Brownfield Bog WMA","2025-06-10 10:09",1,43.9779157,-70.8923614,TRUE,FALSE,FALSE,"S248890752"
"220","norwat","Northern Waterthrush","Parkesia noveboracensis","L47333150","Pulloff at braided part of river, Going-to-the-Sun Road, West Glacier, Montana, US (48.646, -113.846)","2025-06-10 10:08",2,48.6461909,-113.8459878,TRUE,FALSE,TRUE,"S249052886"
"221","norwat","Northern Waterthrush","Parkesia noveboracensis","L20916630","Forest Service Road 88, Hyder US-AK (55.9785,-130.0679)","2025-06-10 10:08",3,55.978484,-130.067858,TRUE,FALSE,TRUE,"S249512815"
"222","norwat","Northern Waterthrush","Parkesia noveboracensis","L5855227","Little Blackfoot River FAS","2025-06-10 10:07",1,46.5689836,-112.6660234,TRUE,FALSE,FALSE,"S248895869"
"223","norwat","Northern Waterthrush","Parkesia noveboracensis","L802568","Amazon Creek Marsh","2025-06-10 10:03",1,48.5420404,-117.5986433,TRUE,FALSE,FALSE,"S248971225"
"224","norwat","Northern Waterthrush","Parkesia noveboracensis","L47311230","Wetlands Denali Hwy, Cantwell","2025-06-10 09:57",2,63.378282,-148.854139,TRUE,FALSE,TRUE,"S248951785"
"225","norwat","Northern Waterthrush","Parkesia noveboracensis","L47305177","96–98 Denali Hwy, Nenana US-AK 63.37284, -148.82683","2025-06-10 09:42",1,63.372843,-148.826833,TRUE,FALSE,TRUE,"S248923849"
"226","norwat","Northern Waterthrush","Parkesia noveboracensis","L2279593","Admiral Rd","2025-06-10 09:40",2,47.2471661,-92.6252174,TRUE,FALSE,TRUE,"S249113834"
"227","norwat","Northern Waterthrush","Parkesia noveboracensis","L1235897","Sourdough Nature Trail","2025-06-10 09:20",1,45.6398026,-111.0306966,TRUE,FALSE,FALSE,"S248994959"
"228","norwat","Northern Waterthrush","Parkesia noveboracensis","L33938008","woodland dunes sbs point 13 -","2025-06-10 09:19",2,44.1434922,-87.6020875,TRUE,FALSE,TRUE,"S248849520"
"229","norwat","Northern Waterthrush","Parkesia noveboracensis","L2162410","Chapel Pond area","2025-06-10 09:17",1,44.138825,-73.7449336,TRUE,FALSE,FALSE,"S249132284"
"230","norwat","Northern Waterthrush","Parkesia noveboracensis","L47407763","Beam Rd, Nome US-AK 64.75822, -165.22243","2025-06-10 09:13",1,64.758222,-165.222426,TRUE,FALSE,TRUE,"S249400528"
"231","norwat","Northern Waterthrush","Parkesia noveboracensis","L1223261","Pictured Rocks NL--Sand Point Marsh Trail","2025-06-10 09:10",1,46.4466103,-86.5980148,TRUE,FALSE,FALSE,"S248914334"
"232","norwat","Northern Waterthrush","Parkesia noveboracensis","L7746189","Denali SP--Kesugi Ridge Trail (Little Coal Creek area)","2025-06-10 09:00",8,62.8732307,-149.6742658,TRUE,FALSE,FALSE,"S249572178"
"233","norwat","Northern Waterthrush","Parkesia noveboracensis","L525854","Old Matanuska Townsite","2025-06-10 08:52",5,61.548467,-149.229269,TRUE,FALSE,FALSE,"S248913776"
"234","norwat","Northern Waterthrush","Parkesia noveboracensis","L609952","Tahquamenon Falls SP--Lower Falls","2025-06-10 08:45",1,46.6019,-85.19768,TRUE,FALSE,FALSE,"S248830191"
"235","norwat","Northern Waterthrush","Parkesia noveboracensis","L47322648","Upper River Rd north of Coates Highway","2025-06-10 08:41",2,44.3043856,-85.8616936,TRUE,FALSE,TRUE,"S249002618"
"236","norwat","Northern Waterthrush","Parkesia noveboracensis","L7496950","Rock Lodge Trust, reclaimed strip mine","2025-06-10 08:41",1,39.5515411,-79.2923427,TRUE,FALSE,TRUE,"S248871618"
"237","norwat","Northern Waterthrush","Parkesia noveboracensis","L47365175","Canoe Trail Return, Seeley Lake US-MT (47.2134,-113.5209)","2025-06-10 08:40",1,47.213435,-113.52089,TRUE,FALSE,TRUE,"S249208456"
"238","norwat","Northern Waterthrush","Parkesia noveboracensis","L47290362","N Big Springs Loop Rd, Island Park US-ID 44.51213, -111.28985","2025-06-10 08:38",1,44.512132,-111.289845,TRUE,FALSE,TRUE,"S248854127"
"239","norwat","Northern Waterthrush","Parkesia noveboracensis","L4665721","Indreland Audubon Wetland Preserve","2025-06-10 08:36",1,45.681485,-111.0178714,TRUE,FALSE,FALSE,"S248884987"
"240","norwat","Northern Waterthrush","Parkesia noveboracensis","L47407718","Beam Rd, Nome US-AK 64.73408, -165.24512","2025-06-10 08:35",1,64.734081,-165.245124,TRUE,FALSE,TRUE,"S249400315"
"241","norwat","Northern Waterthrush","Parkesia noveboracensis","L1392748","Placid Lake turnoff","2025-06-10 08:24",2,47.1194972,-113.4515941,TRUE,FALSE,TRUE,"S248853118"
"242","norwat","Northern Waterthrush","Parkesia noveboracensis","L158592","Spring Meadow Lake","2025-06-10 08:06",1,46.6108,-112.0749,TRUE,FALSE,FALSE,"S248875074"
"243","norwat","Northern Waterthrush","Parkesia noveboracensis","L47407706","Beam Rd, Nome US-AK 64.71517, -165.28663","2025-06-10 08:02",1,64.715169,-165.286628,TRUE,FALSE,TRUE,"S249400287"
"244","norwat","Northern Waterthrush","Parkesia noveboracensis","L294949","Nome-Council Rd. (please use a more specific location)","2025-06-10 07:54",7,64.4998619,-164.6239604,TRUE,FALSE,FALSE,"S249013334"
"245","norwat","Northern Waterthrush","Parkesia noveboracensis","L4598458","Zim Smith Trail--Coons Crossing to Round Lake","2025-06-10 07:53",1,42.9171581,-73.7761131,TRUE,FALSE,FALSE,"S248844164"
"246","norwat","Northern Waterthrush","Parkesia noveboracensis","L12325949","Fort Missoula Native Plant Garden","2025-06-10 07:43",2,46.8404167,-114.0631538,TRUE,FALSE,TRUE,"S248904452"
"247","norwat","Northern Waterthrush","Parkesia noveboracensis","L3034707","Kincaid Park--Little Campbell Lake","2025-06-10 07:43",1,61.1616013,-150.0241041,TRUE,FALSE,FALSE,"S248915597"
"248","norwat","Northern Waterthrush","Parkesia noveboracensis","L16881755","Raymond Street, Gardner, Massachusetts, US (42.612, -71.974)","2025-06-10 07:43",1,42.6120488,-71.9739692,TRUE,FALSE,TRUE,"S249486034"
"249","norwat","Northern Waterthrush","Parkesia noveboracensis","L47407670","Beam Rd, Nome US-AK 64.61986, -165.30248","2025-06-10 07:35",2,64.619862,-165.302476,TRUE,FALSE,TRUE,"S249400089"
"250","norwat","Northern Waterthrush","Parkesia noveboracensis","L27888132","Conneautville NE","2025-06-10 07:30",5,41.8541667,-80.28125,TRUE,FALSE,TRUE,"S249545518"
"251","norwat","Northern Waterthrush","Parkesia noveboracensis","L15472737","Kincaid Park, Anchorage US-AK 61.16005, -150.04747","2025-06-10 07:27",1,61.160052,-150.047467,TRUE,FALSE,TRUE,"S248894399"
"252","norwat","Northern Waterthrush","Parkesia noveboracensis","L450388","Lake Hood & Lake Spenard","2025-06-10 07:17",1,61.1787982,-149.9607182,TRUE,FALSE,FALSE,"S248916056"
"253","norwat","Northern Waterthrush","Parkesia noveboracensis","L608588","Kennebago River--Boy Scout Road","2025-06-10 07:10",3,44.9910874,-70.7843971,TRUE,FALSE,FALSE,"S248895677"
"254","norwat","Northern Waterthrush","Parkesia noveboracensis","L295124","Glacier NP--Avalanche Creek Campground and Picnic Area","2025-06-10 07:01",1,48.6790838,-113.819287,TRUE,FALSE,FALSE,"S249052107"
"255","norwat","Northern Waterthrush","Parkesia noveboracensis","L3915725","Gibsons on West Harbor, Washington Island","2025-06-10 07:00",1,45.36889,-86.94628,TRUE,FALSE,TRUE,"S248822970"
"256","norwat","Northern Waterthrush","Parkesia noveboracensis","L3759238","Turbine Access Road North from West Branch Clear Stream Rd., Millsfield/Dixville","2025-06-10 06:59",1,44.8350622,-71.3227784,TRUE,FALSE,FALSE,"S248858712"
"257","norwat","Northern Waterthrush","Parkesia noveboracensis","L306551","Auburn Lake Road","2025-06-10 06:57",1,43.60371,-88.19894,TRUE,TRUE,FALSE,"S248808222"
"258","norwat","Northern Waterthrush","Parkesia noveboracensis","L1177833","Far North Bicentennial Park","2025-06-10 06:55",1,61.1564467,-149.7546387,TRUE,FALSE,FALSE,"S248920520"
"259","norwat","Northern Waterthrush","Parkesia noveboracensis","L7420090","2276 x AuTrain River","2025-06-10 06:55",3,46.3767213,-86.8433189,TRUE,FALSE,TRUE,"S248924740"
"260","norwat","Northern Waterthrush","Parkesia noveboracensis","L24458212","Britchenstrap Dr","2025-06-10 06:54",1,61.65481,-149.15576,TRUE,FALSE,TRUE,"S248877404"
"261","norwat","Northern Waterthrush","Parkesia noveboracensis","L1222933","Swan River NWR--Bog Rd.","2025-06-10 06:53",1,47.9065686,-113.8388836,TRUE,FALSE,FALSE,"S248847879"
"262","norwat","Northern Waterthrush","Parkesia noveboracensis","L11961559","585 Garfield Rd, Auburn US-ME 44.09758, -70.28719","2025-06-10 06:40",1,44.09758,-70.287189,TRUE,FALSE,TRUE,"S248794614"
"263","norwat","Northern Waterthrush","Parkesia noveboracensis","L2848186","Bond Island Natural Area","2025-06-10 06:26",1,43.9004242,-73.2102299,TRUE,FALSE,FALSE,"S248794973"
"264","norwat","Northern Waterthrush","Parkesia noveboracensis","L47278152","Au Train River Bridge, Michigan, US (46.377, -86.842)","2025-06-10 06:18",2,46.3765567,-86.8416664,TRUE,FALSE,TRUE,"S248791538"
"265","norwat","Northern Waterthrush","Parkesia noveboracensis","L207446","Moose Hill Wildlife Sanctuary (Mass Audubon)","2025-06-10 06:11",2,42.11877,-71.2077,TRUE,FALSE,FALSE,"S248807316"
"266","norwat","Northern Waterthrush","Parkesia noveboracensis","L23672010","Other CR 34 Swamp","2025-06-10 06:02",2,44.688466,-75.1291686,TRUE,FALSE,TRUE,"S248778618"
"267","norwat","Northern Waterthrush","Parkesia noveboracensis","L33937493","The Berm","2025-06-10 06:01",1,61.611793,-149.211351,TRUE,FALSE,TRUE,"S248852111"
"268","norwat","Northern Waterthrush","Parkesia noveboracensis","L463361","Monongahela NF--Cranberry Glades Botanical Area","2025-06-10 05:30",6,38.2043972,-80.266242,TRUE,FALSE,FALSE,"S249000579"
"269","norwat","Northern Waterthrush","Parkesia noveboracensis","L47298432","1583 Hatcher Pass Road, Wasilla, Alaska, US (61.762, -149.497)Hatcher PASS ROAD.","2025-06-10 05:30",1,61.7623138,-149.4973108,TRUE,FALSE,TRUE,"S248893633"
"270","norwat","Northern Waterthrush","Parkesia noveboracensis","L2071278","Gallagator/Linear Park Trail","2025-06-10 05:27",3,45.6709967,-111.0331832,TRUE,FALSE,FALSE,"S249210116"
"271","norwat","Northern Waterthrush","Parkesia noveboracensis","L998890","Bethel--Hangar Lake","2025-06-09 21:54",1,60.8037385,-161.7179775,TRUE,FALSE,FALSE,"S248751315"
"272","norwat","Northern Waterthrush","Parkesia noveboracensis","L47265509","Clearwater River","2025-06-09 20:59",2,47.121801,-113.449196,TRUE,FALSE,TRUE,"S248737293"
"273","norwat","Northern Waterthrush","Parkesia noveboracensis","L47265257","Cedar Swamp Rd, Bruce US-WI","2025-06-09 20:00",1,45.39437,-91.439824,TRUE,FALSE,TRUE,"S248736295"
"274","norwat","Northern Waterthrush","Parkesia noveboracensis","L150998","Berlin Pond IBA - Berlin (293 acres)","2025-06-09 19:01",1,44.1899195,-72.5875116,TRUE,FALSE,FALSE,"S248698916"
"275","norwat","Northern Waterthrush","Parkesia noveboracensis","L1233804","Denali NP&P--Kantishna","2025-06-09 18:35",2,63.5254263,-150.959444,TRUE,FALSE,FALSE,"S248732233"
"276","norwat","Northern Waterthrush","Parkesia noveboracensis","L47253253","218–350 Schocopee Rd, Milford US-PA 41.35500, -74.85040","2025-06-09 18:07",1,41.354998,-74.8504,TRUE,FALSE,TRUE,"S248678009"
"277","norwat","Northern Waterthrush","Parkesia noveboracensis","L4157378","Kinderhook Creek Preserve","2025-06-09 18:00",1,42.5140154,-73.5218166,TRUE,FALSE,FALSE,"S248815112"
"278","norwat","Northern Waterthrush","Parkesia noveboracensis","L16061967","Nome--Belmont Point Cemetery","2025-06-09 16:52",1,64.5049929,-165.4201192,TRUE,FALSE,FALSE,"S248754335"
"279","norwat","Northern Waterthrush","Parkesia noveboracensis","L2042080","No Name Key--Watson Rd outlook","2025-06-09 16:47",1,24.69767,-81.318021,TRUE,TRUE,FALSE,"S248684331"
"280","norwat","Northern Waterthrush","Parkesia noveboracensis","L1178423","Spruce Swamp, Fremont","2025-06-09 16:46",3,42.990257,-71.1139441,TRUE,FALSE,FALSE,"S248680735"
"281","norwat","Northern Waterthrush","Parkesia noveboracensis","L11518360","Lower Woods Pond","2025-06-09 16:33",1,41.7363186,-75.2701083,TRUE,FALSE,FALSE,"S248685823"
"282","norwat","Northern Waterthrush","Parkesia noveboracensis","L3857958","christiansen lake","2025-06-09 15:55",2,62.3144325,-150.0707316,TRUE,FALSE,TRUE,"S248714417"
"283","norwat","Northern Waterthrush","Parkesia noveboracensis","L1563949","Denali SP--Denali Viewpoint South","2025-06-09 15:21",1,62.5929776,-150.2405289,TRUE,FALSE,FALSE,"S248740650"
"284","norwat","Northern Waterthrush","Parkesia noveboracensis","L47253892","99652, Big Lake US-AK 62.10235, -150.06375","2025-06-09 14:23",1,62.102351,-150.063748,TRUE,FALSE,TRUE,"S248680903"
"285","norwat","Northern Waterthrush","Parkesia noveboracensis","L47263081","Nome-Council Rd, Nome US-AK (64.8919,-163.6796)","2025-06-09 14:22",2,64.891945,-163.679624,TRUE,FALSE,TRUE,"S248725719"
"286","norwat","Northern Waterthrush","Parkesia noveboracensis","L47265832","Parks Highway, Talkeetna, Alaska, US (62.102, -150.064)","2025-06-09 14:10",1,62.1024663,-150.064489,TRUE,FALSE,TRUE,"S248738632"
"287","norwat","Northern Waterthrush","Parkesia noveboracensis","L18019230","Aniak (town)","2025-06-09 14:10",2,61.5824527,-159.5414805,TRUE,FALSE,FALSE,"S248697680"
"288","norwat","Northern Waterthrush","Parkesia noveboracensis","L2898849","Nome-Council Rd.--Bear River","2025-06-09 13:52",3,64.8645225,-163.6929846,TRUE,FALSE,FALSE,"S248726835"
"289","norwat","Northern Waterthrush","Parkesia noveboracensis","L47263307","Nome-Council Rd, Nome US-AK 64.82578, -163.71555","2025-06-09 13:45",1,64.82578,-163.715548,TRUE,FALSE,TRUE,"S248726615"
"290","norwat","Northern Waterthrush","Parkesia noveboracensis","L47241449","Paradise Stream Resort","2025-06-09 13:32",1,41.1314599,-75.3094914,TRUE,FALSE,TRUE,"S248624547"
"291","norwat","Northern Waterthrush","Parkesia noveboracensis","L4526948","Cedar Hedge Lake","2025-06-09 13:30",2,44.6706789,-85.7834184,TRUE,FALSE,FALSE,"S248619067"
"292","norwat","Northern Waterthrush","Parkesia noveboracensis","L1210512","River Front Park","2025-06-09 13:11",2,44.89161,-116.10959,TRUE,FALSE,FALSE,"S248640211"
"293","norwat","Northern Waterthrush","Parkesia noveboracensis","L47246281","W Rocky Creek Rd.","2025-06-09 13:10",1,45.673692,-110.998799,TRUE,FALSE,TRUE,"S248645016"
"294","norwat","Northern Waterthrush","Parkesia noveboracensis","L47263219","Nome-Council Rd, Nome US-AK (64.8006,-163.7554)","2025-06-09 13:05",1,64.800644,-163.755433,TRUE,FALSE,TRUE,"S248726281"
"295","norwat","Northern Waterthrush","Parkesia noveboracensis","L47307183","Thompson Park","2025-06-09 13:02",2,45.8889328,-112.4644661,TRUE,FALSE,TRUE,"S248936214"
"296","norwat","Northern Waterthrush","Parkesia noveboracensis","L335600","Great Swamp Management Area","2025-06-09 12:50",3,41.4688915,-71.5796614,TRUE,FALSE,FALSE,"S248603984"
"297","norwat","Northern Waterthrush","Parkesia noveboracensis","L18017600","Upper Kalskag (town)","2025-06-09 12:49",1,61.5384523,-160.3187772,TRUE,FALSE,FALSE,"S248665492"
"298","norwat","Northern Waterthrush","Parkesia noveboracensis","L47263131","Nome-Council Rd, Nome US-AK 64.72982, -163.96149","2025-06-09 12:42",2,64.729821,-163.961491,TRUE,FALSE,TRUE,"S248725928"
"299","norwat","Northern Waterthrush","Parkesia noveboracensis","L47263266","Nome-Council Rd, Nome US-AK 64.69794, -164.13223","2025-06-09 12:26",1,64.697944,-164.132232,TRUE,FALSE,TRUE,"S248726466"
"300","norwat","Northern Waterthrush","Parkesia noveboracensis","L2265764","Manistee NF--Upper River Rd.","2025-06-09 12:18",2,44.2794612,-85.8766064,TRUE,FALSE,FALSE,"S248607106"
"301","norwat","Northern Waterthrush","Parkesia noveboracensis","L927270","Nome-Council Rd.--Solomon","2025-06-09 11:45",3,64.5585058,-164.4438634,TRUE,FALSE,FALSE,"S248768651"
"302","norwat","Northern Waterthrush","Parkesia noveboracensis","L5226275","Rocky Narrows (TTOR), Sherborn","2025-06-09 11:30",2,42.2251703,-71.3521284,TRUE,FALSE,FALSE,"S248723685"
"303","norwat","Northern Waterthrush","Parkesia noveboracensis","L24725370","Nome- Kougarok Road from MP 27 to MP 40 (turnoff to Salmon Lake","2025-06-09 11:30",2,64.834617,-165.242265,TRUE,FALSE,TRUE,"S249036423"
"304","norwat","Northern Waterthrush","Parkesia noveboracensis","L16385580","Boulder Trail - Hermantown","2025-06-09 11:25",1,46.8041773,-92.1871644,TRUE,FALSE,TRUE,"S248643269"
"305","norwat","Northern Waterthrush","Parkesia noveboracensis","L6551689","Glacier NP - Oxbow Trail","2025-06-09 11:20",3,48.5228011,-114.0006208,TRUE,FALSE,TRUE,"S249586855"
"306","norwat","Northern Waterthrush","Parkesia noveboracensis","L11760160","Pucker St","2025-06-09 11:18",1,42.4836255,-75.8171809,TRUE,FALSE,TRUE,"S248598962"
"307","norwat","Northern Waterthrush","Parkesia noveboracensis","L129804","Ricketts Glen SP (IBA)","2025-06-09 10:59",1,41.3349777,-76.296092,TRUE,FALSE,FALSE,"S248627994"
"308","norwat","Northern Waterthrush","Parkesia noveboracensis","L33511474","Nome Airport","2025-06-09 10:26",1,64.507399,-165.441657,TRUE,FALSE,FALSE,"S248749669"
"309","norwat","Northern Waterthrush","Parkesia noveboracensis","L3667321","Denali SP--Byers Lake Campground","2025-06-09 10:22",2,62.7469153,-150.1170588,TRUE,FALSE,FALSE,"S248621869"
"310","norwat","Northern Waterthrush","Parkesia noveboracensis","L1187678","Scott Bog Rd., Pittsburg","2025-06-09 10:11",1,45.1902035,-71.1714935,TRUE,FALSE,FALSE,"S248615867"
"311","norwat","Northern Waterthrush","Parkesia noveboracensis","L3674065","Nome--Dry Creek Wetlands","2025-06-09 10:10",1,64.502299,-165.4165833,TRUE,FALSE,FALSE,"S249396377"
"312","norwat","Northern Waterthrush","Parkesia noveboracensis","L1951885","Franklin Gulf County Park","2025-06-09 10:09",1,42.6095684,-78.90902,TRUE,FALSE,FALSE,"S248568940"
"313","norwat","Northern Waterthrush","Parkesia noveboracensis","L752016","Lake Iroquois - Hinesburg (243 acres)","2025-06-09 09:39",2,44.3699116,-73.0842137,TRUE,FALSE,FALSE,"S248543109"
"314","norwat","Northern Waterthrush","Parkesia noveboracensis","L24725258","Nome -  Kougarok Road from MP 13 (Nome River bridge) to MP 27.","2025-06-09 09:39",3,64.647397,-165.292007,TRUE,FALSE,TRUE,"S249035508"
"315","norwat","Northern Waterthrush","Parkesia noveboracensis","L47227220","Watson field area","2025-06-09 09:26",1,46.064493,-87.378029,TRUE,FALSE,TRUE,"S248559605"
"316","norwat","Northern Waterthrush","Parkesia noveboracensis","L5926936","Coonsa Creek Area","2025-06-09 09:25",8,48.3736215,-113.2822746,TRUE,FALSE,FALSE,"S248637173"
"317","norwat","Northern Waterthrush","Parkesia noveboracensis","L4887899","Hearst Lake and Mt. Haggin Trail","2025-06-09 09:17",1,46.131627,-112.9941639,TRUE,FALSE,FALSE,"S248630851"
"318","norwat","Northern Waterthrush","Parkesia noveboracensis","L9052595","TAPS road b/w Love Rd/Steele Creek","2025-06-09 09:14",2,64.8833013,-147.4984955,TRUE,FALSE,TRUE,"S248617586"
"319","norwat","Northern Waterthrush","Parkesia noveboracensis","L1153434","Pondicherry Wildlife Refuge--Mud Pond, Jefferson","2025-06-09 09:10",1,44.391905,-71.5181637,TRUE,FALSE,FALSE,"S248665903"
"320","norwat","Northern Waterthrush","Parkesia noveboracensis","L4453131","Holland Lake","2025-06-09 09:06",1,47.452063,-113.5964441,TRUE,FALSE,FALSE,"S248556027"
"321","norwat","Northern Waterthrush","Parkesia noveboracensis","L11769782","Edmore SGA SW Unit, Edmore US-MI (43.4349,-85.0810)","2025-06-09 09:04",1,43.434944,-85.080976,TRUE,FALSE,TRUE,"S248513748"
"322","norwat","Northern Waterthrush","Parkesia noveboracensis","L9209644","Cantwell (town)","2025-06-09 08:59",1,63.3916667,-148.9508332,TRUE,FALSE,FALSE,"S248614619"
"323","norwat","Northern Waterthrush","Parkesia noveboracensis","L886577","Michelson's Landing","2025-06-09 08:58",1,44.3782876,-84.8421335,TRUE,FALSE,FALSE,"S248519001"
"324","norwat","Northern Waterthrush","Parkesia noveboracensis","L24725176","Nome. -  Kougarok (Beam) Road, from beginning to MP 13  (bridge over Nome River), including the city landfill.","2025-06-09 08:54",3,64.487882,-165.333985,TRUE,FALSE,TRUE,"S249035166"
"325","norwat","Northern Waterthrush","Parkesia noveboracensis","L8840851","Wolf Creek Trail System--DNR parking lot entrance","2025-06-09 08:49",2,44.6593829,-84.1270076,TRUE,FALSE,FALSE,"S248555079"
"326","norwat","Northern Waterthrush","Parkesia noveboracensis","L10723572","Skegemog Trail Round Lake Road","2025-06-09 08:48",2,44.816096,-85.30324,TRUE,FALSE,TRUE,"S248541861"
"327","norwat","Northern Waterthrush","Parkesia noveboracensis","L10839271","Twomey Williams Forest Road","2025-06-09 08:48",1,48.247253,-93.9822677,TRUE,FALSE,FALSE,"S248635657"
"328","norwat","Northern Waterthrush","Parkesia noveboracensis","L4646807","Nome-Council Rd.--Nome River Bridge","2025-06-09 08:47",2,64.4856626,-165.2910662,TRUE,FALSE,FALSE,"S248772550"
"329","norwat","Northern Waterthrush","Parkesia noveboracensis","L47215689","Turner Douglas Road","2025-06-09 08:18",1,39.377927,-79.493097,TRUE,FALSE,TRUE,"S248509047"
"330","norwat","Northern Waterthrush","Parkesia noveboracensis","L2196693","Placid Lake","2025-06-09 08:17",1,47.1175114,-113.5255909,TRUE,FALSE,FALSE,"S248555680"
"331","norwat","Northern Waterthrush","Parkesia noveboracensis","L13385911","Chugach NF--Trail of Blue Ice","2025-06-09 08:14",2,60.7821397,-148.8445616,TRUE,FALSE,FALSE,"S248643709"
"332","norwat","Northern Waterthrush","Parkesia noveboracensis","L47215283","MLCT-014","2025-06-09 08:07",1,43.606696,-88.180805,TRUE,TRUE,TRUE,"S248507085"
"333","norwat","Northern Waterthrush","Parkesia noveboracensis","L1484887","Bog Road, Enfield","2025-06-09 08:03",3,43.5681621,-72.1035931,TRUE,FALSE,FALSE,"S248545721"
"334","norwat","Northern Waterthrush","Parkesia noveboracensis","L47261175","1781–2199 St Louis Co 213, Forbes US-MN (47.2563,-92.6420)","2025-06-09 08:00",1,47.256317,-92.64204,TRUE,FALSE,TRUE,"S249032622"
"335","norwat","Northern Waterthrush","Parkesia noveboracensis","L24595737","Beaver Lake Nature Center, Baldwinsville US-NY 43.18058, -76.40206","2025-06-09 07:56",3,43.180583,-76.402061,TRUE,FALSE,TRUE,"S248544862"
"336","norwat","Northern Waterthrush","Parkesia noveboracensis","L47214118","MLCT-013","2025-06-09 07:54",1,43.607397,-88.181937,TRUE,TRUE,TRUE,"S248501609"
"337","norwat","Northern Waterthrush","Parkesia noveboracensis","L490690","Sax-Zim Bog--CR 213 (McDavitt Rd.), 3.0 mi N of CR 28","2025-06-09 07:49",1,47.2547233,-92.6419115,TRUE,FALSE,FALSE,"S248583646"
"338","norwat","Northern Waterthrush","Parkesia noveboracensis","L11486969","465 Old Corvallis Rd, Hamilton US-MT 46.28081, -114.15312","2025-06-09 07:46",2,46.280806,-114.153125,TRUE,FALSE,TRUE,"S248587954"
"339","norwat","Northern Waterthrush","Parkesia noveboracensis","L38607714","465 Old Corvallis Road, Hamilton, Montana, US (46.281, -114.153)","2025-06-09 07:46",2,46.2806028,-114.1532645,TRUE,FALSE,TRUE,"S248599374"
"340","norwat","Northern Waterthrush","Parkesia noveboracensis","L464485","Lake Massapoag","2025-06-09 07:46",2,42.1113881,-71.1781883,TRUE,FALSE,FALSE,"S248553274"
"341","norwat","Northern Waterthrush","Parkesia noveboracensis","L1575491","Nome--Cemetery Pond","2025-06-09 07:20",1,64.5104327,-165.4193311,TRUE,FALSE,FALSE,"S248742812"
"342","norwat","Northern Waterthrush","Parkesia noveboracensis","L5819644","Seven Lakes Nature Reserve","2025-06-09 07:08",1,46.5174334,-86.0621309,TRUE,FALSE,FALSE,"S249164176"
"343","norwat","Northern Waterthrush","Parkesia noveboracensis","L878815","Brooklyn Bridge Park--Pier 1","2025-06-09 07:01",1,40.7021612,-73.996524,TRUE,FALSE,FALSE,"S248497846"
"344","norwat","Northern Waterthrush","Parkesia noveboracensis","L47230637","Beam Rd, Nome US-AK (64.6205,-165.3030)","2025-06-09 06:51",4,64.620455,-165.303021,TRUE,FALSE,TRUE,"S248573635"
"345","norwat","Northern Waterthrush","Parkesia noveboracensis","L8186713","Seward--Boulder Campground","2025-06-09 06:51",1,60.1130481,-149.4394887,TRUE,FALSE,FALSE,"S248839276"
"346","norwat","Northern Waterthrush","Parkesia noveboracensis","L33141652","Superior National Forest, Grand Marais US-MN (48.0491,-90.2682)","2025-06-09 06:43",2,48.049075,-90.268202,TRUE,FALSE,TRUE,"S248909184"
"347","norwat","Northern Waterthrush","Parkesia noveboracensis","L3012962","Lochsa Lodge","2025-06-09 06:34",1,46.5109055,-114.7181158,TRUE,FALSE,FALSE,"S248559185"
"348","norwat","Northern Waterthrush","Parkesia noveboracensis","L47221946","Dexter Bypass Rd, Nome US-AK 64.54181, -165.36954","2025-06-09 06:31",2,64.541807,-165.369544,TRUE,FALSE,TRUE,"S248537172"
"349","norwat","Northern Waterthrush","Parkesia noveboracensis","L1100498","Captain Cook SRA","2025-06-09 06:30",65,60.8054551,-151.015234,TRUE,TRUE,FALSE,"S248885148"
"350","norwat","Northern Waterthrush","Parkesia noveboracensis","L589773","Resurrection River Trail (Seward)","2025-06-09 06:20",2,60.1956438,-149.5879555,TRUE,FALSE,FALSE,"S248638887"
"351","norwat","Northern Waterthrush","Parkesia noveboracensis","L4907452","Campbell Tract--Campbell Airstrip Trailhead","2025-06-09 06:09",2,61.1657203,-149.7664404,TRUE,FALSE,FALSE,"S248557526"
"352","norwat","Northern Waterthrush","Parkesia noveboracensis","L7845213","Randolph Town Forest--Farrar Tract","2025-06-09 06:08",1,44.3554,-71.3609,TRUE,FALSE,FALSE,"S248480966"
"353","norwat","Northern Waterthrush","Parkesia noveboracensis","L1146578","Unity Pond","2025-06-09 06:05",1,44.6281988,-69.3423986,TRUE,FALSE,FALSE,"S248534030"
"354","norwat","Northern Waterthrush","Parkesia noveboracensis","L47392480","7 Cupsuptic Campground Rd, Andover US-ME 45.01157, -70.83256","2025-06-09 06:01",1,45.011574,-70.83256,TRUE,FALSE,TRUE,"S249325206"
"355","norwat","Northern Waterthrush","Parkesia noveboracensis","L25046201","East of Black Lake","2025-06-09 05:55",1,45.494884,-84.182341,TRUE,FALSE,TRUE,"S248633086"
"356","norwat","Northern Waterthrush","Parkesia noveboracensis","L357148","Gordon Bubolz Nature Preserve ","2025-06-09 05:37",2,44.3127944,-88.4588242,TRUE,TRUE,FALSE,"S248510121"
"357","norwat","Northern Waterthrush","Parkesia noveboracensis","L47178416","Great Pond Outdoor Adventure Center (restricted access)","2025-06-09 04:40",1,44.953728,-68.282153,TRUE,FALSE,TRUE,"S248675012"
"358","norwat","Northern Waterthrush","Parkesia noveboracensis","L47194764","Red Fox Rd, Nome US-AK (64.6411,-165.2833)","2025-06-08 22:18",2,64.641065,-165.283267,TRUE,FALSE,TRUE,"S248414917"
"359","norwat","Northern Waterthrush","Parkesia noveboracensis","L1808343","Nome-Teller Hwy.--Sinuk River","2025-06-08 20:45",2,64.7183857,-165.9225655,TRUE,FALSE,FALSE,"S248604147"
"360","norwat","Northern Waterthrush","Parkesia noveboracensis","L2859925","Vortac Lake, Kotzebue","2025-06-08 19:27",1,66.8854472,-162.5289917,TRUE,FALSE,TRUE,"S248405505"
"361","norwat","Northern Waterthrush","Parkesia noveboracensis","L677871","Cornell Biological Field Station","2025-06-08 18:26",1,43.1744029,-75.9344745,TRUE,FALSE,FALSE,"S248321217"
"362","norwat","Northern Waterthrush","Parkesia noveboracensis","L14935856","Lake Winter Road (Olson Bay)","2025-06-08 18:15",1,45.8268127,-90.9871305,TRUE,FALSE,FALSE,"S248370371"
"363","norwat","Northern Waterthrush","Parkesia noveboracensis","L47189981","Beam Rd, Nome US-AK 64.83496, -165.24339","2025-06-08 16:36",1,64.834956,-165.243386,TRUE,FALSE,TRUE,"S248392064"
"364","norwat","Northern Waterthrush","Parkesia noveboracensis","L1606994","Knik River PUA--Mud Lake","2025-06-08 16:10",1,61.5642049,-148.9480854,TRUE,FALSE,FALSE,"S248357233"
"365","norwat","Northern Waterthrush","Parkesia noveboracensis","L5903679","Farandnear (TTOR)","2025-06-08 16:05",1,42.567157,-71.655238,TRUE,FALSE,FALSE,"S248364665"
"366","norwat","Northern Waterthrush","Parkesia noveboracensis","L9399063","Fay Rd New Salem","2025-06-08 15:50",1,42.5447964,-72.3018589,TRUE,FALSE,TRUE,"S248283201"
"367","norwat","Northern Waterthrush","Parkesia noveboracensis","L1206954","Eldon Russell Park","2025-06-08 15:49",1,41.4220377,-81.1615849,TRUE,FALSE,FALSE,"S248315110"
"368","norwat","Northern Waterthrush","Parkesia noveboracensis","L249757","Killington Marsh","2025-06-08 15:35",2,43.6726547,-72.7796431,TRUE,FALSE,FALSE,"S249034469"
"369","norwat","Northern Waterthrush","Parkesia noveboracensis","L1899028","Kougarok Rd.--Kuzitrin River","2025-06-08 15:28",3,65.2168114,-164.8284817,TRUE,FALSE,FALSE,"S248407294"
"370","norwat","Northern Waterthrush","Parkesia noveboracensis","L46908345","Beam Rd, Nome US-AK 64.80304, -165.21181","2025-06-08 15:21",1,64.803035,-165.211813,TRUE,FALSE,TRUE,"S248420625"
"371","norwat","Northern Waterthrush","Parkesia noveboracensis","L47184776","Glacier Overlook Trail, Seward, Alaska, US (60.184, -149.638)","2025-06-08 15:11",1,60.1843705,-149.6376949,TRUE,FALSE,TRUE,"S248368619"
"372","norwat","Northern Waterthrush","Parkesia noveboracensis","L47166911","Dupuyer Creek state land beaver dam complex","2025-06-08 14:17",1,48.1864668,-112.5176288,TRUE,FALSE,TRUE,"S248287124"
"373","norwat","Northern Waterthrush","Parkesia noveboracensis","L46908851","Beam Rd, Nome US-AK 64.78461, -165.21146","2025-06-08 14:16",1,64.784612,-165.211462,TRUE,FALSE,TRUE,"S248420968"
"374","norwat","Northern Waterthrush","Parkesia noveboracensis","L47188681","Kougarok Rd, Nome US-AK 65.30247, -164.76475","2025-06-08 13:55",1,65.302467,-164.764752,TRUE,FALSE,TRUE,"S248385994"
"375","norwat","Northern Waterthrush","Parkesia noveboracensis","L693487","Old Seward Highway (NE of Potter Marsh)","2025-06-08 13:32",1,61.0774273,-149.8139477,TRUE,FALSE,FALSE,"S248321427"
"376","norwat","Northern Waterthrush","Parkesia noveboracensis","L19855002","Milwaukee Trail","2025-06-08 13:25",1,45.8638053,-112.4642995,TRUE,FALSE,FALSE,"S248462569"
"377","norwat","Northern Waterthrush","Parkesia noveboracensis","L42961569","Potter’s Marsh Boardwalk","2025-06-08 12:45",3,61.077869,-149.826986,TRUE,FALSE,TRUE,"S248322466"
"378","norwat","Northern Waterthrush","Parkesia noveboracensis","L47192155","Mary's McKinley's View","2025-06-08 12:38",1,62.587285,-150.236706,TRUE,FALSE,TRUE,"S248402395"
"379","norwat","Northern Waterthrush","Parkesia noveboracensis","L47150987","Camp Rd Shawano cont 2 electric eel","2025-06-08 12:38",1,44.9421013,-88.8660106,TRUE,FALSE,TRUE,"S248224098"
"380","norwat","Northern Waterthrush","Parkesia noveboracensis","L2354046","Talkeetna--Talkeetna Lakes","2025-06-08 12:25",1,62.3001372,-150.06217,TRUE,FALSE,FALSE,"S248365023"
"381","norwat","Northern Waterthrush","Parkesia noveboracensis","L16280692","Camp 1 Road--West","2025-06-08 12:25",4,44.9435,-88.83861,TRUE,FALSE,FALSE,"S248228627"
"382","norwat","Northern Waterthrush","Parkesia noveboracensis","L46953444","1 John Matthew Rd, Hopkinton US-MA 42.20719, -71.58124","2025-06-08 12:24",3,42.207189,-71.581238,TRUE,FALSE,TRUE,"S248235572"
"383","norwat","Northern Waterthrush","Parkesia noveboracensis","L1408282","Bigelow Hollow State Park","2025-06-08 12:15",1,42.0046972,-72.1294849,TRUE,FALSE,FALSE,"S248194948"
"384","norwat","Northern Waterthrush","Parkesia noveboracensis","L15278923","Salmon Lake Campground- turnoff","2025-06-08 12:15",4,64.922459,-164.9747,TRUE,FALSE,TRUE,"S248317089"
"385","norwat","Northern Waterthrush","Parkesia noveboracensis","L47151042","Camp Road Shwano cont.","2025-06-08 12:14",2,44.942649,-88.8074305,TRUE,FALSE,TRUE,"S248224344"
"386","norwat","Northern Waterthrush","Parkesia noveboracensis","L16280689","Camp 1 Road--Middle","2025-06-08 12:05",1,44.9435,-88.787778,TRUE,FALSE,FALSE,"S248212876"
"387","norwat","Northern Waterthrush","Parkesia noveboracensis","L626092","Eagle River Nature Center","2025-06-08 12:00",1,61.2342515,-149.2712295,TRUE,FALSE,FALSE,"S248320518"
"388","norwat","Northern Waterthrush","Parkesia noveboracensis","L11275470","Cottonwood Creek Park","2025-06-08 11:50",4,61.5798434,-149.3996512,TRUE,FALSE,FALSE,"S248281474"
"389","norwat","Northern Waterthrush","Parkesia noveboracensis","L809157","Matanuska Lakes SRA-Long Lake Loop","2025-06-08 11:25",2,61.5605275,-149.1962242,TRUE,FALSE,FALSE,"S248638448"
"390","norwat","Northern Waterthrush","Parkesia noveboracensis","L6065484","East George Lake & Old Farm roads","2025-06-08 11:25",1,45.6195405,-89.3175525,TRUE,FALSE,TRUE,"S248305896"
"391","norwat","Northern Waterthrush","Parkesia noveboracensis","L859600","Lake Margrethe--West Access","2025-06-08 11:20",1,44.6527799,-84.813273,TRUE,FALSE,FALSE,"S248177104"
"392","norwat","Northern Waterthrush","Parkesia noveboracensis","L3958133","Burkholder Lake Development (restricted access)","2025-06-08 11:10",2,61.5687199,-149.0171187,TRUE,FALSE,FALSE,"S248261009"
"393","norwat","Northern Waterthrush","Parkesia noveboracensis","L35967172","Mountain Pond trail, Rangeley Plantation","2025-06-08 11:07",1,44.8956543,-70.6269409,TRUE,FALSE,FALSE,"S248716053"
"394","norwat","Northern Waterthrush","Parkesia noveboracensis","L752175","Sodom Pond-East Montpelier (21 acres)","2025-06-08 11:01",1,44.3258244,-72.5003315,TRUE,FALSE,FALSE,"S248228926"
"395","norwat","Northern Waterthrush","Parkesia noveboracensis","L738995","Belvidere Bog and Wetlands","2025-06-08 11:00",1,44.7664806,-72.6144791,TRUE,FALSE,FALSE,"S248816760"
"396","norwat","Northern Waterthrush","Parkesia noveboracensis","L14831130","Dillingham--airport","2025-06-08 11:00",2,59.0458527,-158.5131454,TRUE,FALSE,FALSE,"S248408437"
"397","norwat","Northern Waterthrush","Parkesia noveboracensis","L2230235","Arcadia Management Area--Browning Mill Pond Trail","2025-06-08 10:59",2,41.5559723,-71.685276,TRUE,FALSE,FALSE,"S248213942"
"398","norwat","Northern Waterthrush","Parkesia noveboracensis","L728391","Gaudineer Knob","2025-06-08 10:40",1,38.615391,-79.844228,TRUE,FALSE,FALSE,"S248308400"
"399","norwat","Northern Waterthrush","Parkesia noveboracensis","L24685927","Nome-Teller road, from MP 13 to Sinuk River bridge","2025-06-08 10:39",2,64.588583,-165.668189,TRUE,FALSE,TRUE,"S248421562"
"400","norwat","Northern Waterthrush","Parkesia noveboracensis","L1261257","Chugach SP--Bird Pt.","2025-06-08 10:35",1,60.9290469,-149.3465524,TRUE,FALSE,FALSE,"S248251416"
"401","norwat","Northern Waterthrush","Parkesia noveboracensis","L29864396","Piedmont Trails","2025-06-08 10:27",1,46.771807,-92.1585162,TRUE,FALSE,FALSE,"S248216938"
"402","norwat","Northern Waterthrush","Parkesia noveboracensis","L5874416","US-AK-Palmer-12620-12920 S Old Glenn Hwy - 61.4720x-149.2219","2025-06-08 10:26",1,61.471956,-149.221875,TRUE,FALSE,TRUE,"S248243199"
"403","norwat","Northern Waterthrush","Parkesia noveboracensis","L38593697","31–45 Sumner Rd, West Paris US-ME 44.35158, -70.51936","2025-06-08 10:20",1,44.351577,-70.519357,TRUE,FALSE,TRUE,"S248126496"
"404","norwat","Northern Waterthrush","Parkesia noveboracensis","L846959","Greenough Pond Road, Errol","2025-06-08 10:13",2,44.8169155,-71.1135149,TRUE,FALSE,FALSE,"S248486589"
"405","norwat","Northern Waterthrush","Parkesia noveboracensis","L1246055","Hartwick Pines SP--Au Sable River Trail","2025-06-08 10:00",2,44.7478528,-84.6385002,TRUE,FALSE,FALSE,"S248553183"
"406","norwat","Northern Waterthrush","Parkesia noveboracensis","L207430","Drumlin Farm Wildlife Sanctuary (Mass Audubon)","2025-06-08 09:46",2,42.4076572,-71.3295083,TRUE,FALSE,FALSE,"S248174079"
"407","norwat","Northern Waterthrush","Parkesia noveboracensis","L7804689","Denali SP--Moose Meadow Loop","2025-06-08 09:43",6,62.595102,-150.229681,TRUE,FALSE,FALSE,"S248234324"
"408","norwat","Northern Waterthrush","Parkesia noveboracensis","L278186","Trudeau Rd., Bethlehem","2025-06-08 09:31",2,44.2550295,-71.6343524,TRUE,FALSE,FALSE,"S248192566"
"409","norwat","Northern Waterthrush","Parkesia noveboracensis","L752211","Thurman W. Dix Reservoir - Orange (123 acres)","2025-06-08 09:30",1,44.1857122,-72.4229617,TRUE,FALSE,FALSE,"S249383862"
"410","norwat","Northern Waterthrush","Parkesia noveboracensis","L47133612","7611 New York 91, Tully, New York, US (42.783, -76.039)","2025-06-08 09:30",1,42.7826841,-76.0394176,TRUE,FALSE,TRUE,"S248154802"
"411","norwat","Northern Waterthrush","Parkesia noveboracensis","L47167677","Firebrand Pass Trail, East Glacier Park US-MT 48.37187, -113.27986","2025-06-08 09:30",2,48.371873,-113.279865,TRUE,FALSE,TRUE,"S248290318"
"412","norwat","Northern Waterthrush","Parkesia noveboracensis","L5813074","Haskell Swamp WMA","2025-06-08 09:29",3,41.7192317,-70.8091915,TRUE,FALSE,FALSE,"S248137392"
"413","norwat","Northern Waterthrush","Parkesia noveboracensis","L357100","Stony Acres-Family's Place (Wales)","2025-06-08 09:24",1,42.768192,-78.4951687,TRUE,FALSE,TRUE,"S248270603"
"414","norwat","Northern Waterthrush","Parkesia noveboracensis","L1664751","Nome-Council Rd.--Cape Nome to Safety Sound Bridge","2025-06-08 09:24",1,64.4408338,-164.8940364,TRUE,FALSE,FALSE,"S248388372"
"415","norwat","Northern Waterthrush","Parkesia noveboracensis","L7503475","Denali NP&P--Kettle Ponds","2025-06-08 09:22",1,63.4427971,-150.6493807,TRUE,FALSE,FALSE,"S249368357"
"416","norwat","Northern Waterthrush","Parkesia noveboracensis","L47189196","Nome-Council Road, Nome, Alaska, US (64.439, -164.994)","2025-06-08 09:17",1,64.4385587,-164.994332,TRUE,FALSE,TRUE,"S248388327"
"417","norwat","Northern Waterthrush","Parkesia noveboracensis","L47131362","546–798 Cedar Lake Cir, Manitowish Waters US-WI 46.19386, -89.98693","2025-06-08 09:17",1,46.193856,-89.986931,TRUE,FALSE,TRUE,"S248145443"
"418","norwat","Northern Waterthrush","Parkesia noveboracensis","L1206720","Tally Lake Campground","2025-06-08 09:16",1,48.4128526,-114.5826817,TRUE,FALSE,FALSE,"S248729796"
"419","norwat","Northern Waterthrush","Parkesia noveboracensis","L4673886","Rahr Memorial School Forest","2025-06-08 09:04",2,44.2405567,-87.5185704,TRUE,FALSE,FALSE,"S248176889"
"420","norwat","Northern Waterthrush","Parkesia noveboracensis","L3041668","Presque Isle Ponds","2025-06-08 09:03",1,46.2449853,-89.7329807,TRUE,FALSE,FALSE,"S248151881"
"421","norwat","Northern Waterthrush","Parkesia noveboracensis","L3763665","Glacier NP--Grinnell Glacier Trail-Trailhead to Grinnell Glacier","2025-06-08 09:03",8,48.7759331,-113.693347,TRUE,FALSE,FALSE,"S248362843"
"422","norwat","Northern Waterthrush","Parkesia noveboracensis","L2972017","High Rock Trail Five Ponds Wilderness","2025-06-08 08:57",1,44.128137,-74.9261355,TRUE,FALSE,TRUE,"S248113830"
"423","norwat","Northern Waterthrush","Parkesia noveboracensis","L47185936","Lee Creek Interpretive Trail","2025-06-08 08:55",1,46.7059904,-114.5350259,TRUE,FALSE,TRUE,"S248373650"
"424","norwat","Northern Waterthrush","Parkesia noveboracensis","L751953","Gillett Pond - Richmond (30 acres)","2025-06-08 08:42",1,44.3540093,-72.9637755,TRUE,FALSE,FALSE,"S248106266"
"425","norwat","Northern Waterthrush","Parkesia noveboracensis","L47116692","Sharon Rd N of Manistee River","2025-06-08 08:40",2,44.593701,-85.076765,TRUE,FALSE,TRUE,"S248075689"
"426","norwat","Northern Waterthrush","Parkesia noveboracensis","L47173143","Cabin Fork Rd Area","2025-06-08 08:40",1,38.5954098,-79.8834268,TRUE,FALSE,TRUE,"S248312964"
"427","norwat","Northern Waterthrush","Parkesia noveboracensis","L29124031","82 Westminster Rd, Putney US-VT (42.9787,-72.5274)","2025-06-08 08:36",1,42.978688,-72.527396,TRUE,FALSE,TRUE,"S248253440"
"428","norwat","Northern Waterthrush","Parkesia noveboracensis","L230905","Pie Hill Rd Marsh","2025-06-08 08:35",2,41.8266398,-73.2041179,TRUE,FALSE,FALSE,"S248220627"
"429","norwat","Northern Waterthrush","Parkesia noveboracensis","L1605086","Hanscom Field--Massport Trail","2025-06-08 08:29",2,42.4758585,-71.3165936,TRUE,FALSE,FALSE,"S248085008"
"430","norwat","Northern Waterthrush","Parkesia noveboracensis","L24685840","Nome-Teller road, from end of pavement in Nome to Penny River bridge","2025-06-08 08:26",3,64.541616,-165.40917,TRUE,FALSE,TRUE,"S248420914"
"431","norwat","Northern Waterthrush","Parkesia noveboracensis","L19830071","Goldbrook Road","2025-06-08 08:20",1,45.3464674,-70.6073082,TRUE,FALSE,TRUE,"S248231625"
"432","norwat","Northern Waterthrush","Parkesia noveboracensis","L34308993","Lake Wenatchee—West end","2025-06-08 08:19",1,47.828432,-120.817372,TRUE,TRUE,FALSE,"S248191239"
"433","norwat","Northern Waterthrush","Parkesia noveboracensis","L7680288","Portage Lake--Floating Islands","2025-06-08 08:14",2,46.8060015,-68.508521,TRUE,FALSE,FALSE,"S248152523"
"434","norwat","Northern Waterthrush","Parkesia noveboracensis","L3985587","Sockeye Burn 2015--Sockeye Ave./Landlocked Ave./Randal Dr.","2025-06-08 08:13",2,61.8430403,-150.104703,TRUE,FALSE,FALSE,"S248248247"
"435","norwat","Northern Waterthrush","Parkesia noveboracensis","L47149634","Trail of the Coeur D'Alenes @ Anderson Lake","2025-06-08 08:10",1,47.473052,-116.747047,TRUE,FALSE,TRUE,"S248218578"
"436","norwat","Northern Waterthrush","Parkesia noveboracensis","L46173645","170 Waldo Ln, Wallingford US-VT 43.46901, -72.98324","2025-06-08 08:09",1,43.469011,-72.98324,TRUE,FALSE,TRUE,"S248155403"
"437","norwat","Northern Waterthrush","Parkesia noveboracensis","L47122401","Prattville Breeding Bird Survey - Stop 37 (41.744, -71.075)","2025-06-08 08:09",1,41.7444166,-71.0752465,TRUE,FALSE,TRUE,"S248104147"
"438","norwat","Northern Waterthrush","Parkesia noveboracensis","L20643364","Pellet Road X Cowan Road","2025-06-08 08:06",1,43.2652624,-76.5546568,TRUE,FALSE,FALSE,"S248112366"
"439","norwat","Northern Waterthrush","Parkesia noveboracensis","L8177375","Bog Meadow Brook Nature Trail - Meadowbrook Rd side","2025-06-08 08:04",1,43.0778,-73.7005567,TRUE,FALSE,TRUE,"S248195847"
"440","norwat","Northern Waterthrush","Parkesia noveboracensis","L3831165","Sand Hill Road / Wilson Wetland Preserve","2025-06-08 08:03",1,42.9834436,-72.5238419,TRUE,FALSE,FALSE,"S248132191"
"441","norwat","Northern Waterthrush","Parkesia noveboracensis","L47123039","Prattville Breeding Bird Survey - Stop 34 (41.763, -71.071)","2025-06-08 07:54",1,41.7627434,-71.070618,TRUE,FALSE,TRUE,"S248107250"
"442","norwat","Northern Waterthrush","Parkesia noveboracensis","L19524274","Woods Without Gile (private property)","2025-06-08 07:51",1,43.511162,-71.964994,TRUE,FALSE,TRUE,"S248440325"
"443","norwat","Northern Waterthrush","Parkesia noveboracensis","L11638263","Sabattis Circle Road Bridge at Little Tupper Lake","2025-06-08 07:50",1,44.0540353,-74.5595566,TRUE,FALSE,FALSE,"S248054737"
"444","norwat","Northern Waterthrush","Parkesia noveboracensis","L1340956","Sleven's Island","2025-06-08 07:49",3,46.8388648,-114.0594485,TRUE,FALSE,FALSE,"S248377249"
"445","norwat","Northern Waterthrush","Parkesia noveboracensis","L473894","William Jack Hernandez Sport Fish Hatchery","2025-06-08 07:47",1,61.2295064,-149.8300838,TRUE,FALSE,FALSE,"S248168659"
"446","norwat","Northern Waterthrush","Parkesia noveboracensis","L15027503","Blackfoot-Clearwater WMA","2025-06-08 07:42",4,47.0087353,-113.3824353,TRUE,FALSE,FALSE,"S248360067"
"447","norwat","Northern Waterthrush","Parkesia noveboracensis","L589001","Umbagog NWR (overall)","2025-06-08 07:40",2,44.7932873,-71.0554504,TRUE,FALSE,FALSE,"S248381987"
"448","norwat","Northern Waterthrush","Parkesia noveboracensis","L25734690","Little Bear Road (to FS gate)","2025-06-08 07:34",1,45.5330691,-111.1571422,TRUE,FALSE,FALSE,"S248204807"
"449","norwat","Northern Waterthrush","Parkesia noveboracensis","L3659024","Tony Knowles Coastal Trail--Pete's Place to Audubon Wayside","2025-06-08 07:33",1,61.2022996,-149.9509227,TRUE,FALSE,FALSE,"S248244662"
"450","norwat","Northern Waterthrush","Parkesia noveboracensis","L47164359","NACA’s Tamarack Swamp (Restricted Access)","2025-06-08 07:33",17,41.979465,-79.549174,TRUE,TRUE,TRUE,"S248276289"
"451","norwat","Northern Waterthrush","Parkesia noveboracensis","L3544312","Dixville Notch the Balsams & trails","2025-06-08 07:33",2,44.8803036,-71.3254952,TRUE,FALSE,TRUE,"S248364095"
"452","norwat","Northern Waterthrush","Parkesia noveboracensis","L9434494","Girdwood to Bird--Bike Path","2025-06-08 07:30",1,60.945048,-149.176858,TRUE,FALSE,TRUE,"S248202091"
"453","norwat","Northern Waterthrush","Parkesia noveboracensis","L156863","Pondicherry Wildlife Refuge, Jefferson/Whitefield","2025-06-08 07:30",1,44.3828884,-71.5176487,TRUE,FALSE,FALSE,"S248114293"
"454","norwat","Northern Waterthrush","Parkesia noveboracensis","L47109582","5270 E Twin Lake Rd, Rose City US-MI 44.52865, -84.14115","2025-06-08 07:29",1,44.528655,-84.141153,TRUE,FALSE,TRUE,"S248038899"
"455","norwat","Northern Waterthrush","Parkesia noveboracensis","L271400","Labrador Hollow Unique Area (Onondaga Co.)","2025-06-08 07:27",1,42.7902013,-76.053309,TRUE,FALSE,FALSE,"S248154861"
"456","norwat","Northern Waterthrush","Parkesia noveboracensis","L12356121","585 Garfield Rd, Auburn US-ME 44.09678, -70.28768","2025-06-08 07:23",1,44.096781,-70.287676,TRUE,FALSE,TRUE,"S248810575"
"457","norwat","Northern Waterthrush","Parkesia noveboracensis","L1667673","Kougarok Rd.--Salmon Lake Campground","2025-06-08 07:21",2,64.9169757,-164.9601459,TRUE,FALSE,FALSE,"S248384612"
"458","norwat","Northern Waterthrush","Parkesia noveboracensis","L47126814","Monadnock Recreational Rail Trail, Fitzwilliam, New Hampshire, US (42.748, -72.128)","2025-06-08 07:05",2,42.7480762,-72.1276317,TRUE,FALSE,TRUE,"S248124799"
"459","norwat","Northern Waterthrush","Parkesia noveboracensis","L41822357","2960 Post Siding Rd, Missoula US-MT 46.84147, -114.05381","2025-06-08 07:04",1,46.841473,-114.05381,TRUE,FALSE,TRUE,"S248105044"
"460","norwat","Northern Waterthrush","Parkesia noveboracensis","L47131478","George Washington Management Area--Center Trail/Olney Keech Pond","2025-06-08 07:00",1,41.944844,-71.746932,TRUE,FALSE,FALSE,"S248145886"
"461","norwat","Northern Waterthrush","Parkesia noveboracensis","L24169289","Mullet Creek","2025-06-08 06:32",1,45.5074879,-84.5640996,TRUE,FALSE,TRUE,"S248251281"
"462","norwat","Northern Waterthrush","Parkesia noveboracensis","L4499384","East Branch Sebasticook River Reservoir, Corinna Bog, and Corundel Lake","2025-06-08 06:30",2,44.9257892,-69.2629248,TRUE,FALSE,FALSE,"S248665135"
"463","norwat","Northern Waterthrush","Parkesia noveboracensis","L326967","Bangor City Forest","2025-06-08 06:28",1,44.86227,-68.7353735,TRUE,FALSE,FALSE,"S248075293"
"464","norwat","Northern Waterthrush","Parkesia noveboracensis","L151763","Rice Lake NWR","2025-06-08 06:22",1,46.531,-93.3374,TRUE,FALSE,FALSE,"S248255647"
"465","norwat","Northern Waterthrush","Parkesia noveboracensis","L47107053","W Elcho Rd, Summit Lake US-WI 45.39940, -89.28867","2025-06-08 06:17",1,45.399401,-89.288672,TRUE,FALSE,TRUE,"S248025863"
"466","norwat","Northern Waterthrush","Parkesia noveboracensis","L18773238","Station 7 (Guesthouse by pond complex & wetlands)","2025-06-08 06:00",1,45.9567809,-91.6977647,TRUE,FALSE,TRUE,"S248266676"
"467","norwat","Northern Waterthrush","Parkesia noveboracensis","L47178690","Golden road","2025-06-08 05:57",1,45.766502,-68.877646,TRUE,FALSE,TRUE,"S248338813"
"468","norwat","Northern Waterthrush","Parkesia noveboracensis","L2611526","University of Michigan Biological Station","2025-06-08 05:55",1,45.5600432,-84.6760619,TRUE,FALSE,FALSE,"S248211642"
"469","norwat","Northern Waterthrush","Parkesia noveboracensis","L207418","Wompatuck SP (Plymouth Co.)","2025-06-08 05:54",2,42.2062945,-70.8417813,TRUE,FALSE,FALSE,"S248035424"
"470","norwat","Northern Waterthrush","Parkesia noveboracensis","L32474687","Curlew Aspen Marsh","2025-06-08 05:51",2,48.882112,-118.620078,TRUE,FALSE,FALSE,"S248225874"
"471","norwat","Northern Waterthrush","Parkesia noveboracensis","L47104185","W11200–W11340 Moccasin Lake Rd, Summit Lake US-WI 45.44116, -89.21275","2025-06-08 05:40",1,45.441157,-89.212748,TRUE,FALSE,TRUE,"S248012054"
"472","norwat","Northern Waterthrush","Parkesia noveboracensis","L2366705","Philbrick-Cricenti Bog, New London","2025-06-08 05:22",1,43.4256375,-72.0078921,TRUE,FALSE,FALSE,"S248780340"
"473","norwat","Northern Waterthrush","Parkesia noveboracensis","L863412","Penacook Survey Route","2025-06-08 05:15",3,43.26066,-71.60564,TRUE,FALSE,TRUE,"S248150887"
"474","norwat","Northern Waterthrush","Parkesia noveboracensis","L3736488","Camp Dedham-681 Lakeview Ave","2025-06-08 05:15",1,44.688035,-68.61548,TRUE,FALSE,TRUE,"S248608647"
"475","norwat","Northern Waterthrush","Parkesia noveboracensis","L15769137","George Washington Management Area--Wilson Trail","2025-06-08 04:58",3,41.96128,-71.777166,TRUE,FALSE,FALSE,"S248121037"
"476","norwat","Northern Waterthrush","Parkesia noveboracensis","L47288416","2 Pritchard Rd, Cornwall Bridge US-CT (41.7816,-73.3476)","2025-06-08 04:54",1,41.781618,-73.347595,TRUE,FALSE,TRUE,"S248845104"
"477","norwat","Northern Waterthrush","Parkesia noveboracensis","L47091442","Reflections Lake Trail, Wasilla US-AK 61.48684, -149.24835","2025-06-07 21:14",1,61.486839,-149.248348,TRUE,FALSE,TRUE,"S247959722"
"478","norwat","Northern Waterthrush","Parkesia noveboracensis","L3837559","anaconda","2025-06-07 20:41",1,62.1341015,-150.0241256,TRUE,FALSE,TRUE,"S248197850"
"479","norwat","Northern Waterthrush","Parkesia noveboracensis","L31866475","Home/field","2025-06-07 20:22",1,42.270138,-73.137946,TRUE,FALSE,TRUE,"S247910070"
"480","norwat","Northern Waterthrush","Parkesia noveboracensis","L2898401","Nome-Teller Hwy.--Snake River","2025-06-07 17:55",2,64.5643458,-165.5115759,TRUE,FALSE,FALSE,"S247927754"
"481","norwat","Northern Waterthrush","Parkesia noveboracensis","L47066962","Cedar swamp US-VT (44.6894,-72.3552)","2025-06-07 17:28",1,44.689383,-72.355203,TRUE,FALSE,TRUE,"S247846015"
"482","norwat","Northern Waterthrush","Parkesia noveboracensis","L36794488","Negaunee Cemetery to IOHT Carp River overlook","2025-06-07 17:23",1,46.513802,-87.561581,TRUE,FALSE,TRUE,"S247862926"
"483","norwat","Northern Waterthrush","Parkesia noveboracensis","L3340130","Axtell-Anceny Bridge FAS","2025-06-07 17:17",2,45.6231024,-111.2052441,TRUE,FALSE,FALSE,"S248377254"
"484","norwat","Northern Waterthrush","Parkesia noveboracensis","L9824619","Cheat Mtn Club","2025-06-07 17:00",1,38.6013146,-79.8828964,TRUE,FALSE,TRUE,"S248566293"
"485","norwat","Northern Waterthrush","Parkesia noveboracensis","L14920673","Cottonwood Lake","2025-06-07 16:25",1,61.598092,-149.3172301,TRUE,FALSE,FALSE,"S247912692"
"486","norwat","Northern Waterthrush","Parkesia noveboracensis","L3678631","Finger Lake Campground","2025-06-07 15:43",1,61.6099981,-149.2633116,TRUE,FALSE,FALSE,"S247899927"
"487","norwat","Northern Waterthrush","Parkesia noveboracensis","L7599866","Kougarok Rd.--Mile 64 Lake","2025-06-07 15:17",1,65.1727249,-164.8244584,TRUE,FALSE,FALSE,"S247939314"
"488","norwat","Northern Waterthrush","Parkesia noveboracensis","L3678872","South Potter Marsh","2025-06-07 14:30",4,61.0554068,-149.7984847,TRUE,FALSE,FALSE,"S247913127"
"489","norwat","Northern Waterthrush","Parkesia noveboracensis","L47049224","Tuttle Marsh Rd, East Tawas US-MI 44.35342, -83.48090","2025-06-07 14:14",1,44.353417,-83.480898,TRUE,FALSE,TRUE,"S247783113"
"490","norwat","Northern Waterthrush","Parkesia noveboracensis","L47182749","1214–1238 Indian Stream Rd, Pittsburg US-NH 45.12004, -71.37078","2025-06-07 14:13",1,45.120042,-71.370784,TRUE,FALSE,TRUE,"S248358741"
"491","norwat","Northern Waterthrush","Parkesia noveboracensis","L5738157","Long Lake SRS","2025-06-07 14:00",1,61.8043691,-148.2355914,TRUE,FALSE,FALSE,"S248741217"
"492","norwat","Northern Waterthrush","Parkesia noveboracensis","L47084575","Nome-Council Rd, Nome US-AK (64.7298,-163.9617)","2025-06-07 13:46",3,64.729795,-163.961696,TRUE,FALSE,TRUE,"S247928647"
"493","norwat","Northern Waterthrush","Parkesia noveboracensis","L47068703","4001–4025 Rock Lodge Rd, Accident US-MD 39.54822, -79.30511","2025-06-07 13:32",1,39.548221,-79.305112,TRUE,FALSE,TRUE,"S247853203"
"494","norwat","Northern Waterthrush","Parkesia noveboracensis","L47085000","Nome-Council Rd, Nome US-mile 40","2025-06-07 13:30",2,64.6385,-164.366132,TRUE,FALSE,TRUE,"S247930557"
"495","norwat","Northern Waterthrush","Parkesia noveboracensis","L25761090","County Line Road (CTH X to Ackley Rd), Lincoln County, Wisconsin, US","2025-06-07 13:25",NA,45.1195324,-89.4503517,TRUE,FALSE,TRUE,"S247916067"
"496","norwat","Northern Waterthrush","Parkesia noveboracensis","L2191787","Glen Lake Rotary Park--Trails east of the river","2025-06-07 13:15",1,45.7062552,-111.0325441,TRUE,FALSE,FALSE,"S247845349"
"497","norwat","Northern Waterthrush","Parkesia noveboracensis","L4069506","Allenberg Bog Audubon Preserve","2025-06-07 13:15",2,42.2557312,-78.8910589,TRUE,FALSE,FALSE,"S247804294"
"498","norwat","Northern Waterthrush","Parkesia noveboracensis","L10930712","2022 Hathaway Point Road, Saint Albans City, Vermont, US (44.788, -73.187)","2025-06-07 13:04",2,44.7884333,-73.1866033,TRUE,FALSE,TRUE,"S247764614"
"499","norwat","Northern Waterthrush","Parkesia noveboracensis","L12416671","Sax-Zim Bog— Blue Dasher Bog","2025-06-07 13:00",1,47.282855,-92.54587,TRUE,FALSE,TRUE,"S247878639"
"500","norwat","Northern Waterthrush","Parkesia noveboracensis","L2942287","Nome-Teller Hwy.--34 Mile Ridge","2025-06-07 12:53",1,64.8219296,-166.0375786,TRUE,FALSE,FALSE,"S247918818"
"501","norwat","Northern Waterthrush","Parkesia noveboracensis","L941887","Denali Hwy.--Susitna River Bridge (MP 79.5)","2025-06-07 12:51",1,63.1046997,-147.5208092,TRUE,FALSE,FALSE,"S247997231"
"502","norwat","Northern Waterthrush","Parkesia noveboracensis","L47066948","Woods Trail-Earthquake Park","2025-06-07 12:37",1,61.198418,-149.969799,TRUE,FALSE,TRUE,"S247845966"
"503","norwat","Northern Waterthrush","Parkesia noveboracensis","L47081502","Denali Highway wetlands, Cantwell","2025-06-07 12:36",1,63.3785867,-148.8546219,TRUE,FALSE,TRUE,"S247915135"
"504","norwat","Northern Waterthrush","Parkesia noveboracensis","L34124270","Rome NY - Oswego Rd","2025-06-07 12:23",1,43.2363552,-75.5650427,TRUE,FALSE,TRUE,"S247909482"
"505","norwat","Northern Waterthrush","Parkesia noveboracensis","L1598441","Kenai NWR--Rock Lake","2025-06-07 12:11",1,60.4542762,-150.2530312,TRUE,FALSE,FALSE,"S248402019"
"506","norwat","Northern Waterthrush","Parkesia noveboracensis","L47052971","59722, Deer Lodge US-MT (46.3222,-112.6661)","2025-06-07 12:10",1,46.322246,-112.66613,TRUE,FALSE,TRUE,"S247792336"
"507","norwat","Northern Waterthrush","Parkesia noveboracensis","L1092991","Perry Stream Road, Pittsburg","2025-06-07 12:00",4,45.1473002,-71.2882233,TRUE,FALSE,TRUE,"S247764770"
"508","norwat","Northern Waterthrush","Parkesia noveboracensis","L47267091","Lower Eldorado","2025-06-07 11:45",4,64.569965,-164.938346,TRUE,FALSE,TRUE,"S248744259"
"509","norwat","Northern Waterthrush","Parkesia noveboracensis","L22666134","Denali Hwy.--mm 126.5 Lake","2025-06-07 11:44",1,63.3946929,-148.6707815,TRUE,FALSE,FALSE,"S247914434"
"510","norwat","Northern Waterthrush","Parkesia noveboracensis","L7887067","North Western State Trail (Levering)","2025-06-07 11:37",1,45.63687,-84.7897348,TRUE,FALSE,FALSE,"S247742235"
"511","norwat","Northern Waterthrush","Parkesia noveboracensis","L18894698","Pigeon Loft Rd NE, Stacy US-MN 45.44927, -93.05685","2025-06-07 11:32",1,45.449268,-93.056847,TRUE,FALSE,TRUE,"S247758156"
"512","norwat","Northern Waterthrush","Parkesia noveboracensis","L25236492","Magalloway Rd, Pittsburg US-NH 45.11062, -71.21153","2025-06-07 11:07",1,45.110625,-71.211534,TRUE,FALSE,TRUE,"S247715828"
"513","norwat","Northern Waterthrush","Parkesia noveboracensis","L20334035","Cabin","2025-06-07 10:56",1,45.5315,-91.224464,TRUE,FALSE,TRUE,"S247734859"
"514","norwat","Northern Waterthrush","Parkesia noveboracensis","L1883975","Ice Age Trail--Plover River Segment","2025-06-07 10:53",2,45.0301527,-89.2442823,TRUE,FALSE,FALSE,"S247758303"
"515","norwat","Northern Waterthrush","Parkesia noveboracensis","L573008","Denali Hwy.--Cantwell to MP 112 (Denali Borough)","2025-06-07 10:51",1,63.374877,-148.7613983,TRUE,FALSE,FALSE,"S247916178"
"516","norwat","Northern Waterthrush","Parkesia noveboracensis","L1282266","F. Gilbert Hills State Forest","2025-06-07 10:50",1,42.0515871,-71.274147,TRUE,FALSE,FALSE,"S247725628"
"517","norwat","Northern Waterthrush","Parkesia noveboracensis","L19500956","River Road Anglers Pull-off","2025-06-07 10:46",1,44.284794,-73.933868,TRUE,FALSE,TRUE,"S247709834"
"518","norwat","Northern Waterthrush","Parkesia noveboracensis","L47040157","4001–4999 Reed Rd, Levering US-MI 45.61107, -84.79241","2025-06-07 10:44",1,45.611065,-84.792414,TRUE,FALSE,TRUE,"S247742870"
"519","norwat","Northern Waterthrush","Parkesia noveboracensis","L47032458","Grass River boardwalk","2025-06-07 10:30",2,44.915185,-85.221711,TRUE,FALSE,TRUE,"S247712242"
"520","norwat","Northern Waterthrush","Parkesia noveboracensis","L47087463","Tally Lake Camp C Road, Whitefish, Montana, US (48.415, -114.583)","2025-06-07 10:15",1,48.4147087,-114.582566,TRUE,FALSE,TRUE,"S247941216"
"521","norwat","Northern Waterthrush","Parkesia noveboracensis","L212481","Bloomingdale Bog Trail","2025-06-07 10:15",1,44.4128015,-74.121715,TRUE,FALSE,FALSE,"S247709307"
"522","norwat","Northern Waterthrush","Parkesia noveboracensis","L12043122","Broadie Habitat Preserve","2025-06-07 10:15",1,48.8781247,-115.6567598,TRUE,FALSE,TRUE,"S247781502"
"523","norwat","Northern Waterthrush","Parkesia noveboracensis","L47041757","South America Pond Road","2025-06-07 10:11",1,44.759239,-71.72939,TRUE,FALSE,TRUE,"S247749275"
"524","norwat","Northern Waterthrush","Parkesia noveboracensis","L2129677","Palmer Hay Flats SGR--Spring Creek","2025-06-07 10:09",1,61.552794,-149.2491559,TRUE,FALSE,FALSE,"S247785558"
"525","norwat","Northern Waterthrush","Parkesia noveboracensis","L11316926","Primm meadows","2025-06-07 10:03",1,46.9946326,-113.7210424,TRUE,FALSE,TRUE,"S247828291"
"526","norwat","Northern Waterthrush","Parkesia noveboracensis","L47367007","99652, Big Lake US-AK (61.6359,-150.1495)Near Redshirt Lake cabin #4","2025-06-07 10:00",4,61.635905,-150.149489,TRUE,FALSE,TRUE,"S249216791"
"527","norwat","Northern Waterthrush","Parkesia noveboracensis","L47179519","woodworth rd","2025-06-07 09:55",1,47.0359196,-113.2608278,TRUE,FALSE,TRUE,"S248344830"
"528","norwat","Northern Waterthrush","Parkesia noveboracensis","L301784","Kettle Moraine SF--Mauthe Lake Rec. Area","2025-06-07 09:54",1,43.6006167,-88.17805,TRUE,FALSE,FALSE,"S247870209"
"529","norwat","Northern Waterthrush","Parkesia noveboracensis","L1807808","Cheboygan SP","2025-06-07 09:50",1,45.6477885,-84.41921,TRUE,FALSE,FALSE,"S247901929"
"530","norwat","Northern Waterthrush","Parkesia noveboracensis","L755300","Kougarok Rd.--Nome River","2025-06-07 09:40",6,64.6469307,-165.2924824,TRUE,FALSE,FALSE,"S247939055"
"531","norwat","Northern Waterthrush","Parkesia noveboracensis","L15947357","Talkeetna--Talkeetna Alaskan Lodge","2025-06-07 09:36",1,62.3069308,-150.0934974,TRUE,FALSE,FALSE,"S247773156"
"532","norwat","Northern Waterthrush","Parkesia noveboracensis","L29874098","Chevallier Dr. North - Little Sheep Cr. - Rocking Z","2025-06-07 09:30",1,46.8622177,-112.1666366,TRUE,FALSE,FALSE,"S247729900"
"533","norwat","Northern Waterthrush","Parkesia noveboracensis","L734994","Long & Ell Ponds Natural Area","2025-06-07 09:19",1,41.5083845,-71.7763102,TRUE,FALSE,FALSE,"S247666709"
"534","norwat","Northern Waterthrush","Parkesia noveboracensis","L47017543","04776, Sherman US-ME 45.90204, -68.42627","2025-06-07 09:15",3,45.902042,-68.426268,TRUE,FALSE,TRUE,"S247648724"
"535","norwat","Northern Waterthrush","Parkesia noveboracensis","L523648","Palmer Hay Flats SGR--Cottonwood Creek access","2025-06-07 09:03",1,61.5110125,-149.5566702,TRUE,FALSE,FALSE,"S247767885"
"536","norwat","Northern Waterthrush","Parkesia noveboracensis","L7593108","Letchworth SP--Great Bend Overlook","2025-06-07 09:02",1,42.6076186,-78.0241652,TRUE,FALSE,FALSE,"S247735100"
"537","norwat","Northern Waterthrush","Parkesia noveboracensis","L859948","Grass River Natural Area","2025-06-07 09:00",1,44.9093258,-85.2212477,TRUE,FALSE,FALSE,"S247716963"
"538","norwat","Northern Waterthrush","Parkesia noveboracensis","L7447378","Vernooy Kill Falls Trail","2025-06-07 09:00",2,41.863974,-74.3460942,TRUE,FALSE,FALSE,"S247903734"
