"","speciesCode","comName","sciName","locId","locName","obsDt","howMany","lat","lng","obsValid","obsReviewed","locationPrivate","subId"
"1","rebsap","Red-breasted Sapsucker","Sphyrapicus ruber","L33918671","71550 Fishhawk Rd, Clatskanie US-OR 46.03415, -123.35696","2025-05-18 15:50",1,46.034145,-123.356964,TRUE,FALSE,TRUE,"S239996109"
"2","rebsap","Red-breasted Sapsucker","Sphyrapicus ruber","L7936488","Independence Sports Park","2025-05-18 15:43",1,44.8630018,-123.1792414,TRUE,FALSE,FALSE,"S239975814"
"3","rebsap","Red-breasted Sapsucker","Sphyrapicus ruber","L2690852","American Valley--Dillinger Pond","2025-05-18 15:23",1,39.9375056,-120.9550202,TRUE,FALSE,FALSE,"S239965742"
"4","rebsap","Red-breasted Sapsucker","Sphyrapicus ruber","L663914","Champoeg SP","2025-05-18 15:17",3,45.2504949,-122.8846121,TRUE,FALSE,FALSE,"S239981501"
"5","rebsap","Red-breasted Sapsucker","Sphyrapicus ruber","L1563651","Witham Hill Natural Area","2025-05-18 14:23",1,44.5808312,-123.3020349,TRUE,FALSE,FALSE,"S239951835"
"6","rebsap","Red-breasted Sapsucker","Sphyrapicus ruber","L728349","Whitehorse County Park","2025-05-18 13:50",1,42.4371911,-123.4596434,TRUE,FALSE,FALSE,"S239971462"
"7","rebsap","Red-breasted Sapsucker","Sphyrapicus ruber","L34912440","Orting Wastewater Treatment Plant","2025-05-18 13:44",1,47.1087728,-122.2142574,TRUE,FALSE,FALSE,"S239951037"
"8","rebsap","Red-breasted Sapsucker","Sphyrapicus ruber","L45409371","Tuff Campground Rd, Mammoth Lakes US-CA 37.56227, -118.66561","2025-05-18 13:44",3,37.562268,-118.665609,TRUE,FALSE,TRUE,"S239958740"
"9","rebsap","Red-breasted Sapsucker","Sphyrapicus ruber","L551440","Watershed Park","2025-05-18 13:17",1,47.0286872,-122.8875732,TRUE,FALSE,FALSE,"S239919768"
"10","rebsap","Red-breasted Sapsucker","Sphyrapicus ruber","L191685","Mendenhall Wetlands SGR--Fish Creek Delta","2025-05-18 13:15",1,58.3311702,-134.5996857,TRUE,FALSE,FALSE,"S239948115"
"11","rebsap","Red-breasted Sapsucker","Sphyrapicus ruber","L10364950","Fenton Preserve (Whatcom Land Trust)","2025-05-18 13:11",1,48.9650315,-122.6589886,TRUE,FALSE,FALSE,"S239934847"
"12","rebsap","Red-breasted Sapsucker","Sphyrapicus ruber","L2985236","Portland Women's Forum Viewpoint","2025-05-18 13:04",1,45.5345214,-122.2607356,TRUE,FALSE,FALSE,"S239935814"
"13","rebsap","Red-breasted Sapsucker","Sphyrapicus ruber","L2619655","Summerlake Park","2025-05-18 12:57",1,45.4378133,-122.8086519,TRUE,FALSE,FALSE,"S239914524"
"14","rebsap","Red-breasted Sapsucker","Sphyrapicus ruber","L4771888","Mt. Baldy--Mt. Baldy Rd. to Top of the Notch","2025-05-18 12:50",1,34.2728107,-117.6198757,TRUE,FALSE,FALSE,"S239962311"
"15","rebsap","Red-breasted Sapsucker","Sphyrapicus ruber","L736239","OSU McDonald-Dunn Forest--Sulphur Springs","2025-05-18 12:42",1,44.6430709,-123.3187008,TRUE,FALSE,FALSE,"S239912618"
"16","rebsap","Red-breasted Sapsucker","Sphyrapicus ruber","L1413967","Whitaker Ponds Nature Park","2025-05-18 12:08",1,45.5733692,-122.6113719,TRUE,FALSE,FALSE,"S239907189"
"17","rebsap","Red-breasted Sapsucker","Sphyrapicus ruber","L322779","Wallace Falls State Park","2025-05-18 12:00",1,47.878347,-121.6571214,TRUE,FALSE,FALSE,"S239884126"
"18","rebsap","Red-breasted Sapsucker","Sphyrapicus ruber","L613422","Moore Park","2025-05-18 11:45",1,42.2314,-121.8098,TRUE,FALSE,FALSE,"S239899376"
"19","rebsap","Red-breasted Sapsucker","Sphyrapicus ruber","L232479","Juanita Bay Park","2025-05-18 11:45",1,47.6981686,-122.2101878,TRUE,FALSE,FALSE,"S239931451"
"20","rebsap","Red-breasted Sapsucker","Sphyrapicus ruber","L512719","OSU McDonald-Dunn Forest--Oak Creek Watershed","2025-05-18 11:44",1,44.6040962,-123.3324981,TRUE,FALSE,FALSE,"S239911269"
"21","rebsap","Red-breasted Sapsucker","Sphyrapicus ruber","L45394469","Oaks to Wetland Trail, Ridgefield US-WA (45.8336,-122.7490)","2025-05-18 11:43",1,45.833564,-122.749012,TRUE,FALSE,TRUE,"S239888343"
"22","rebsap","Red-breasted Sapsucker","Sphyrapicus ruber","L45396859","Masonic Rd, Bridgeport US-CA 38.35940, -119.14322","2025-05-18 11:33",3,38.359399,-119.14322,TRUE,FALSE,TRUE,"S239899180"
"23","rebsap","Red-breasted Sapsucker","Sphyrapicus ruber","L45404852","Parker Lake, Lee Vining US-CA 37.85297, -119.13517","2025-05-18 11:33",1,37.85297,-119.135174,TRUE,FALSE,TRUE,"S239937046"
"24","rebsap","Red-breasted Sapsucker","Sphyrapicus ruber","L16203349","Olsen Creek Seed Orchard","2025-05-18 11:33",1,48.7636984,-122.3447753,TRUE,FALSE,FALSE,"S239900160"
"25","rebsap","Red-breasted Sapsucker","Sphyrapicus ruber","L45398054","87527–87559 Upper Fourmile Ln, Bandon US-OR 43.00183, -124.41288","2025-05-18 11:32",1,43.001835,-124.41288,TRUE,FALSE,TRUE,"S239904900"
"26","rebsap","Red-breasted Sapsucker","Sphyrapicus ruber","L3541514","NE Sundial Rd.--Company Lake","2025-05-18 11:22",1,45.5615042,-122.40696,TRUE,FALSE,FALSE,"S239905909"
"27","rebsap","Red-breasted Sapsucker","Sphyrapicus ruber","L270903","Mono Lake County Park","2025-05-18 11:19",2,38.0152767,-119.1486168,TRUE,FALSE,FALSE,"S239893173"
"28","rebsap","Red-breasted Sapsucker","Sphyrapicus ruber","L45282721","King Castle Trail","2025-05-18 11:16",1,44.1642728,-122.2211132,TRUE,FALSE,TRUE,"S239899914"
"29","rebsap","Red-breasted Sapsucker","Sphyrapicus ruber","L1398229","Road 430","2025-05-18 11:12",1,44.0285398,-121.5240844,TRUE,FALSE,FALSE,"S239910948"
"30","rebsap","Red-breasted Sapsucker","Sphyrapicus ruber","L1580248","Forest Service Rte. 1 (Titlow Hill Rd.)--Russ Ranch clearcut","2025-05-18 11:10",2,40.8307718,-123.7051255,TRUE,FALSE,FALSE,"S239854076"
"31","rebsap","Red-breasted Sapsucker","Sphyrapicus ruber","L727975","Cooper Mountain Nature Park","2025-05-18 11:04",1,45.4519426,-122.8702354,TRUE,FALSE,FALSE,"S239900373"
"32","rebsap","Red-breasted Sapsucker","Sphyrapicus ruber","L4313747","Lyre Conservation Area","2025-05-18 11:00",1,48.1501769,-123.8257748,TRUE,FALSE,FALSE,"S239903341"
"33","rebsap","Red-breasted Sapsucker","Sphyrapicus ruber","L1217461","Ketchikan--Ward Lake","2025-05-18 10:55",1,55.4123536,-131.7011833,TRUE,FALSE,FALSE,"S239943355"
"34","rebsap","Red-breasted Sapsucker","Sphyrapicus ruber","L7042861","Lake Isabella State Park","2025-05-18 10:41",1,47.1686799,-123.1101086,TRUE,FALSE,FALSE,"S239886048"
"35","rebsap","Red-breasted Sapsucker","Sphyrapicus ruber","L45384567","95525, Blue Lake US-CA 40.84104, -123.72235","2025-05-18 10:41",1,40.841037,-123.722346,TRUE,FALSE,TRUE,"S239844488"
"36","rebsap","Red-breasted Sapsucker","Sphyrapicus ruber","L5176803","Calpine","2025-05-18 10:31",1,39.6654122,-120.4402936,TRUE,FALSE,FALSE,"S239843429"
"37","rebsap","Red-breasted Sapsucker","Sphyrapicus ruber","L298030","Carkeek Park","2025-05-18 10:30",1,47.7126411,-122.377647,TRUE,FALSE,FALSE,"S239886121"
"38","rebsap","Red-breasted Sapsucker","Sphyrapicus ruber","L44293902","Polk County (General)","2025-05-18 10:30",1,44.8020128,-123.4026459,TRUE,FALSE,TRUE,"S239952930"
"39","rebsap","Red-breasted Sapsucker","Sphyrapicus ruber","L447381","Mt. Tabor Park","2025-05-18 10:28",1,45.5114597,-122.5940323,TRUE,FALSE,FALSE,"S239855136"
"40","rebsap","Red-breasted Sapsucker","Sphyrapicus ruber","L710366","Wood River Day Use Area","2025-05-18 10:26",3,42.7085517,-121.9906425,TRUE,FALSE,FALSE,"S239870723"
"41","rebsap","Red-breasted Sapsucker","Sphyrapicus ruber","L4976203","Butterfield Wetland","2025-05-18 10:20",1,44.5345942,-123.2580936,TRUE,FALSE,FALSE,"S239855899"
"42","rebsap","Red-breasted Sapsucker","Sphyrapicus ruber","L15548465","Larch Mountain Rd, Tillamook US-OR 45.62206, -123.42210","2025-05-18 10:02",1,45.622065,-123.422103,TRUE,FALSE,TRUE,"S239962366"
"43","rebsap","Red-breasted Sapsucker","Sphyrapicus ruber","L1133945","Laurelhurst Park","2025-05-18 10:01",2,45.5210223,-122.6255322,TRUE,FALSE,FALSE,"S239828475"
"44","rebsap","Red-breasted Sapsucker","Sphyrapicus ruber","L24986870","Bassi Falls Trail","2025-05-18 10:00",1,38.883951,-120.355639,TRUE,FALSE,FALSE,"S239889555"
"45","rebsap","Red-breasted Sapsucker","Sphyrapicus ruber","L2973792","Picnic Grounds Rd.","2025-05-18 10:00",1,37.97379,-119.11053,TRUE,FALSE,FALSE,"S239820492"
"46","rebsap","Red-breasted Sapsucker","Sphyrapicus ruber","L16952348","Lower Whites Creek Trail","2025-05-18 09:58",1,39.3890132,-119.811404,TRUE,FALSE,FALSE,"S239996412"
"47","rebsap","Red-breasted Sapsucker","Sphyrapicus ruber","L2313264","NE Sundial Rd.","2025-05-18 09:56",1,45.5603243,-122.4077989,TRUE,FALSE,FALSE,"S239869241"
"48","rebsap","Red-breasted Sapsucker","Sphyrapicus ruber","L14935419","Marymoor","2025-05-18 09:54",2,47.6573257,-122.1093903,TRUE,FALSE,TRUE,"S239935831"
"49","rebsap","Red-breasted Sapsucker","Sphyrapicus ruber","L3121366","Smith and Bybee Lakes--Wetland Interlakes Trail","2025-05-18 09:53",1,45.616676,-122.7266407,TRUE,FALSE,FALSE,"S239853938"
"50","rebsap","Red-breasted Sapsucker","Sphyrapicus ruber","L561441","Tongass NF--Moose Lake area","2025-05-18 09:50",2,58.4057814,-134.5713186,TRUE,FALSE,FALSE,"S239915326"
"51","rebsap","Red-breasted Sapsucker","Sphyrapicus ruber","L3998423","Willamette Greenway--Grand Island Access","2025-05-18 09:47",1,45.104299,-123.021792,TRUE,FALSE,FALSE,"S239822334"
"52","rebsap","Red-breasted Sapsucker","Sphyrapicus ruber","L24553043","Telegraph Peak","2025-05-18 09:45",1,34.2604029,-117.5998198,TRUE,FALSE,TRUE,"S239961853"
"53","rebsap","Red-breasted Sapsucker","Sphyrapicus ruber","L234894","Salt Creek County Park","2025-05-18 09:44",2,48.1631912,-123.6972883,TRUE,FALSE,FALSE,"S239906947"
"54","rebsap","Red-breasted Sapsucker","Sphyrapicus ruber","L8647568","Massey Creek Meadow","2025-05-18 09:43",1,39.9424082,-121.0528757,TRUE,FALSE,TRUE,"S239858362"
"55","rebsap","Red-breasted Sapsucker","Sphyrapicus ruber","L45391462","Tom Folley Road, Elkton, Oregon, US (43.679, -123.515)","2025-05-18 09:42",1,43.678801,-123.5150964,TRUE,FALSE,TRUE,"S239875021"
"56","rebsap","Red-breasted Sapsucker","Sphyrapicus ruber","L45385689","15375 Archery View, Truckee US-CA 39.36558, -120.10196","2025-05-18 09:41",2,39.365577,-120.101955,TRUE,FALSE,TRUE,"S239849467"
"57","rebsap","Red-breasted Sapsucker","Sphyrapicus ruber","L685396","The Oregon Garden","2025-05-18 09:38",1,44.9947066,-122.79037,TRUE,FALSE,FALSE,"S239929409"
"58","rebsap","Red-breasted Sapsucker","Sphyrapicus ruber","L2922029","Olson Rd., Sequim","2025-05-18 09:36",1,48.0469367,-123.1859305,TRUE,FALSE,FALSE,"S239895275"
"59","rebsap","Red-breasted Sapsucker","Sphyrapicus ruber","L3039593","Silver Lake USFS","2025-05-18 09:31",1,43.1247613,-121.0621047,TRUE,FALSE,FALSE,"S239800228"
"60","rebsap","Red-breasted Sapsucker","Sphyrapicus ruber","L1176600","Upper Pine Creek and trails","2025-05-18 09:30",1,37.3592698,-118.6974269,TRUE,FALSE,FALSE,"S239897659"
"61","rebsap","Red-breasted Sapsucker","Sphyrapicus ruber","L1580174","Forest Service Rte. 1 (Titlow Hill Rd.)--Horse Mtn. saddle","2025-05-18 09:25",1,40.8657651,-123.7338754,TRUE,FALSE,FALSE,"S239826493"
"62","rebsap","Red-breasted Sapsucker","Sphyrapicus ruber","L2273545","Yosemite NP--Tuolumne Grove","2025-05-18 09:23",1,37.7652868,-119.807024,TRUE,FALSE,FALSE,"S239946357"
"63","rebsap","Red-breasted Sapsucker","Sphyrapicus ruber","L5558965","Morgan Summit","2025-05-18 09:21",1,40.363147,-121.536437,TRUE,FALSE,FALSE,"S239846531"
"64","rebsap","Red-breasted Sapsucker","Sphyrapicus ruber","L11862972","44805 NW Leyman Rd, Banks US-OR 45.71267, -123.13588","2025-05-18 09:18",1,45.712671,-123.135876,TRUE,FALSE,TRUE,"S239791688"
"65","rebsap","Red-breasted Sapsucker","Sphyrapicus ruber","L159604","Smith and Bybee Lakes Wetlands Natural Area","2025-05-18 09:15",1,45.6203,-122.7456,TRUE,FALSE,FALSE,"S239826220"
"66","rebsap","Red-breasted Sapsucker","Sphyrapicus ruber","L1318674","Ketchikan--Talbot Lake Road","2025-05-18 09:05",4,55.4593679,-131.6336346,TRUE,FALSE,TRUE,"S239945756"
"67","rebsap","Red-breasted Sapsucker","Sphyrapicus ruber","L18566342","Chilcoot Pocket","2025-05-18 08:55",2,39.8254742,-120.1179577,TRUE,FALSE,FALSE,"S239846628"
"68","rebsap","Red-breasted Sapsucker","Sphyrapicus ruber","L8334782","Cascade-Siskiyou National Monument, Ashland US-OR (42.0586,-122.6126)","2025-05-18 08:52",1,42.058582,-122.61257,TRUE,FALSE,TRUE,"S239849710"
"69","rebsap","Red-breasted Sapsucker","Sphyrapicus ruber","L3171894","Auke Mountain home","2025-05-18 08:50",1,58.402122,-134.7534513,TRUE,FALSE,TRUE,"S239864703"
"70","rebsap","Red-breasted Sapsucker","Sphyrapicus ruber","L17364069","Auke Bay Area","2025-05-18 08:45",1,58.3909505,-134.6466887,TRUE,FALSE,TRUE,"S239820534"
"71","rebsap","Red-breasted Sapsucker","Sphyrapicus ruber","L45392183","Halfway Ridge Road, Elkton, Oregon, US (43.739, -123.543)","2025-05-18 08:37",1,43.7394691,-123.5426036,TRUE,FALSE,TRUE,"S239877935"
"72","rebsap","Red-breasted Sapsucker","Sphyrapicus ruber","L2723164","Whidbey Island--Lone Lake","2025-05-18 08:30",1,48.0237996,-122.4608184,TRUE,FALSE,FALSE,"S239800708"
"73","rebsap","Red-breasted Sapsucker","Sphyrapicus ruber","L5780859","WSU Vancouver Heritage Garden","2025-05-18 08:25",3,45.732128,-122.6276145,TRUE,FALSE,FALSE,"S239831507"
"74","rebsap","Red-breasted Sapsucker","Sphyrapicus ruber","L25486670","Alton Baker Park--west end (DeFazio bridge to Autzen/Frohnmayer bridge)","2025-05-18 08:24",1,44.0564654,-123.0813221,TRUE,FALSE,FALSE,"S239753195"
"75","rebsap","Red-breasted Sapsucker","Sphyrapicus ruber","L4176035","Elwha River -- Aldwell area","2025-05-18 08:20",1,48.0741793,-123.5763001,TRUE,FALSE,FALSE,"S239976748"
"76","rebsap","Red-breasted Sapsucker","Sphyrapicus ruber","L351484","Marymoor Park","2025-05-18 08:09",3,47.662576,-122.12052,TRUE,FALSE,FALSE,"S239858839"
"77","rebsap","Red-breasted Sapsucker","Sphyrapicus ruber","L321969","Lake Sammamish SP","2025-05-18 08:06",1,47.5597558,-122.0549817,TRUE,FALSE,FALSE,"S239853171"
"78","rebsap","Red-breasted Sapsucker","Sphyrapicus ruber","L4699798","Aspen Hall aspen grove","2025-05-18 08:01",1,44.0838815,-121.3769304,TRUE,FALSE,FALSE,"S239828673"
"79","rebsap","Red-breasted Sapsucker","Sphyrapicus ruber","L20720131","Chicago stump road","2025-05-18 08:00",1,36.7923835,-118.9834107,TRUE,FALSE,FALSE,"S239807955"
"80","rebsap","Red-breasted Sapsucker","Sphyrapicus ruber","L777678","Scatter Creek Wildlife Area","2025-05-18 07:59",2,46.8278728,-123.0075645,TRUE,FALSE,FALSE,"S239881779"
"81","rebsap","Red-breasted Sapsucker","Sphyrapicus ruber","L514231","Snoqualmie Wildlife Area--Stillwater Unit","2025-05-18 07:57",2,47.6829127,-121.9239418,TRUE,FALSE,FALSE,"S239883561"
"82","rebsap","Red-breasted Sapsucker","Sphyrapicus ruber","L45392459","South Smith River Road, Elkton, Oregon, US (43.772, -123.547)","2025-05-18 07:48",1,43.7724895,-123.5474119,TRUE,FALSE,TRUE,"S239879230"
"83","rebsap","Red-breasted Sapsucker","Sphyrapicus ruber","L1328313","River View Cemetery","2025-05-18 07:45",3,45.4634745,-122.6750071,TRUE,FALSE,FALSE,"S239846379"
"84","rebsap","Red-breasted Sapsucker","Sphyrapicus ruber","L600602","Spooner Lake SP","2025-05-18 07:36",1,39.1070197,-119.9095917,TRUE,FALSE,FALSE,"S239787857"
"85","rebsap","Red-breasted Sapsucker","Sphyrapicus ruber","L629358","Mt. Pisgah Arboretum","2025-05-18 07:28",2,44.006462,-122.9810429,TRUE,FALSE,FALSE,"S239845610"
"86","rebsap","Red-breasted Sapsucker","Sphyrapicus ruber","L2070791","Canby Logging Trail","2025-05-18 07:14",1,45.2926411,-122.6840687,TRUE,FALSE,FALSE,"S239752649"
"87","rebsap","Red-breasted Sapsucker","Sphyrapicus ruber","L473858","Yost Memorial Park","2025-05-18 07:13",2,47.8081973,-122.3598862,TRUE,FALSE,FALSE,"S239756515"
"88","rebsap","Red-breasted Sapsucker","Sphyrapicus ruber","L294186","Willamette Park--South Side","2025-05-18 07:10",1,44.5373738,-123.2487487,TRUE,FALSE,FALSE,"S239799076"
"89","rebsap","Red-breasted Sapsucker","Sphyrapicus ruber","L6127157","Luckiamute SNA North--Luckiamute Landing Greenway Tract (gallery forest and restoration)","2025-05-18 07:05",4,44.7303046,-123.1517223,TRUE,FALSE,FALSE,"S239869143"
"90","rebsap","Red-breasted Sapsucker","Sphyrapicus ruber","L2335446","Lake Valley Rd.","2025-05-18 07:03",1,39.3057287,-120.6099701,TRUE,FALSE,FALSE,"S239947320"
"91","rebsap","Red-breasted Sapsucker","Sphyrapicus ruber","L390227","Eagle Beach SRA","2025-05-18 06:50",1,58.5283716,-134.8270512,TRUE,FALSE,FALSE,"S239839721"
"92","rebsap","Red-breasted Sapsucker","Sphyrapicus ruber","L4072947","Willamette Bluff","2025-05-18 06:45",1,45.5645874,-122.6986911,TRUE,FALSE,FALSE,"S239785298"
"93","rebsap","Red-breasted Sapsucker","Sphyrapicus ruber","L45368130","Pat Creek Rd, Wrangell US-AK 56.34546, -132.34057","2025-05-18 06:44",1,56.345461,-132.340568,TRUE,FALSE,TRUE,"S239769827"
"94","rebsap","Red-breasted Sapsucker","Sphyrapicus ruber","L1302200","Savikko Park","2025-05-18 06:40",1,58.2730042,-134.386386,TRUE,FALSE,FALSE,"S239770153"
"95","rebsap","Red-breasted Sapsucker","Sphyrapicus ruber","L1123211","Creswell House","2025-05-18 06:40",1,43.8948966,-122.9290871,TRUE,FALSE,TRUE,"S239861420"
"96","rebsap","Red-breasted Sapsucker","Sphyrapicus ruber","L16588293","6723 Marguerite St, Juneau US-AK 58.32809, -134.49724","2025-05-18 06:33",1,58.328091,-134.497236,TRUE,FALSE,TRUE,"S239734473"
"97","rebsap","Red-breasted Sapsucker","Sphyrapicus ruber","L5693633","Dungeness Fish Hatchery","2025-05-18 06:32",2,48.0280211,-123.1409025,TRUE,FALSE,FALSE,"S239810383"
"98","rebsap","Red-breasted Sapsucker","Sphyrapicus ruber","L45387228","OSU Soap Creek","2025-05-18 06:29",NA,44.6902117,-123.2567473,TRUE,FALSE,TRUE,"S239856154"
"99","rebsap","Red-breasted Sapsucker","Sphyrapicus ruber","L45294464","Markleeville Campground","2025-05-18 06:04",1,38.697585,-119.773898,TRUE,FALSE,TRUE,"S239766148"
"100","rebsap","Red-breasted Sapsucker","Sphyrapicus ruber","L728130","Sandy River Delta Park","2025-05-18 06:01",1,45.5473441,-122.3731899,TRUE,FALSE,FALSE,"S239760309"
"101","rebsap","Red-breasted Sapsucker","Sphyrapicus ruber","L35766047","Casa Bergtree","2025-05-18 05:46",1,45.4647369,-122.6822682,TRUE,FALSE,TRUE,"S239683122"
"102","rebsap","Red-breasted Sapsucker","Sphyrapicus ruber","L2137844","BPA powerline/ridgeline trail","2025-05-18 05:18",1,43.99542,-123.07923,TRUE,FALSE,TRUE,"S239677824"
"103","rebsap","Red-breasted Sapsucker","Sphyrapicus ruber","L45312956","8443 NW Timber Ridge Ct, Portland US-OR 45.54056, -122.76214","2025-05-17 19:59",1,45.540563,-122.762142,TRUE,FALSE,TRUE,"S239493703"
"104","rebsap","Red-breasted Sapsucker","Sphyrapicus ruber","L4754125","Haines--Haines Birdwatching Trail","2025-05-17 19:27",1,59.2331567,-135.4552341,TRUE,FALSE,FALSE,"S239507259"
"105","rebsap","Red-breasted Sapsucker","Sphyrapicus ruber","L45314183","Frenchman Lake—Big Cove Campground","2025-05-17 18:51",2,39.902251,-120.175551,TRUE,FALSE,TRUE,"S239499607"
"106","rebsap","Red-breasted Sapsucker","Sphyrapicus ruber","L2430450","Auburn Environmental Park","2025-05-17 18:06",1,47.3112566,-122.2436895,TRUE,FALSE,FALSE,"S239488300"
"107","rebsap","Red-breasted Sapsucker","Sphyrapicus ruber","L2664885","Willamette Greenway Darrow Bar","2025-05-17 17:08",1,45.00904,-123.0746841,TRUE,FALSE,FALSE,"S239470401"
"108","rebsap","Red-breasted Sapsucker","Sphyrapicus ruber","L45315733","Yet Another Sapsucker","2025-05-17 17:01",1,46.5990295,-123.277138,TRUE,FALSE,TRUE,"S239507254"
"109","rebsap","Red-breasted Sapsucker","Sphyrapicus ruber","L2865090","Crystal Peak Park","2025-05-17 16:01",1,39.5156616,-119.9964426,TRUE,FALSE,FALSE,"S239455919"
"110","rebsap","Red-breasted Sapsucker","Sphyrapicus ruber","L2607095","Frenchman Lake Area--24N44 Road","2025-05-17 15:48",1,39.8760482,-120.1591069,TRUE,FALSE,TRUE,"S239458990"
"111","rebsap","Red-breasted Sapsucker","Sphyrapicus ruber","L3059796","Sitka--Nat. His. Pk.-Totem Trail","2025-05-17 15:00",NA,57.0464146,-135.3124237,TRUE,FALSE,FALSE,"S239479576"
"112","rebsap","Red-breasted Sapsucker","Sphyrapicus ruber","L45297838","Lytle Seafoods","2025-05-17 14:47",1,46.999404,-124.000831,TRUE,FALSE,TRUE,"S239417168"
"113","rebsap","Red-breasted Sapsucker","Sphyrapicus ruber","L4154108","Idyllwild County Park","2025-05-17 14:28",1,33.7430945,-116.7234305,TRUE,FALSE,FALSE,"S239420539"
"114","rebsap","Red-breasted Sapsucker","Sphyrapicus ruber","L246052","Sunriver Nature Center","2025-05-17 14:23",1,43.8849722,-121.44825,TRUE,FALSE,FALSE,"S239410913"
"115","rebsap","Red-breasted Sapsucker","Sphyrapicus ruber","L1652235","Hoonah--Cannery Rd","2025-05-17 14:10",1,58.1174631,-135.4567009,TRUE,FALSE,FALSE,"S239444664"
"116","rebsap","Red-breasted Sapsucker","Sphyrapicus ruber","L285637","Calliope Crossing","2025-05-17 13:49",2,44.3507699,-121.5526056,TRUE,FALSE,FALSE,"S239430584"
"117","rebsap","Red-breasted Sapsucker","Sphyrapicus ruber","L37862999","Winterwood  (private) 27801 187th Ave SE, Berrydale US-WA (47.3530,-122.0914)","2025-05-17 13:38",1,47.353033,-122.091432,TRUE,FALSE,TRUE,"S239398234"
"118","rebsap","Red-breasted Sapsucker","Sphyrapicus ruber","L159584","Jackson Bottom Wetlands Preserve","2025-05-17 13:36",1,45.505,-122.9889,TRUE,FALSE,FALSE,"S239471295"
"119","rebsap","Red-breasted Sapsucker","Sphyrapicus ruber","L1472989","Bruce Starker Arts Park--SW section (was Sunset Park)","2025-05-17 13:22",1,44.5485435,-123.3031786,TRUE,FALSE,FALSE,"S239378126"
"120","rebsap","Red-breasted Sapsucker","Sphyrapicus ruber","L45299117","1300-1366 Southwest Avery Park Drive, Corvallis, Oregon, US (44.555, -123.274)","2025-05-17 12:58",1,44.5554272,-123.27375,TRUE,FALSE,TRUE,"S239423456"
"121","rebsap","Red-breasted Sapsucker","Sphyrapicus ruber","L770458","White Pass Campground","2025-05-17 12:48",1,46.6448697,-121.3805523,TRUE,FALSE,FALSE,"S239376606"
"122","rebsap","Red-breasted Sapsucker","Sphyrapicus ruber","L755849","Ketchikan--Herring Cove/Bay","2025-05-17 12:38",1,55.3246522,-131.5211105,TRUE,FALSE,FALSE,"S239394833"
"123","rebsap","Red-breasted Sapsucker","Sphyrapicus ruber","L3503228","Centralia--Roswell Road","2025-05-17 12:12",1,46.7224468,-122.9445648,TRUE,FALSE,FALSE,"S239369907"
"124","rebsap","Red-breasted Sapsucker","Sphyrapicus ruber","L750599","Sequoia NP--Giant Forest (Museum/Beetle Rock/Big Trees Trail)","2025-05-17 12:01",2,36.5660125,-118.7729788,TRUE,FALSE,FALSE,"S239513105"
"125","rebsap","Red-breasted Sapsucker","Sphyrapicus ruber","L4248209","Deschutes River Trail--Benham Falls","2025-05-17 12:01",1,43.939274,-121.413247,TRUE,FALSE,FALSE,"S239390270"
"126","rebsap","Red-breasted Sapsucker","Sphyrapicus ruber","L1584881","Island Park","2025-05-17 11:35",1,44.0473107,-123.0275202,TRUE,FALSE,FALSE,"S239351010"
"127","rebsap","Red-breasted Sapsucker","Sphyrapicus ruber","L1875949","Errol Heights City Park","2025-05-17 11:30",2,45.4638568,-122.6125419,TRUE,FALSE,FALSE,"S239393009"
"128","rebsap","Red-breasted Sapsucker","Sphyrapicus ruber","L4425304","George Adams Salmon Hatchery","2025-05-17 11:28",1,47.301097,-123.182355,TRUE,FALSE,FALSE,"S239341816"
"129","rebsap","Red-breasted Sapsucker","Sphyrapicus ruber","L453974","Oaks Bottom Wildlife Refuge","2025-05-17 11:26",1,45.4776166,-122.6553154,TRUE,FALSE,FALSE,"S239401301"
"130","rebsap","Red-breasted Sapsucker","Sphyrapicus ruber","L1158042","Marys River Natural Area","2025-05-17 11:08",1,44.5385194,-123.2853556,TRUE,FALSE,FALSE,"S239337382"
"131","rebsap","Red-breasted Sapsucker","Sphyrapicus ruber","L2130918","Milwaukie Riverfront Park (previously Jefferson St. Boat Launch)","2025-05-17 11:05",1,45.4412963,-122.642827,TRUE,FALSE,FALSE,"S239347202"
"132","rebsap","Red-breasted Sapsucker","Sphyrapicus ruber","L469136","Burney Falls","2025-05-17 11:00",1,41.0121469,-121.6522604,TRUE,FALSE,FALSE,"S239442702"
"133","rebsap","Red-breasted Sapsucker","Sphyrapicus ruber","L580373","Tualatin River NWR","2025-05-17 11:00",1,45.3811203,-122.8353667,TRUE,FALSE,FALSE,"S239369037"
"134","rebsap","Red-breasted Sapsucker","Sphyrapicus ruber","L979378","Reed Lake","2025-05-17 10:55",1,45.4817872,-122.6290512,TRUE,FALSE,FALSE,"S239390476"
"135","rebsap","Red-breasted Sapsucker","Sphyrapicus ruber","L3506301","Crystal Basin--Ice House Rd. across from Silver Creek Campground","2025-05-17 10:54",1,38.8086405,-120.3750515,TRUE,FALSE,TRUE,"S239446625"
"136","rebsap","Red-breasted Sapsucker","Sphyrapicus ruber","L25439126","NE Gilmax Lane, Poulsbo, Washington, US","2025-05-17 10:43",1,47.7362026,-122.6325635,TRUE,FALSE,TRUE,"S239324884"
"137","rebsap","Red-breasted Sapsucker","Sphyrapicus ruber","L156866","Skinner Butte Park","2025-05-17 10:43",1,44.0580243,-123.0927828,TRUE,FALSE,FALSE,"S239733831"
"138","rebsap","Red-breasted Sapsucker","Sphyrapicus ruber","L517692","Prairie Creek Redwoods SP--Elk Prairie","2025-05-17 10:40",1,41.359555,-124.025352,TRUE,FALSE,FALSE,"S239304981"
"139","rebsap","Red-breasted Sapsucker","Sphyrapicus ruber","L1219978","Ketchikan--Ward Lake-Grassy Point Picnic Ground","2025-05-17 10:36",2,55.4109894,-131.6970634,TRUE,FALSE,FALSE,"S239415423"
"140","rebsap","Red-breasted Sapsucker","Sphyrapicus ruber","L45310610","Mt. Tabor Park, Portland US-OR 45.51221, -122.59354","2025-05-17 10:31",2,45.512213,-122.593543,TRUE,FALSE,TRUE,"S239482691"
"141","rebsap","Red-breasted Sapsucker","Sphyrapicus ruber","L1299997","Lewiston-Lowden Ranch Historic Site","2025-05-17 10:30",1,40.6899493,-122.8557998,TRUE,FALSE,FALSE,"S239877473"
"142","rebsap","Red-breasted Sapsucker","Sphyrapicus ruber","L15483063","Sandy River Oxbow Regional Park","2025-05-17 10:30",1,45.5011434,-122.3061562,TRUE,FALSE,FALSE,"S239381636"
"143","rebsap","Red-breasted Sapsucker","Sphyrapicus ruber","L498314","Tualatin River NWR--Atfálat'i Unit","2025-05-17 10:25",1,45.3817834,-122.8312254,TRUE,FALSE,FALSE,"S239380739"
"144","rebsap","Red-breasted Sapsucker","Sphyrapicus ruber","L1252255","Big Pine Canyon--Glacier Lodge and campgrounds","2025-05-17 10:25",1,37.1264497,-118.4315786,TRUE,FALSE,FALSE,"S239472469"
"145","rebsap","Red-breasted Sapsucker","Sphyrapicus ruber","L16688139","Lime Kiln Trail","2025-05-17 10:22",1,48.077214,-121.932356,TRUE,FALSE,FALSE,"S239381946"
"146","rebsap","Red-breasted Sapsucker","Sphyrapicus ruber","L10035714","East Applegate Ridge Trail","2025-05-17 10:21",1,42.244962,-122.978147,TRUE,FALSE,FALSE,"S239377767"
"147","rebsap","Red-breasted Sapsucker","Sphyrapicus ruber","L391210","Point Bridget SP","2025-05-17 10:08",1,58.6640847,-134.9630928,TRUE,FALSE,FALSE,"S239477846"
"148","rebsap","Red-breasted Sapsucker","Sphyrapicus ruber","L791822","Yosemite NP--Mirror Lake","2025-05-17 10:07",1,37.7498151,-119.5495185,TRUE,FALSE,FALSE,"S239484234"
"149","rebsap","Red-breasted Sapsucker","Sphyrapicus ruber","L2446013","Silver Lake County Park","2025-05-17 09:54",1,48.9732264,-122.0710771,TRUE,FALSE,FALSE,"S239332627"
"150","rebsap","Red-breasted Sapsucker","Sphyrapicus ruber","L3310859","W Skokomish Valley Road","2025-05-17 09:53",1,47.3135152,-123.2043314,TRUE,FALSE,FALSE,"S239326653"
"151","rebsap","Red-breasted Sapsucker","Sphyrapicus ruber","L12425220","Nature Hideout","2025-05-17 09:47",1,47.8171598,-122.6435166,TRUE,FALSE,TRUE,"S239337368"
"152","rebsap","Red-breasted Sapsucker","Sphyrapicus ruber","L7640898","Conboy NWR--Visitor Center Headquarters","2025-05-17 09:38",1,45.965129,-121.343832,TRUE,FALSE,FALSE,"S239507700"
"153","rebsap","Red-breasted Sapsucker","Sphyrapicus ruber","L6069521","Dog Walk ... Rocky Point Road - 42.484x-122.084","2025-05-17 09:32",2,42.4836576,-122.0843638,TRUE,FALSE,TRUE,"S239296939"
"154","rebsap","Red-breasted Sapsucker","Sphyrapicus ruber","L282253","Billy Frank Jr. Nisqually NWR","2025-05-17 09:15",1,47.0812514,-122.7180576,TRUE,FALSE,FALSE,"S239447324"
"155","rebsap","Red-breasted Sapsucker","Sphyrapicus ruber","L45272136","Park, Haines US-AK","2025-05-17 09:11",1,59.231337,-135.444499,TRUE,FALSE,TRUE,"S239304608"
"156","rebsap","Red-breasted Sapsucker","Sphyrapicus ruber","L17003824","Corner of Burlwood and Warren Creek","2025-05-17 08:57",1,40.899628,-124.032279,TRUE,FALSE,TRUE,"S239286821"
"157","rebsap","Red-breasted Sapsucker","Sphyrapicus ruber","L21577274","Swan Creek Park, Tacoma US-WA 47.21746, -122.39599","2025-05-17 08:41",5,47.217461,-122.395994,TRUE,FALSE,TRUE,"S239374242"
"158","rebsap","Red-breasted Sapsucker","Sphyrapicus ruber","L29977001","Deep River Boat Launch","2025-05-17 08:37",1,46.3140222,-123.7136494,TRUE,FALSE,FALSE,"S239307707"
"159","rebsap","Red-breasted Sapsucker","Sphyrapicus ruber","L250091","Theler Wetlands","2025-05-17 08:30",1,47.4378813,-122.8411134,TRUE,FALSE,FALSE,"S239372692"
"160","rebsap","Red-breasted Sapsucker","Sphyrapicus ruber","L493054","Henry Hagg Lake Park (Scoggins Valley Park)","2025-05-17 08:30",1,45.473855,-123.2135582,TRUE,FALSE,FALSE,"S239437065"
"161","rebsap","Red-breasted Sapsucker","Sphyrapicus ruber","L1235322","Southern Humboldt Community Park","2025-05-17 08:27",1,40.087561,-123.80253,TRUE,FALSE,FALSE,"S239389733"
"162","rebsap","Red-breasted Sapsucker","Sphyrapicus ruber","L26947034","Home","2025-05-17 08:15",1,44.0280548,-123.1207504,TRUE,FALSE,TRUE,"S239259867"
"163","rebsap","Red-breasted Sapsucker","Sphyrapicus ruber","L505753","Delta Ponds","2025-05-17 08:07",2,44.0744486,-123.1113512,TRUE,FALSE,FALSE,"S239328680"
"164","rebsap","Red-breasted Sapsucker","Sphyrapicus ruber","L45274188","Valley River Inn","2025-05-17 08:00",1,44.0655718,-123.1029224,TRUE,FALSE,TRUE,"S239322323"
"165","rebsap","Red-breasted Sapsucker","Sphyrapicus ruber","L2085776","City Park, Edmonds","2025-05-17 08:00",1,47.8045079,-122.3816872,TRUE,FALSE,FALSE,"S239249476"
"166","rebsap","Red-breasted Sapsucker","Sphyrapicus ruber","L31770014","Wortman Mills Road, Badger, California, US (36.69, -118.948)","2025-05-17 08:00",2,36.6899175,-118.948252,TRUE,FALSE,TRUE,"S239376280"
"167","rebsap","Red-breasted Sapsucker","Sphyrapicus ruber","L41653970","Forest Service Road 62, Gilchrist US-OR 43.52423, -121.65211","2025-05-17 07:57",2,43.524231,-121.652111,TRUE,FALSE,TRUE,"S239232600"
"168","rebsap","Red-breasted Sapsucker","Sphyrapicus ruber","L39479840","Hunter Lake Rd--upper (montane; above ~6500ft)","2025-05-17 07:46",2,39.4552534,-119.8854468,TRUE,FALSE,FALSE,"S239239433"
"169","rebsap","Red-breasted Sapsucker","Sphyrapicus ruber","L480658","Lithia Park","2025-05-17 07:40",1,42.1899912,-122.7164268,TRUE,FALSE,FALSE,"S239225117"
"170","rebsap","Red-breasted Sapsucker","Sphyrapicus ruber","L304860","Tolt-MacDonald Park","2025-05-17 07:37",1,47.6404972,-121.9264226,TRUE,FALSE,FALSE,"S239293683"
"171","rebsap","Red-breasted Sapsucker","Sphyrapicus ruber","L2123565","Canal Road, Toutle","2025-05-17 07:36",1,46.2967215,-122.7351379,TRUE,FALSE,FALSE,"S239466324"
"172","rebsap","Red-breasted Sapsucker","Sphyrapicus ruber","L45252676","Wa rental","2025-05-17 07:35",1,48.091329,-123.357926,TRUE,FALSE,TRUE,"S239219871"
"173","rebsap","Red-breasted Sapsucker","Sphyrapicus ruber","L4115903","Primary location","2025-05-17 07:31",1,47.4879333,-122.5194743,TRUE,FALSE,TRUE,"S239476791"
"174","rebsap","Red-breasted Sapsucker","Sphyrapicus ruber","L7737106","Fort Borst Park","2025-05-17 07:29",1,46.7206978,-122.9812375,TRUE,FALSE,FALSE,"S239206186"
"175","rebsap","Red-breasted Sapsucker","Sphyrapicus ruber","L813905","Brown's Ferry Park","2025-05-17 07:28",1,45.3830796,-122.7380133,TRUE,FALSE,FALSE,"S239308279"
"176","rebsap","Red-breasted Sapsucker","Sphyrapicus ruber","L15103814","4200 Northeast Lincoln Road, Poulsbo, Washington, US (47.761, -122.598)","2025-05-17 07:25",1,47.760553,-122.5980531,TRUE,FALSE,TRUE,"S239280940"
"177","rebsap","Red-breasted Sapsucker","Sphyrapicus ruber","L26765638","Belcrest Cemetery Loop","2025-05-17 07:23",2,44.889877,-123.070305,TRUE,FALSE,TRUE,"S239238357"
"178","rebsap","Red-breasted Sapsucker","Sphyrapicus ruber","L1548736","SW Scoggins Valley Rd.--below the gate","2025-05-17 07:15",1,45.5067671,-123.2456671,TRUE,FALSE,FALSE,"S239299259"
"179","rebsap","Red-breasted Sapsucker","Sphyrapicus ruber","L1504747","West D Greenway & Alton Baker Eastgate Woodlands (I-5 to Riverview Blvd.)","2025-05-17 07:12",1,44.0483105,-123.0421779,TRUE,FALSE,FALSE,"S239239631"
"180","rebsap","Red-breasted Sapsucker","Sphyrapicus ruber","L565754","Community Gardens","2025-05-17 07:05",1,58.4132114,-134.6065092,TRUE,FALSE,FALSE,"S239524278"
"181","rebsap","Red-breasted Sapsucker","Sphyrapicus ruber","L11810951","Highland at Pike","2025-05-17 07:02",1,46.7331143,-122.9411183,TRUE,FALSE,TRUE,"S239268057"
"182","rebsap","Red-breasted Sapsucker","Sphyrapicus ruber","L1022652","Ketchikan (town)","2025-05-17 06:50",1,55.3427645,-131.6462517,TRUE,FALSE,FALSE,"S239389659"
"183","rebsap","Red-breasted Sapsucker","Sphyrapicus ruber","L1937262","1. Alcyon Farm, 140 Oatfield Rd","2025-05-17 06:28",1,46.3237506,-123.4433707,TRUE,FALSE,TRUE,"S239220083"
"184","rebsap","Red-breasted Sapsucker","Sphyrapicus ruber","L2042901","Wapato Park","2025-05-17 06:25",1,47.1947868,-122.4551153,TRUE,FALSE,FALSE,"S239240549"
"185","rebsap","Red-breasted Sapsucker","Sphyrapicus ruber","L594031","Ackerson Meadow","2025-05-17 05:40",1,37.835,-119.847,TRUE,FALSE,FALSE,"S239939586"
"186","rebsap","Red-breasted Sapsucker","Sphyrapicus ruber","L10498111","97054","2025-05-17 05:38",1,45.9773509,-123.0007441,TRUE,FALSE,TRUE,"S239487763"
"187","rebsap","Red-breasted Sapsucker","Sphyrapicus ruber","L9928582","720 Liberty St, Ashland US-OR_Yard list.","2025-05-17 05:24",1,42.182541,-122.703118,TRUE,FALSE,TRUE,"S239178303"
"188","rebsap","Red-breasted Sapsucker","Sphyrapicus ruber","L45210136","Ice House Lake","2025-05-16 20:19",1,42.243331,-122.540295,TRUE,FALSE,TRUE,"S239005007"
"189","rebsap","Red-breasted Sapsucker","Sphyrapicus ruber","L14139013","Minthorn North Natural Area","2025-05-16 18:53",1,45.4419053,-122.6239393,TRUE,FALSE,FALSE,"S238992644"
"190","rebsap","Red-breasted Sapsucker","Sphyrapicus ruber","L3104649","Cedar Mill Wetlands","2025-05-16 18:05",2,45.519647,-122.796581,TRUE,FALSE,FALSE,"S238986325"
"191","rebsap","Red-breasted Sapsucker","Sphyrapicus ruber","L3938360","Mono City","2025-05-16 17:39",1,38.041264,-119.141407,TRUE,FALSE,FALSE,"S238982031"
"192","rebsap","Red-breasted Sapsucker","Sphyrapicus ruber","L45207631","34408 Bryan Drive, Scappoose, Oregon, US (45.758, -122.859)","2025-05-16 16:54",1,45.7581076,-122.8590311,TRUE,FALSE,TRUE,"S238992709"
"193","rebsap","Red-breasted Sapsucker","Sphyrapicus ruber","L367727","McArthur-Burney Falls Memorial SP","2025-05-16 16:54",1,41.0176639,-121.6508389,TRUE,FALSE,FALSE,"S239438700"
"194","rebsap","Red-breasted Sapsucker","Sphyrapicus ruber","L1970587","Skookum Inlet","2025-05-16 16:38",1,47.1473548,-123.0592879,TRUE,FALSE,FALSE,"S238975774"
"195","rebsap","Red-breasted Sapsucker","Sphyrapicus ruber","L45268938","Silver Falls SP - North Falls Trail","2025-05-16 16:38",1,44.884296,-122.620496,TRUE,FALSE,TRUE,"S239291176"
"196","rebsap","Red-breasted Sapsucker","Sphyrapicus ruber","L1252839","Floppy Boot Ranch","2025-05-16 16:13",1,41.9486506,-120.2958512,TRUE,FALSE,TRUE,"S238960790"
"197","rebsap","Red-breasted Sapsucker","Sphyrapicus ruber","L4952380","Warbler Grotto","2025-05-16 16:03",1,38.0008596,-119.1516101,TRUE,FALSE,TRUE,"S238947403"
"198","rebsap","Red-breasted Sapsucker","Sphyrapicus ruber","L11077840","Birder's Trail, Eastgate Woodland and Knickerbocker Bridge","2025-05-16 16:00",1,44.0471225,-123.0464667,TRUE,FALSE,TRUE,"S238982138"
"199","rebsap","Red-breasted Sapsucker","Sphyrapicus ruber","L12011362","mulkey creek trail","2025-05-16 15:56",1,44.5760273,-123.3470642,TRUE,FALSE,TRUE,"S238978552"
"200","rebsap","Red-breasted Sapsucker","Sphyrapicus ruber","L25290075","Kellogg Lake Road","2025-05-16 15:50",1,47.8974042,-121.7566925,TRUE,FALSE,FALSE,"S238997827"
"201","rebsap","Red-breasted Sapsucker","Sphyrapicus ruber","L10945908","Dungeness Trails","2025-05-16 15:49",1,48.049395,-123.141406,TRUE,FALSE,TRUE,"S238950477"
"202","rebsap","Red-breasted Sapsucker","Sphyrapicus ruber","L1074174","Rasar SP","2025-05-16 15:45",1,48.5163769,-121.905756,TRUE,FALSE,FALSE,"S238988119"
"203","rebsap","Red-breasted Sapsucker","Sphyrapicus ruber","L728350","Lake Selmac","2025-05-16 14:35",2,42.2617532,-123.5779095,TRUE,FALSE,FALSE,"S238974406"
"204","rebsap","Red-breasted Sapsucker","Sphyrapicus ruber","L1412248","Taylorsville (town)","2025-05-16 13:54",1,40.0750714,-120.8368269,TRUE,FALSE,FALSE,"S238927204"
"205","rebsap","Red-breasted Sapsucker","Sphyrapicus ruber","L12894210","Mt. Baker-Snoqualmie Forest--FR 70 (lower)","2025-05-16 13:21",2,47.1380661,-121.6146227,TRUE,FALSE,FALSE,"S238941307"
"206","rebsap","Red-breasted Sapsucker","Sphyrapicus ruber","L20098473","Snow Basin","2025-05-16 12:50",2,39.7349514,-122.8621218,TRUE,FALSE,FALSE,"S239183483"
"207","rebsap","Red-breasted Sapsucker","Sphyrapicus ruber","L16824249","Dorothy hill park","2025-05-16 12:49",1,47.2562938,-122.2160219,TRUE,FALSE,TRUE,"S238904235"
"208","rebsap","Red-breasted Sapsucker","Sphyrapicus ruber","L45210999","132nd St SE (Startup)","2025-05-16 12:45",2,47.879072,-121.7394443,TRUE,FALSE,TRUE,"S239010750"
"209","rebsap","Red-breasted Sapsucker","Sphyrapicus ruber","L5624657","132nd St SE, Sultan","2025-05-16 12:45",2,47.8790236,-121.7384934,TRUE,FALSE,TRUE,"S238888432"
"210","rebsap","Red-breasted Sapsucker","Sphyrapicus ruber","L1062300","Columbia Children's Arboretum","2025-05-16 12:45",1,45.5929302,-122.6576328,TRUE,FALSE,FALSE,"S238895876"
"211","rebsap","Red-breasted Sapsucker","Sphyrapicus ruber","L23701484","Craig--Baseball Park & Helipad","2025-05-16 12:43",2,55.4699049,-133.1412365,TRUE,FALSE,FALSE,"S238933939"
"212","rebsap","Red-breasted Sapsucker","Sphyrapicus ruber","L489469","Mt. Rainier NP--Paradise","2025-05-16 12:34",1,46.7871318,-121.7340088,TRUE,FALSE,FALSE,"S238930081"
"213","rebsap","Red-breasted Sapsucker","Sphyrapicus ruber","L2256070","Camas Prairie","2025-05-16 12:32",1,45.1397933,-121.5585709,TRUE,FALSE,FALSE,"S238916802"
"214","rebsap","Red-breasted Sapsucker","Sphyrapicus ruber","L1663264","Cedarspring","2025-05-16 12:30",1,47.3026793,-122.1355247,TRUE,FALSE,TRUE,"S238979705"
"215","rebsap","Red-breasted Sapsucker","Sphyrapicus ruber","L45189888","2024/25 Yellow Breasted Chat","2025-05-16 12:25",2,47.878987,-121.74026,TRUE,FALSE,TRUE,"S238897359"
"216","rebsap","Red-breasted Sapsucker","Sphyrapicus ruber","L1659859","Trout Creek Swamp","2025-05-16 12:14",1,44.2461577,-121.6949676,TRUE,FALSE,FALSE,"S238906939"
"217","rebsap","Red-breasted Sapsucker","Sphyrapicus ruber","L3763005","Grouse Mtn. area","2025-05-16 12:10",1,40.7577,-123.6729,TRUE,FALSE,FALSE,"S239328503"
"218","rebsap","Red-breasted Sapsucker","Sphyrapicus ruber","L10795073","Fredrickson wetland","2025-05-16 12:00",1,47.0854228,-122.3285729,TRUE,FALSE,TRUE,"S238982102"
"219","rebsap","Red-breasted Sapsucker","Sphyrapicus ruber","L2843640","Bear Valley Rd. / Forest Rd. 04 (SIE Co.)","2025-05-16 11:56",1,39.6274244,-120.2149129,TRUE,FALSE,FALSE,"S238998619"
"220","rebsap","Red-breasted Sapsucker","Sphyrapicus ruber","L45207666","National Forest Development Road 1514, Sisters, Oregon, US (44.221, -121.625)","2025-05-16 11:55",1,44.2214545,-121.6253423,TRUE,FALSE,TRUE,"S238992868"
"221","rebsap","Red-breasted Sapsucker","Sphyrapicus ruber","L1225604","Colonial Creek Campground/Thunder Arm","2025-05-16 11:52",1,48.6901448,-121.0959492,TRUE,FALSE,FALSE,"S239005438"
"222","rebsap","Red-breasted Sapsucker","Sphyrapicus ruber","L24350120","Drift Creek Rd MP0.5","2025-05-16 11:10",1,45.622446,-123.422015,TRUE,FALSE,TRUE,"S238873913"
"223","rebsap","Red-breasted Sapsucker","Sphyrapicus ruber","L42405407","Fuller Lake","2025-05-16 11:00",2,39.4760659,-119.9803378,TRUE,FALSE,TRUE,"S238973741"
"224","rebsap","Red-breasted Sapsucker","Sphyrapicus ruber","L14565830","Whistle Punk Trail (45.814, -121.945)","2025-05-16 10:56",2,45.8142182,-121.9446798,TRUE,FALSE,TRUE,"S238970933"
"225","rebsap","Red-breasted Sapsucker","Sphyrapicus ruber","L23463831","Longbranch--144th St powerline (Pierce County)","2025-05-16 10:55",1,47.388,-122.715,TRUE,FALSE,FALSE,"S238992511"
"226","rebsap","Red-breasted Sapsucker","Sphyrapicus ruber","L2281639","Blue Lake Regional Park","2025-05-16 10:48",1,45.5547651,-122.4477839,TRUE,FALSE,FALSE,"S238849135"
"227","rebsap","Red-breasted Sapsucker","Sphyrapicus ruber","L25022017","Treadwell Mine Historic Trail","2025-05-16 10:40",2,58.2731224,-134.3868363,TRUE,FALSE,TRUE,"S239873383"
"228","rebsap","Red-breasted Sapsucker","Sphyrapicus ruber","L18477322","Bellfountain Road Tree Farm-- S end (44.381, -123.361)","2025-05-16 10:37",1,44.3813854,-123.3613813,TRUE,FALSE,TRUE,"S238832595"
"229","rebsap","Red-breasted Sapsucker","Sphyrapicus ruber","L13324640","Viewpoint Trail","2025-05-16 10:36",1,45.3503508,-122.606585,TRUE,FALSE,FALSE,"S238847782"
"230","rebsap","Red-breasted Sapsucker","Sphyrapicus ruber","L591820","Plaskett Meadows (includes campground)","2025-05-16 10:27",1,39.7284454,-122.8427696,TRUE,FALSE,FALSE,"S239361417"
"231","rebsap","Red-breasted Sapsucker","Sphyrapicus ruber","L8335975","Sunrise Park (Washington Co.)","2025-05-16 10:23",1,45.419214,-122.830795,TRUE,FALSE,FALSE,"S238856921"
"232","rebsap","Red-breasted Sapsucker","Sphyrapicus ruber","L18539428","C-Post Road","2025-05-16 10:19",2,48.2799818,-121.8307031,TRUE,FALSE,FALSE,"S238998793"
"233","rebsap","Red-breasted Sapsucker","Sphyrapicus ruber","L496326","Outer Point Trail","2025-05-16 10:17",1,58.302364,-134.6786499,TRUE,FALSE,FALSE,"S238891344"
"234","rebsap","Red-breasted Sapsucker","Sphyrapicus ruber","L45247287","Bodie Masonic Rd, Bridgeport US-CA 38.36533, -119.11671","2025-05-16 10:13",1,38.365326,-119.116714,TRUE,FALSE,TRUE,"S239193571"
"235","rebsap","Red-breasted Sapsucker","Sphyrapicus ruber","L1617082","Pine Mt.--Pine Mountain Ridge Rd.","2025-05-16 09:49",1,34.6397787,-119.3332038,TRUE,FALSE,FALSE,"S238849733"
"236","rebsap","Red-breasted Sapsucker","Sphyrapicus ruber","L29884179","Auke Bay-Yard and Point","2025-05-16 09:43",1,58.362498,-134.64417,TRUE,FALSE,TRUE,"S238999384"
"237","rebsap","Red-breasted Sapsucker","Sphyrapicus ruber","L35025102","Benham Falls","2025-05-16 09:35",1,43.933411,-121.411636,TRUE,FALSE,TRUE,"S238830751"
"238","rebsap","Red-breasted Sapsucker","Sphyrapicus ruber","L45208517","National Forest Road 29, Paisley, Oregon, US (42.732, -120.747)","2025-05-16 09:34",2,42.7317288,-120.7471016,TRUE,FALSE,TRUE,"S238997006"
"239","rebsap","Red-breasted Sapsucker","Sphyrapicus ruber","L44271873","Susan’s place","2025-05-16 09:32",1,45.124831,-122.58517,TRUE,FALSE,TRUE,"S238839304"
"240","rebsap","Red-breasted Sapsucker","Sphyrapicus ruber","L955403","North Lake","2025-05-16 09:25",2,37.2304651,-118.6186981,TRUE,FALSE,FALSE,"S238895847"
"241","rebsap","Red-breasted Sapsucker","Sphyrapicus ruber","L15907773","Thurston Hilltop Home","2025-05-16 09:22",1,44.034565,-122.902473,TRUE,FALSE,TRUE,"S238827189"
"242","rebsap","Red-breasted Sapsucker","Sphyrapicus ruber","L3600161","McCubbin Road","2025-05-16 09:19",1,45.353623,-122.4672174,TRUE,FALSE,TRUE,"S238950033"
"243","rebsap","Red-breasted Sapsucker","Sphyrapicus ruber","L45195145","28082 Hells Canyon Road, Monroe, Oregon, US (44.406, -123.386)","2025-05-16 09:16",1,44.4057152,-123.3861524,TRUE,FALSE,TRUE,"S238925384"
"244","rebsap","Red-breasted Sapsucker","Sphyrapicus ruber","L45188772","2189 Polique Canyon Road, Big Bear, California, US (34.286, -116.918)","2025-05-16 09:15",1,34.2857295,-116.9177438,TRUE,FALSE,TRUE,"S238891583"
"245","rebsap","Red-breasted Sapsucker","Sphyrapicus ruber","L1254746","Anderson Lake SP","2025-05-16 09:05",1,48.0180248,-122.8053904,TRUE,FALSE,FALSE,"S238813346"
"246","rebsap","Red-breasted Sapsucker","Sphyrapicus ruber","L8436207","South Eugene Meadows","2025-05-16 09:01",1,44.0052267,-123.1245746,TRUE,FALSE,FALSE,"S238823877"
"247","rebsap","Red-breasted Sapsucker","Sphyrapicus ruber","L29072887","Riverton","2025-05-16 08:54",1,43.155185,-124.2757917,TRUE,FALSE,TRUE,"S238788662"
"248","rebsap","Red-breasted Sapsucker","Sphyrapicus ruber","L9329481","Sherrard Point","2025-05-16 08:42",1,45.53289,-122.087717,TRUE,FALSE,FALSE,"S238808121"
"249","rebsap","Red-breasted Sapsucker","Sphyrapicus ruber","L31518376","Clearcut RMZ","2025-05-16 08:32",1,46.304315,-122.701977,TRUE,FALSE,TRUE,"S238808896"
"250","rebsap","Red-breasted Sapsucker","Sphyrapicus ruber","L3488988","Fennel Creek Trail","2025-05-16 08:30",1,47.1552585,-122.182796,TRUE,FALSE,FALSE,"S238943237"
"251","rebsap","Red-breasted Sapsucker","Sphyrapicus ruber","L33698895","Provolt Recreation Site (Jackson Co.)","2025-05-16 08:25",1,42.289651,-123.228756,TRUE,FALSE,FALSE,"S238894279"
"252","rebsap","Red-breasted Sapsucker","Sphyrapicus ruber","L39631349","4692 Kings Canyon Road, Carson City, Nevada, US (39.151, -119.817)Ki GsCanyon Road","2025-05-16 08:17",1,39.1506207,-119.8166011,TRUE,FALSE,TRUE,"S238915911"
"253","rebsap","Red-breasted Sapsucker","Sphyrapicus ruber","L19335173","Lassen NF--Colby Creek","2025-05-16 08:17",3,40.120281,-121.487591,TRUE,FALSE,FALSE,"S238937427"
"254","rebsap","Red-breasted Sapsucker","Sphyrapicus ruber","L13818602","Jennings Heights","2025-05-16 08:14",1,45.40218,-122.59398,TRUE,FALSE,TRUE,"S238825310"
"255","rebsap","Red-breasted Sapsucker","Sphyrapicus ruber","L4403851","Mary McCallum Park (restricted access)","2025-05-16 08:11",1,43.8860899,-121.4590609,TRUE,FALSE,FALSE,"S238827718"
"256","rebsap","Red-breasted Sapsucker","Sphyrapicus ruber","L1454820","Rooster Rock SP","2025-05-16 08:10",1,45.5472947,-122.2349514,TRUE,FALSE,FALSE,"S238805060"
"257","rebsap","Red-breasted Sapsucker","Sphyrapicus ruber","L593492","Chester railroad grade","2025-05-16 08:09",3,40.3054508,-121.2203979,TRUE,FALSE,FALSE,"S238807234"
"258","rebsap","Red-breasted Sapsucker","Sphyrapicus ruber","L8079676","Red-tail Roost","2025-05-16 08:02",1,47.9008098,-122.5490918,TRUE,FALSE,TRUE,"S238865512"
"259","rebsap","Red-breasted Sapsucker","Sphyrapicus ruber","L26765578","Nuthatch Haven","2025-05-16 08:02",1,44.88995,-123.07012,TRUE,FALSE,TRUE,"S238708818"
"260","rebsap","Red-breasted Sapsucker","Sphyrapicus ruber","L43961943","Jackson Creek Road, Corvallis, Oregon, US","2025-05-16 07:57",1,44.6138072,-123.2858473,TRUE,FALSE,TRUE,"S238824126"
"261","rebsap","Red-breasted Sapsucker","Sphyrapicus ruber","L11812694","Jonesville Snowmobile Park--Colby Meadows","2025-05-16 07:53",1,40.1135548,-121.4791241,TRUE,FALSE,FALSE,"S238936541"
"262","rebsap","Red-breasted Sapsucker","Sphyrapicus ruber","L2432411","Willamette Greenway--Spring Valley Access","2025-05-16 07:50",1,45.0641588,-123.0684359,TRUE,FALSE,FALSE,"S238787677"
"263","rebsap","Red-breasted Sapsucker","Sphyrapicus ruber","L29407716","Front yard","2025-05-16 07:50",1,46.299224,-122.709318,TRUE,FALSE,TRUE,"S238707864"
"264","rebsap","Red-breasted Sapsucker","Sphyrapicus ruber","L3245580","97225","2025-05-16 07:41",1,45.5130767,-122.7709575,TRUE,FALSE,TRUE,"S238629821"
"265","rebsap","Red-breasted Sapsucker","Sphyrapicus ruber","L4497761","PLAYA Summer Lake","2025-05-16 07:32",1,42.805738,-120.791834,TRUE,FALSE,FALSE,"S238997045"
"266","rebsap","Red-breasted Sapsucker","Sphyrapicus ruber","L21499624","6100 North Bank Road, Roseburg, Oregon, US (43.32, -123.254)","2025-05-16 07:31",2,43.3195139,-123.2538023,TRUE,FALSE,TRUE,"S238929631"
"267","rebsap","Red-breasted Sapsucker","Sphyrapicus ruber","L2182448","Mountain Home Preserve (CDLT)","2025-05-16 07:28",1,47.552473,-120.655101,TRUE,FALSE,FALSE,"S239490258"
"268","rebsap","Red-breasted Sapsucker","Sphyrapicus ruber","L321279","Marymoor Park--Interpretive Trail","2025-05-16 07:25",1,47.6545148,-122.1077304,TRUE,FALSE,FALSE,"S238802563"
"269","rebsap","Red-breasted Sapsucker","Sphyrapicus ruber","L907561","Kelley Point Park","2025-05-16 07:20",2,45.6463283,-122.7639771,TRUE,FALSE,FALSE,"S238846621"
"270","rebsap","Red-breasted Sapsucker","Sphyrapicus ruber","L8781357","Willow Springs Preserve (restricted access)","2025-05-16 07:19",1,44.3131927,-121.5107568,TRUE,FALSE,FALSE,"S238884547"
"271","rebsap","Red-breasted Sapsucker","Sphyrapicus ruber","L744437","Newhalem Agg Ponds","2025-05-16 07:18",2,48.6554796,-121.2935257,TRUE,FALSE,FALSE,"S239005307"
"272","rebsap","Red-breasted Sapsucker","Sphyrapicus ruber","L14552773","Marrowstone--Morningtide (Jefferson Land Trust)","2025-05-16 07:12",1,48.0712285,-122.69161,TRUE,FALSE,FALSE,"S238733782"
"273","rebsap","Red-breasted Sapsucker","Sphyrapicus ruber","L718847","Lily Glen Park","2025-05-16 07:09",1,42.2720614,-122.4312329,TRUE,FALSE,FALSE,"S238882703"
"274","rebsap","Red-breasted Sapsucker","Sphyrapicus ruber","L7882515","Shady Acre, Warren","2025-05-16 07:07",1,45.8302941,-122.8464024,TRUE,FALSE,TRUE,"S238951424"
"275","rebsap","Red-breasted Sapsucker","Sphyrapicus ruber","L564571","#12b Tall Timber Ranch/Napeequa","2025-05-16 07:05",4,47.921519,-120.8961296,TRUE,FALSE,TRUE,"S238968834"
"276","rebsap","Red-breasted Sapsucker","Sphyrapicus ruber","L19372246","Thomas Creek Road and Trail","2025-05-16 07:00",2,39.3948437,-119.8721267,TRUE,FALSE,TRUE,"S238836232"
"277","rebsap","Red-breasted Sapsucker","Sphyrapicus ruber","L1432660","West Kingston Wetland (roadside viewing only)","2025-05-16 07:00",1,47.7994915,-122.5387492,TRUE,FALSE,FALSE,"S238701424"
"278","rebsap","Red-breasted Sapsucker","Sphyrapicus ruber","L352323","Lake Hills Greenbelt","2025-05-16 06:46",1,47.599951,-122.134904,TRUE,FALSE,FALSE,"S238789666"
"279","rebsap","Red-breasted Sapsucker","Sphyrapicus ruber","L589444","Yosemite NP--Hodgdon Meadow","2025-05-16 06:30",2,37.7955424,-119.8623848,TRUE,FALSE,FALSE,"S239940505"
"280","rebsap","Red-breasted Sapsucker","Sphyrapicus ruber","L12242618","Weyco Rd 1300 off end of Canal Rd (Restricted Access)","2025-05-16 06:20",1,46.292978,-122.73932,TRUE,FALSE,TRUE,"S238620544"
"281","rebsap","Red-breasted Sapsucker","Sphyrapicus ruber","L11232415","Coburg Ridge TNC Preserve - Pt count  No. 22 (Restricted Access)","2025-05-16 06:14",2,44.11138,-123.00199,TRUE,FALSE,TRUE,"S239421045"
"282","rebsap","Red-breasted Sapsucker","Sphyrapicus ruber","L594416","Domingo Springs Campground","2025-05-16 06:10",1,40.3609339,-121.3417625,TRUE,FALSE,FALSE,"S238644858"
"283","rebsap","Red-breasted Sapsucker","Sphyrapicus ruber","L26390443","1609 Northwest Lester Avenue, Corvallis, Oregon, US (44.607, -123.27)","2025-05-16 06:04",1,44.6072896,-123.2701902,TRUE,FALSE,TRUE,"S238875154"
"284","rebsap","Red-breasted Sapsucker","Sphyrapicus ruber","L21252557","HJ Andrews Experimental Forest","2025-05-16 06:00",1,44.2122161,-122.2552478,TRUE,FALSE,FALSE,"S238879378"
"285","rebsap","Red-breasted Sapsucker","Sphyrapicus ruber","L45190678","Duncan Gap","2025-05-16 05:46",1,42.132129,-122.868899,TRUE,FALSE,TRUE,"S238901482"
"286","rebsap","Red-breasted Sapsucker","Sphyrapicus ruber","L1357206","Alder Spring tract (Restricted Access)--old","2025-05-16 05:30",1,44.4932943,-123.4652125,TRUE,FALSE,TRUE,"S239228835"
"287","rebsap","Red-breasted Sapsucker","Sphyrapicus ruber","L45209829","Forest Park","2025-05-16 05:00",1,45.5359718,-122.7125216,TRUE,FALSE,TRUE,"S239003717"
"288","rebsap","Red-breasted Sapsucker","Sphyrapicus ruber","L443195","Sitka (town)","2025-05-16",NA,57.049881,-135.3335381,TRUE,FALSE,FALSE,"S238996838"
"289","rebsap","Red-breasted Sapsucker","Sphyrapicus ruber","L790165","Black Butte Ranch","2025-05-15 19:13",1,44.3714778,-121.6632843,TRUE,FALSE,FALSE,"S238460523"
"290","rebsap","Red-breasted Sapsucker","Sphyrapicus ruber","L1272473","Los Padres NF--Reyes Peak Trail","2025-05-15 19:07",1,34.6340929,-119.2869973,TRUE,FALSE,FALSE,"S238814493"
"291","rebsap","Red-breasted Sapsucker","Sphyrapicus ruber","L1900206","Los Padres NF--Pine Mountain CG","2025-05-15 18:03",2,34.638902,-119.3270123,TRUE,FALSE,FALSE,"S238816196"
"292","rebsap","Red-breasted Sapsucker","Sphyrapicus ruber","L1130645","Spanish Ranch Rd.","2025-05-15 18:01",1,39.9470556,-121.0487366,TRUE,FALSE,FALSE,"S238603410"
"293","rebsap","Red-breasted Sapsucker","Sphyrapicus ruber","L773969","Weaverville Basin Wetlands","2025-05-15 15:59",1,40.71217,-122.92995,TRUE,FALSE,FALSE,"S239486227"
"294","rebsap","Red-breasted Sapsucker","Sphyrapicus ruber","L45095696","Aspen Grove on Parker Lake Road","2025-05-15 15:50",1,37.8573114,-119.1261667,TRUE,FALSE,TRUE,"S238466904"
"295","rebsap","Red-breasted Sapsucker","Sphyrapicus ruber","L1627186","Titlow Park & Beach","2025-05-15 14:37",1,47.2489682,-122.5517227,TRUE,FALSE,FALSE,"S238374953"
"296","rebsap","Red-breasted Sapsucker","Sphyrapicus ruber","L19445666","95634, Georgetown US-CA 38.83114, -120.36742","2025-05-15 14:26",1,38.831139,-120.367418,TRUE,FALSE,TRUE,"S238382377"
"297","rebsap","Red-breasted Sapsucker","Sphyrapicus ruber","L4464387","Almanor - home","2025-05-15 14:24",1,40.258789,-121.146362,TRUE,FALSE,TRUE,"S238372868"
"298","rebsap","Red-breasted Sapsucker","Sphyrapicus ruber","L1271058","Bull Gap Sno Park West","2025-05-15 14:21",5,42.0714686,-122.6984882,TRUE,FALSE,TRUE,"S238401643"
"299","rebsap","Red-breasted Sapsucker","Sphyrapicus ruber","L41176753","Greenway Park","2025-05-15 14:00",4,45.4518471,-122.795784,TRUE,FALSE,TRUE,"S238423696"
"300","rebsap","Red-breasted Sapsucker","Sphyrapicus ruber","L565301","Eagle Ridge/Shoalwater Bay","2025-05-15 13:54",2,42.3970939,-121.9592285,TRUE,FALSE,FALSE,"S238366276"
"301","rebsap","Red-breasted Sapsucker","Sphyrapicus ruber","L22087849","Mirror Lake, Wickersham","2025-05-15 13:34",3,48.6626097,-122.2198932,TRUE,FALSE,FALSE,"S238371726"
"302","rebsap","Red-breasted Sapsucker","Sphyrapicus ruber","L11601834","Hawley Grade Trailhead","2025-05-15 13:28",3,38.796502,-120.019902,TRUE,FALSE,FALSE,"S238381133"
"303","rebsap","Red-breasted Sapsucker","Sphyrapicus ruber","L45082600","1300 Road to 1359 to lake (Byrnes homestead), Toutle, Washington, US (46.282, -122.759)","2025-05-15 13:09",1,46.2816524,-122.7593113,TRUE,FALSE,TRUE,"S238391304"
"304","rebsap","Red-breasted Sapsucker","Sphyrapicus ruber","L8966420","Wahkeena Falls","2025-05-15 13:08",1,45.575295,-122.128106,TRUE,FALSE,FALSE,"S238372662"
"305","rebsap","Red-breasted Sapsucker","Sphyrapicus ruber","L9956565","10611 Southeast 291st Street, Auburn, Washington, US (47.341, -122.201)","2025-05-15 13:04",1,47.3409221,-122.2014663,TRUE,FALSE,TRUE,"S238373592"
"306","rebsap","Red-breasted Sapsucker","Sphyrapicus ruber","L998393","Dawson Creek Corporate Park","2025-05-15 12:40",1,45.5416154,-122.9335785,TRUE,FALSE,FALSE,"S238420976"
"307","rebsap","Red-breasted Sapsucker","Sphyrapicus ruber","L792565","Crystal Springs Rhododendron Garden","2025-05-15 12:39",1,45.4779708,-122.6364702,TRUE,FALSE,FALSE,"S238359972"
"308","rebsap","Red-breasted Sapsucker","Sphyrapicus ruber","L26980457","Ewing Young Park","2025-05-15 12:29",1,45.290733,-122.97728,TRUE,FALSE,FALSE,"S238356038"
"309","rebsap","Red-breasted Sapsucker","Sphyrapicus ruber","L875043","Tryon Creek SP","2025-05-15 12:22",1,45.4421988,-122.6767302,TRUE,FALSE,FALSE,"S238378371"
"310","rebsap","Red-breasted Sapsucker","Sphyrapicus ruber","L5106168","San Jacinto Mtns.--Fuller Ridge Trail","2025-05-15 12:21",2,33.8378622,-116.7363238,TRUE,FALSE,FALSE,"S238457127"
"311","rebsap","Red-breasted Sapsucker","Sphyrapicus ruber","L6874125","Parker Lake","2025-05-15 12:20",8,37.8357508,-119.1557515,TRUE,FALSE,FALSE,"S238466504"
"312","rebsap","Red-breasted Sapsucker","Sphyrapicus ruber","L2875656","Duckabush Oxbow Reserve","2025-05-15 10:56",1,47.6545192,-122.9407883,TRUE,FALSE,TRUE,"S238351564"
"313","rebsap","Red-breasted Sapsucker","Sphyrapicus ruber","L45309306","Head Of Jack Creek","2025-05-15 10:51",2,44.4799544,-121.7210343,TRUE,FALSE,TRUE,"S239476578"
"314","rebsap","Red-breasted Sapsucker","Sphyrapicus ruber","L31492682","Hell’s Canyon Rd.","2025-05-15 10:49",1,44.4051152,-123.3864718,TRUE,FALSE,TRUE,"S238378821"
"315","rebsap","Red-breasted Sapsucker","Sphyrapicus ruber","L950776","Big Four Ice Caves","2025-05-15 10:45",4,48.0651548,-121.5151566,TRUE,FALSE,FALSE,"S238391357"
"316","rebsap","Red-breasted Sapsucker","Sphyrapicus ruber","L1232066","Gerber Reservoir","2025-05-15 10:43",1,42.2006105,-121.1022949,TRUE,FALSE,FALSE,"S238852422"
"317","rebsap","Red-breasted Sapsucker","Sphyrapicus ruber","L280747","Convict Lake","2025-05-15 10:30",4,37.5910827,-118.8519808,TRUE,FALSE,FALSE,"S238338634"
"318","rebsap","Red-breasted Sapsucker","Sphyrapicus ruber","L9955236","Lily Lizard Trail","2025-05-15 10:11",1,48.6180195,-122.3807391,TRUE,FALSE,FALSE,"S238328404"
"319","rebsap","Red-breasted Sapsucker","Sphyrapicus ruber","L11063393","Griggs Area (Garden)","2025-05-15 10:11",1,44.6101933,-122.8395169,TRUE,FALSE,TRUE,"S238287693"
"320","rebsap","Red-breasted Sapsucker","Sphyrapicus ruber","L17567266","Upper Beaver Pond","2025-05-15 10:00",1,45.4989929,-122.9566973,TRUE,FALSE,TRUE,"S238290350"
"321","rebsap","Red-breasted Sapsucker","Sphyrapicus ruber","L3969444","Vineyard Mtn Park District public openspace & pond","2025-05-15 09:54",1,44.6321,-123.27072,TRUE,FALSE,FALSE,"S238402244"
"322","rebsap","Red-breasted Sapsucker","Sphyrapicus ruber","L992303","Ankeny NWR--Rail Trail","2025-05-15 09:52",1,44.7741583,-123.0824089,TRUE,FALSE,FALSE,"S238298107"
"323","rebsap","Red-breasted Sapsucker","Sphyrapicus ruber","L1215736","Stump Ranch","2025-05-15 09:26",1,40.3637625,-121.3770175,TRUE,FALSE,FALSE,"S238320061"
"324","rebsap","Red-breasted Sapsucker","Sphyrapicus ruber","L14388845","Trafton Trailhead Park","2025-05-15 09:20",1,48.238149,-122.077238,TRUE,FALSE,FALSE,"S238288468"
"325","rebsap","Red-breasted Sapsucker","Sphyrapicus ruber","L45074896","Westport Boat Launch","2025-05-15 09:11",1,46.1362225,-123.3732322,TRUE,FALSE,TRUE,"S238347937"
"326","rebsap","Red-breasted Sapsucker","Sphyrapicus ruber","L12303037","Elwha River Rd parking lot","2025-05-15 09:11",1,48.113962,-123.553143,TRUE,FALSE,FALSE,"S238350442"
"327","rebsap","Red-breasted Sapsucker","Sphyrapicus ruber","L21594576","Paulina Creek Preserve--East (restricted access)","2025-05-15 09:00",1,43.7222713,-121.4404616,TRUE,FALSE,FALSE,"S238326685"
"328","rebsap","Red-breasted Sapsucker","Sphyrapicus ruber","L45091048","Bear Run, Forest Ranch US-CA 40.11626, -121.45928","2025-05-15 09:00",2,40.116259,-121.459281,TRUE,FALSE,TRUE,"S238441781"
"329","rebsap","Red-breasted Sapsucker","Sphyrapicus ruber","L21487686","55204 238th Ave E, Ashford US-WA 46.75786, -122.12239","2025-05-15 08:55",1,46.757862,-122.122386,TRUE,FALSE,TRUE,"S238411256"
"330","rebsap","Red-breasted Sapsucker","Sphyrapicus ruber","L1653036","Green River Comm. College","2025-05-15 08:54",1,47.3142829,-122.1746412,TRUE,FALSE,FALSE,"S238355129"
"331","rebsap","Red-breasted Sapsucker","Sphyrapicus ruber","L9190056","Suzanne Arlie Park","2025-05-15 08:45",1,43.988766,-123.03518,TRUE,FALSE,FALSE,"S238319842"
"332","rebsap","Red-breasted Sapsucker","Sphyrapicus ruber","L9132579","Whistle Punk Tr, GPNF, WA","2025-05-15 08:38",1,45.810023,-121.942993,TRUE,FALSE,TRUE,"S238313229"
"333","rebsap","Red-breasted Sapsucker","Sphyrapicus ruber","L6318476","Washington-Kitsap Co.-Suquamish-north loop","2025-05-15 08:35",1,47.7394677,-122.5568247,TRUE,FALSE,TRUE,"S238899797"
"334","rebsap","Red-breasted Sapsucker","Sphyrapicus ruber","L45043880","Fish Hatchery Road Clear-cut, Sequim, Washington, US (48.017, -123.139)","2025-05-15 08:33",1,48.0171023,-123.1387551,TRUE,FALSE,TRUE,"S238190504"
"335","rebsap","Red-breasted Sapsucker","Sphyrapicus ruber","L200630","William L. Finley NWR--Snag Boat Bend Wildlife Area","2025-05-15 08:31",1,44.4257811,-123.2115311,TRUE,FALSE,FALSE,"S238383212"
"336","rebsap","Red-breasted Sapsucker","Sphyrapicus ruber","L8001350","Big Bear Lake--East Boat Ramp","2025-05-15 08:28",1,34.2608062,-116.886194,TRUE,FALSE,FALSE,"S238304170"
"337","rebsap","Red-breasted Sapsucker","Sphyrapicus ruber","L42803488","Willamette View","2025-05-15 08:26",1,45.4301872,-122.6450801,TRUE,FALSE,TRUE,"S238203012"
"338","rebsap","Red-breasted Sapsucker","Sphyrapicus ruber","L45078616","Wrangell, Alaska, US (56.472, -132.387)","2025-05-15 08:25",1,56.4715535,-132.3872876,TRUE,FALSE,TRUE,"S238368259"
"339","rebsap","Red-breasted Sapsucker","Sphyrapicus ruber","L32445048","98330, Elbe US-WA 46.75288, -122.12131","2025-05-15 08:22",1,46.752885,-122.121307,TRUE,FALSE,TRUE,"S238411540"
"340","rebsap","Red-breasted Sapsucker","Sphyrapicus ruber","L7130246","Catlin Gabel School (restricted access)","2025-05-15 08:21",1,45.5096752,-122.7677536,TRUE,FALSE,FALSE,"S238296365"
"341","rebsap","Red-breasted Sapsucker","Sphyrapicus ruber","L2675830","Discovery Bay--Discovery Road Pond","2025-05-15 08:16",1,48.056337,-122.842138,TRUE,FALSE,FALSE,"S238202422"
"342","rebsap","Red-breasted Sapsucker","Sphyrapicus ruber","L1400108","Barton County Park","2025-05-15 08:15",2,45.3813553,-122.4050078,TRUE,FALSE,FALSE,"S238305597"
"343","rebsap","Red-breasted Sapsucker","Sphyrapicus ruber","L4037120","Oakbrook","2025-05-15 08:15",1,47.1904707,-122.5573397,TRUE,FALSE,TRUE,"S238292973"
"344","rebsap","Red-breasted Sapsucker","Sphyrapicus ruber","L2572446","Multnomah County (Home)","2025-05-15 08:11",1,45.4610713,-122.704495,TRUE,FALSE,TRUE,"S238465090"
"345","rebsap","Red-breasted Sapsucker","Sphyrapicus ruber","L27518309","My Yard Corvallis, OR","2025-05-15 07:57",1,44.5715662,-123.2918518,TRUE,FALSE,TRUE,"S238700104"
"346","rebsap","Red-breasted Sapsucker","Sphyrapicus ruber","L11990768","Marys Woods","2025-05-15 07:43",1,45.4016028,-122.6497377,TRUE,FALSE,TRUE,"S238315167"
"347","rebsap","Red-breasted Sapsucker","Sphyrapicus ruber","L1623920","Birdhaven (Our residence)","2025-05-15 07:35",1,47.9597408,-122.3802173,TRUE,FALSE,TRUE,"S238919296"
"348","rebsap","Red-breasted Sapsucker","Sphyrapicus ruber","L4598372","Philomath Sewage Ponds--nw corner","2025-05-15 07:34",1,44.52618,-123.34864,TRUE,FALSE,TRUE,"S238570386"
"349","rebsap","Red-breasted Sapsucker","Sphyrapicus ruber","L38647443","Hilltop Hideaway","2025-05-15 07:31",1,48.0645961,-122.8301564,TRUE,FALSE,TRUE,"S238161754"
"350","rebsap","Red-breasted Sapsucker","Sphyrapicus ruber","L11138114","Bellingham--Samish Crest Trail","2025-05-15 07:29",1,48.7335206,-122.4535268,TRUE,FALSE,FALSE,"S238328088"
"351","rebsap","Red-breasted Sapsucker","Sphyrapicus ruber","L29660146","1646 Southeast Crystal Lake Drive, Corvallis, Oregon, US (44.55, -123.257)","2025-05-15 07:22",1,44.5495873,-123.2569869,TRUE,FALSE,TRUE,"S238208526"
"352","rebsap","Red-breasted Sapsucker","Sphyrapicus ruber","L447392","Pittock Mansion","2025-05-15 07:12",1,45.5249912,-122.7171564,TRUE,FALSE,FALSE,"S238207448"
"353","rebsap","Red-breasted Sapsucker","Sphyrapicus ruber","L4289495","Vancouver Lowlands--End of Lower River Road","2025-05-15 06:40",1,45.723659,-122.7540757,TRUE,FALSE,FALSE,"S238335217"
"354","rebsap","Red-breasted Sapsucker","Sphyrapicus ruber","L45041058","Amazon Canal near Fairgrounds 44.03830, -123.10436","2025-05-15 06:40",1,44.038301,-123.104357,TRUE,FALSE,TRUE,"S238176182"
"355","rebsap","Red-breasted Sapsucker","Sphyrapicus ruber","L549294","Clark Lake Park","2025-05-15 06:30",2,47.3828419,-122.1727216,TRUE,FALSE,FALSE,"S238205089"
"356","rebsap","Red-breasted Sapsucker","Sphyrapicus ruber","L28537439","Seahurst Park, Burien US-WA 47.47261, -122.35778","2025-05-15 06:11",1,47.472609,-122.357778,TRUE,FALSE,TRUE,"S238127314"
"357","rebsap","Red-breasted Sapsucker","Sphyrapicus ruber","L672630","Minto-Brown Island Park","2025-05-15 05:54",1,44.924703,-123.0618095,TRUE,FALSE,FALSE,"S238288196"
"358","rebsap","Red-breasted Sapsucker","Sphyrapicus ruber","L45190701","LIKA","2025-05-15 05:53",3,42.14798,-122.941089,TRUE,FALSE,TRUE,"S238901599"
"359","rebsap","Red-breasted Sapsucker","Sphyrapicus ruber","L11232435","Coburg Ridge TNC Preserve - Pt count  No. 16 (Restricted Access)","2025-05-15 05:40",1,44.09371,-123.00722,TRUE,FALSE,TRUE,"S238378931"
"360","rebsap","Red-breasted Sapsucker","Sphyrapicus ruber","L4636166","West Haven-Sylvan Neighborhood","2025-05-15 05:40",1,45.515989,-122.7695759,TRUE,FALSE,FALSE,"S238123199"
"361","rebsap","Red-breasted Sapsucker","Sphyrapicus ruber","L5722516","Mountainview","2025-05-14 19:13",1,45.362022,-122.209556,TRUE,FALSE,TRUE,"S238001360"
"362","rebsap","Red-breasted Sapsucker","Sphyrapicus ruber","L27989918","Home","2025-05-14 18:51",1,45.2086716,-123.2214132,TRUE,FALSE,TRUE,"S238001080"
"363","rebsap","Red-breasted Sapsucker","Sphyrapicus ruber","L838940","Bainbridge Island - Yard - Fletcher Bay Road","2025-05-14 18:26",1,47.6321976,-122.5587988,TRUE,FALSE,TRUE,"S238163101"
"364","rebsap","Red-breasted Sapsucker","Sphyrapicus ruber","L247053","Tualatin Hills Nature Park","2025-05-14 18:02",1,45.5006923,-122.8423405,TRUE,FALSE,FALSE,"S237992318"
"365","rebsap","Red-breasted Sapsucker","Sphyrapicus ruber","L36745835","Yard List","2025-05-14 17:04",1,40.4298524,-120.6636001,TRUE,FALSE,TRUE,"S238187361"
"366","rebsap","Red-breasted Sapsucker","Sphyrapicus ruber","L1308816","Yosemite NP--Wawona Meadow","2025-05-14 15:53",1,37.5289234,-119.6420574,TRUE,FALSE,FALSE,"S237982524"
"367","rebsap","Red-breasted Sapsucker","Sphyrapicus ruber","L45014085","Mountain 50, Porterville US-CA 35.96293, -118.57195","2025-05-14 15:30",2,35.962926,-118.571949,TRUE,FALSE,TRUE,"S238014099"
"368","rebsap","Red-breasted Sapsucker","Sphyrapicus ruber","L2392604","Eugene Masonic Cemetery","2025-05-14 15:14",2,44.032221,-123.0753556,TRUE,FALSE,FALSE,"S237942124"
"369","rebsap","Red-breasted Sapsucker","Sphyrapicus ruber","L1176452","Agate Pond Preserve (restricted access)","2025-05-14 15:05",2,48.7755442,-122.3559916,TRUE,FALSE,FALSE,"S237967309"
"370","rebsap","Red-breasted Sapsucker","Sphyrapicus ruber","L18484064","Green Springs Mountain Loop","2025-05-14 14:57",1,42.1400818,-122.4958484,TRUE,FALSE,FALSE,"S237952003"
"371","rebsap","Red-breasted Sapsucker","Sphyrapicus ruber","L1822681","Scatter Creek WA--WDFW Transect 2 Inner Loop Trail","2025-05-14 14:45",2,46.8262446,-123.0170102,TRUE,FALSE,FALSE,"S237971424"
"372","rebsap","Red-breasted Sapsucker","Sphyrapicus ruber","L21113956","Angora Ridge Lookout South Lake Tahoe","2025-05-14 14:04",1,38.8811115,-120.0558043,TRUE,FALSE,TRUE,"S237939711"
"373","rebsap","Red-breasted Sapsucker","Sphyrapicus ruber","L18056776","Fish Creek","2025-05-14 14:00",2,58.3322716,-134.5981441,TRUE,FALSE,TRUE,"S238462600"
"374","rebsap","Red-breasted Sapsucker","Sphyrapicus ruber","L740948","Wickersham area of Samish River","2025-05-14 13:46",3,48.6530746,-122.2054918,TRUE,FALSE,FALSE,"S237930690"
"375","rebsap","Red-breasted Sapsucker","Sphyrapicus ruber","L2894847","Cascades Raptor Center","2025-05-14 13:39",1,43.9864604,-123.0798903,TRUE,FALSE,FALSE,"S237904098"
"376","rebsap","Red-breasted Sapsucker","Sphyrapicus ruber","L592967","Ridgefield NWR--River 'S' Unit","2025-05-14 13:36",1,45.7990694,-122.7490082,TRUE,FALSE,FALSE,"S237984979"
"377","rebsap","Red-breasted Sapsucker","Sphyrapicus ruber","L45011777","2 South Fork Road, Angelus Oaks, California, US (34.17, -116.831)","2025-05-14 13:24",2,34.1696568,-116.8312849,TRUE,FALSE,TRUE,"S238001710"
"378","rebsap","Red-breasted Sapsucker","Sphyrapicus ruber","L6474575","Galena Creek County Park--Nature Trail and Bitterbrush Trail","2025-05-14 13:16",2,39.3548129,-119.8585546,TRUE,FALSE,FALSE,"S237927620"
"379","rebsap","Red-breasted Sapsucker","Sphyrapicus ruber","L2182592","Larry Wehmeyer Environmental Education Area","2025-05-14 13:09",1,41.2945672,-122.32557,TRUE,FALSE,FALSE,"S237897921"
"380","rebsap","Red-breasted Sapsucker","Sphyrapicus ruber","L33650331","450 Hudson Rd, Port Angeles US-WA 48.13033, -123.62065","2025-05-14 12:56",1,48.130327,-123.620652,TRUE,FALSE,TRUE,"S237888512"
"381","rebsap","Red-breasted Sapsucker","Sphyrapicus ruber","L24749503","2193 NW Sunview Dr, Corvallis US-OR 44.58924, -123.29834","2025-05-14 12:31",1,44.589239,-123.298337,TRUE,FALSE,TRUE,"S237883742"
"382","rebsap","Red-breasted Sapsucker","Sphyrapicus ruber","L572639","Upper Klamath Lake--Rocky Point","2025-05-14 12:24",1,42.477,-122.08503,TRUE,FALSE,FALSE,"S237956668"
"383","rebsap","Red-breasted Sapsucker","Sphyrapicus ruber","L24482897","Masonic Mountain","2025-05-14 12:02",2,38.336226,-119.166393,TRUE,FALSE,FALSE,"S237897489"
"384","rebsap","Red-breasted Sapsucker","Sphyrapicus ruber","L14914980","Eagle Beach Rec Area, Juneau US-AK 58.52996, -134.82838","2025-05-14 11:59",1,58.529963,-134.828379,TRUE,FALSE,TRUE,"S237931507"
"385","rebsap","Red-breasted Sapsucker","Sphyrapicus ruber","L6819955","Meadowbrook Farm","2025-05-14 11:50",1,47.5198295,-121.8088592,TRUE,FALSE,FALSE,"S237898884"
"386","rebsap","Red-breasted Sapsucker","Sphyrapicus ruber","L3877712","Fallen Leaf Lake--Stanford Sierra Camp","2025-05-14 11:48",1,38.884988,-120.073376,TRUE,FALSE,FALSE,"S237869494"
"387","rebsap","Red-breasted Sapsucker","Sphyrapicus ruber","L525125","Howard Prairie Lake","2025-05-14 11:43",2,42.2325847,-122.4014282,TRUE,FALSE,FALSE,"S237900831"
"388","rebsap","Red-breasted Sapsucker","Sphyrapicus ruber","L24121272","Redwood NP--Dolason Prairie Picnic Area","2025-05-14 11:30",1,41.205458,-123.950758,TRUE,FALSE,FALSE,"S237946462"
"389","rebsap","Red-breasted Sapsucker","Sphyrapicus ruber","L4376719","William L. Finley NWR--Pigeon Butte","2025-05-14 11:26",1,44.4006651,-123.3162868,TRUE,FALSE,FALSE,"S237920716"
"390","rebsap","Red-breasted Sapsucker","Sphyrapicus ruber","L915996","Calaveras Big Trees SP--North Grove","2025-05-14 10:52",1,38.2787612,-120.3080392,TRUE,FALSE,FALSE,"S238003683"
"391","rebsap","Red-breasted Sapsucker","Sphyrapicus ruber","L45260662","Skagway -- Denver Glacier, Caboose Cabin, AK","2025-05-14 10:40",1,59.5014241,-135.2292538,TRUE,FALSE,TRUE,"S239262148"
"392","rebsap","Red-breasted Sapsucker","Sphyrapicus ruber","L44983220","14100 NE 24th St, Bellevue US-WA Wetland near Pineview Dentistry","2025-05-14 10:33",1,47.631788,-122.152286,TRUE,FALSE,TRUE,"S237840646"
"393","rebsap","Red-breasted Sapsucker","Sphyrapicus ruber","L3046854","Donner Memorial SP--Museum Interpretive Trail","2025-05-14 10:31",2,39.3221625,-120.2310387,TRUE,FALSE,FALSE,"S237859350"
"394","rebsap","Red-breasted Sapsucker","Sphyrapicus ruber","L7575777","Soos Creek Botanical Gardens","2025-05-14 10:18",1,47.3393834,-122.1648889,TRUE,FALSE,FALSE,"S237854973"
"395","rebsap","Red-breasted Sapsucker","Sphyrapicus ruber","L4834228","Rainforest Trail (Douglas Island)","2025-05-14 10:16",3,58.3084969,-134.6698952,TRUE,FALSE,FALSE,"S237871215"
"396","rebsap","Red-breasted Sapsucker","Sphyrapicus ruber","L11072675","Hockinson Meadows","2025-05-14 09:49",1,45.7025657,-122.5022773,TRUE,FALSE,FALSE,"S237917890"
"397","rebsap","Red-breasted Sapsucker","Sphyrapicus ruber","L42096126","Fanno Creek Trail between Hall and Scholl's Ferry","2025-05-14 09:45",1,45.4551412,-122.7962279,TRUE,FALSE,TRUE,"S237957099"
"398","rebsap","Red-breasted Sapsucker","Sphyrapicus ruber","L4399523","Buell County Park","2025-05-14 09:45",1,45.021641,-123.420141,TRUE,FALSE,FALSE,"S238002311"
"399","rebsap","Red-breasted Sapsucker","Sphyrapicus ruber","L1833636","Carman Valley Meadows","2025-05-14 09:23",2,39.6979598,-120.4499817,TRUE,FALSE,FALSE,"S237848070"
"400","rebsap","Red-breasted Sapsucker","Sphyrapicus ruber","L20234683","Bainbridge Island, Washington, US (47.691, -122.551)","2025-05-14 09:21",1,47.6905639,-122.5508253,TRUE,FALSE,TRUE,"S238018565"
"401","rebsap","Red-breasted Sapsucker","Sphyrapicus ruber","L26801487","Sitka, Alaska, US (56.37, -134.676)","2025-05-14 09:12",1,56.3696558,-134.6764404,TRUE,FALSE,TRUE,"S237894455"
"402","rebsap","Red-breasted Sapsucker","Sphyrapicus ruber","L9587815","Aant'iyeik Park","2025-05-14 09:03",3,58.3826542,-134.7355943,TRUE,FALSE,FALSE,"S237826594"
"403","rebsap","Red-breasted Sapsucker","Sphyrapicus ruber","L1665567","Cabin Lake","2025-05-14 08:49",1,43.4907878,-121.0597096,TRUE,FALSE,FALSE,"S237894501"
"404","rebsap","Red-breasted Sapsucker","Sphyrapicus ruber","L26434790","815 Charles St, Sitka US-AK 57.06232, -135.33601","2025-05-14 08:49",1,57.06232,-135.336013,TRUE,FALSE,TRUE,"S237825123"
"405","rebsap","Red-breasted Sapsucker","Sphyrapicus ruber","L682454","Willapa NWR--Headquarters","2025-05-14 08:38",2,46.414817,-123.9353943,TRUE,FALSE,FALSE,"S237999051"
"406","rebsap","Red-breasted Sapsucker","Sphyrapicus ruber","L571851","Railroad Bridge Park","2025-05-14 08:30",1,48.0853648,-123.14852,TRUE,FALSE,FALSE,"S237944256"
"407","rebsap","Red-breasted Sapsucker","Sphyrapicus ruber","L285631","Detroit Flats","2025-05-14 08:19",1,44.7290265,-122.1461259,TRUE,FALSE,FALSE,"S237815376"
"408","rebsap","Red-breasted Sapsucker","Sphyrapicus ruber","L8238860","Cascade-Siskiyou National Monument, Ashland US-OR (42.0384,-122.5774)","2025-05-14 08:10",3,42.038359,-122.577398,TRUE,FALSE,TRUE,"S237877829"
"409","rebsap","Red-breasted Sapsucker","Sphyrapicus ruber","L45004143","2828 NE Enetai Beach Rd, Bremerton US-WA (private residence)","2025-05-14 08:09",1,47.583364,-122.603117,TRUE,FALSE,TRUE,"S237954876"
"410","rebsap","Red-breasted Sapsucker","Sphyrapicus ruber","L566358","Klamath River--Resighini Rancheria riparian","2025-05-14 08:05",1,41.5160006,-124.0178776,TRUE,FALSE,FALSE,"S239779847"
"411","rebsap","Red-breasted Sapsucker","Sphyrapicus ruber","L1090368","400 First St Quincy","2025-05-14 07:58",1,39.9268476,-120.898608,TRUE,FALSE,TRUE,"S237827229"
"412","rebsap","Red-breasted Sapsucker","Sphyrapicus ruber","L4407883","Catalyst WLT","2025-05-14 07:51",1,48.7097639,-122.196475,TRUE,FALSE,TRUE,"S237861641"
"413","rebsap","Red-breasted Sapsucker","Sphyrapicus ruber","L1348132","Running Y Ranch--Skillet Handle","2025-05-14 07:30",1,42.2953879,-121.8783287,TRUE,FALSE,FALSE,"S237816642"
"414","rebsap","Red-breasted Sapsucker","Sphyrapicus ruber","L801477","Pine Oak Lane","2025-05-14 07:22",1,39.9587302,-120.8893973,TRUE,FALSE,TRUE,"S237760220"
"415","rebsap","Red-breasted Sapsucker","Sphyrapicus ruber","L6330397","Quamash Prairie","2025-05-14 07:10",1,45.4047054,-122.926712,TRUE,FALSE,FALSE,"S237798990"
"416","rebsap","Red-breasted Sapsucker","Sphyrapicus ruber","L1922848","Columbia Slough--122nd NE Ave.","2025-05-14 07:05",1,45.5608039,-122.5372767,TRUE,FALSE,FALSE,"S237751572"
"417","rebsap","Red-breasted Sapsucker","Sphyrapicus ruber","L41679561","Fairview Drive - job site","2025-05-14 06:58",1,45.791625,-121.484949,TRUE,FALSE,TRUE,"S238470267"
"418","rebsap","Red-breasted Sapsucker","Sphyrapicus ruber","L44991127","24095 SW Scholls Ferry Rd, Hillsboro US-OR 45.40446, -122.92545","2025-05-14 06:46",1,45.404461,-122.925449,TRUE,FALSE,TRUE,"S237880394"
"419","rebsap","Red-breasted Sapsucker","Sphyrapicus ruber","L1170261","Blyth Park","2025-05-14 06:29",1,47.7504191,-122.2082877,TRUE,FALSE,FALSE,"S237767356"
"420","rebsap","Red-breasted Sapsucker","Sphyrapicus ruber","L7849151","casa dei viola_ private property no access","2025-05-14 06:27",1,42.063806,-122.609529,TRUE,FALSE,TRUE,"S237755434"
"421","rebsap","Red-breasted Sapsucker","Sphyrapicus ruber","L1499624","Leino Lane","2025-05-14 06:26",1,40.0957823,-123.7998123,TRUE,FALSE,TRUE,"S237849424"
"422","rebsap","Red-breasted Sapsucker","Sphyrapicus ruber","L3968703","Wildlife Images Rehabilitation and Education Center","2025-05-14 05:40",1,42.4903381,-123.474403,TRUE,FALSE,FALSE,"S237999420"
"423","rebsap","Red-breasted Sapsucker","Sphyrapicus ruber","L8210396","Vesper Meadow","2025-05-14 05:38",1,42.2615536,-122.4569836,TRUE,FALSE,FALSE,"S238901715"
"424","rebsap","Red-breasted Sapsucker","Sphyrapicus ruber","L2655982","Dow Road Freeland","2025-05-14 05:30",1,47.9839903,-122.5232649,TRUE,FALSE,TRUE,"S237743069"
"425","rebsap","Red-breasted Sapsucker","Sphyrapicus ruber","L44965914","721 Dawley Rd, Sequim US-WA 48.02921, -123.01739","2025-05-14 05:30",1,48.029209,-123.017392,TRUE,FALSE,TRUE,"S237747412"
"426","rebsap","Red-breasted Sapsucker","Sphyrapicus ruber","L44939911","GOA 4622 Halibut Point Rd, Sitka US-AK 57.11537, -135.38927","2025-05-13 18:11",1,57.115371,-135.38927,TRUE,FALSE,TRUE,"S237594321"
"427","rebsap","Red-breasted Sapsucker","Sphyrapicus ruber","L712035","Willamette Greenway--Wapato Access","2025-05-13 18:00",1,45.6597554,-122.8409243,TRUE,FALSE,FALSE,"S237620565"
"428","rebsap","Red-breasted Sapsucker","Sphyrapicus ruber","L2471276","Warren Creek Rd.","2025-05-13 17:32",2,40.8938564,-124.0253448,TRUE,FALSE,FALSE,"S237590023"
"429","rebsap","Red-breasted Sapsucker","Sphyrapicus ruber","L753291","Mt. Rainier NP--Longmire","2025-05-13 15:56",2,46.750859,-121.813488,TRUE,FALSE,FALSE,"S237601147"
"430","rebsap","Red-breasted Sapsucker","Sphyrapicus ruber","L16439248","Pleasant Hill Seventh-day Adventist Church","2025-05-13 15:42",1,43.9804726,-122.9501086,TRUE,FALSE,FALSE,"S237606217"
"431","rebsap","Red-breasted Sapsucker","Sphyrapicus ruber","L286981","Point Defiance Park","2025-05-13 15:33",2,47.3069551,-122.5303152,TRUE,FALSE,FALSE,"S237536555"
"432","rebsap","Red-breasted Sapsucker","Sphyrapicus ruber","L7467533","Home, 9908 Sniktaw Lane, Fort Jones, California, US (41.597, -122.992)","2025-05-13 15:27",1,41.5967354,-122.9921955,TRUE,FALSE,TRUE,"S237812961"
"433","rebsap","Red-breasted Sapsucker","Sphyrapicus ruber","L726862","William L. Finley NWR--Woodpecker Loop","2025-05-13 15:19",1,44.4139574,-123.3382273,TRUE,FALSE,FALSE,"S237589896"
"434","rebsap","Red-breasted Sapsucker","Sphyrapicus ruber","L23444279","Down Woodard  Rd","2025-05-13 13:49",2,46.5726491,-122.8855217,TRUE,FALSE,TRUE,"S237519769"
"435","rebsap","Red-breasted Sapsucker","Sphyrapicus ruber","L30462703","Galvin Road","2025-05-13 13:41",1,46.7362338,-123.0215269,TRUE,FALSE,TRUE,"S237494346"
"436","rebsap","Red-breasted Sapsucker","Sphyrapicus ruber","L4337832","Point Defiance Park--Rose Garden Pond","2025-05-13 13:12",1,47.3027739,-122.5167203,TRUE,FALSE,FALSE,"S237492003"
"437","rebsap","Red-breasted Sapsucker","Sphyrapicus ruber","L773245","Howard Miller Steelhead Park","2025-05-13 13:11",1,48.4849052,-121.5952313,TRUE,FALSE,FALSE,"S237491584"
"438","rebsap","Red-breasted Sapsucker","Sphyrapicus ruber","L878486","Plumas Eureka SP","2025-05-13 13:05",2,39.7520733,-120.7006073,TRUE,FALSE,FALSE,"S237481609"
"439","rebsap","Red-breasted Sapsucker","Sphyrapicus ruber","L30598752","Sultan--116th St SE PUD land","2025-05-13 12:58",1,47.8929898,-121.8109668,TRUE,FALSE,FALSE,"S237483035"
"440","rebsap","Red-breasted Sapsucker","Sphyrapicus ruber","L1049743","Christmas Lake","2025-05-13 12:58",1,47.4335452,-121.7602086,TRUE,FALSE,FALSE,"S237486334"
"441","rebsap","Red-breasted Sapsucker","Sphyrapicus ruber","L610091","Cougar Reservoir","2025-05-13 12:40",1,44.112733,-122.2345734,TRUE,FALSE,FALSE,"S237612748"
"442","rebsap","Red-breasted Sapsucker","Sphyrapicus ruber","L11805311","South Fork Floodplain Restoration Area","2025-05-13 12:29",1,47.1226239,-122.2435601,TRUE,FALSE,FALSE,"S237538691"
"443","rebsap","Red-breasted Sapsucker","Sphyrapicus ruber","L26441405","Middle Fork Feather--Jake's Island","2025-05-13 12:13",1,39.7534135,-120.5955504,TRUE,FALSE,TRUE,"S237464269"
"444","rebsap","Red-breasted Sapsucker","Sphyrapicus ruber","L3590464","School Canyon Trail","2025-05-13 11:35",1,45.2997465,-121.3660097,TRUE,FALSE,FALSE,"S237512109"
"445","rebsap","Red-breasted Sapsucker","Sphyrapicus ruber","L1443305","Meadows home/garden","2025-05-13 11:00",2,42.0355188,-123.6416925,TRUE,FALSE,TRUE,"S237782595"
"446","rebsap","Red-breasted Sapsucker","Sphyrapicus ruber","L17031902","Black Oak Basin City Park","2025-05-13 10:57",1,44.0206691,-123.0448632,TRUE,FALSE,FALSE,"S237531858"
"447","rebsap","Red-breasted Sapsucker","Sphyrapicus ruber","L44931439","6412 23rd Ave NE, Tulalip US-WA Hibulb Cultural Center","2025-05-13 10:55",1,48.053589,-122.201123,TRUE,FALSE,TRUE,"S237530574"
"448","rebsap","Red-breasted Sapsucker","Sphyrapicus ruber","L37331427","Delta Ponds","2025-05-13 10:33",1,44.070931,-123.11183,TRUE,FALSE,TRUE,"S237597348"
"449","rebsap","Red-breasted Sapsucker","Sphyrapicus ruber","L1433384","Running Y Ranch","2025-05-13 10:23",2,42.28163,-121.88338,TRUE,FALSE,FALSE,"S237709522"
"450","rebsap","Red-breasted Sapsucker","Sphyrapicus ruber","L19632666","Dorena House","2025-05-13 10:15",1,43.691416,-122.758419,TRUE,FALSE,TRUE,"S237427487"
"451","rebsap","Red-breasted Sapsucker","Sphyrapicus ruber","L18182808","Clear Lake Resort","2025-05-13 10:00",1,44.374507,-121.998775,TRUE,FALSE,TRUE,"S237963814"
"452","rebsap","Red-breasted Sapsucker","Sphyrapicus ruber","L19752677","Sandy River Delta Recreation Area, Troutdale US-OR 45.55218, -122.36919","2025-05-13 09:28",1,45.552177,-122.369193,TRUE,FALSE,TRUE,"S237519593"
"453","rebsap","Red-breasted Sapsucker","Sphyrapicus ruber","L44930982","26609–26615 Finley Refuge Rd, Corvallis US-OR 44.41104, -123.34269","2025-05-13 09:26",1,44.411038,-123.342687,TRUE,FALSE,TRUE,"S237527458"
"454","rebsap","Red-breasted Sapsucker","Sphyrapicus ruber","L302585","Ridgefield NWR--Carty Unit","2025-05-13 09:18",1,45.8352931,-122.7499102,TRUE,FALSE,FALSE,"S237495597"
"455","rebsap","Red-breasted Sapsucker","Sphyrapicus ruber","L3199085","Green Valley Campground","2025-05-13 09:16",3,34.2449206,-117.0638497,TRUE,FALSE,FALSE,"S237522915"
"456","rebsap","Red-breasted Sapsucker","Sphyrapicus ruber","L35906228","Crabcake and Minnow's Yard List","2025-05-13 09:10",1,38.0411,-119.154349,TRUE,FALSE,TRUE,"S237390464"
"457","rebsap","Red-breasted Sapsucker","Sphyrapicus ruber","L44912968","Mariposa Grove Trail, Coulterville US-CA 37.50349, -119.60698","2025-05-13 09:10",1,37.503493,-119.606984,TRUE,FALSE,TRUE,"S237424328"
"458","rebsap","Red-breasted Sapsucker","Sphyrapicus ruber","L16943923","Camano home","2025-05-13 09:09",1,48.2269223,-122.5063489,TRUE,FALSE,TRUE,"S237413026"
"459","rebsap","Red-breasted Sapsucker","Sphyrapicus ruber","L44933961","Burnt Woods Forest Road","2025-05-13 09:00",1,44.5956817,-123.6505174,TRUE,FALSE,TRUE,"S237548570"
"460","rebsap","Red-breasted Sapsucker","Sphyrapicus ruber","L34311621","Browns Crossing Wildlife Viewing Site","2025-05-13 08:59",1,43.7444989,-121.7819023,TRUE,FALSE,FALSE,"S237389307"
"461","rebsap","Red-breasted Sapsucker","Sphyrapicus ruber","L9306796","Svensen Island","2025-05-13 08:55",1,46.175724,-123.652065,TRUE,FALSE,TRUE,"S237482443"
"462","rebsap","Red-breasted Sapsucker","Sphyrapicus ruber","L1878770","Xanadu","2025-05-13 08:53",1,48.1149112,-122.8138214,TRUE,FALSE,TRUE,"S237387354"
"463","rebsap","Red-breasted Sapsucker","Sphyrapicus ruber","L6214094","Herman Cr Rd, Cascade Locks US-OR (45.6896,-121.8338)","2025-05-13 08:39",2,45.689578,-121.833821,TRUE,FALSE,TRUE,"S237411422"
"464","rebsap","Red-breasted Sapsucker","Sphyrapicus ruber","L6295741","Coulter Creek Hatchery","2025-05-13 08:30",2,47.4072956,-122.8178787,TRUE,FALSE,FALSE,"S237455128"
"465","rebsap","Red-breasted Sapsucker","Sphyrapicus ruber","L1800066","Bothell--North Creek Trail","2025-05-13 08:23",1,47.7707041,-122.183095,TRUE,FALSE,FALSE,"S237413937"
"466","rebsap","Red-breasted Sapsucker","Sphyrapicus ruber","L9042725","Vedanta Retreat","2025-05-13 08:23",1,45.7107342,-122.9132156,TRUE,FALSE,FALSE,"S237484037"
"467","rebsap","Red-breasted Sapsucker","Sphyrapicus ruber","L39262636","Johnson Creek Park","2025-05-13 08:17",1,45.4607176,-122.6426339,TRUE,FALSE,FALSE,"S237364595"
"468","rebsap","Red-breasted Sapsucker","Sphyrapicus ruber","L42038109","Backyard 18138 Maury Mtn Ln","2025-05-13 08:13",1,43.903162,-121.418589,TRUE,FALSE,TRUE,"S237415262"
"469","rebsap","Red-breasted Sapsucker","Sphyrapicus ruber","L13849020","Wilkes Creek Headwaters Natural Area","2025-05-13 08:07",1,45.5468077,-122.505226,TRUE,FALSE,FALSE,"S237386498"
"470","rebsap","Red-breasted Sapsucker","Sphyrapicus ruber","L7613449","Maple Creek Reach (Whatcom Land Trust)","2025-05-13 08:05",1,48.9199274,-122.0708701,TRUE,FALSE,FALSE,"S237378593"
"471","rebsap","Red-breasted Sapsucker","Sphyrapicus ruber","L7178754","Skinner Butte Park, Eugene US-OR (44.0581,-123.0934)","2025-05-13 07:57",1,44.058076,-123.09336,TRUE,FALSE,TRUE,"S237377528"
"472","rebsap","Red-breasted Sapsucker","Sphyrapicus ruber","L29362416","Glenridge Drive","2025-05-13 07:47",1,44.603701,-123.299146,TRUE,FALSE,TRUE,"S237355194"
"473","rebsap","Red-breasted Sapsucker","Sphyrapicus ruber","L128530","Discovery Park","2025-05-13 07:43",1,47.663868,-122.4215317,TRUE,FALSE,FALSE,"S237362212"
"474","rebsap","Red-breasted Sapsucker","Sphyrapicus ruber","L886944","Cantrall-Buckley Park","2025-05-13 07:18",1,42.2207632,-123.0642128,TRUE,FALSE,FALSE,"S237458549"
"475","rebsap","Red-breasted Sapsucker","Sphyrapicus ruber","L2993848","Carrie Blake Park","2025-05-13 07:12",1,48.0800197,-123.0817978,TRUE,FALSE,FALSE,"S237441620"
"476","rebsap","Red-breasted Sapsucker","Sphyrapicus ruber","L601513","Nature Conservancy Foulweather Bluff Preserve","2025-05-13 06:56",1,47.9216197,-122.6001048,TRUE,FALSE,FALSE,"S237353732"
"477","rebsap","Red-breasted Sapsucker","Sphyrapicus ruber","L15451109","Sitka--Indian River Trail","2025-05-13",2,57.0610471,-135.3047129,TRUE,FALSE,FALSE,"S237585334"
"478","rebsap","Red-breasted Sapsucker","Sphyrapicus ruber","L1003218","Sevenmile Guard Station","2025-05-12 23:08",2,42.7055736,-122.0744153,TRUE,FALSE,FALSE,"S237459776"
"479","rebsap","Red-breasted Sapsucker","Sphyrapicus ruber","L35861133","West Hylebos Wetlands Park","2025-05-12 17:45",1,47.287038,-122.32775,TRUE,FALSE,TRUE,"S237169203"
"480","rebsap","Red-breasted Sapsucker","Sphyrapicus ruber","L44866049","Sapsucker Spur Rd off Music Road","2025-05-12 17:28",2,45.7827393,-123.4099575,TRUE,FALSE,TRUE,"S237144907"
"481","rebsap","Red-breasted Sapsucker","Sphyrapicus ruber","L37598345","Madera’s old place","2025-05-12 17:03",2,48.676678,-122.151945,TRUE,FALSE,TRUE,"S237139311"
"482","rebsap","Red-breasted Sapsucker","Sphyrapicus ruber","L4927769","Portland Community College Rock Creek campus","2025-05-12 17:01",1,45.5692196,-122.8644417,TRUE,FALSE,FALSE,"S237164544"
"483","rebsap","Red-breasted Sapsucker","Sphyrapicus ruber","L21498841","Juanita Bay, Kirkland US-WA 47.69813, -122.21210","2025-05-12 15:07",1,47.698131,-122.212098,TRUE,FALSE,TRUE,"S237080427"
"484","rebsap","Red-breasted Sapsucker","Sphyrapicus ruber","L4497940","Big Creek Campground and trails","2025-05-12 14:27",1,47.4929362,-123.2117683,TRUE,FALSE,FALSE,"S237154598"
"485","rebsap","Red-breasted Sapsucker","Sphyrapicus ruber","L14596316","97520, Ashland US-OR 42.07955, -122.60718","2025-05-12 14:24",1,42.079547,-122.607179,TRUE,FALSE,TRUE,"S237126625"
"486","rebsap","Red-breasted Sapsucker","Sphyrapicus ruber","L5954451","Mt. Hood Community College campus--Beaver Creek Overlook (near Facility Dept. dumpsters)","2025-05-12 14:19",1,45.5180006,-122.3903534,TRUE,FALSE,FALSE,"S237098229"
"487","rebsap","Red-breasted Sapsucker","Sphyrapicus ruber","L3225689","Thomas Creek Farm","2025-05-12 13:43",1,45.118641,-122.584936,TRUE,FALSE,TRUE,"S237122094"
"488","rebsap","Red-breasted Sapsucker","Sphyrapicus ruber","L595393","Yosemite NP--Glacier Pt.","2025-05-12 13:40",1,37.7277555,-119.5751953,TRUE,FALSE,FALSE,"S237085502"
"489","rebsap","Red-breasted Sapsucker","Sphyrapicus ruber","L4756268","Field's Riffle","2025-05-12 13:38",1,47.9166297,-122.1268988,TRUE,FALSE,FALSE,"S237148604"
"490","rebsap","Red-breasted Sapsucker","Sphyrapicus ruber","L29370041","logsden 9.5","2025-05-12 13:30",1,44.728833,-123.7678208,TRUE,FALSE,TRUE,"S237200146"
"491","rebsap","Red-breasted Sapsucker","Sphyrapicus ruber","L15451995","Ridgeline Trail--Blanton Ridge trail","2025-05-12 13:19",1,44.007758,-123.108427,TRUE,FALSE,FALSE,"S237100021"
"492","rebsap","Red-breasted Sapsucker","Sphyrapicus ruber","L32127730","Davis creek riparian, 95490, Willits US-CA 39.43059, -123.33403","2025-05-12 12:05",1,39.430587,-123.33403,TRUE,FALSE,TRUE,"S237048658"
"493","rebsap","Red-breasted Sapsucker","Sphyrapicus ruber","L269461","Magnuson Park","2025-05-12 11:49",1,47.6815336,-122.2505453,TRUE,FALSE,FALSE,"S237097958"
"494","rebsap","Red-breasted Sapsucker","Sphyrapicus ruber","L11206455","116th SE, sultan","2025-05-12 11:40",2,47.8930996,-121.8105533,TRUE,FALSE,TRUE,"S237092505"
"495","rebsap","Red-breasted Sapsucker","Sphyrapicus ruber","L3292869","Dungeness NWR--forest trails","2025-05-12 11:18",1,48.1444053,-123.1874228,TRUE,FALSE,FALSE,"S237915886"
"496","rebsap","Red-breasted Sapsucker","Sphyrapicus ruber","L15284819","9 Alpine Court, Vader, Washington, US (46.398, -122.952)","2025-05-12 11:00",1,46.3976896,-122.9516277,TRUE,FALSE,TRUE,"S237028481"
"497","rebsap","Red-breasted Sapsucker","Sphyrapicus ruber","L24860509","6S40, Oakhurst, California, US (37.409, -119.565)","2025-05-12 10:47",1,37.4088852,-119.5648696,TRUE,FALSE,TRUE,"S238360460"
"498","rebsap","Red-breasted Sapsucker","Sphyrapicus ruber","L234899","Onella Road","2025-05-12 10:37",1,48.1246785,-123.6607628,TRUE,FALSE,TRUE,"S237011844"
"499","rebsap","Red-breasted Sapsucker","Sphyrapicus ruber","L3870544","Ketchikan Int. Airport--floatplane base","2025-05-12 10:26",1,55.3585752,-131.7118864,TRUE,FALSE,FALSE,"S237198380"
"500","rebsap","Red-breasted Sapsucker","Sphyrapicus ruber","L8327288","Napavine Community Park","2025-05-12 10:20",1,46.5747198,-122.9152258,TRUE,FALSE,FALSE,"S236999162"
"501","rebsap","Red-breasted Sapsucker","Sphyrapicus ruber","L2684966","Burnt Bridge Creek--Steward Glen Trail","2025-05-12 09:57",1,45.671344,-122.6853991,TRUE,FALSE,FALSE,"S238740440"
"502","rebsap","Red-breasted Sapsucker","Sphyrapicus ruber","L44843677","Lower Lundy Canyon","2025-05-12 09:45",1,38.030721,-119.178671,TRUE,FALSE,TRUE,"S237009444"
"503","rebsap","Red-breasted Sapsucker","Sphyrapicus ruber","L2465026","Pack Forest","2025-05-12 09:42",1,46.8331278,-122.3088736,TRUE,FALSE,FALSE,"S237017191"
"504","rebsap","Red-breasted Sapsucker","Sphyrapicus ruber","L2417450","Osprey Park","2025-05-12 09:40",1,47.8708,-121.82097,TRUE,FALSE,FALSE,"S237032037"
"505","rebsap","Red-breasted Sapsucker","Sphyrapicus ruber","L333703","Point Arena vicinity","2025-05-12 09:11",3,38.9134426,-123.7052393,TRUE,FALSE,FALSE,"S237176160"
"506","rebsap","Red-breasted Sapsucker","Sphyrapicus ruber","L751058","Goose Lake State Recreation Area (Oregon)","2025-05-12 08:52",1,41.9941909,-120.3235781,TRUE,FALSE,FALSE,"S236994550"
"507","rebsap","Red-breasted Sapsucker","Sphyrapicus ruber","L44841515","Besr Creek Wetland, Northeast 143rd Street, Woodinville, Washington, US (47.73, -122.072)","2025-05-12 08:49",1,47.7302179,-122.0715148,TRUE,FALSE,TRUE,"S236997193"
"508","rebsap","Red-breasted Sapsucker","Sphyrapicus ruber","L526876","Black Lake Meadows and Ditch","2025-05-12 08:40",1,47.0275463,-122.9455948,TRUE,FALSE,FALSE,"S237184386"
"509","rebsap","Red-breasted Sapsucker","Sphyrapicus ruber","L30070488","Camp Adahi","2025-05-12 08:24",2,37.407113,-119.596641,TRUE,FALSE,TRUE,"S238360230"
"510","rebsap","Red-breasted Sapsucker","Sphyrapicus ruber","L6480936","Meadowbrook Marsh Park","2025-05-12 08:17",1,45.636408,-122.58108,TRUE,FALSE,FALSE,"S236956743"
"511","rebsap","Red-breasted Sapsucker","Sphyrapicus ruber","L7623361","Illahe Hills Country Club (restricted access)","2025-05-12 08:03",1,44.907703,-123.109568,TRUE,FALSE,FALSE,"S236990892"
"512","rebsap","Red-breasted Sapsucker","Sphyrapicus ruber","L10674741","Starrigavan Bay","2025-05-12 07:58",1,57.1328719,-135.3708656,TRUE,FALSE,TRUE,"S237399391"
"513","rebsap","Red-breasted Sapsucker","Sphyrapicus ruber","L9955160","Skokomish Valley Farms","2025-05-12 07:58",1,47.3267418,-123.2391792,TRUE,FALSE,FALSE,"S237155603"
"514","rebsap","Red-breasted Sapsucker","Sphyrapicus ruber","L20681433","Fishers Creek","2025-05-12 07:46",1,45.590187,-122.489292,TRUE,FALSE,TRUE,"S236899364"
"515","rebsap","Red-breasted Sapsucker","Sphyrapicus ruber","L28607544","Taverner Ridge Ponds/Forest Area","2025-05-12 07:42",1,45.8016602,-122.732616,TRUE,FALSE,TRUE,"S237991057"
"516","rebsap","Red-breasted Sapsucker","Sphyrapicus ruber","L9212227","Stossel Creek","2025-05-12 07:19",1,47.7330849,-121.8512901,TRUE,FALSE,FALSE,"S237034078"
"517","rebsap","Red-breasted Sapsucker","Sphyrapicus ruber","L1393937","Frenchman's Bar Regional Park","2025-05-12 07:15",2,45.6839012,-122.7676324,TRUE,FALSE,FALSE,"S237081147"
"518","rebsap","Red-breasted Sapsucker","Sphyrapicus ruber","L44827016","Eugene-Deerwood RV Park","2025-05-12 07:00",1,43.9957243,-123.0002723,TRUE,FALSE,TRUE,"S236921433"
"519","rebsap","Red-breasted Sapsucker","Sphyrapicus ruber","L26622906","Spoonyville","2025-05-12 06:36",1,45.474281,-122.682671,TRUE,FALSE,TRUE,"S236856619"
"520","rebsap","Red-breasted Sapsucker","Sphyrapicus ruber","L39893944","Faulhaber Rd.","2025-05-12 06:30",3,44.0661831,-123.3666525,TRUE,FALSE,TRUE,"S237204234"
"521","rebsap","Red-breasted Sapsucker","Sphyrapicus ruber","L3631645","Sitka--Indian River-East Tidal Flat","2025-05-12 06:17",1,57.044769,-135.3130417,TRUE,FALSE,FALSE,"S236899801"
"522","rebsap","Red-breasted Sapsucker","Sphyrapicus ruber","L764898","Miner Hole Rd.","2025-05-12 06:04",2,38.9424545,-123.7201309,TRUE,FALSE,FALSE,"S237176645"
"523","rebsap","Red-breasted Sapsucker","Sphyrapicus ruber","L33754947","The Project","2025-05-11 19:38",1,46.676318,-123.742302,TRUE,FALSE,TRUE,"S236707697"
"524","rebsap","Red-breasted Sapsucker","Sphyrapicus ruber","L44788021","Cowee Creek Trail, Juneau US-AK (58.6557,-134.9185)","2025-05-11 17:20",3,58.655671,-134.918458,TRUE,FALSE,TRUE,"S236692729"
"525","rebsap","Red-breasted Sapsucker","Sphyrapicus ruber","L44787444","461 W Old Olympic Hwy, Olympia US-WA 47.09202, -123.08458","2025-05-11 17:02",1,47.092021,-123.084575,TRUE,FALSE,TRUE,"S236689220"
"526","rebsap","Red-breasted Sapsucker","Sphyrapicus ruber","L3530579","Willamette River Greenway Trail (Clackamas Co.)","2025-05-11 16:08",2,45.3718203,-122.6161551,TRUE,FALSE,FALSE,"S236696182"
"527","rebsap","Red-breasted Sapsucker","Sphyrapicus ruber","L738429","Belfair State Park","2025-05-11 15:38",1,47.4293937,-122.8781319,TRUE,FALSE,FALSE,"S236639636"
"528","rebsap","Red-breasted Sapsucker","Sphyrapicus ruber","L44776316","1922–2250 Center Rd, Chimacum US-WA 47.98218, -122.77111","2025-05-11 15:31",1,47.982183,-122.771111,TRUE,FALSE,TRUE,"S236622804"
"529","rebsap","Red-breasted Sapsucker","Sphyrapicus ruber","L486310","Sly Park Rec Area","2025-05-11 15:28",1,38.7210101,-120.5626774,TRUE,FALSE,FALSE,"S236666259"
"530","rebsap","Red-breasted Sapsucker","Sphyrapicus ruber","L28452247","Petersburg - Airport (waterline) Access Road","2025-05-11 15:22",1,56.7986453,-132.9462761,TRUE,FALSE,TRUE,"S236725701"
"531","rebsap","Red-breasted Sapsucker","Sphyrapicus ruber","L159602","Silver Falls SP","2025-05-11 15:17",1,44.8625491,-122.6326561,TRUE,FALSE,FALSE,"S236976525"
"532","rebsap","Red-breasted Sapsucker","Sphyrapicus ruber","L1585980","Rush Creek inlet to Grant Lake","2025-05-11 15:12",1,37.8105676,-119.1095028,TRUE,FALSE,TRUE,"S236676718"
"533","rebsap","Red-breasted Sapsucker","Sphyrapicus ruber","L2812781","River Park (SIS Co.)","2025-05-11 14:59",NA,41.7942244,-123.3699846,TRUE,FALSE,FALSE,"S236636596"
"534","rebsap","Red-breasted Sapsucker","Sphyrapicus ruber","L7127346","kruzoff island - little ponds on sea lion cove trail","2025-05-11 13:54",1,57.3019087,-135.8099413,TRUE,FALSE,TRUE,"S237582804"
"535","rebsap","Red-breasted Sapsucker","Sphyrapicus ruber","L2414243","Sandy River Mouth--West Bank","2025-05-11 13:47",1,45.5644545,-122.3985904,TRUE,FALSE,FALSE,"S236634122"
"536","rebsap","Red-breasted Sapsucker","Sphyrapicus ruber","L1363011","Huntington Lake--boat ramp","2025-05-11 13:37",1,37.2504632,-119.1732478,TRUE,FALSE,FALSE,"S236619427"
"537","rebsap","Red-breasted Sapsucker","Sphyrapicus ruber","L390444","Markleeville","2025-05-11 13:27",2,38.6945372,-119.7799659,TRUE,FALSE,FALSE,"S236587570"
"538","rebsap","Red-breasted Sapsucker","Sphyrapicus ruber","L15802071","Silver Falls State Park, Sublimity US-OR 44.88262, -122.66819","2025-05-11 12:52",1,44.88262,-122.668193,TRUE,FALSE,TRUE,"S236676501"
"539","rebsap","Red-breasted Sapsucker","Sphyrapicus ruber","L9974891","Bullard Lake","2025-05-11 12:07",2,48.7083128,-122.4408759,TRUE,FALSE,FALSE,"S236538732"
"540","rebsap","Red-breasted Sapsucker","Sphyrapicus ruber","L44760183","Bald Hill Parking Path","2025-05-11 11:47",1,44.561064,-123.328645,TRUE,FALSE,TRUE,"S236542928"
"541","rebsap","Red-breasted Sapsucker","Sphyrapicus ruber","L43418988","NF-4600-330  at 1.4 mi","2025-05-11 11:41",1,44.8499585,-121.8884656,TRUE,FALSE,TRUE,"S237364669"
"542","rebsap","Red-breasted Sapsucker","Sphyrapicus ruber","L44768279","Crown Zellerbach Logging Road, Scappoose US-OR 45.82479, -122.96789","2025-05-11 11:36",2,45.824786,-122.967888,TRUE,FALSE,TRUE,"S236581875"
"543","rebsap","Red-breasted Sapsucker","Sphyrapicus ruber","L33183671","Meskill Rd","2025-05-11 11:24",1,46.6210783,-123.1488122,TRUE,FALSE,TRUE,"S236510007"
"544","rebsap","Red-breasted Sapsucker","Sphyrapicus ruber","L1170702","West Hylebos Wetlands Park","2025-05-11 11:11",1,47.2896511,-122.329073,TRUE,FALSE,FALSE,"S236572785"
"545","rebsap","Red-breasted Sapsucker","Sphyrapicus ruber","L807150","Willamette Park (Benton Co.)","2025-05-11 11:09",1,44.5410582,-123.2462597,TRUE,FALSE,FALSE,"S236485489"
"546","rebsap","Red-breasted Sapsucker","Sphyrapicus ruber","L10674875","Camp 18","2025-05-11 11:00",1,45.8861622,-123.6149025,TRUE,FALSE,FALSE,"S236477508"
"547","rebsap","Red-breasted Sapsucker","Sphyrapicus ruber","L23834283","Castle Lanzenstein","2025-05-11 10:32",1,47.305894,-123.075799,TRUE,FALSE,TRUE,"S236524790"
"548","rebsap","Red-breasted Sapsucker","Sphyrapicus ruber","L2862330","Manastash Ridge Trail System--Cove Road","2025-05-11 10:30",1,46.9656,-120.6459,TRUE,FALSE,FALSE,"S236665683"
"549","rebsap","Red-breasted Sapsucker","Sphyrapicus ruber","L6110641","Olympic NF--Lower Skokomish Trail mile 0-5","2025-05-11 10:09",3,47.4279256,-123.3523789,TRUE,FALSE,FALSE,"S236698137"
"550","rebsap","Red-breasted Sapsucker","Sphyrapicus ruber","L520659","McLane Creek Nature Trail","2025-05-11 10:00",NA,47.0005389,-123.0049896,TRUE,FALSE,FALSE,"S237742728"
"551","rebsap","Red-breasted Sapsucker","Sphyrapicus ruber","L8315368","Jubilee Beach","2025-05-11 10:00",1,47.1052388,-122.7367076,TRUE,FALSE,TRUE,"S236627799"
"552","rebsap","Red-breasted Sapsucker","Sphyrapicus ruber","L41658468","Reed College west off-leash area","2025-05-11 09:46",1,45.4838,-122.635819,TRUE,FALSE,TRUE,"S236453922"
"553","rebsap","Red-breasted Sapsucker","Sphyrapicus ruber","L1015237","Wrangell--City Dock","2025-05-11 09:45",1,56.4709629,-132.3887193,TRUE,FALSE,FALSE,"S236504001"
"554","rebsap","Red-breasted Sapsucker","Sphyrapicus ruber","L3106819","Whites Creek Canyon","2025-05-11 09:17",2,39.3818286,-119.845916,TRUE,FALSE,FALSE,"S236480216"
"555","rebsap","Red-breasted Sapsucker","Sphyrapicus ruber","L2847144","Bellingham--Cedar and Pine Lake Trail","2025-05-11 09:10",1,48.6768504,-122.4474764,TRUE,FALSE,FALSE,"S236511430"
"556","rebsap","Red-breasted Sapsucker","Sphyrapicus ruber","L931349","William L. Finley NWR--Mill Hill Loop","2025-05-11 09:04",1,44.401564,-123.3449221,TRUE,FALSE,FALSE,"S236575971"
"557","rebsap","Red-breasted Sapsucker","Sphyrapicus ruber","L18316109","103 Hillcrest, Thorne Bay, Alaska, US (55.688, -132.524)","2025-05-11 08:59",3,55.6881166,-132.5244388,TRUE,FALSE,TRUE,"S236472580"
"558","rebsap","Red-breasted Sapsucker","Sphyrapicus ruber","L18931277","31912 Camas Swale Road, Creswell, Oregon, US (43.921, -123.085)","2025-05-11 08:56",1,43.9211449,-123.0853524,TRUE,FALSE,TRUE,"S238362764"
"559","rebsap","Red-breasted Sapsucker","Sphyrapicus ruber","L1080782","Spanish Creek and Greenhorn Creek confluence","2025-05-11 08:40",1,39.9682403,-120.9153557,TRUE,FALSE,FALSE,"S236921183"
"560","rebsap","Red-breasted Sapsucker","Sphyrapicus ruber","L285943","Bird Alliance of Oregon Sanctuary (formerly Portland Audubon)","2025-05-11 08:38",1,45.5277023,-122.7291892,TRUE,FALSE,FALSE,"S236886384"
"561","rebsap","Red-breasted Sapsucker","Sphyrapicus ruber","L996128","Yosemite NP--Mariposa Grove","2025-05-11 08:34",1,37.51,-119.603,TRUE,FALSE,FALSE,"S236544825"
"562","rebsap","Red-breasted Sapsucker","Sphyrapicus ruber","L10056263","Hyatt Prairie Rd.--Dead Indian Memorial Rd.","2025-05-11 08:31",1,42.2658752,-122.4492359,TRUE,FALSE,FALSE,"S236368327"
"563","rebsap","Red-breasted Sapsucker","Sphyrapicus ruber","L44641292","Clark","2025-05-11 08:30",1,45.6082182,-122.5464596,TRUE,FALSE,TRUE,"S236410434"
