"","speciesCode","comName","sciName","locId","locName","obsDt","howMany","lat","lng","obsValid","obsReviewed","locationPrivate","subId"
"1","hawama","Hawaii Amakihi","Chlorodrepanis virens","L370534","Kaulana Manu Nature Trail (""Kīpuka 21"")","2025-05-11 08:19",1,19.6713676,-155.3679389,TRUE,FALSE,FALSE,"S236525421"
"2","hawama","Hawaii Amakihi","Chlorodrepanis virens","L10744386","Volcano, Hawaii","2025-05-11 07:33",2,19.428242,-155.23574,TRUE,FALSE,TRUE,"S236471154"
"3","hawama","Hawaii Amakihi","Chlorodrepanis virens","L38987466","19-4318 Haunani Rd, Mountain View US-HI (19.4471,-155.2456)","2025-05-10 20:19",1,19.447113,-155.245573,TRUE,FALSE,TRUE,"S236069410"
"4","hawama","Hawaii Amakihi","Chlorodrepanis virens","L44663984","Kipukapuaulu, Volcano, Hawaii, US (19.438, -155.303)","2025-05-10 15:39",3,19.4382836,-155.3030599,TRUE,FALSE,TRUE,"S236040929"
"5","hawama","Hawaii Amakihi","Chlorodrepanis virens","L880985","Pu'u Huluhulu Sanctuary (on Saddle Road)","2025-05-10 12:11",4,19.687122,-155.4664028,TRUE,FALSE,FALSE,"S236065365"
"6","hawama","Hawaii Amakihi","Chlorodrepanis virens","L44663345","Old Puu Oo Trail, Holualoa US-HI 19.67703, -155.38441","2025-05-10 12:09",4,19.677033,-155.384407,TRUE,FALSE,TRUE,"S236037142"
"7","hawama","Hawaii Amakihi","Chlorodrepanis virens","L695639","Hakalau Forest NWR--Pua Akala Tract (restricted access)","2025-05-10 09:15",30,19.7895,-155.3262,TRUE,FALSE,FALSE,"S236585403"
"8","hawama","Hawaii Amakihi","Chlorodrepanis virens","L1291660","Top of Kaloko Drive and Huehue Street (restricted access)","2025-05-10 08:51",6,19.7199289,-155.9191704,TRUE,FALSE,FALSE,"S235767958"
"9","hawama","Hawaii Amakihi","Chlorodrepanis virens","L21014880","HI: Mana Road (19.739, -155.382)","2025-05-10 08:26",2,19.7388791,-155.3818278,TRUE,FALSE,TRUE,"S236543026"
"10","hawama","Hawaii Amakihi","Chlorodrepanis virens","L44666930","Mana Road, Hilo, Hawaii, US (19.726, -155.411)","2025-05-10 08:06",1,19.7264704,-155.4114004,TRUE,FALSE,TRUE,"S236057407"
"11","hawama","Hawaii Amakihi","Chlorodrepanis virens","L285822","Hawaiʻi Volcanoes NP--Kīpuka Puaulu","2025-05-10 07:40",2,19.4405764,-155.3024554,TRUE,FALSE,FALSE,"S235983684"
"12","hawama","Hawaii Amakihi","Chlorodrepanis virens","L28843431","HI: Keanakolu/Mana Road (19.713, -155.447)","2025-05-10 07:23",2,19.7126757,-155.4472424,TRUE,FALSE,TRUE,"S236079751"
"13","hawama","Hawaii Amakihi","Chlorodrepanis virens","L44509750","Crater Rim Dr, Pahoa US-HI (19.4053,-155.2534)","2025-05-09 13:57",2,19.405307,-155.25343,TRUE,FALSE,TRUE,"S235254526"
"14","hawama","Hawaii Amakihi","Chlorodrepanis virens","L1427175","Hawaiʻi Volcanoes NP--Chain of Craters Road, Puhimau Area Only","2025-05-09 09:52",2,19.3920129,-155.2494434,TRUE,FALSE,FALSE,"S235213895"
"15","hawama","Hawaii Amakihi","Chlorodrepanis virens","L7615600","Hosmer Grove Campground","2025-05-09 07:35",1,20.7682265,-156.2381816,TRUE,FALSE,FALSE,"S235127429"
"16","hawama","Hawaii Amakihi","Chlorodrepanis virens","L330847","Manuka State Park (wayside and loop trail only)","2025-05-08 12:39",18,19.1095687,-155.8261299,TRUE,FALSE,FALSE,"S234826722"
"17","hawama","Hawaii Amakihi","Chlorodrepanis virens","L44431605","Kahuku Palm Trail, Captain Cook US-HI 19.09727, -155.68767","2025-05-08 12:09",3,19.097268,-155.687671,TRUE,FALSE,TRUE,"S234826810"
"18","hawama","Hawaii Amakihi","Chlorodrepanis virens","L247163","Haleakala NP--Hosmer Grove","2025-05-08 11:11",2,20.7684183,-156.2365883,TRUE,FALSE,FALSE,"S234768011"
"19","hawama","Hawaii Amakihi","Chlorodrepanis virens","L2599954","Hawaii Volcanoes NP--Glover Trail (Kahuku Unit)","2025-05-08 10:13",29,19.1301265,-155.6992936,TRUE,FALSE,FALSE,"S234826682"
"20","hawama","Hawaii Amakihi","Chlorodrepanis virens","L26879853","MFBRP Cottage","2025-05-08 10:00",3,20.809697,-156.278788,TRUE,FALSE,TRUE,"S235322102"
"21","hawama","Hawaii Amakihi","Chlorodrepanis virens","L366605","Pu'u O'o Trail, Kipuka Ainahou section (first 2 miles)","2025-05-07 10:01",23,19.6714434,-155.3849602,TRUE,FALSE,FALSE,"S234442077"
"22","hawama","Hawaii Amakihi","Chlorodrepanis virens","L36927701","Ali’i Kula Lavender Farm","2025-05-05 11:34",4,20.733456,-156.31859,TRUE,FALSE,TRUE,"S233595401"
"23","hawama","Hawaii Amakihi","Chlorodrepanis virens","L44146875","Puʻu Waʻawaʻa Forest Reserve, Kailua Kona US-HI 19.80040, -155.83886","2025-05-04 08:52",1,19.800396,-155.838864,TRUE,FALSE,TRUE,"S233215834"
"24","hawama","Hawaii Amakihi","Chlorodrepanis virens","L17170303","Kilohana Hunter Checking Station, Kaʻohe GMA","2025-05-04 08:33",1,19.8078193,-155.6297627,TRUE,FALSE,FALSE,"S233238770"
"25","hawama","Hawaii Amakihi","Chlorodrepanis virens","L285811","Powerline Road and far kipukas on Pu'u O'o Trail","2025-05-04 08:24",22,19.6482527,-155.3710127,TRUE,FALSE,FALSE,"S233285512"
"26","hawama","Hawaii Amakihi","Chlorodrepanis virens","L8599253","Honua‘ula Forest Reserve (Makāula -‘O‘oma section)","2025-05-03 08:47",1,19.7179801,-155.9487784,TRUE,FALSE,FALSE,"S232654974"
