"","speciesCode","comName","sciName","locId","locName","obsDt","howMany","lat","lng","obsValid","obsReviewed","locationPrivate","subId"
"1","ruwspa","Rufous-winged Sparrow","Peucaea carpalis","L38806939","Grassland Yard","2025-06-14 09:08",1,31.9378743,-110.7617693,TRUE,FALSE,TRUE,"S250247937"
"2","ruwspa","Rufous-winged Sparrow","Peucaea carpalis","L689527","Sabino Dam and downstream riparian","2025-06-14 08:38",1,32.3131068,-110.8113941,TRUE,FALSE,FALSE,"S250271003"
"3","ruwspa","Rufous-winged Sparrow","Peucaea carpalis","L11229243","Our 'Habitat at Home'","2025-06-14 07:40",1,32.3066877,-110.9521783,TRUE,FALSE,TRUE,"S250240335"
"4","ruwspa","Rufous-winged Sparrow","Peucaea carpalis","L5044127","Green Valley yard","2025-06-14 07:25",1,31.8196182,-111.0124657,TRUE,FALSE,TRUE,"S250218354"
"5","ruwspa","Rufous-winged Sparrow","Peucaea carpalis","L128870","Agua Caliente Park","2025-06-14 07:18",1,32.2806015,-110.7303009,TRUE,FALSE,FALSE,"S250236439"
"6","ruwspa","Rufous-winged Sparrow","Peucaea carpalis","L35253415","My yard Green Valley","2025-06-14 07:00",1,31.870396,-111.009451,TRUE,FALSE,TRUE,"S250208813"
"7","ruwspa","Rufous-winged Sparrow","Peucaea carpalis","L1115897","Canoa Ranch Conservation Park","2025-06-14 06:29",3,31.7948045,-111.0156226,TRUE,FALSE,FALSE,"S250227962"
"8","ruwspa","Rufous-winged Sparrow","Peucaea carpalis","L128938","Catalina SP","2025-06-14 06:15",1,32.4244027,-110.9123905,TRUE,FALSE,FALSE,"S250212129"
"9","ruwspa","Rufous-winged Sparrow","Peucaea carpalis","L1400591","Rio Vista Natural Resource Park","2025-06-14 06:08",4,32.2800719,-110.9326502,TRUE,FALSE,FALSE,"S250320483"
"10","ruwspa","Rufous-winged Sparrow","Peucaea carpalis","L245447","Fort Lowell Park and Pantano Wash","2025-06-14 05:45",1,32.2605631,-110.8727628,TRUE,FALSE,FALSE,"S250207801"
"11","ruwspa","Rufous-winged Sparrow","Peucaea carpalis","L47578774","85739, Tucson US-AZ (32.4532,-110.8861)","2025-06-14 05:43",2,32.453157,-110.886132,TRUE,FALSE,TRUE,"S250184711"
"12","ruwspa","Rufous-winged Sparrow","Peucaea carpalis","L13330280","Patty’s Yard, Tucson, AZ","2025-06-14 05:28",1,32.402364,-111.062303,TRUE,FALSE,TRUE,"S250147934"
"13","ruwspa","Rufous-winged Sparrow","Peucaea carpalis","L46523977","Stetson Casita","2025-06-13 18:55",2,32.270726,-110.752451,TRUE,FALSE,TRUE,"S250039009"
"14","ruwspa","Rufous-winged Sparrow","Peucaea carpalis","L913627","Green Valley--Desert Meadows Park","2025-06-13 10:29",1,31.8552155,-110.9860539,TRUE,FALSE,FALSE,"S249906093"
"15","ruwspa","Rufous-winged Sparrow","Peucaea carpalis","L20329824","Oro Valley Home (private)","2025-06-13 09:00",1,32.4330004,-110.9912966,TRUE,FALSE,TRUE,"S250042092"
"16","ruwspa","Rufous-winged Sparrow","Peucaea carpalis","L128879","Arizona-Sonora Desert Museum (please do not report captive birds)","2025-06-13 08:35",1,32.2437113,-111.168125,TRUE,FALSE,FALSE,"S249879469"
"17","ruwspa","Rufous-winged Sparrow","Peucaea carpalis","L2759867","Anza Trail--Palo Parado Rd (Richard Williams Trailhead)","2025-06-13 08:17",1,31.5309397,-111.0165882,TRUE,FALSE,FALSE,"S249951584"
"18","ruwspa","Rufous-winged Sparrow","Peucaea carpalis","L35435191","14900–14998 W Hardin Rd, Marana US-AZ 32.49487, -111.27027","2025-06-13 08:14",1,32.49487,-111.270273,TRUE,FALSE,TRUE,"S249865161"
"19","ruwspa","Rufous-winged Sparrow","Peucaea carpalis","L273411","Tucson Bird Alliance Mason Center","2025-06-13 07:37",1,32.3655786,-111.0477639,TRUE,FALSE,FALSE,"S249854049"
"20","ruwspa","Rufous-winged Sparrow","Peucaea carpalis","L2883481","The Ice House","2025-06-13 07:00",1,31.4920438,-110.9900558,TRUE,FALSE,TRUE,"S249843467"
"21","ruwspa","Rufous-winged Sparrow","Peucaea carpalis","L14058931","Topacios","2025-06-13 06:45",1,31.860249,-110.9997695,TRUE,FALSE,TRUE,"S249862344"
"22","ruwspa","Rufous-winged Sparrow","Peucaea carpalis","L44833671","Bosque Creek Preserve","2025-06-13 06:17",5,32.2665019,-110.8802003,TRUE,FALSE,TRUE,"S249853933"
"23","ruwspa","Rufous-winged Sparrow","Peucaea carpalis","L1091644","La Posta Quemada Ranch","2025-06-13 06:10",1,32.0512984,-110.6363797,TRUE,FALSE,FALSE,"S249858350"
"24","ruwspa","Rufous-winged Sparrow","Peucaea carpalis","L47500009","Arthur Pack Regional Park, Tucson US-AZ 32.37316, -111.05355","2025-06-13 06:06",1,32.373165,-111.05355,TRUE,FALSE,TRUE,"S249841954"
"25","ruwspa","Rufous-winged Sparrow","Peucaea carpalis","L46987135","Blue River Loop","2025-06-13 05:57",1,31.954315,-110.756155,TRUE,FALSE,TRUE,"S250023447"
"26","ruwspa","Rufous-winged Sparrow","Peucaea carpalis","L11172420","SHARP (Southeast Houghton Area Recharge Project)","2025-06-13 05:39",2,32.1475886,-110.7812904,TRUE,FALSE,FALSE,"S249884524"
"27","ruwspa","Rufous-winged Sparrow","Peucaea carpalis","L16235462","Saguaro NP--East--Javelina Rocks","2025-06-12 19:37",3,32.1741867,-110.7174039,TRUE,FALSE,FALSE,"S249708297"
"28","ruwspa","Rufous-winged Sparrow","Peucaea carpalis","L47475097","San Juan Wash","2025-06-12 18:43",3,31.815271,-111.326601,TRUE,FALSE,TRUE,"S249718469"
"29","ruwspa","Rufous-winged Sparrow","Peucaea carpalis","L37332307","7741 S Solomon Ave, Tucson US-AZ 32.11103, -110.78143 (Private)","2025-06-12 17:06",1,32.111028,-110.781427,TRUE,FALSE,TRUE,"S249929779"
"30","ruwspa","Rufous-winged Sparrow","Peucaea carpalis","L40131616","Rooney Ranch Shopping Center","2025-06-12 09:04",4,32.403391,-110.953618,TRUE,FALSE,TRUE,"S249595988"
"31","ruwspa","Rufous-winged Sparrow","Peucaea carpalis","L3642537","Portal--Jasper/Moisan feeders (opened 2015)","2025-06-12 08:44",1,31.9144645,-109.1443118,TRUE,TRUE,FALSE,"S249597423"
"32","ruwspa","Rufous-winged Sparrow","Peucaea carpalis","L994658","Portal--Bob Rodrigues yard (Dave Jasper's old yard)","2025-06-12 07:24",1,31.921224,-109.1282621,TRUE,TRUE,FALSE,"S249532946"
"33","ruwspa","Rufous-winged Sparrow","Peucaea carpalis","L28568284","Unnamed Road, Tucson, Arizona, US (31.813, -111.315)","2025-06-12 06:33",2,31.8134485,-111.3148999,TRUE,FALSE,TRUE,"S249549473"
"34","ruwspa","Rufous-winged Sparrow","Peucaea carpalis","L290333","Arthur Pack Regional Park","2025-06-12 06:20",2,32.3733753,-111.0535231,TRUE,FALSE,FALSE,"S249535657"
"35","ruwspa","Rufous-winged Sparrow","Peucaea carpalis","L17512069","Canoa Hills Trails Park","2025-06-12 06:05",2,31.8215076,-111.0156773,TRUE,FALSE,FALSE,"S249507864"
"36","ruwspa","Rufous-winged Sparrow","Peucaea carpalis","L13265417","Vail-Coyote Creek Gated Community-Restricted Access","2025-06-12 06:05",1,32.0969444,-110.6661111,TRUE,FALSE,TRUE,"S249522295"
"37","ruwspa","Rufous-winged Sparrow","Peucaea carpalis","L12041748","Peggy's House","2025-06-11 16:34",1,32.334523,-111.022757,TRUE,FALSE,TRUE,"S249394205"
"38","ruwspa","Rufous-winged Sparrow","Peucaea carpalis","L11434655","85736, Tucson US-AZ 31.81721, -111.32629","2025-06-11 11:53",1,31.817213,-111.326293,TRUE,FALSE,TRUE,"S249321771"
"39","ruwspa","Rufous-winged Sparrow","Peucaea carpalis","L1298829","Sabino Canyon Rec Area--Sabino Canyon Rd 1st 0.7 mile","2025-06-11 08:30",1,32.314417,-110.8184141,TRUE,FALSE,TRUE,"S249221569"
"40","ruwspa","Rufous-winged Sparrow","Peucaea carpalis","L17264691","Anza Trail--north of Desert Meadows Park","2025-06-11 07:41",2,31.8592836,-110.9851899,TRUE,FALSE,FALSE,"S249239591"
"41","ruwspa","Rufous-winged Sparrow","Peucaea carpalis","L39144582","840 N Solar Dr, Vail US-AZ 31.97893, -110.71480","2025-06-11 07:03",1,31.978933,-110.714797,TRUE,FALSE,TRUE,"S249200446"
"42","ruwspa","Rufous-winged Sparrow","Peucaea carpalis","L47354554","Canoa Ranch Golf Club, Green Valley US-AZ 31.78766, -111.03257","2025-06-11 05:45",1,31.787657,-111.032572,TRUE,FALSE,TRUE,"S249158644"
"43","ruwspa","Rufous-winged Sparrow","Peucaea carpalis","L4179908","Rillito River Park--Swan to Craycroft","2025-06-11 05:24",1,32.268967,-110.882987,TRUE,FALSE,FALSE,"S249204819"
"44","ruwspa","Rufous-winged Sparrow","Peucaea carpalis","L1276509","Sabino Canyon Rec Area--Bear Canyon Trail #29 west","2025-06-11 05:21",1,32.3095632,-110.8155513,TRUE,FALSE,TRUE,"S249153480"
"45","ruwspa","Rufous-winged Sparrow","Peucaea carpalis","L18374697","Neighborhood","2025-06-11 05:20",5,32.299102,-110.835621,TRUE,FALSE,TRUE,"S249171500"
"46","ruwspa","Rufous-winged Sparrow","Peucaea carpalis","L4813914","backyard in Oro Valley","2025-06-11 05:15",1,32.431846,-110.9916544,TRUE,FALSE,TRUE,"S249390999"
"47","ruwspa","Rufous-winged Sparrow","Peucaea carpalis","L128986","San Pedro RNCA--Hereford Bridge","2025-06-11 05:10",2,31.4384285,-110.1076526,TRUE,TRUE,FALSE,"S249312747"
"48","ruwspa","Rufous-winged Sparrow","Peucaea carpalis","L47391610","Madera Nature Trail, Green Valley US-AZ 31.74122, -110.88697","2025-06-11 05:03",1,31.741221,-110.886973,TRUE,FALSE,TRUE,"S249321040"
"49","ruwspa","Rufous-winged Sparrow","Peucaea carpalis","L611731","Corona de Tucson WTP (closed 2014)","2025-06-10 13:57",1,31.9718872,-110.7983208,TRUE,FALSE,FALSE,"S248984460"
"50","ruwspa","Rufous-winged Sparrow","Peucaea carpalis","L21883530","Piest home in Vail","2025-06-10 11:16",1,32.07903,-110.6577817,TRUE,FALSE,TRUE,"S248938628"
"51","ruwspa","Rufous-winged Sparrow","Peucaea carpalis","L6175589","Market House","2025-06-10 10:11",1,31.603425,-111.046801,TRUE,FALSE,TRUE,"S249155215"
"52","ruwspa","Rufous-winged Sparrow","Peucaea carpalis","L720448","Vekol Valley (Maricopa Co.)","2025-06-10 09:53",2,32.6980441,-112.2232819,TRUE,TRUE,FALSE,"S248948446"
"53","ruwspa","Rufous-winged Sparrow","Peucaea carpalis","L29223905","Sonoran Reserve Apartments (no public access)","2025-06-10 06:30",1,32.221578,-111.025705,TRUE,FALSE,TRUE,"S248936284"
"54","ruwspa","Rufous-winged Sparrow","Peucaea carpalis","L280327","Tohono Chul Park","2025-06-10 05:45",2,32.339313,-110.9812742,TRUE,FALSE,FALSE,"S248863931"
"55","ruwspa","Rufous-winged Sparrow","Peucaea carpalis","L2061829","Milagro","2025-06-10 05:18",1,32.2624198,-111.0307235,TRUE,FALSE,TRUE,"S249010834"
"56","ruwspa","Rufous-winged Sparrow","Peucaea carpalis","L234314","Anza Trail--Tubac","2025-06-10 05:03",1,31.6128313,-111.040829,TRUE,FALSE,FALSE,"S248864774"
"57","ruwspa","Rufous-winged Sparrow","Peucaea carpalis","L21646834","AZLegendsSuperiorTrail","2025-06-10 04:50",1,33.277437,-111.139952,TRUE,FALSE,TRUE,"S248885895"
"58","ruwspa","Rufous-winged Sparrow","Peucaea carpalis","L797613","E. Camino del Toro","2025-06-09 19:54",2,31.9475012,-110.7666492,TRUE,FALSE,TRUE,"S248733731"
"59","ruwspa","Rufous-winged Sparrow","Peucaea carpalis","L47121387","Corona De Tucson","2025-06-09 19:03",1,31.949868,-110.756858,TRUE,FALSE,TRUE,"S248732933"
"60","ruwspa","Rufous-winged Sparrow","Peucaea carpalis","L1735043","Saguaro NP--East--Cactus Forest Dr Loop","2025-06-09 14:39",1,32.191219,-110.7076505,TRUE,FALSE,FALSE,"S248710323"
"61","ruwspa","Rufous-winged Sparrow","Peucaea carpalis","L29117391","Arizona National Golf Club, Tucson US-AZ","2025-06-09 06:46",1,32.301393,-110.777901,TRUE,FALSE,TRUE,"S248549905"
"62","ruwspa","Rufous-winged Sparrow","Peucaea carpalis","L7843372","Vekol Valley--South Vekol Well","2025-06-09 05:10",2,32.7379985,-112.2309233,TRUE,TRUE,FALSE,"S248654910"
"63","ruwspa","Rufous-winged Sparrow","Peucaea carpalis","L36616356","Rancho Cancion north-central","2025-06-08 13:45",1,32.169196,-110.7614135,TRUE,FALSE,TRUE,"S248296798"
"64","ruwspa","Rufous-winged Sparrow","Peucaea carpalis","L17345174","Vistoso Trails Nature Preserve","2025-06-08 05:58",4,32.4544094,-110.9822788,TRUE,FALSE,FALSE,"S248311619"
"65","ruwspa","Rufous-winged Sparrow","Peucaea carpalis","L10783458","Kate’s Place Petirrojo, Green Valley US-AZ 31.81442, -111.01367","2025-06-08 05:52",2,31.814398,-111.0136164,TRUE,FALSE,TRUE,"S248082063"
"66","ruwspa","Rufous-winged Sparrow","Peucaea carpalis","L17491396","Anza Trail east of Green Valley Country Club Estates","2025-06-08 05:32",6,31.8824926,-110.9775103,TRUE,FALSE,TRUE,"S248085565"
"67","ruwspa","Rufous-winged Sparrow","Peucaea carpalis","L26697436","Green Valley--Yard","2025-06-07 16:16",1,31.8111253,-111.004142,TRUE,FALSE,TRUE,"S247905340"
"68","ruwspa","Rufous-winged Sparrow","Peucaea carpalis","L10235391","1188 YardBirds, Green Valley US-AZ (31.8562,-110.9608)","2025-06-07 16:07",1,31.8561598,-110.9606013,TRUE,FALSE,TRUE,"S247931087"
"69","ruwspa","Rufous-winged Sparrow","Peucaea carpalis","L39407676","Tanque Verde Ranch (please check in @ reception office)","2025-06-07 09:46",2,32.2420804,-110.6842503,TRUE,FALSE,FALSE,"S247771300"
"70","ruwspa","Rufous-winged Sparrow","Peucaea carpalis","L7740220","Saguaro NP--East--Broadway trailhead","2025-06-07 09:10",1,32.2207405,-110.7261643,TRUE,FALSE,FALSE,"S247771841"
"71","ruwspa","Rufous-winged Sparrow","Peucaea carpalis","L2464547","Deer Rd (private)","2025-06-07 07:50",1,31.9214289,-109.1242146,TRUE,TRUE,TRUE,"S247714698"
"72","ruwspa","Rufous-winged Sparrow","Peucaea carpalis","L47153771","Arizona National Golf Club, Tucson US-AZ 32.30163, -110.78447","2025-06-07 07:20",2,32.301629,-110.784471,TRUE,FALSE,TRUE,"S248234575"
"73","ruwspa","Rufous-winged Sparrow","Peucaea carpalis","L47025020","Mica View Access Rd, Tucson US-AZ 32.20531, -110.72963","2025-06-07 06:11",1,32.205308,-110.729626,TRUE,FALSE,TRUE,"S247682191"
"74","ruwspa","Rufous-winged Sparrow","Peucaea carpalis","L774996","Rillito River Park--Columbus Weed Patch","2025-06-07 05:46",1,32.2732364,-110.9032059,TRUE,FALSE,FALSE,"S247645461"
"75","ruwspa","Rufous-winged Sparrow","Peucaea carpalis","L21119825","Stephen’s 9461 E Ramsey Rd, Sierra Vista US-AZ 31.46771, -110.15274","2025-06-07 04:55",1,31.467714,-110.152735,TRUE,TRUE,TRUE,"S247609574"
"76","ruwspa","Rufous-winged Sparrow","Peucaea carpalis","L208918","Sweetwater Wetlands","2025-06-06 17:51",1,32.2790144,-111.0216061,TRUE,FALSE,FALSE,"S247507623"
"77","ruwspa","Rufous-winged Sparrow","Peucaea carpalis","L46983027","East Valley Vista Drive, Hereford, Arizona, US (31.423, -110.239)","2025-06-06 16:42",2,31.422932,-110.2388235,TRUE,TRUE,TRUE,"S247489936"
"78","ruwspa","Rufous-winged Sparrow","Peucaea carpalis","L46961156","Canoa Ranch Rest Area","2025-06-06 11:51",1,31.770875,-111.034493,TRUE,FALSE,TRUE,"S247387868"
"79","ruwspa","Rufous-winged Sparrow","Peucaea carpalis","L3223531","US-AZ-Tucson-1100 W Pima Mine Rd Casino","2025-06-06 10:27",1,32.004076,-110.988365,TRUE,FALSE,TRUE,"S247685687"
"80","ruwspa","Rufous-winged Sparrow","Peucaea carpalis","L43097944","Sunrise Patio Homes","2025-06-06 09:58",1,32.2886442,-110.8741938,TRUE,FALSE,TRUE,"S247377375"
"81","ruwspa","Rufous-winged Sparrow","Peucaea carpalis","L4329362","Judy's yard","2025-06-06 06:02",1,31.833583,-110.997406,TRUE,FALSE,TRUE,"S247282928"
"82","ruwspa","Rufous-winged Sparrow","Peucaea carpalis","L749795","Grasslands between Proctor Rd and Florida Wash","2025-06-06 05:35",2,31.769332,-110.8873272,TRUE,FALSE,FALSE,"S247359707"
"83","ruwspa","Rufous-winged Sparrow","Peucaea carpalis","L21899784","Tanque Verde Ranch","2025-06-06 05:15",10,32.242287,-110.685274,TRUE,FALSE,TRUE,"S247298535"
"84","ruwspa","Rufous-winged Sparrow","Peucaea carpalis","L352346","Santa Gertrudis Lane (foot access only)","2025-06-05 10:01",1,31.5620883,-111.0473766,TRUE,FALSE,FALSE,"S247071122"
"85","ruwspa","Rufous-winged Sparrow","Peucaea carpalis","L13901775","Canoa Ranch Golf Resort, Green Valley US-AZ 31.79455, -111.02206","2025-06-05 09:37",1,31.794555,-111.022062,TRUE,FALSE,TRUE,"S247004246"
"86","ruwspa","Rufous-winged Sparrow","Peucaea carpalis","L18187183","Saguaro NP--East--Cactus Forest Overlook","2025-06-05 09:36",2,32.198267,-110.735012,TRUE,FALSE,FALSE,"S247028744"
"87","ruwspa","Rufous-winged Sparrow","Peucaea carpalis","L35151254","15990 S Rancho Sahuarita Blvd, Sahuarita US-AZ 31.95975, -110.98520","2025-06-05 08:57",3,31.959751,-110.9852,TRUE,FALSE,TRUE,"S246993299"
"88","ruwspa","Rufous-winged Sparrow","Peucaea carpalis","L9326333","Saguaro NP--East--Loma Verde Trailhead","2025-06-05 06:45",7,32.2033393,-110.7099992,TRUE,FALSE,FALSE,"S247286644"
"89","ruwspa","Rufous-winged Sparrow","Peucaea carpalis","L46865280","Harris Hawk Location","2025-06-05 06:20",1,31.895965,-110.980838,TRUE,FALSE,TRUE,"S246936388"
"90","ruwspa","Rufous-winged Sparrow","Peucaea carpalis","L505270","Anza Trail--Tumacacori","2025-06-05 05:53",2,31.5694771,-111.0472888,TRUE,FALSE,FALSE,"S246993334"
"91","ruwspa","Rufous-winged Sparrow","Peucaea carpalis","L3246283","Green Valley Country Club Estates (private)","2025-06-05 05:38",4,31.8852376,-110.9795026,TRUE,FALSE,FALSE,"S246971743"
"92","ruwspa","Rufous-winged Sparrow","Peucaea carpalis","L2513062","Coker Property","2025-06-05 04:52",3,32.023586,-110.629059,TRUE,FALSE,TRUE,"S246902585"
