"","speciesCode","comName","sciName","locId","locName","obsDt","howMany","lat","lng","obsValid","obsReviewed","locationPrivate","subId"
"1","gloibi","Glossy Ibis","Plegadis falcinellus","L8684803","Lower Oyster River Area, Old Saybrook, CT","2025-06-02 19:54",1,41.280814,-72.3937428,TRUE,FALSE,TRUE,"S246119636"
"2","gloibi","Glossy Ibis","Plegadis falcinellus","L46635878","FL Ave Triangular Drainage Ditch","2025-06-02 19:21",4,28.107913,-82.4596309,TRUE,FALSE,TRUE,"S246113057"
"3","gloibi","Glossy Ibis","Plegadis falcinellus","L9217221","Georgetowne Estates","2025-06-02 19:11",1,27.3452256,-82.4652072,TRUE,FALSE,TRUE,"S246118680"
"4","gloibi","Glossy Ibis","Plegadis falcinellus","L46697929","6227 Meggison Rd, Wildwood US-FL 28.78345, -81.95392","2025-06-02 18:31",1,28.783449,-81.953918,TRUE,FALSE,TRUE,"S246099815"
"5","gloibi","Glossy Ibis","Plegadis falcinellus","L6942756","Colonial Oaks Park","2025-06-02 18:22",13,27.3111496,-82.4632134,TRUE,FALSE,FALSE,"S246104820"
"6","gloibi","Glossy Ibis","Plegadis falcinellus","L718378","Chincoteague NWR* (general area)","2025-06-02 18:19",16,37.9106228,-75.3479719,TRUE,FALSE,FALSE,"S246090857"
"7","gloibi","Glossy Ibis","Plegadis falcinellus","L109132","Cape Island--Cape May Point SP (CMPSP)","2025-06-02 18:13",4,38.9338272,-74.9550854,TRUE,FALSE,FALSE,"S246116294"
"8","gloibi","Glossy Ibis","Plegadis falcinellus","L348335","Brownwood","2025-06-02 17:55",1,28.8433166,-82.0251212,TRUE,FALSE,FALSE,"S246089438"
"9","gloibi","Glossy Ibis","Plegadis falcinellus","L581494","Scarborough Marsh--Nature Center","2025-06-02 17:43",6,43.565902,-70.3747487,TRUE,FALSE,FALSE,"S246086931"
"10","gloibi","Glossy Ibis","Plegadis falcinellus","L19110980","Runaway Farm (CELT)","2025-06-02 17:42",2,43.5815411,-70.2439213,TRUE,FALSE,FALSE,"S246094503"
"11","gloibi","Glossy Ibis","Plegadis falcinellus","L697419","Paynes Prairie Preserve SP--US-441 observation deck","2025-06-02 17:36",6,29.5740753,-82.3350487,TRUE,FALSE,FALSE,"S246114108"
"12","gloibi","Glossy Ibis","Plegadis falcinellus","L109133","Edwin B. Forsythe NWR (formerly Brig)","2025-06-02 17:15",4,39.465,-74.4477778,TRUE,FALSE,FALSE,"S246089208"
"13","gloibi","Glossy Ibis","Plegadis falcinellus","L2167041","Oakwood Beach--tidal marshes, NW to Mill Rd.","2025-06-02 17:15",2,40.5494903,-74.1131688,TRUE,FALSE,FALSE,"S246078502"
"14","gloibi","Glossy Ibis","Plegadis falcinellus","L960421","Greenwood Farm (TTOR)","2025-06-02 17:13",1,42.6940913,-70.818193,TRUE,FALSE,FALSE,"S246086424"
"15","gloibi","Glossy Ibis","Plegadis falcinellus","L46691725","JC - Wood Duck spot","2025-06-02 17:03",5,29.52775,-82.203437,TRUE,FALSE,TRUE,"S246067710"
"16","gloibi","Glossy Ibis","Plegadis falcinellus","L4271859","Lake Meredith Bike Path in Lake of Woods","2025-06-02 17:01",3,27.0629077,-82.3756358,TRUE,FALSE,FALSE,"S246076585"
"17","gloibi","Glossy Ibis","Plegadis falcinellus","L3218485","Edwin B. Forsythe NWR--Bayshore Dr Impoundments","2025-06-02 16:49",1,39.7558585,-74.1918064,TRUE,FALSE,FALSE,"S246072998"
"18","gloibi","Glossy Ibis","Plegadis falcinellus","L857180","River Lakes Conservation Area--Moccasin Island","2025-06-02 16:44",3,28.2299949,-80.8110523,TRUE,FALSE,FALSE,"S246067717"
"19","gloibi","Glossy Ibis","Plegadis falcinellus","L4780127","Pine Valley Street at Firestone Drive","2025-06-02 16:42",1,27.4139738,-82.4347544,TRUE,FALSE,TRUE,"S246066889"
"20","gloibi","Glossy Ibis","Plegadis falcinellus","L448189","Scarborough Marsh--Eastern Trail","2025-06-02 16:28",2,43.5649691,-70.3639502,TRUE,FALSE,FALSE,"S246079899"
"21","gloibi","Glossy Ibis","Plegadis falcinellus","L338851","Edwin B. Forsythe NWR--Barnegat","2025-06-02 16:27",1,39.7635439,-74.200852,TRUE,FALSE,FALSE,"S246059835"
"22","gloibi","Glossy Ibis","Plegadis falcinellus","L46688854","Garden State Parkway, Somers Point, New Jersey, US (39.319, -74.621)","2025-06-02 16:16",1,39.3188886,-74.620761,TRUE,FALSE,TRUE,"S246053486"
"23","gloibi","Glossy Ibis","Plegadis falcinellus","L353732","Scarborough Marsh--Pine Point","2025-06-02 16:13",4,43.5445303,-70.3331662,TRUE,FALSE,FALSE,"S246062540"
"24","gloibi","Glossy Ibis","Plegadis falcinellus","L9629035","Wildlife Loop, Chincoteague, Virginia, US (37.911, -75.349)","2025-06-02 16:00",1,37.9108088,-75.34918,TRUE,FALSE,TRUE,"S246060158"
"25","gloibi","Glossy Ibis","Plegadis falcinellus","L25374061","Malfitano Park","2025-06-02 15:30",2,40.9687069,-73.7076942,TRUE,FALSE,FALSE,"S246057498"
"26","gloibi","Glossy Ibis","Plegadis falcinellus","L207348","Belle Isle Marsh Reservation","2025-06-02 15:18",1,42.3910639,-70.9930195,TRUE,FALSE,FALSE,"S246050676"
"27","gloibi","Glossy Ibis","Plegadis falcinellus","L4960826","New Creek Watershed, Olympia Blvd. bridge & marsh","2025-06-02 15:03",1,40.5782158,-74.088079,TRUE,FALSE,FALSE,"S246065427"
"28","gloibi","Glossy Ibis","Plegadis falcinellus","L2361151","NH waters between New Castle and Isles of Shoals","2025-06-02 15:00",2,43.0396616,-70.6971932,TRUE,FALSE,FALSE,"S246053694"
"29","gloibi","Glossy Ibis","Plegadis falcinellus","L3593329","Pools South of Odiorne, West of Rt. 1A, Rye","2025-06-02 14:49",6,43.0415205,-70.7165207,TRUE,FALSE,FALSE,"S246028459"
"30","gloibi","Glossy Ibis","Plegadis falcinellus","L690160","Hamlin Reservation (TTOR)","2025-06-02 14:44",12,42.6701936,-70.8094597,TRUE,FALSE,FALSE,"S246052603"
"31","gloibi","Glossy Ibis","Plegadis falcinellus","L1317521","Fort Macon SP--Beach","2025-06-02 14:35",3,34.6937795,-76.6793346,TRUE,FALSE,FALSE,"S246051840"
"32","gloibi","Glossy Ibis","Plegadis falcinellus","L2894033","Salt Marsh off Pollock Dr., Rye","2025-06-02 14:30",12,43.0376855,-70.7203138,TRUE,FALSE,FALSE,"S246020163"
"33","gloibi","Glossy Ibis","Plegadis falcinellus","L572072","Edwin B. Forsythe NWR--Cedar Bonnet Island","2025-06-02 14:15",5,39.6571874,-74.1938168,TRUE,FALSE,FALSE,"S246040657"
"34","gloibi","Glossy Ibis","Plegadis falcinellus","L296392","Tuckerton--Great Bay Bvld. WMA","2025-06-02 14:15",3,39.5301285,-74.3183899,TRUE,FALSE,FALSE,"S246081634"
"35","gloibi","Glossy Ibis","Plegadis falcinellus","L376186","""Viera"" Ritch Grissom Memorial Wetlands","2025-06-02 14:02",1,28.228577,-80.7604659,TRUE,FALSE,FALSE,"S246031115"
"36","gloibi","Glossy Ibis","Plegadis falcinellus","L16756379","Great Bay Boulevard, Little Egg Harbor Township, New Jersey, US (39.57, -74.343)","2025-06-02 13:58",1,39.5697438,-74.3433523,TRUE,FALSE,TRUE,"S246065733"
"37","gloibi","Glossy Ibis","Plegadis falcinellus","L575549","Rumney Marsh--South","2025-06-02 13:57",5,42.4231186,-70.9966307,TRUE,FALSE,FALSE,"S246074310"
"38","gloibi","Glossy Ibis","Plegadis falcinellus","L8684772","Old Saybrook - Former Dock & Dine","2025-06-02 13:10",1,41.2843881,-72.3497461,TRUE,FALSE,FALSE,"S245991439"
"39","gloibi","Glossy Ibis","Plegadis falcinellus","L92448","Edwin B. Forsythe NWR--Wildlife Drive (8-mile auto tour loop only)","2025-06-02 12:57",3,39.464298,-74.417612,TRUE,FALSE,FALSE,"S246030840"
"40","gloibi","Glossy Ibis","Plegadis falcinellus","L13608902","OK Corral and Spa","2025-06-02 12:39",1,26.994512,-81.888328,TRUE,FALSE,TRUE,"S246002598"
"41","gloibi","Glossy Ibis","Plegadis falcinellus","L9525565","113 1st Ave, Cape May US-NJ","2025-06-02 12:35",6,38.932968,-74.932237,TRUE,FALSE,TRUE,"S245988617"
"42","gloibi","Glossy Ibis","Plegadis falcinellus","L305312","Lakes Park","2025-06-02 12:30",2,26.5271649,-81.8765643,TRUE,FALSE,FALSE,"S245989472"
"43","gloibi","Glossy Ibis","Plegadis falcinellus","L280564","Sherwood Island State Park","2025-06-02 12:30",7,41.1157809,-73.3305955,TRUE,FALSE,FALSE,"S246053980"
"44","gloibi","Glossy Ibis","Plegadis falcinellus","L547888","Heckscher SP, East Islip","2025-06-02 12:29",1,40.7129149,-73.1650615,TRUE,FALSE,FALSE,"S246003896"
"45","gloibi","Glossy Ibis","Plegadis falcinellus","L274556","Stone Harbor Blvd--The Wetlands Institute","2025-06-02 12:15",1,39.0608166,-74.7726134,TRUE,FALSE,FALSE,"S246005856"
"46","gloibi","Glossy Ibis","Plegadis falcinellus","L572073","Edwin B. Forsythe NWR--Bridge to Nowhere","2025-06-02 12:14",7,39.6836789,-74.2072264,TRUE,FALSE,FALSE,"S246002947"
"47","gloibi","Glossy Ibis","Plegadis falcinellus","L298379","Hammonasset Beach SP","2025-06-02 11:58",4,41.2619859,-72.5548234,TRUE,FALSE,FALSE,"S246041836"
"48","gloibi","Glossy Ibis","Plegadis falcinellus","L197609","Cape Henlopen SP--Gordon's Pond","2025-06-02 11:50",11,38.7522693,-75.0893841,TRUE,FALSE,FALSE,"S245987263"
"49","gloibi","Glossy Ibis","Plegadis falcinellus","L14797624","Venice, Blackburn Canal","2025-06-02 11:50",1,27.1030765,-82.3914438,TRUE,FALSE,TRUE,"S245986223"
"50","gloibi","Glossy Ibis","Plegadis falcinellus","L22002927","Eastern Shore of Virginia NWR--Marsh Overlook","2025-06-02 11:47",2,37.1286159,-75.9613277,TRUE,FALSE,FALSE,"S245983043"
"51","gloibi","Glossy Ibis","Plegadis falcinellus","L46670954","Auto selected 31.24925, -81.27801","2025-06-02 11:45",4,31.249251,-81.278009,TRUE,FALSE,TRUE,"S245974391"
"52","gloibi","Glossy Ibis","Plegadis falcinellus","L573127","Horicon NWR--Old Marsh Rd.","2025-06-02 11:44",1,43.6159453,-88.6473083,TRUE,TRUE,FALSE,"S246014138"
"53","gloibi","Glossy Ibis","Plegadis falcinellus","L1761769","Little Saint Simons Island--Main Beach","2025-06-02 11:43",4,31.2597333,-81.2732935,TRUE,FALSE,FALSE,"S246008719"
"54","gloibi","Glossy Ibis","Plegadis falcinellus","L29937714","Home","2025-06-02 11:33",1,27.143463,-82.448057,TRUE,FALSE,TRUE,"S245961128"
"55","gloibi","Glossy Ibis","Plegadis falcinellus","L109136","Cape Island--South Cape May Meadows (SCMM)","2025-06-02 11:23",5,38.9359287,-74.9434519,TRUE,FALSE,FALSE,"S245986194"
"56","gloibi","Glossy Ibis","Plegadis falcinellus","L44346070","Celery Fields -Raymond","2025-06-02 11:16",1,27.3203045,-82.4367845,TRUE,FALSE,TRUE,"S245955901"
"57","gloibi","Glossy Ibis","Plegadis falcinellus","L251783","Gilsland Farm Audubon Center","2025-06-02 11:13",1,43.7066997,-70.2417581,TRUE,FALSE,FALSE,"S245987931"
"58","gloibi","Glossy Ibis","Plegadis falcinellus","L4891802","Marsh Road Pond","2025-06-02 11:08",2,43.0333881,-70.7336712,TRUE,FALSE,FALSE,"S245940275"
"59","gloibi","Glossy Ibis","Plegadis falcinellus","L2601163","Cape Hatteras NS--Lighthouse Rd. Pond","2025-06-02 11:01",1,35.2570995,-75.5263833,TRUE,FALSE,FALSE,"S245937125"
"60","gloibi","Glossy Ibis","Plegadis falcinellus","L6364505","Masters Tract Stormwater Treatment Facility","2025-06-02 10:42",1,29.686897,-81.4758325,TRUE,FALSE,FALSE,"S246100675"
"61","gloibi","Glossy Ibis","Plegadis falcinellus","L46662040","6003–6039 Pacific Grade Rd, Ave Maria US-FL 26.29587, -81.39999","2025-06-02 10:36",7,26.29587,-81.399992,TRUE,FALSE,TRUE,"S245930967"
"62","gloibi","Glossy Ibis","Plegadis falcinellus","L109213","Menunketesuck Island Flats","2025-06-02 10:35",6,41.2666667,-72.45,TRUE,FALSE,FALSE,"S245954607"
"63","gloibi","Glossy Ibis","Plegadis falcinellus","L5100157","Cape Henlopen SP--Gordon's Pond Trail North","2025-06-02 10:31",7,38.7608875,-75.085907,TRUE,FALSE,TRUE,"S245936182"
"64","gloibi","Glossy Ibis","Plegadis falcinellus","L15210138","Marsh Point, Warwick","2025-06-02 10:29",1,41.65971,-71.41081,TRUE,FALSE,FALSE,"S245935701"
"65","gloibi","Glossy Ibis","Plegadis falcinellus","L686690","Marsh Meadows Preserve","2025-06-02 10:28",8,41.5081274,-71.3747835,TRUE,FALSE,FALSE,"S245933902"
"66","gloibi","Glossy Ibis","Plegadis falcinellus","L504116","Assateague I. NS--Life of the Marsh","2025-06-02 10:26",8,38.2060952,-75.1604276,TRUE,FALSE,FALSE,"S245954737"
"67","gloibi","Glossy Ibis","Plegadis falcinellus","L758506","Parsons Creek Salt Marsh West of Wallis Sands Beach, Rye","2025-06-02 10:22",2,43.0273408,-70.7322814,TRUE,FALSE,FALSE,"S245927165"
"68","gloibi","Glossy Ibis","Plegadis falcinellus","L475087","Nonquitt Salt Marsh","2025-06-02 10:12",1,41.5525103,-70.937959,TRUE,FALSE,FALSE,"S245933590"
"69","gloibi","Glossy Ibis","Plegadis falcinellus","L773277","Isles of Shoals--Appledore Island","2025-06-02 10:04",1,42.9919653,-70.6149243,TRUE,FALSE,FALSE,"S246075582"
"70","gloibi","Glossy Ibis","Plegadis falcinellus","L7291318","Cold Brook Preserve","2025-06-02 10:03",1,41.6766572,-70.0687389,TRUE,FALSE,FALSE,"S246065327"
"71","gloibi","Glossy Ibis","Plegadis falcinellus","L42379139","Strom Park","2025-06-02 10:02",17,28.213743,-80.720174,TRUE,FALSE,TRUE,"S245937761"
"72","gloibi","Glossy Ibis","Plegadis falcinellus","L30501404","Tiana Beach","2025-06-02 10:00",1,40.8306967,-72.5145721,TRUE,FALSE,TRUE,"S246046931"
"73","gloibi","Glossy Ibis","Plegadis falcinellus","L46636531","A-2 Reservoir","2025-06-02 10:00",4,26.470038,-80.697312,TRUE,FALSE,TRUE,"S246062093"
"74","gloibi","Glossy Ibis","Plegadis falcinellus","L21174281","Tuckerton Creek","2025-06-02 09:57",4,39.5873724,-74.3414163,TRUE,FALSE,FALSE,"S245961562"
"75","gloibi","Glossy Ibis","Plegadis falcinellus","L6451193","7605–7639 Oil Well Park Rd, Immokalee US-FL (26.2834,-81.3434)","2025-06-02 09:55",1,26.283361,-81.343398,TRUE,FALSE,TRUE,"S245915427"
"76","gloibi","Glossy Ibis","Plegadis falcinellus","L46657453","1100–1796 Silverthorne Rd, Merritt US-NC 35.12663, -76.63016","2025-06-02 09:52",6,35.126634,-76.630162,TRUE,FALSE,TRUE,"S245908196"
"77","gloibi","Glossy Ibis","Plegadis falcinellus","L109145","Jamaica Bay Wildlife Refuge--West Pond","2025-06-02 09:52",7,40.6188482,-73.8307995,TRUE,FALSE,FALSE,"S245961644"
"78","gloibi","Glossy Ibis","Plegadis falcinellus","L785282","Bachman Sports Complex","2025-06-02 09:47",1,39.1995024,-76.5930319,TRUE,FALSE,FALSE,"S245916098"
"79","gloibi","Glossy Ibis","Plegadis falcinellus","L284163","Galveston--Lafitte's Cove (UTC 068)","2025-06-02 09:46",1,29.2169006,-94.9349016,TRUE,FALSE,FALSE,"S245960887"
"80","gloibi","Glossy Ibis","Plegadis falcinellus","L632896","Lake Belleview","2025-06-02 09:35",1,27.9465497,-82.7934623,TRUE,FALSE,FALSE,"S246003280"
"81","gloibi","Glossy Ibis","Plegadis falcinellus","L583949","Homestead Racetrack fields","2025-06-02 09:34",1,25.4627658,-80.4036999,TRUE,FALSE,FALSE,"S245915180"
"82","gloibi","Glossy Ibis","Plegadis falcinellus","L109232","Stewart B. McKinney NWR--Salt Meadow Unit","2025-06-02 09:32",4,41.2857245,-72.4679709,TRUE,FALSE,FALSE,"S245917638"
"83","gloibi","Glossy Ibis","Plegadis falcinellus","L246929","Green Cay Wetlands & Nature Center","2025-06-02 09:30",4,26.4861584,-80.1607561,TRUE,FALSE,FALSE,"S246045336"
"84","gloibi","Glossy Ibis","Plegadis falcinellus","L9440882","Hampton River, Saint Simons Island US-GA (31.2787,-81.3170)","2025-06-02 09:28",1,31.278732,-81.316983,TRUE,FALSE,TRUE,"S245903602"
"85","gloibi","Glossy Ibis","Plegadis falcinellus","L4478244","Sem-Chi Rice Mill","2025-06-02 09:28",3,26.6668727,-80.4574621,TRUE,FALSE,FALSE,"S245992362"
"86","gloibi","Glossy Ibis","Plegadis falcinellus","L3933928","Middletown Valley Park (Kempenaar Valley)","2025-06-02 09:21",24,41.5138754,-71.2961555,TRUE,FALSE,FALSE,"S245904154"
"87","gloibi","Glossy Ibis","Plegadis falcinellus","L46409567","Inn at Pelican Bay pond","2025-06-02 09:09",1,26.2503,-81.804235,TRUE,FALSE,TRUE,"S245895527"
"88","gloibi","Glossy Ibis","Plegadis falcinellus","L46405600","Inn at Pelican Bay","2025-06-02 09:09",1,26.25018,-81.804284,TRUE,FALSE,TRUE,"S245895488"
"89","gloibi","Glossy Ibis","Plegadis falcinellus","L8915955","Tuckerton Seaport and Nature Trail","2025-06-02 09:03",1,39.60105,-74.342252,TRUE,FALSE,FALSE,"S245908070"
"90","gloibi","Glossy Ibis","Plegadis falcinellus","L830108","Harns Marsh","2025-06-02 09:02",6,26.6496729,-81.6869336,TRUE,FALSE,FALSE,"S245891987"
"91","gloibi","Glossy Ibis","Plegadis falcinellus","L450133","Seapoint Beach","2025-06-02 08:59",2,43.0883224,-70.6629038,TRUE,FALSE,FALSE,"S245936160"
"92","gloibi","Glossy Ibis","Plegadis falcinellus","L3245544","Pelican Island Overlook VSBS","2025-06-02 08:56",4,27.8008246,-80.4320186,TRUE,FALSE,TRUE,"S245927656"
"93","gloibi","Glossy Ibis","Plegadis falcinellus","L372837","Oyster Rocks Rd.","2025-06-02 08:55",1,38.8020757,-75.2032077,TRUE,FALSE,FALSE,"S246080859"
"94","gloibi","Glossy Ibis","Plegadis falcinellus","L693848","Cape Island--CMP--Coral Ave. dune crossing","2025-06-02 08:45",8,38.9327948,-74.9651502,TRUE,FALSE,FALSE,"S245904091"
"95","gloibi","Glossy Ibis","Plegadis falcinellus","L829934","Brevard Zoo (do NOT report captive birds)","2025-06-02 08:45",3,28.2254954,-80.7144928,TRUE,FALSE,FALSE,"S246092086"
"96","gloibi","Glossy Ibis","Plegadis falcinellus","L782931","Lake Trafford--Annie Olesky Park","2025-06-02 08:44",1,26.4330727,-81.485939,TRUE,FALSE,FALSE,"S245885863"
"97","gloibi","Glossy Ibis","Plegadis falcinellus","L6612976","Sweetwater Wetlands Park","2025-06-02 08:40",2,29.6189764,-82.3262429,TRUE,FALSE,TRUE,"S246037205"
"98","gloibi","Glossy Ibis","Plegadis falcinellus","L13396144","Timber Pines Golf Course, Spring Hill US-FL 28.46584, -82.59301","2025-06-02 08:30",5,28.465843,-82.593008,TRUE,FALSE,TRUE,"S245889980"
"99","gloibi","Glossy Ibis","Plegadis falcinellus","L19335562","Fort Saybrook Monument Park","2025-06-02 08:30",1,41.2847733,-72.3517968,TRUE,FALSE,FALSE,"S245878759"
"100","gloibi","Glossy Ibis","Plegadis falcinellus","L969765","Scarborough Marsh--Eastern Trail Pannes","2025-06-02 08:26",2,43.5668063,-70.3579393,TRUE,FALSE,FALSE,"S245943275"
"101","gloibi","Glossy Ibis","Plegadis falcinellus","L631290","West Marsh Preserve","2025-06-02 08:25",1,26.6475354,-81.7027473,TRUE,FALSE,FALSE,"S245878725"
"102","gloibi","Glossy Ibis","Plegadis falcinellus","L9224724","Emeralda Marsh--Public Boat Ramp","2025-06-02 08:18",2,28.9027946,-81.8170195,TRUE,FALSE,FALSE,"S245887651"
"103","gloibi","Glossy Ibis","Plegadis falcinellus","L3797793","Ocean City Welcome Center","2025-06-02 08:13",7,39.2881767,-74.5824587,TRUE,FALSE,FALSE,"S246076512"
"104","gloibi","Glossy Ibis","Plegadis falcinellus","L4307629","Freedom Point Ponds and CCRC Area","2025-06-02 08:09",1,28.9490933,-81.9616748,TRUE,FALSE,FALSE,"S245929084"
"105","gloibi","Glossy Ibis","Plegadis falcinellus","L46684205","Gardiners Island, East Hampton US-NY 41.05536, -72.09892","2025-06-02 08:09",2,41.055362,-72.098915,TRUE,FALSE,TRUE,"S246033032"
"106","gloibi","Glossy Ibis","Plegadis falcinellus","L7728230","7285 Waelti Dr, Melbourne US-FL (28.2361,-80.6805)","2025-06-02 08:03",12,28.236112,-80.680466,TRUE,FALSE,TRUE,"S245916049"
"107","gloibi","Glossy Ibis","Plegadis falcinellus","L21431399","Black Lake Walking Trail","2025-06-02 08:02",1,28.89827,-81.980299,TRUE,FALSE,FALSE,"S245912983"
"108","gloibi","Glossy Ibis","Plegadis falcinellus","L3189438","Hammonasset Beach SP--Moraine Trail","2025-06-02 07:57",2,41.2514297,-72.5369894,TRUE,FALSE,FALSE,"S245883257"
"109","gloibi","Glossy Ibis","Plegadis falcinellus","L211826","Jake's Landing","2025-06-02 07:48",1,39.1795653,-74.8510244,TRUE,FALSE,FALSE,"S245881203"
"110","gloibi","Glossy Ibis","Plegadis falcinellus","L29034280","Loop Parkway, Point Lookout, New York, US (40.609, -73.553)","2025-06-02 07:45",1,40.6090038,-73.5531979,TRUE,FALSE,TRUE,"S245936077"
"111","gloibi","Glossy Ibis","Plegadis falcinellus","L45355463","43 Refuge Quarters Rd, Fairfield US-NC (35.4523,-76.1816)","2025-06-02 07:45",4,35.452304,-76.181634,TRUE,FALSE,TRUE,"S245862693"
"112","gloibi","Glossy Ibis","Plegadis falcinellus","L2620730","Sweetwater Wetlands Park","2025-06-02 07:41",2,29.6193055,-82.3285764,TRUE,FALSE,FALSE,"S245909809"
"113","gloibi","Glossy Ibis","Plegadis falcinellus","L38671625","2451 Pickford Circle, Apopka, Florida, US (28.686, -81.55)","2025-06-02 07:32",2,28.6861064,-81.5496201,TRUE,FALSE,TRUE,"S245905890"
"114","gloibi","Glossy Ibis","Plegadis falcinellus","L27854145","DeLuna Recreation Center","2025-06-02 07:32",9,28.828257,-82.038012,TRUE,FALSE,TRUE,"S245882183"
"115","gloibi","Glossy Ibis","Plegadis falcinellus","L660056","Chincoteague NWR--Beach Access Road","2025-06-02 07:31",12,37.8987655,-75.3591943,TRUE,FALSE,FALSE,"S245874578"
"116","gloibi","Glossy Ibis","Plegadis falcinellus","L46657812","Unnamed Road, Waupun, Wisconsin, US (43.611, -88.633)","2025-06-02 07:30",1,43.6114598,-88.6325596,TRUE,TRUE,TRUE,"S245910113"
"117","gloibi","Glossy Ibis","Plegadis falcinellus","L10331416","Cedar Pond, Peabody","2025-06-02 07:18",1,42.5176204,-70.9815038,TRUE,FALSE,FALSE,"S245858610"
"118","gloibi","Glossy Ibis","Plegadis falcinellus","L837165","Eagle Lakes Community Park","2025-06-02 07:17",2,26.0773686,-81.7141414,TRUE,FALSE,FALSE,"S245882922"
"119","gloibi","Glossy Ibis","Plegadis falcinellus","L585567","West Regional WTF Wetlands","2025-06-02 07:10",1,27.6131434,-80.5052376,TRUE,FALSE,FALSE,"S245887708"
"120","gloibi","Glossy Ibis","Plegadis falcinellus","L2508684","Hammonasset Beach SP--Cedar Island Trail","2025-06-02 07:10",2,41.2544824,-72.5408041,TRUE,FALSE,FALSE,"S245857261"
"121","gloibi","Glossy Ibis","Plegadis falcinellus","L7086958","Stormwater Treatment Area 1W (Limited Access)","2025-06-02 07:06",6,26.6762842,-80.4273806,TRUE,FALSE,FALSE,"S245937493"
"122","gloibi","Glossy Ibis","Plegadis falcinellus","L21984149","Grass Pond","2025-06-02 07:02",2,28.927602,-81.9639975,TRUE,FALSE,FALSE,"S245928926"
"123","gloibi","Glossy Ibis","Plegadis falcinellus","L280283","Good Harbor Beach","2025-06-02 06:59",7,42.61992,-70.63346,TRUE,FALSE,FALSE,"S246044259"
"124","gloibi","Glossy Ibis","Plegadis falcinellus","L285931","Tuckahoe WMA (Cape May Co.)","2025-06-02 06:54",14,39.2855132,-74.7241616,TRUE,FALSE,FALSE,"S245938053"
"125","gloibi","Glossy Ibis","Plegadis falcinellus","L143084","Wakodahatchee Wetlands","2025-06-02 06:50",36,26.4781984,-80.144738,TRUE,FALSE,FALSE,"S246034963"
"126","gloibi","Glossy Ibis","Plegadis falcinellus","L301483","Alderman's Ford Park","2025-06-02 06:48",1,27.8655893,-82.1472752,TRUE,FALSE,FALSE,"S245851635"
"127","gloibi","Glossy Ibis","Plegadis falcinellus","L31746112","County Road 858 Okaloacoochee  Slough","2025-06-02 06:48",1,26.3068805,-81.2855244,TRUE,FALSE,FALSE,"S245850227"
"128","gloibi","Glossy Ibis","Plegadis falcinellus","L34611628","Ocean Blvd, Hampton Yard List","2025-06-02 06:43",9,42.924967,-70.799463,TRUE,FALSE,TRUE,"S245939929"
"129","gloibi","Glossy Ibis","Plegadis falcinellus","L270936","Monomoy NWR--Morris Island","2025-06-02 06:31",3,41.6568485,-69.9582152,TRUE,TRUE,FALSE,"S245930755"
"130","gloibi","Glossy Ibis","Plegadis falcinellus","L2139954","CMCH","2025-06-02 05:46",6,39.0839051,-74.8275805,TRUE,FALSE,TRUE,"S245822483"
"131","gloibi","Glossy Ibis","Plegadis falcinellus","L19339577","Old Marsh Rd","2025-06-02 05:39",1,43.611165,-88.616001,TRUE,TRUE,TRUE,"S245891038"
"132","gloibi","Glossy Ibis","Plegadis falcinellus","L43151086","Route 60/Peavine Rd/Yeehaw Junction Area","2025-06-02 05:37",6,27.7334451,-81.0234635,TRUE,FALSE,TRUE,"S245964272"
"133","gloibi","Glossy Ibis","Plegadis falcinellus","L168335","Odiorne Point SP, Rye","2025-06-02 05:30",10,43.045555,-70.71444,TRUE,FALSE,FALSE,"S245965763"
"134","gloibi","Glossy Ibis","Plegadis falcinellus","L523700","Topsfield Fairgrounds","2025-06-02 05:16",12,42.6267913,-70.946188,TRUE,FALSE,FALSE,"S245819785"
"135","gloibi","Glossy Ibis","Plegadis falcinellus","L9612611","Wertheim NWR--Lower Carman's River","2025-06-02 05:12",1,40.7666335,-72.8914734,TRUE,FALSE,FALSE,"S245900304"
"136","gloibi","Glossy Ibis","Plegadis falcinellus","L44814005","home","2025-06-02 00:48",1,40.757216,-72.854044,TRUE,FALSE,TRUE,"S245784735"
"137","gloibi","Glossy Ibis","Plegadis falcinellus","L46567808","North Atlantic Ocean, Ventnor City US-NJ 39.34430, -74.50038","2025-06-01 20:16",1,39.344296,-74.500377,TRUE,FALSE,TRUE,"S245737668"
"138","gloibi","Glossy Ibis","Plegadis falcinellus","L3215347","Cypress Falls, North Port, Florida","2025-06-01 20:01",1,27.0876851,-82.1428388,TRUE,FALSE,TRUE,"S245763206"
"139","gloibi","Glossy Ibis","Plegadis falcinellus","L46632002","3703 Shimmering Oaks Dr, Parrish US-FL 27.54727, -82.45347","2025-06-01 19:13",2,27.547269,-82.453467,TRUE,FALSE,TRUE,"S245772732"
"140","gloibi","Glossy Ibis","Plegadis falcinellus","L660064","Chincoteague NWR--Wildlife Loop","2025-06-01 19:13",4,37.9045392,-75.3517216,TRUE,FALSE,FALSE,"S245767945"
"141","gloibi","Glossy Ibis","Plegadis falcinellus","L208929","Gardiner County Park","2025-06-01 19:00",3,40.7010162,-73.2766605,TRUE,FALSE,FALSE,"S245748811"
"142","gloibi","Glossy Ibis","Plegadis falcinellus","L1125706","Big Talbot Island SP--Spoonbill Pond (includes parking & boat ramp)","2025-06-01 18:48",2,30.5101704,-81.4585671,TRUE,TRUE,FALSE,"S245761064"
"143","gloibi","Glossy Ibis","Plegadis falcinellus","L19940484","27 Intrepid Ln, Jamestown US-RI 41.55038, -71.36559","2025-06-01 18:36",1,41.550377,-71.36559,TRUE,FALSE,TRUE,"S245702048"
"144","gloibi","Glossy Ibis","Plegadis falcinellus","L46519622","Rumney Marsh","2025-06-01 18:30",11,42.42065,-70.990576,TRUE,TRUE,TRUE,"S245712263"
"145","gloibi","Glossy Ibis","Plegadis falcinellus","L799115","Fort Drum Marsh Conservation Area","2025-06-01 18:30",1,27.6397982,-80.7666301,TRUE,FALSE,FALSE,"S245772234"
"146","gloibi","Glossy Ibis","Plegadis falcinellus","L452007","Orlando Wetlands","2025-06-01 18:29",2,28.5700783,-80.9963373,TRUE,FALSE,FALSE,"S245719210"
"147","gloibi","Glossy Ibis","Plegadis falcinellus","L17176603","Three Forks Marsh Conservation Area North Trailhead","2025-06-01 18:10",1,28.078602,-80.742735,TRUE,FALSE,FALSE,"S245704057"
"148","gloibi","Glossy Ibis","Plegadis falcinellus","L1025996","Cape Island--Sea Grove Ave.","2025-06-01 18:03",3,38.938983,-74.9567127,TRUE,FALSE,FALSE,"S245699173"
"149","gloibi","Glossy Ibis","Plegadis falcinellus","L617642","Ollie's Pond Park","2025-06-01 18:00",3,26.9860616,-82.1496961,TRUE,FALSE,FALSE,"S245712166"
"150","gloibi","Glossy Ibis","Plegadis falcinellus","L46615018","1919 SE Cove Rd, Stuart US-FL (27.1256,-80.2293)","2025-06-01 17:55",10,27.125632,-80.22928,TRUE,FALSE,TRUE,"S245687578"
"151","gloibi","Glossy Ibis","Plegadis falcinellus","L46586008","Carolina Groves","2025-06-01 17:48",3,33.164288,-80.022148,TRUE,FALSE,TRUE,"S245708108"
"152","gloibi","Glossy Ibis","Plegadis falcinellus","L9147199","Belle Isle Marsh Reservation--Lawn Ave. Path","2025-06-01 17:46",1,42.3888101,-70.9947877,TRUE,FALSE,FALSE,"S245687583"
"153","gloibi","Glossy Ibis","Plegadis falcinellus","L594699","Jamaica Bay Wildlife Refuge--Big Johns Pond","2025-06-01 17:21",1,40.6206631,-73.8238335,TRUE,FALSE,FALSE,"S245730951"
"154","gloibi","Glossy Ibis","Plegadis falcinellus","L46545859","21361 South Branch Road, Estero, Florida, US (26.427, -81.783)","2025-06-01 17:20",1,26.4269646,-81.7826079,TRUE,FALSE,TRUE,"S245685805"
"155","gloibi","Glossy Ibis","Plegadis falcinellus","L127332","Fort De Soto Park","2025-06-01 17:15",1,27.6327266,-82.718157,TRUE,FALSE,FALSE,"S245700660"
"156","gloibi","Glossy Ibis","Plegadis falcinellus","L165143","Jamaica Bay Wildlife Refuge","2025-06-01 16:56",1,40.6170296,-73.8244561,TRUE,FALSE,FALSE,"S245676336"
"157","gloibi","Glossy Ibis","Plegadis falcinellus","L15337076","Chitty Chatty Run, Wildwood US-FL 28.81328, -81.97551","2025-06-01 16:52",3,28.813285,-81.975511,TRUE,FALSE,TRUE,"S245692241"
"158","gloibi","Glossy Ibis","Plegadis falcinellus","L1743953","Horicon Marsh--General","2025-06-01 16:40",1,43.5430019,-88.6433069,TRUE,TRUE,TRUE,"S245768876"
"159","gloibi","Glossy Ibis","Plegadis falcinellus","L18375500","Gordon College Campus & Trails","2025-06-01 16:38",27,42.5897438,-70.8175118,TRUE,FALSE,TRUE,"S245743504"
"160","gloibi","Glossy Ibis","Plegadis falcinellus","L4296865","Mattamuskeet NWR--Lake Landing","2025-06-01 16:32",6,35.488769,-76.0802364,TRUE,FALSE,FALSE,"S245673964"
"161","gloibi","Glossy Ibis","Plegadis falcinellus","L127373","Lake Okeechobee--Okeechobee Recreation Area Lock 7, Jaycee Park","2025-06-01 16:30",1,27.1955353,-80.8312011,TRUE,FALSE,FALSE,"S245667461"
"162","gloibi","Glossy Ibis","Plegadis falcinellus","L12272254","Green Island, Great South Bay","2025-06-01 16:29",1,40.6182169,-73.502603,TRUE,FALSE,FALSE,"S245655148"
"163","gloibi","Glossy Ibis","Plegadis falcinellus","L37950634","Bonita Bay--Horseshoe wetlands (restricted access)","2025-06-01 16:28",3,26.348591,-81.820269,TRUE,FALSE,TRUE,"S245671070"
"164","gloibi","Glossy Ibis","Plegadis falcinellus","L791196","Jamaica Bay Wildlife Refuge--South Garden","2025-06-01 16:27",8,40.6175467,-73.825745,TRUE,FALSE,FALSE,"S245731977"
"165","gloibi","Glossy Ibis","Plegadis falcinellus","L9086076","Cape May County Veteran's Cemetery","2025-06-01 16:15",2,39.0985941,-74.8003721,TRUE,FALSE,TRUE,"S245763900"
"166","gloibi","Glossy Ibis","Plegadis falcinellus","L7500762","John J. Donovan Reservation and Sagamore Hill Conservation Area (ECGA)","2025-06-01 16:09",9,42.6410733,-70.8201783,TRUE,FALSE,FALSE,"S245683901"
"167","gloibi","Glossy Ibis","Plegadis falcinellus","L1416005","Fort Mott SP & Finns Point NC","2025-06-01 16:00",4,39.6056221,-75.5533218,TRUE,FALSE,FALSE,"S245722512"
"168","gloibi","Glossy Ibis","Plegadis falcinellus","L718307","**Back Bay NWR","2025-06-01 15:50",1,36.672127,-75.915661,TRUE,FALSE,FALSE,"S245719574"
"169","gloibi","Glossy Ibis","Plegadis falcinellus","L109204","Hammonasset Beach SP--Meig's Point","2025-06-01 15:49",1,41.2490558,-72.5442213,TRUE,FALSE,FALSE,"S245644559"
"170","gloibi","Glossy Ibis","Plegadis falcinellus","L10266251","Island Walk","2025-06-01 15:48",4,27.0373003,-82.3455633,TRUE,FALSE,TRUE,"S245652076"
"171","gloibi","Glossy Ibis","Plegadis falcinellus","L29427290","Clinton Harbor","2025-06-01 15:40",4,41.261254,-72.5304475,TRUE,FALSE,TRUE,"S245765187"
"172","gloibi","Glossy Ibis","Plegadis falcinellus","L11878349","McCullough's Emerald Links","2025-06-01 15:30",6,39.3600839,-74.6156645,TRUE,FALSE,TRUE,"S245816013"
"173","gloibi","Glossy Ibis","Plegadis falcinellus","L159292","Chincoteague NWR--Woodland Trail","2025-06-01 15:29",4,37.8955146,-75.3607863,TRUE,FALSE,FALSE,"S245785627"
"174","gloibi","Glossy Ibis","Plegadis falcinellus","L16871881","Abby's Farm (restricted access)","2025-06-01 15:24",1,38.8705707,-84.1181731,TRUE,TRUE,FALSE,"S245634815"
"175","gloibi","Glossy Ibis","Plegadis falcinellus","L6710026","La Chua Trail, Gainesville, Florida, US (29.61, -82.304)","2025-06-01 15:05",1,29.6096403,-82.3043388,TRUE,FALSE,TRUE,"S245677362"
"176","gloibi","Glossy Ibis","Plegadis falcinellus","L4400836","Oil Well Park","2025-06-01 14:56",2,26.2831031,-81.3428817,TRUE,FALSE,FALSE,"S245623489"
"177","gloibi","Glossy Ibis","Plegadis falcinellus","L464994","Scarborough Marsh--Dunstan Landing","2025-06-01 14:45",1,43.5657154,-70.3792763,TRUE,FALSE,FALSE,"S245609510"
"178","gloibi","Glossy Ibis","Plegadis falcinellus","L9022401","Spurwink Marsh at Sawyer Road","2025-06-01 14:21",31,43.5879076,-70.2631695,TRUE,FALSE,FALSE,"S245612164"
"179","gloibi","Glossy Ibis","Plegadis falcinellus","L46630387","Merrimon Rd","2025-06-01 14:10",2,34.7838925,-76.6270701,TRUE,FALSE,TRUE,"S245765936"
"180","gloibi","Glossy Ibis","Plegadis falcinellus","L46596956","6843–6899 SW 13th St, Micanopy US-FL 29.56149, -82.33181","2025-06-01 14:08",1,29.56149,-82.331809,TRUE,FALSE,TRUE,"S245611019"
"181","gloibi","Glossy Ibis","Plegadis falcinellus","L1906442","Rt. 1A, Second Pullout South of Odiorne Point, Rye","2025-06-01 14:01",2,43.0400379,-70.7150774,TRUE,FALSE,FALSE,"S245590783"
"182","gloibi","Glossy Ibis","Plegadis falcinellus","L3392569","Sand Hill Crane Park","2025-06-01 14:00",1,26.8405153,-80.1664022,TRUE,FALSE,FALSE,"S245642846"
"183","gloibi","Glossy Ibis","Plegadis falcinellus","L514035","Winthrop Beach and Five Sisters","2025-06-01 13:50",1,42.3747938,-70.9681878,TRUE,FALSE,FALSE,"S245687904"
"184","gloibi","Glossy Ibis","Plegadis falcinellus","L559416","Lake Apopka North Shore--Orange County section (Please consider using more specific locations)","2025-06-01 13:35",7,28.6893446,-81.5995327,TRUE,FALSE,FALSE,"S245635506"
"185","gloibi","Glossy Ibis","Plegadis falcinellus","L30559584","7629 Bozman Neavitt Rd","2025-06-01 13:32",86,38.7606726,-76.2900707,TRUE,TRUE,TRUE,"S245574243"
"186","gloibi","Glossy Ibis","Plegadis falcinellus","L1598413","Lake Apopka Loop Trail--northeast section","2025-06-01 13:30",6,28.6435091,-81.5636897,TRUE,FALSE,FALSE,"S245633351"
"187","gloibi","Glossy Ibis","Plegadis falcinellus","L46590222","Pinellas Postal to Home, Pinellas Pl, The Villages US-FL 28.86134, -82.00754","2025-06-01 13:30",1,28.861345,-82.007536,TRUE,FALSE,TRUE,"S245582844"
"188","gloibi","Glossy Ibis","Plegadis falcinellus","L46588040","Across from Wallis Sands","2025-06-01 13:20",NA,43.0280754,-70.7316052,TRUE,FALSE,TRUE,"S246037832"
"189","gloibi","Glossy Ibis","Plegadis falcinellus","L1053298","Nubbin Slough","2025-06-01 13:19",12,27.2006043,-80.7388794,TRUE,FALSE,FALSE,"S245617439"
"190","gloibi","Glossy Ibis","Plegadis falcinellus","L1461310","Cedar Creek Park","2025-06-01 13:07",3,40.6574086,-73.5072562,TRUE,FALSE,FALSE,"S245593158"
"191","gloibi","Glossy Ibis","Plegadis falcinellus","L278184","Rye Harbor SP (Ragged Neck)","2025-06-01 13:01",4,43.00162,-70.74497,TRUE,FALSE,FALSE,"S245573494"
"192","gloibi","Glossy Ibis","Plegadis falcinellus","L589790","Corson's Inlet SP","2025-06-01 12:50",4,39.2167774,-74.6462631,TRUE,FALSE,FALSE,"S245778152"
"193","gloibi","Glossy Ibis","Plegadis falcinellus","L2784156","Indian River Marshes","2025-06-01 12:49",1,41.2769478,-72.5241852,TRUE,FALSE,FALSE,"S245552192"
"194","gloibi","Glossy Ibis","Plegadis falcinellus","L2618901","Suffolk County Environmental Center, Islip","2025-06-01 12:38",2,40.7148882,-73.2134559,TRUE,FALSE,FALSE,"S245575045"
"195","gloibi","Glossy Ibis","Plegadis falcinellus","L46590946","Akins Trail, Chitty Chatty, Wildwood US-FL 28.81449, -81.97204","2025-06-01 12:26",2,28.814494,-81.97204,TRUE,FALSE,TRUE,"S245585896"
"196","gloibi","Glossy Ibis","Plegadis falcinellus","L46579056","1278 SR-222, Bethel US-OH 38.86789, -84.11903","2025-06-01 12:18",1,38.867887,-84.119029,TRUE,TRUE,TRUE,"S245536183"
"197","gloibi","Glossy Ibis","Plegadis falcinellus","L45767785","Shoe Tree Trail","2025-06-01 12:17",10,42.986552,-70.613142,TRUE,FALSE,TRUE,"S245942611"
"198","gloibi","Glossy Ibis","Plegadis falcinellus","L470628","Thompson's Beach and Road","2025-06-01 12:15",4,39.1928839,-74.9945641,TRUE,FALSE,FALSE,"S245595251"
"199","gloibi","Glossy Ibis","Plegadis falcinellus","L6329229","Oakwood Beach--Delwit Ave. marsh","2025-06-01 12:14",5,40.5532081,-74.118756,TRUE,FALSE,FALSE,"S245597334"
"200","gloibi","Glossy Ibis","Plegadis falcinellus","L4233381","US-FL-Naples-9282-9290 Lely Resort Blvd - 26.0699x-81.7063","2025-06-01 12:14",1,26.069874,-81.706314,TRUE,FALSE,TRUE,"S245534856"
"201","gloibi","Glossy Ibis","Plegadis falcinellus","L2865928","Captree Island","2025-06-01 11:53",9,40.6469348,-73.2632673,TRUE,FALSE,FALSE,"S245529526"
"202","gloibi","Glossy Ibis","Plegadis falcinellus","L692829","Bell's Neck Conservation Area (HCT)","2025-06-01 11:40",1,41.6840342,-70.1129007,TRUE,FALSE,FALSE,"S245585659"
"203","gloibi","Glossy Ibis","Plegadis falcinellus","L1135300","Squantum Marshes","2025-06-01 11:33",21,42.2941991,-71.0211182,TRUE,FALSE,FALSE,"S245519701"
"204","gloibi","Glossy Ibis","Plegadis falcinellus","L2147852","Twin Rivers Park","2025-06-01 11:30",5,27.1637075,-80.181849,TRUE,FALSE,FALSE,"S245543890"
"205","gloibi","Glossy Ibis","Plegadis falcinellus","L19227250","Lighthouse Center for Natural Resource Education","2025-06-01 11:25",1,39.7732687,-74.1936779,TRUE,FALSE,FALSE,"S245596632"
"206","gloibi","Glossy Ibis","Plegadis falcinellus","L29327513","761 Fringed Orchid Trail, Venice, Florida, US (27.066, -82.377)","2025-06-01 11:21",2,27.065831,-82.3765767,TRUE,FALSE,TRUE,"S245722280"
"207","gloibi","Glossy Ibis","Plegadis falcinellus","L448190","Scarborough Marsh--Pelreco Building","2025-06-01 11:15",2,43.5435712,-70.3495789,TRUE,FALSE,FALSE,"S245508567"
"208","gloibi","Glossy Ibis","Plegadis falcinellus","L46573970","6669–6841 SW 13th St, Micanopy US-FL 29.56415, -82.33247","2025-06-01 11:14",4,29.564149,-82.332473,TRUE,FALSE,TRUE,"S245513736"
"209","gloibi","Glossy Ibis","Plegadis falcinellus","L2234368","Nathan Benderson Park","2025-06-01 11:14",3,27.3632302,-82.4475861,TRUE,FALSE,FALSE,"S245674300"
"210","gloibi","Glossy Ibis","Plegadis falcinellus","L252030","Horicon NWR--Auto Tour and Trails","2025-06-01 11:00",1,43.6237,-88.67391,TRUE,TRUE,FALSE,"S245770646"
"211","gloibi","Glossy Ibis","Plegadis falcinellus","L9577710","Napeague SP--Lazy Point","2025-06-01 10:52",4,41.0117351,-72.0589849,TRUE,FALSE,FALSE,"S245512682"
"212","gloibi","Glossy Ibis","Plegadis falcinellus","L2390607","Cape Henlopen SP--Gordon's Pond Beach","2025-06-01 10:41",1,38.7424051,-75.0801587,TRUE,FALSE,FALSE,"S245675842"
"213","gloibi","Glossy Ibis","Plegadis falcinellus","L38733035","2853 Lust Rd, Apopka US-FL 28.66918, -81.55890","2025-06-01 10:39",5,28.669183,-81.558898,TRUE,FALSE,TRUE,"S245566821"
"214","gloibi","Glossy Ibis","Plegadis falcinellus","L527266","East Point Lighthouse","2025-06-01 10:39",25,39.1963928,-75.0278878,TRUE,FALSE,FALSE,"S245517757"
"215","gloibi","Glossy Ibis","Plegadis falcinellus","L619780","Chincoteague NWR--Marsh Trail","2025-06-01 10:38",5,37.9083824,-75.3471136,TRUE,FALSE,FALSE,"S245560889"
"216","gloibi","Glossy Ibis","Plegadis falcinellus","L21499481","Edwin B Forsythe Wildlife Refuge","2025-06-01 10:38",3,39.4592975,-74.4482807,TRUE,FALSE,TRUE,"S245747550"
"217","gloibi","Glossy Ibis","Plegadis falcinellus","L2113967","Timber Point Golf Course--East Marina","2025-06-01 10:36",2,40.7202869,-73.1412855,TRUE,FALSE,FALSE,"S245493801"
"218","gloibi","Glossy Ibis","Plegadis falcinellus","L9133624","Hogeye Recreational Path","2025-06-01 10:35",2,28.8032791,-82.0169592,TRUE,FALSE,FALSE,"S245518955"
"219","gloibi","Glossy Ibis","Plegadis falcinellus","L46565512","Sereno, Wimauma","2025-06-01 10:33",1,27.71614,-82.321754,TRUE,FALSE,TRUE,"S245474995"
"220","gloibi","Glossy Ibis","Plegadis falcinellus","L46574785","Lake Manatee, Myakka City US-FL 27.47677, -82.30189","2025-06-01 10:33",2,27.476769,-82.301895,TRUE,FALSE,TRUE,"S245517399"
"221","gloibi","Glossy Ibis","Plegadis falcinellus","L33181256","SE County Road 346, Hawthorne US-FL (29.52728, -82.20077)","2025-06-01 10:32",2,29.527281,-82.200773,TRUE,FALSE,TRUE,"S245562470"
"222","gloibi","Glossy Ibis","Plegadis falcinellus","L8254845","429–441 Spurwink Ave, Cape Elizabeth US-ME (43.5894,-70.2455)","2025-06-01 10:29",1,43.589366,-70.245458,TRUE,FALSE,TRUE,"S245487950"
"223","gloibi","Glossy Ibis","Plegadis falcinellus","L575120","Pea Patch Island","2025-06-01 10:24",30,39.592329,-75.5739212,TRUE,FALSE,FALSE,"S245542956"
"224","gloibi","Glossy Ibis","Plegadis falcinellus","L29509864","parker lakes","2025-06-01 10:23",1,26.5259819,-81.9080505,TRUE,FALSE,TRUE,"S245733798"
"225","gloibi","Glossy Ibis","Plegadis falcinellus","L46601163","The Golf Club at Crown Colony , Fort Myers US-FL 26.49852, -81.89700","2025-06-01 10:22",6,26.498524,-81.897003,TRUE,FALSE,TRUE,"S245628827"
"226","gloibi","Glossy Ibis","Plegadis falcinellus","L15187006","trretops","2025-06-01 10:19",3,27.4013372,-82.5063757,TRUE,FALSE,TRUE,"S245533455"
"227","gloibi","Glossy Ibis","Plegadis falcinellus","L14519570","9456 Highland Oak Drive, Tampa, Florida, US (28.132, -82.333)","2025-06-01 10:12",1,28.1316676,-82.3327067,TRUE,FALSE,TRUE,"S245513629"
"228","gloibi","Glossy Ibis","Plegadis falcinellus","L46562424","Garden State Parkway N, Marmora US-NJ 39.26451, -74.64064","2025-06-01 10:09",20,39.264512,-74.64064,TRUE,FALSE,TRUE,"S245459546"
"229","gloibi","Glossy Ibis","Plegadis falcinellus","L8237990","Hammonasset State Park, Madison US-CT (41.2535,-72.5440)","2025-06-01 10:09",8,41.253547,-72.544033,TRUE,FALSE,TRUE,"S245586116"
"230","gloibi","Glossy Ibis","Plegadis falcinellus","L46580733","1218 Wilson Dr, Cape May US-NJ 38.94987, -74.91079","2025-06-01 10:04",10,38.949875,-74.910793,TRUE,FALSE,TRUE,"S245543365"
"231","gloibi","Glossy Ibis","Plegadis falcinellus","L12545783","Chincoteague Wallops Marsh 2","2025-06-01 10:00",1,37.9563157,-75.4607965,TRUE,FALSE,TRUE,"S245862132"
"232","gloibi","Glossy Ibis","Plegadis falcinellus","L4112916","Rocky Point State Park","2025-06-01 10:00",1,41.6898991,-71.3672733,TRUE,FALSE,FALSE,"S245737647"
"233","gloibi","Glossy Ibis","Plegadis falcinellus","L46581101","Fort Delaware State Park, Delaware City US-DE 39.59294, -75.57227","2025-06-01 10:00",40,39.592936,-75.572267,TRUE,FALSE,TRUE,"S245544898"
"234","gloibi","Glossy Ibis","Plegadis falcinellus","L3363531","US-FL-Melbourne-Capron Ridge","2025-06-01 09:56",1,28.255022,-80.703228,TRUE,FALSE,TRUE,"S245522324"
"235","gloibi","Glossy Ibis","Plegadis falcinellus","L234146","The Celery Fields","2025-06-01 09:55",9,27.3253186,-82.4336821,TRUE,FALSE,FALSE,"S245674664"
"236","gloibi","Glossy Ibis","Plegadis falcinellus","L14551589","National Sailors' Home Cemetery/Salt Marsh Trail","2025-06-01 09:55",3,42.2711831,-71.0016493,TRUE,FALSE,FALSE,"S245504402"
"237","gloibi","Glossy Ibis","Plegadis falcinellus","L5586080","Oakwood Beach--Riga St. marsh","2025-06-01 09:54",1,40.5546643,-74.119017,TRUE,FALSE,FALSE,"S245460135"
"238","gloibi","Glossy Ibis","Plegadis falcinellus","L123127","Everglades NP--Mrazek Pond","2025-06-01 09:54",1,25.1866667,-80.8936111,TRUE,FALSE,FALSE,"S245485427"
"239","gloibi","Glossy Ibis","Plegadis falcinellus","L46561694","S Kirkman Rd, Orlando US-FL 28.46255, -81.45877","2025-06-01 09:52",1,28.462551,-81.458769,TRUE,FALSE,TRUE,"S245455933"
"240","gloibi","Glossy Ibis","Plegadis falcinellus","L46561848","Mattamuskeet Rd, Swanquarter US-NC 35.45754, -76.19626","2025-06-01 09:52",6,35.457544,-76.196264,TRUE,FALSE,TRUE,"S245456681"
"241","gloibi","Glossy Ibis","Plegadis falcinellus","L6275114","Spurwink Church Cemetery, Cape Elizabeth","2025-06-01 09:50",2,43.5805183,-70.2528176,TRUE,FALSE,FALSE,"S245466919"
"242","gloibi","Glossy Ibis","Plegadis falcinellus","L623357","Paynes Prairie Preserve SP--La Chua Trail","2025-06-01 09:47",3,29.6068756,-82.3031116,TRUE,FALSE,FALSE,"S245481358"
"243","gloibi","Glossy Ibis","Plegadis falcinellus","L46560819","6669–6841 SW 13th St, Micanopy US-FL (29.56440, -82.33251)","2025-06-01 09:46",6,29.5644,-82.332515,TRUE,FALSE,TRUE,"S245451480"
"244","gloibi","Glossy Ibis","Plegadis falcinellus","L45518161","Reserve at Westchase","2025-06-01 09:45",2,28.053715,-82.587737,TRUE,FALSE,TRUE,"S245481749"
"245","gloibi","Glossy Ibis","Plegadis falcinellus","L8560058","Jefferson Equestrian Area","2025-06-01 09:44",1,28.0591773,-82.3436049,TRUE,FALSE,FALSE,"S245524795"
"246","gloibi","Glossy Ibis","Plegadis falcinellus","L810122","Chincoteague NWR--Toms Cove Visitor Center","2025-06-01 09:43",2,37.890028,-75.3449035,TRUE,FALSE,FALSE,"S245465422"
"247","gloibi","Glossy Ibis","Plegadis falcinellus","L1461389","T.M. Goodwin WMA--Original Unit","2025-06-01 09:42",2,27.8452341,-80.7252359,TRUE,FALSE,FALSE,"S245510905"
"248","gloibi","Glossy Ibis","Plegadis falcinellus","L10027603","New Creek Watershed, Graham Blvd. bridge","2025-06-01 09:30",NA,40.576194,-74.087204,TRUE,FALSE,FALSE,"S245501378"
"249","gloibi","Glossy Ibis","Plegadis falcinellus","L2216786","Westbrook shoreline","2025-06-01 09:30",5,41.277871,-72.4373674,TRUE,FALSE,FALSE,"S245452662"
"250","gloibi","Glossy Ibis","Plegadis falcinellus","L578456","T.M. Goodwin WMA--Broadmoor Unit","2025-06-01 09:30",30,27.8891565,-80.746336,TRUE,FALSE,FALSE,"S245531516"
"251","gloibi","Glossy Ibis","Plegadis falcinellus","L46561444","Sea Isle City 29th & Central Ave","2025-06-01 09:30",4,39.1640888,-74.6864582,TRUE,FALSE,TRUE,"S245456204"
"252","gloibi","Glossy Ibis","Plegadis falcinellus","L298649","Lake Apopka Wildlife Drive","2025-06-01 09:28",10,28.6691945,-81.5598149,TRUE,FALSE,FALSE,"S245542220"
"253","gloibi","Glossy Ibis","Plegadis falcinellus","L46558713","St Nicholas Ave, Christmas US-FL 28.54005, -80.98804","2025-06-01 09:27",11,28.540052,-80.988037,TRUE,FALSE,TRUE,"S245441217"
"254","gloibi","Glossy Ibis","Plegadis falcinellus","L20781861","Other side of marsh at DeLuna postal 4401–4499 Heather Way, Wildwood US-FL 28.82597, -82.03462","2025-06-01 09:24",4,28.825974,-82.034618,TRUE,FALSE,TRUE,"S245520641"
"255","gloibi","Glossy Ibis","Plegadis falcinellus","L211434","Crane Beach (TTOR)","2025-06-01 09:24",1,42.6839598,-70.7667586,TRUE,FALSE,FALSE,"S245963825"
"256","gloibi","Glossy Ibis","Plegadis falcinellus","L3014382","Rainbow Islands","2025-06-01 09:23",20,39.2991036,-74.5909882,TRUE,FALSE,FALSE,"S245496681"
"257","gloibi","Glossy Ibis","Plegadis falcinellus","L580981","Merritt Island NWR--West Gator Creek","2025-06-01 09:17",2,28.6283331,-80.7873852,TRUE,FALSE,FALSE,"S245470210"
"258","gloibi","Glossy Ibis","Plegadis falcinellus","L23025234","La Chua Trail, Gainesville, Florida, US (29.604, -82.302)","2025-06-01 09:15",5,29.6041821,-82.3020115,TRUE,FALSE,TRUE,"S245461158"
"259","gloibi","Glossy Ibis","Plegadis falcinellus","L39732365","Tidewell Lake","2025-06-01 09:12",2,27.546654,-82.522252,TRUE,FALSE,TRUE,"S245569103"
"260","gloibi","Glossy Ibis","Plegadis falcinellus","L46555678","15095–15193 Tamiami Trail E, Naples US-FL 26.03344, -81.65260","2025-06-01 09:11",1,26.033436,-81.652604,TRUE,FALSE,TRUE,"S245425591"
"261","gloibi","Glossy Ibis","Plegadis falcinellus","L4319522","Sharon Rose Wiechens Preserve","2025-06-01 09:07",1,28.8451812,-81.9517422,TRUE,FALSE,FALSE,"S245451636"
"262","gloibi","Glossy Ibis","Plegadis falcinellus","L39273171","Ecopassage South (29.5608,-82.3314)","2025-06-01 09:06",10,29.560774,-82.331428,TRUE,FALSE,TRUE,"S245561309"
"263","gloibi","Glossy Ibis","Plegadis falcinellus","L46558105","Tall trees pool and pond","2025-06-01 08:56",1,28.921742,-82.005362,TRUE,FALSE,TRUE,"S245438077"
"264","gloibi","Glossy Ibis","Plegadis falcinellus","L1550331","Chincoteague NWR Wildlife Loop Drive","2025-06-01 08:55",20,37.904045,-75.351076,TRUE,FALSE,TRUE,"S245518056"
"265","gloibi","Glossy Ibis","Plegadis falcinellus","L44574115","Akin and Bradford Trails","2025-06-01 08:53",3,28.805228,-81.977243,TRUE,FALSE,TRUE,"S245629042"
"266","gloibi","Glossy Ibis","Plegadis falcinellus","L620580","Wolf Branch Creek Preserve","2025-06-01 08:51",4,27.7421125,-82.4375439,TRUE,FALSE,FALSE,"S245499693"
"267","gloibi","Glossy Ibis","Plegadis falcinellus","L4856056","Belle Isle Marsh Reservation--The Key Wildlife Observation Area","2025-06-01 08:51",1,42.3897569,-70.9848479,TRUE,FALSE,FALSE,"S245420903"
"268","gloibi","Glossy Ibis","Plegadis falcinellus","L473991","Lake Jesup--Sanford Ave.","2025-06-01 08:46",3,28.727023,-81.2631655,TRUE,FALSE,FALSE,"S245437525"
"269","gloibi","Glossy Ibis","Plegadis falcinellus","L713110","Island Road","2025-06-01 08:45",1,42.6552337,-70.7843021,TRUE,FALSE,FALSE,"S245452260"
"270","gloibi","Glossy Ibis","Plegadis falcinellus","L5584024","Pine Woods Park","2025-06-01 08:40",25,25.647447,-80.356726,TRUE,FALSE,FALSE,"S245685667"
"271","gloibi","Glossy Ibis","Plegadis falcinellus","L2329969","Jenny Island (landing prohibited May-Aug.)","2025-06-01 08:40",7,43.765031,-69.908553,TRUE,FALSE,FALSE,"S245850386"
"272","gloibi","Glossy Ibis","Plegadis falcinellus","L791193","Jamaica Bay Wildlife Refuge--North Garden","2025-06-01 08:38",4,40.6217543,-73.8277853,TRUE,FALSE,FALSE,"S245532452"
"273","gloibi","Glossy Ibis","Plegadis falcinellus","L46551410","142 Second St, Lewes US-DE 38.77546, -75.14009","2025-06-01 08:32",3,38.775458,-75.140087,TRUE,FALSE,TRUE,"S245401773"
"274","gloibi","Glossy Ibis","Plegadis falcinellus","L46587407","22228 LaSalle Rd","2025-06-01 08:30",3,27.000421,-82.0836272,TRUE,FALSE,TRUE,"S245573733"
"275","gloibi","Glossy Ibis","Plegadis falcinellus","L42804434","Oyster River","2025-06-01 08:25",1,41.281546,-72.393617,TRUE,FALSE,TRUE,"S245408263"
"276","gloibi","Glossy Ibis","Plegadis falcinellus","L12026974","Blue Hill Trail, Mallory Park","2025-06-01 08:16",1,27.4656041,-82.4243372,TRUE,FALSE,TRUE,"S245395989"
"277","gloibi","Glossy Ibis","Plegadis falcinellus","L8064878","Home-536 Silk Oak Drive, Venice","2025-06-01 08:15",3,27.0616425,-82.3768275,TRUE,FALSE,TRUE,"S245451211"
"278","gloibi","Glossy Ibis","Plegadis falcinellus","L1772235","Russell Burgess Coastal Preserve","2025-06-01 08:05",6,33.8344585,-78.6327699,TRUE,FALSE,FALSE,"S245431768"
"279","gloibi","Glossy Ibis","Plegadis falcinellus","L891950","Koreshan State Historic Site","2025-06-01 08:05",1,26.4346098,-81.8168592,TRUE,FALSE,FALSE,"S245461140"
"280","gloibi","Glossy Ibis","Plegadis falcinellus","L1017638","Peaceful Waters Sanctuary","2025-06-01 08:04",1,26.631443,-80.2332294,TRUE,FALSE,FALSE,"S245407295"
"281","gloibi","Glossy Ibis","Plegadis falcinellus","L42185561","Backyard Birds","2025-06-01 08:03",3,28.141571,-82.541933,TRUE,FALSE,TRUE,"S245387201"
"282","gloibi","Glossy Ibis","Plegadis falcinellus","L23327035","Hale Park Ave, Beverly","2025-06-01 08:02",1,42.552068,-70.863347,TRUE,FALSE,TRUE,"S245388585"
"283","gloibi","Glossy Ibis","Plegadis falcinellus","L248057","Pte. Mouillee SGA (permit required Sep 1-Dec 15)","2025-06-01 07:57",1,42.0146112,-83.2001495,TRUE,TRUE,FALSE,"S245480939"
"284","gloibi","Glossy Ibis","Plegadis falcinellus","L207342","Appleton Farms (TTOR)","2025-06-01 07:55",3,42.6497664,-70.8479523,TRUE,FALSE,FALSE,"S245443900"
"285","gloibi","Glossy Ibis","Plegadis falcinellus","L26661641","Forsythe NWR 8-mile Loop","2025-06-01 07:51",16,39.4691435,-74.4523283,TRUE,FALSE,TRUE,"S245602024"
"286","gloibi","Glossy Ibis","Plegadis falcinellus","L800336","Argilla-Northgate-Essex Rd. Fields Complex","2025-06-01 07:46",60,42.6613998,-70.8144121,TRUE,FALSE,FALSE,"S245714015"
"287","gloibi","Glossy Ibis","Plegadis falcinellus","L46196972","Banding Station, Alachua US-FL (29.7772,-82.4170)","2025-06-01 07:42",1,29.777164,-82.416977,TRUE,FALSE,TRUE,"S245403426"
"288","gloibi","Glossy Ibis","Plegadis falcinellus","L9315964","Fireplace Neck Tidal Wetlands","2025-06-01 07:36",2,40.7617621,-72.9062805,TRUE,FALSE,FALSE,"S245406809"
"289","gloibi","Glossy Ibis","Plegadis falcinellus","L1139938","Conner Preserve","2025-06-01 07:35",1,28.3213634,-82.4439329,TRUE,FALSE,FALSE,"S245503640"
"290","gloibi","Glossy Ibis","Plegadis falcinellus","L207439","Ipswich River Wildlife Sanctuary (Mass Audubon)","2025-06-01 07:31",1,42.6317644,-70.9208532,TRUE,FALSE,FALSE,"S245511031"
"291","gloibi","Glossy Ibis","Plegadis falcinellus","L11471706","Conanicut Island Sanctuary","2025-06-01 07:30",8,41.508592,-71.3653705,TRUE,FALSE,FALSE,"S245523021"
"292","gloibi","Glossy Ibis","Plegadis falcinellus","L805096","Allens Pond WS--Quansett Trail (Mass Audubon)","2025-06-01 07:29",1,41.51298,-71.0225773,TRUE,FALSE,FALSE,"S245470591"
"293","gloibi","Glossy Ibis","Plegadis falcinellus","L11336193","Home,  Nokomis, Florida","2025-06-01 07:25",3,27.1402,-82.441109,TRUE,FALSE,TRUE,"S245991964"
"294","gloibi","Glossy Ibis","Plegadis falcinellus","L613147","Colt State Park","2025-06-01 07:23",1,41.6806368,-71.3021922,TRUE,FALSE,FALSE,"S245707273"
"295","gloibi","Glossy Ibis","Plegadis falcinellus","L46394304","Beach By The Cottage, Old Orchard Beach, Maine","2025-06-01 07:14",1,43.5049091,-70.3802409,TRUE,FALSE,TRUE,"S245364477"
"296","gloibi","Glossy Ibis","Plegadis falcinellus","L355313","Hague Dairy (UF Dairy Unit)","2025-06-01 07:13",1,29.7785775,-82.4163169,TRUE,FALSE,FALSE,"S245563051"
"297","gloibi","Glossy Ibis","Plegadis falcinellus","L2324116","Allens Pond Wildlife Sanctuary (Mass Audubon)","2025-06-01 07:00",1,41.5132529,-71.0139501,TRUE,FALSE,FALSE,"S245649308"
"298","gloibi","Glossy Ibis","Plegadis falcinellus","L509108","Croton Point Park","2025-06-01 06:59",1,41.1871668,-73.8891219,TRUE,FALSE,FALSE,"S245444317"
"299","gloibi","Glossy Ibis","Plegadis falcinellus","L784803","Allens Pond WS--Beach Loop (Mass Audubon)","2025-06-01 06:58",1,41.5070668,-71.023618,TRUE,FALSE,FALSE,"S245484593"
"300","gloibi","Glossy Ibis","Plegadis falcinellus","L573374","Ocklawaha Prairie Restoration Area","2025-06-01 06:42",5,29.1054422,-81.9069064,TRUE,FALSE,FALSE,"S245490960"
"301","gloibi","Glossy Ibis","Plegadis falcinellus","L11733713","Kingsbay Naval Submarine Base (Restricted Access)","2025-06-01 06:20",1,30.78509,-81.5699366,TRUE,FALSE,FALSE,"S245661770"
"302","gloibi","Glossy Ibis","Plegadis falcinellus","L16905360","Old Marsh Rd, East side","2025-06-01 06:15",1,43.611379,-88.616791,TRUE,TRUE,TRUE,"S245542528"
"303","gloibi","Glossy Ibis","Plegadis falcinellus","L21459581","Marjorie A. Hoy Memorial Park at Orange Lake Overlook","2025-06-01 06:11",2,29.438926,-82.218062,TRUE,FALSE,FALSE,"S245356332"
"304","gloibi","Glossy Ibis","Plegadis falcinellus","L3662928","Cape Lookout NS--Lighthouse to Cape Point","2025-06-01 05:45",9,34.6088173,-76.527307,TRUE,FALSE,FALSE,"S245764194"
"305","gloibi","Glossy Ibis","Plegadis falcinellus","L7424978","Sammy's Beach","2025-06-01 05:38",1,41.0290844,-72.1875189,TRUE,FALSE,FALSE,"S245350154"
"306","gloibi","Glossy Ibis","Plegadis falcinellus","L571282","WCA 2-B Conservation Levee Greenway","2025-06-01",NA,26.1291204,-80.3665727,TRUE,FALSE,FALSE,"S245650963"
"307","gloibi","Glossy Ibis","Plegadis falcinellus","L7201675","Spring Hill Road Pond","2025-06-01",3,43.5358023,-70.4393448,TRUE,FALSE,FALSE,"S245854977"
"308","gloibi","Glossy Ibis","Plegadis falcinellus","L256572","Shinnecock County Park West","2025-05-31 19:55",1,40.82816,-72.53171,TRUE,FALSE,FALSE,"S245890184"
"309","gloibi","Glossy Ibis","Plegadis falcinellus","L21741924","Silverleaf/Neal Communities","2025-05-31 19:54",3,27.55357,-82.45398,TRUE,FALSE,FALSE,"S245266113"
"310","gloibi","Glossy Ibis","Plegadis falcinellus","L718675","Queen Sound Landing","2025-05-31 19:46",3,37.9349238,-75.4197639,TRUE,FALSE,FALSE,"S245242734"
"311","gloibi","Glossy Ibis","Plegadis falcinellus","L21261939","Altamaha WMA--Champney Rd.","2025-05-31 19:35",1,31.3539811,-81.4515483,TRUE,FALSE,FALSE,"S245627624"
"312","gloibi","Glossy Ibis","Plegadis falcinellus","L754513","Portland Head Light--Fort Williams Park","2025-05-31 19:30",10,43.62292,-70.2087736,TRUE,FALSE,FALSE,"S245937482"
"313","gloibi","Glossy Ibis","Plegadis falcinellus","L46518012","Altamaha Waterfowl Management Area","2025-05-31 19:30",2,31.3540686,-81.4453958,TRUE,FALSE,TRUE,"S245244147"
"314","gloibi","Glossy Ibis","Plegadis falcinellus","L2098135","Bialek Park","2025-05-31 19:27",12,42.6853788,-70.8483899,TRUE,FALSE,FALSE,"S245230187"
"315","gloibi","Glossy Ibis","Plegadis falcinellus","L17054844","Club Med Sandpiper Bay","2025-05-31 19:20",20,27.2442997,-80.3119469,TRUE,FALSE,FALSE,"S245431547"
"316","gloibi","Glossy Ibis","Plegadis falcinellus","L1052887","Landing Ln.","2025-05-31 19:07",2,41.0179877,-72.1453714,TRUE,FALSE,FALSE,"S245229970"
"317","gloibi","Glossy Ibis","Plegadis falcinellus","L2463324","Portland International Jetport","2025-05-31 19:04",1,43.6453364,-70.309924,TRUE,FALSE,FALSE,"S245213717"
"318","gloibi","Glossy Ibis","Plegadis falcinellus","L46514098","37403 Third St, Rehoboth Beach US-DE 38.69952, -75.09834","2025-05-31 18:30",4,38.699525,-75.098344,TRUE,FALSE,TRUE,"S245224997"
"319","gloibi","Glossy Ibis","Plegadis falcinellus","L211914","Nummy Island","2025-05-31 17:17",5,39.0365891,-74.7912741,TRUE,FALSE,FALSE,"S245225250"
"320","gloibi","Glossy Ibis","Plegadis falcinellus","L302859","Mackay Island NWR","2025-05-31 16:41",7,36.5170859,-75.9569081,TRUE,FALSE,FALSE,"S245184036"
"321","gloibi","Glossy Ibis","Plegadis falcinellus","L12654076","153 Millstone Road, Harpswell, Maine, US (43.798, -69.903)","2025-05-31 16:12",1,43.7977187,-69.9034314,TRUE,FALSE,TRUE,"S245162103"
"322","gloibi","Glossy Ibis","Plegadis falcinellus","L681809","Great Kills Park--Mudflats","2025-05-31 16:10",2,40.5464104,-74.1182005,TRUE,FALSE,FALSE,"S245237250"
"323","gloibi","Glossy Ibis","Plegadis falcinellus","L25847881","190 S Main St, Cohasset US-MA 42.23490, -70.79631","2025-05-31 15:57",2,42.2349,-70.796314,TRUE,FALSE,TRUE,"S245156150"
"324","gloibi","Glossy Ibis","Plegadis falcinellus","L46497755","2320 State Road 60, Bartow, Florida, US (27.902, -81.819)","2025-05-31 15:55",4,27.9015942,-81.819054,TRUE,FALSE,TRUE,"S245155824"
"325","gloibi","Glossy Ibis","Plegadis falcinellus","L2372882","Island Beach SP--Spizzle Creek Blind Trail","2025-05-31 15:45",3,39.7941774,-74.0972793,TRUE,FALSE,FALSE,"S245456302"
"326","gloibi","Glossy Ibis","Plegadis falcinellus","L251784","Capisic Pond Park","2025-05-31 15:31",6,43.665709,-70.3073291,TRUE,FALSE,FALSE,"S245170739"
"327","gloibi","Glossy Ibis","Plegadis falcinellus","L46495744","536 High Street, Hampton, New Hampshire, US (42.941, -70.797)","2025-05-31 15:28",1,42.941463,-70.7966125,TRUE,FALSE,TRUE,"S245147243"
"328","gloibi","Glossy Ibis","Plegadis falcinellus","L4323171","Lake Apopka North Shore--Lust Rd. Gate Area Only (Not for entire wildlife drive)","2025-05-31 15:07",2,28.671831,-81.559615,TRUE,FALSE,FALSE,"S245143976"
"329","gloibi","Glossy Ibis","Plegadis falcinellus","L2501882","Cedar Grove Beach","2025-05-31 15:02",1,40.5576935,-74.1016177,TRUE,FALSE,FALSE,"S245237118"
"330","gloibi","Glossy Ibis","Plegadis falcinellus","L241658","Manahawkin WMA","2025-05-31 14:59",3,39.6816612,-74.2183969,TRUE,FALSE,FALSE,"S245164972"
"331","gloibi","Glossy Ibis","Plegadis falcinellus","L608435","Chautauqua NWR--Eagle Bluff","2025-05-31 14:34",1,40.3747335,-89.9800786,TRUE,TRUE,FALSE,"S245204880"
"332","gloibi","Glossy Ibis","Plegadis falcinellus","L46489494","1012 Cardwell Street, Brooksville, Florida, US (28.447, -82.279)","2025-05-31 14:28",1,28.44662,-82.2792621,TRUE,FALSE,TRUE,"S245121350"
"333","gloibi","Glossy Ibis","Plegadis falcinellus","L46510604","Ford Street Marsh, Revere-MA","2025-05-31 14:15",3,42.420361,-70.991428,TRUE,FALSE,TRUE,"S245208937"
"334","gloibi","Glossy Ibis","Plegadis falcinellus","L46498750","7536 Eastside Rd, Chincoteague US-VA 37.91685, -75.37332","2025-05-31 14:07",4,37.916846,-75.373315,TRUE,FALSE,TRUE,"S245160005"
"335","gloibi","Glossy Ibis","Plegadis falcinellus","L612220","Lewis Lake Park, Winthrop","2025-05-31 14:00",2,42.3742711,-70.9754562,TRUE,FALSE,FALSE,"S245119578"
"336","gloibi","Glossy Ibis","Plegadis falcinellus","L46485683","2801–2899 Ripton Ct, Orlando US-FL 28.51122, -81.48980","2025-05-31 13:58",1,28.511221,-81.489798,TRUE,FALSE,TRUE,"S245105554"
"337","gloibi","Glossy Ibis","Plegadis falcinellus","L26200989","Tall Trees Postal/Pool & Pond 2032 Tynte Terrace, The Villages, Florida, US (28.922, -82.004)","2025-05-31 13:40",2,28.9216312,-82.0038074,TRUE,FALSE,TRUE,"S245144500"
"338","gloibi","Glossy Ibis","Plegadis falcinellus","L3103629","Holey Land WMA","2025-05-31 12:54",3,26.3340377,-80.6420517,TRUE,FALSE,FALSE,"S245155431"
"339","gloibi","Glossy Ibis","Plegadis falcinellus","L29227681","Orlando Apopka Airport Industrial Area","2025-05-31 12:54",1,28.7067118,-81.5827368,TRUE,FALSE,TRUE,"S245162496"
"340","gloibi","Glossy Ibis","Plegadis falcinellus","L92447","Edwin B. Forsythe NWR--Visitor Center","2025-05-31 12:51",4,39.4648594,-74.4506477,TRUE,FALSE,FALSE,"S245098513"
"341","gloibi","Glossy Ibis","Plegadis falcinellus","L6465176","A-1 Flow Equalization Basin (A-1 FEB) [Open Friday - Sunday]","2025-05-31 12:42",3,26.3984897,-80.5940734,TRUE,FALSE,FALSE,"S245103811"
"342","gloibi","Glossy Ibis","Plegadis falcinellus","L478988","Rockport Golf Club (private)","2025-05-31 12:31",3,42.650974,-70.6060839,TRUE,FALSE,FALSE,"S245075446"
"343","gloibi","Glossy Ibis","Plegadis falcinellus","L46498374","Thompson Island Trail, Rehoboth Beach US-DE 38.69877, -75.09040","2025-05-31 12:26",1,38.698766,-75.0904,TRUE,FALSE,TRUE,"S245158367"
"344","gloibi","Glossy Ibis","Plegadis falcinellus","L1106756","Cape May Co. Park North / Cameron Wildlife Sanctuary","2025-05-31 12:25",1,39.2396056,-74.6724013,TRUE,FALSE,FALSE,"S245118915"
"345","gloibi","Glossy Ibis","Plegadis falcinellus","L46476496","Chincoteague Rd, Assawoman US-VA 37.93729, -75.42770","2025-05-31 12:22",1,37.937289,-75.427701,TRUE,FALSE,TRUE,"S245067493"
"346","gloibi","Glossy Ibis","Plegadis falcinellus","L46456444","9 Mariner Lane, Rotonda West, Florida, US (26.907, -82.288)","2025-05-31 12:19",1,26.9069916,-82.2880717,TRUE,FALSE,TRUE,"S245066100"
"347","gloibi","Glossy Ibis","Plegadis falcinellus","L14558780","Eel Creek Salt Marsh, Hampton NH","2025-05-31 12:16",6,42.9290976,-70.8019788,TRUE,FALSE,TRUE,"S245060093"
"348","gloibi","Glossy Ibis","Plegadis falcinellus","L361699","Delaware Seashore SP--Thompson Island","2025-05-31 12:15",1,38.6972335,-75.0914669,TRUE,FALSE,FALSE,"S245081099"
"349","gloibi","Glossy Ibis","Plegadis falcinellus","L1884046","Goss Farm, Rye","2025-05-31 12:15",5,43.00145,-70.7551859,TRUE,FALSE,FALSE,"S245061896"
"350","gloibi","Glossy Ibis","Plegadis falcinellus","L4776720","Witch Island, Hampton","2025-05-31 12:12",1,42.9379358,-70.7973361,TRUE,FALSE,TRUE,"S245063668"
"351","gloibi","Glossy Ibis","Plegadis falcinellus","L600557","Castle Hill (TTOR)","2025-05-31 11:57",12,42.6854923,-70.7790649,TRUE,FALSE,FALSE,"S245129626"
"352","gloibi","Glossy Ibis","Plegadis falcinellus","L7830621","Tabit Road","2025-05-31 11:55",2,26.65112,-80.655038,TRUE,FALSE,TRUE,"S245052697"
"353","gloibi","Glossy Ibis","Plegadis falcinellus","L46353927","Fiddler Bay Lane","2025-05-31 11:55",5,37.92245,-75.360321,TRUE,FALSE,TRUE,"S245106206"
"354","gloibi","Glossy Ibis","Plegadis falcinellus","L46517323","Wellington Environmental Preserve","2025-05-31 11:50",1,26.632,-80.311372,TRUE,FALSE,TRUE,"S245245334"
"355","gloibi","Glossy Ibis","Plegadis falcinellus","L306109","Cook's Beach and Road","2025-05-31 11:46",6,39.1088683,-74.8936135,TRUE,FALSE,FALSE,"S245145541"
"356","gloibi","Glossy Ibis","Plegadis falcinellus","L473385","Princess Anne WMA--Whitehurst Tract","2025-05-31 11:45",4,36.6212111,-76.0015726,TRUE,FALSE,FALSE,"S245056089"
"357","gloibi","Glossy Ibis","Plegadis falcinellus","L46468994","257–293 Villemaire Rd, Apollo Beach US-FL 27.74231, -82.42749","2025-05-31 11:40",1,27.742313,-82.427485,TRUE,FALSE,TRUE,"S245036567"
"358","gloibi","Glossy Ibis","Plegadis falcinellus","L46484446","4281 Main St, Chincoteague US-VA 37.93725, -75.37124","2025-05-31 11:36",4,37.937252,-75.371243,TRUE,FALSE,TRUE,"S245100694"
"359","gloibi","Glossy Ibis","Plegadis falcinellus","L330652","Ocean City Preserve","2025-05-31 11:34",6,39.2611385,-74.6041728,TRUE,FALSE,FALSE,"S245287090"
"360","gloibi","Glossy Ibis","Plegadis falcinellus","L726997","Round Hill Town Beach","2025-05-31 11:29",8,41.539197,-70.9447074,TRUE,FALSE,FALSE,"S245225512"
"361","gloibi","Glossy Ibis","Plegadis falcinellus","L1880516","Hammonasset Beach SP--Meig's Point Parking Lot/Marshes","2025-05-31 11:21",12,41.2522001,-72.5451318,TRUE,FALSE,FALSE,"S245064875"
"362","gloibi","Glossy Ibis","Plegadis falcinellus","L42131658","Ingraha","2025-05-31 11:14",2,25.382922,-80.622139,TRUE,FALSE,TRUE,"S245089017"
"363","gloibi","Glossy Ibis","Plegadis falcinellus","L34888379","2853 Lust Road, Apopka, Florida, US (28.669, -81.559). Lust gate To Pumphouse","2025-05-31 11:09",14,28.6692621,-81.559272,TRUE,FALSE,TRUE,"S245067971"
"364","gloibi","Glossy Ibis","Plegadis falcinellus","L37598181","Shinnecock County Park West, to Tiana Beach, Southampton US-NY 40.83673, -72.50020","2025-05-31 11:09",20,40.836728,-72.500199,TRUE,FALSE,TRUE,"S245093413"
"365","gloibi","Glossy Ibis","Plegadis falcinellus","L2508666","Smith Neck Road Boat Ramp","2025-05-31 11:06",1,41.2874794,-72.3240709,TRUE,FALSE,FALSE,"S245063899"
"366","gloibi","Glossy Ibis","Plegadis falcinellus","L581841","Browns Farm Rd.","2025-05-31 10:49",43,26.6215822,-80.5616945,TRUE,FALSE,FALSE,"S245023540"
"367","gloibi","Glossy Ibis","Plegadis falcinellus","L213321","Oceanside Marine Nature Study Area","2025-05-31 10:44",1,40.6233726,-73.6242225,TRUE,FALSE,FALSE,"S245042263"
"368","gloibi","Glossy Ibis","Plegadis falcinellus","L13837936","Stafford Avenue, Stafford Township, New Jersey, US (39.694, -74.225)","2025-05-31 10:35",1,39.6936641,-74.2254105,TRUE,FALSE,TRUE,"S245088163"
"369","gloibi","Glossy Ibis","Plegadis falcinellus","L361675","Augustine Wildlife Area--Port Penn Tract","2025-05-31 10:30",1,39.5256499,-75.5762815,TRUE,FALSE,FALSE,"S245191348"
"370","gloibi","Glossy Ibis","Plegadis falcinellus","L2094076","Timber Point Golf Course","2025-05-31 10:23",3,40.7171362,-73.1445837,TRUE,FALSE,FALSE,"S245018042"
"371","gloibi","Glossy Ibis","Plegadis falcinellus","L6586010","Everglades NP--Gate 13/Hidden Lake","2025-05-31 10:20",2,25.3845337,-80.6221088,TRUE,FALSE,FALSE,"S245058247"
"372","gloibi","Glossy Ibis","Plegadis falcinellus","L834825","Dune Rd - Ponquogue Flats (incl. K Rd & Rd L)","2025-05-31 10:20",2,40.8334892,-72.5113106,TRUE,FALSE,TRUE,"S245515482"
"373","gloibi","Glossy Ibis","Plegadis falcinellus","L572064","Edwin B. Forsythe NWR--Graveling Point","2025-05-31 10:19",24,39.5394117,-74.3927314,TRUE,FALSE,FALSE,"S245144817"
"374","gloibi","Glossy Ibis","Plegadis falcinellus","L10950256","Indian River County Landfill","2025-05-31 10:12",4,27.5783374,-80.489184,TRUE,FALSE,FALSE,"S244988635"
"375","gloibi","Glossy Ibis","Plegadis falcinellus","L5960782","NW 117 Ave and Okeechobee RD, West of Turnpike","2025-05-31 10:10",90,25.915544,-80.3895721,TRUE,FALSE,TRUE,"S245043489"
"376","gloibi","Glossy Ibis","Plegadis falcinellus","L635288","Loxahatchee NWR--Marsh Trail","2025-05-31 10:08",2,26.4928139,-80.2168894,TRUE,FALSE,FALSE,"S245104485"
"377","gloibi","Glossy Ibis","Plegadis falcinellus","L46477196","1198 Wilson Drive, Cape May, New Jersey, US (38.951, -74.91)","2025-05-31 10:06",1,38.9508829,-74.9100274,TRUE,FALSE,TRUE,"S245070985"
"378","gloibi","Glossy Ibis","Plegadis falcinellus","L21711662","Baybridge Park & Pond","2025-05-31 10:05",1,28.047187,-82.599112,TRUE,FALSE,TRUE,"S245013904"
"379","gloibi","Glossy Ibis","Plegadis falcinellus","L9771581","Unknown Road Belle Glade","2025-05-31 10:03",2,26.622387,-80.469692,TRUE,FALSE,TRUE,"S245007424"
"380","gloibi","Glossy Ibis","Plegadis falcinellus","L601017","Ten Mile Creek Preserve","2025-05-31 09:58",1,27.4036803,-80.3991562,TRUE,FALSE,FALSE,"S244980782"
"381","gloibi","Glossy Ibis","Plegadis falcinellus","L1437921","Florida's Turnpike--Port St. Lucie Service Plaza","2025-05-31 09:50",1,27.3020801,-80.3728687,TRUE,FALSE,FALSE,"S244976397"
"382","gloibi","Glossy Ibis","Plegadis falcinellus","L10412755","Ocean Drive--Harbor View Marina","2025-05-31 09:50",1,38.9533119,-74.8896705,TRUE,FALSE,FALSE,"S245087503"
"383","gloibi","Glossy Ibis","Plegadis falcinellus","L10986600","Martin Downs Golf Club","2025-05-31 09:44",1,27.1737043,-80.3052837,TRUE,FALSE,FALSE,"S244970199"
"384","gloibi","Glossy Ibis","Plegadis falcinellus","L5124889","Starkey Ranch Development","2025-05-31 09:40",3,28.1968392,-82.6105866,TRUE,FALSE,FALSE,"S245023841"
"385","gloibi","Glossy Ibis","Plegadis falcinellus","L10637751","Sem-Chi Rice Farm Road","2025-05-31 09:39",3,26.649593,-80.468742,TRUE,FALSE,TRUE,"S244980889"
"386","gloibi","Glossy Ibis","Plegadis falcinellus","L607885","Sunnyhill Restoration Area","2025-05-31 09:38",1,28.99341,-81.83247,TRUE,FALSE,FALSE,"S245044241"
"387","gloibi","Glossy Ibis","Plegadis falcinellus","L27666073","832 South Gondola Drive, Venice, Florida, US (27.069, -82.397)","2025-05-31 09:36",3,27.0692174,-82.3970572,TRUE,FALSE,TRUE,"S245015120"
"388","gloibi","Glossy Ibis","Plegadis falcinellus","L33135967","Piper Road, Punta Gorda, Florida, US","2025-05-31 09:30",3,26.9288299,-82.0054095,TRUE,FALSE,TRUE,"S244987752"
"389","gloibi","Glossy Ibis","Plegadis falcinellus","L1615074","Winsegansett Ave. Marsh","2025-05-31 09:23",1,41.5976441,-70.8622672,TRUE,FALSE,FALSE,"S245225053"
"390","gloibi","Glossy Ibis","Plegadis falcinellus","L9755783","Airport & Senter Rd Sod Area","2025-05-31 09:20",40,26.6937957,-80.5417222,TRUE,FALSE,FALSE,"S244967286"
"391","gloibi","Glossy Ibis","Plegadis falcinellus","L46452628","E Canal St S, Loxahatchee US-FL 26.68458, -80.38994","2025-05-31 09:18",1,26.68458,-80.389937,TRUE,FALSE,TRUE,"S244961056"
"392","gloibi","Glossy Ibis","Plegadis falcinellus","L191760","Bear Island WMA (fall and winter restricted access)","2025-05-31 09:07",40,32.5918043,-80.4641247,TRUE,FALSE,FALSE,"S245010631"
"393","gloibi","Glossy Ibis","Plegadis falcinellus","L29297499","Mitzi Cloud Home","2025-05-31 09:00",3,27.506694,-82.393857,TRUE,FALSE,TRUE,"S245658229"
"394","gloibi","Glossy Ibis","Plegadis falcinellus","L27321081","1 Merrymount Parkway, Quincy, Massachusetts, US (42.264, -71.005)4","2025-05-31 09:00",5,42.2637108,-71.0051356,TRUE,FALSE,TRUE,"S245030929"
"395","gloibi","Glossy Ibis","Plegadis falcinellus","L36843776","1405 Georgetowne Dr, Sarasota US-FL 27.34565, -82.46514","2025-05-31 08:55",1,27.345645,-82.465142,TRUE,FALSE,TRUE,"S244982750"
"396","gloibi","Glossy Ibis","Plegadis falcinellus","L15224524","12266 Bennetts Point Rd, Green Pond US-SC 32.59201, -80.46860","2025-05-31 08:47",2,32.592015,-80.468603,TRUE,FALSE,TRUE,"S244947107"
"397","gloibi","Glossy Ibis","Plegadis falcinellus","L445930","Cape Henlopen SP--Nature Center area","2025-05-31 08:45",1,38.7841137,-75.0980115,TRUE,FALSE,FALSE,"S244953353"
"398","gloibi","Glossy Ibis","Plegadis falcinellus","L855297","Tosohatchee WMA","2025-05-31 08:45",1,28.495247,-80.9501839,TRUE,FALSE,FALSE,"S245643721"
"399","gloibi","Glossy Ibis","Plegadis falcinellus","L46448871","Home","2025-05-31 08:42",24,41.581887,-71.138592,TRUE,FALSE,TRUE,"S244942155"
"400","gloibi","Glossy Ibis","Plegadis falcinellus","L29276931","Tillman - Hackberry Flat Survey","2025-05-31 08:38",1,34.294819,-98.956751,TRUE,TRUE,TRUE,"S245095564"
"401","gloibi","Glossy Ibis","Plegadis falcinellus","L109205","Hammonasset Beach SP--West End","2025-05-31 08:30",1,41.2636142,-72.561779,TRUE,FALSE,FALSE,"S245131421"
"402","gloibi","Glossy Ibis","Plegadis falcinellus","L29652341","2 Charles Ave, Biddeford US-ME 43.46698, -70.46742","2025-05-31 08:24",14,43.46698,-70.467421,TRUE,FALSE,TRUE,"S244935150"
"403","gloibi","Glossy Ibis","Plegadis falcinellus","L18398083","Springhill circle residence","2025-05-31 08:23",2,28.059375,-82.730151,TRUE,FALSE,TRUE,"S244957583"
"404","gloibi","Glossy Ibis","Plegadis falcinellus","L834851","Dune Road - Tiana Bch (Bay & Ocean)","2025-05-31 08:20",2,40.8278391,-72.5300632,TRUE,FALSE,TRUE,"S245510675"
"405","gloibi","Glossy Ibis","Plegadis falcinellus","L46511304","Sweetwater Wetlands Park, Gainesville, Florida","2025-05-31 08:15",1,29.6192672,-82.3247791,TRUE,FALSE,TRUE,"S245212204"
"406","gloibi","Glossy Ibis","Plegadis falcinellus","L28077514","The Old Course at Broken Sound (Private Golf Course)","2025-05-31 08:00",2,26.3963289,-80.1162529,TRUE,FALSE,FALSE,"S244918834"
"407","gloibi","Glossy Ibis","Plegadis falcinellus","L28688426","Winding Water","2025-05-31 08:00",1,26.761088,-80.107735,TRUE,FALSE,TRUE,"S244948292"
"408","gloibi","Glossy Ibis","Plegadis falcinellus","L6176992","6 Mile Bend Ponds - (No Public Access - View From Road)","2025-05-31 07:57",1,26.6442271,-80.5842876,TRUE,FALSE,FALSE,"S244923005"
"409","gloibi","Glossy Ibis","Plegadis falcinellus","L268000","Robert Moses SP","2025-05-31 07:56",1,40.6242696,-73.2622342,TRUE,FALSE,FALSE,"S244994870"
"410","gloibi","Glossy Ibis","Plegadis falcinellus","L13391808","Medical Blvd.","2025-05-31 07:55",6,26.9489873,-82.32996,TRUE,FALSE,FALSE,"S244958095"
"411","gloibi","Glossy Ibis","Plegadis falcinellus","L38290043","Apopka Birding Park","2025-05-31 07:51",19,28.670695,-81.559996,TRUE,FALSE,TRUE,"S245204944"
"412","gloibi","Glossy Ibis","Plegadis falcinellus","L46444501","53 Ford St, Revere US-MA (42.4204,-70.9913)","2025-05-31 07:40",3,42.420367,-70.991312,TRUE,FALSE,TRUE,"S244919765"
"413","gloibi","Glossy Ibis","Plegadis falcinellus","L127408","Loxahatchee NWR","2025-05-31 07:30",15,26.4986442,-80.2246141,TRUE,FALSE,FALSE,"S245128437"
"414","gloibi","Glossy Ibis","Plegadis falcinellus","L29486569","John C. and Mariana Jones/Hungryland Wildlife and Environmental Area (Palm Beach County)","2025-05-31 07:30",2,26.943293,-80.32062,TRUE,FALSE,FALSE,"S245189716"
"415","gloibi","Glossy Ibis","Plegadis falcinellus","L3778779","Oak Island--Sand Road at Hwy. 133 Bridge","2025-05-31 07:01",2,33.9180431,-78.0724955,TRUE,FALSE,FALSE,"S244927940"
"416","gloibi","Glossy Ibis","Plegadis falcinellus","L26113159","Basin behind White Ibis Run Village of Fenney","2025-05-31 06:45",2,28.7898097,-82.035631,TRUE,FALSE,TRUE,"S244909085"
"417","gloibi","Glossy Ibis","Plegadis falcinellus","L20753659","Safeway, Middletown US-MD","2025-05-31 06:35",2,39.438289,-77.525958,TRUE,TRUE,TRUE,"S244885693"
"418","gloibi","Glossy Ibis","Plegadis falcinellus","L816104","Helen and Allan Cruickshank Sanctuary","2025-05-31 06:30",1,28.2938478,-80.7072508,TRUE,FALSE,FALSE,"S244899167"
"419","gloibi","Glossy Ibis","Plegadis falcinellus","L523951","Stipson Island Rd.","2025-05-31 05:37",5,39.1890256,-74.9109006,TRUE,FALSE,FALSE,"S244882130"
"420","gloibi","Glossy Ibis","Plegadis falcinellus","L46410896","3886 Dune Drive, Avalon, New Jersey, US (39.09, -74.728)","2025-05-30 19:46",4,39.0902264,-74.7281765,TRUE,FALSE,TRUE,"S244763353"
"421","gloibi","Glossy Ibis","Plegadis falcinellus","L549315","DuPont Nature Center and Lighthouse Rd.","2025-05-30 19:41",4,38.947648,-75.314868,TRUE,FALSE,FALSE,"S244778742"
"422","gloibi","Glossy Ibis","Plegadis falcinellus","L27620379","the canal","2025-05-30 19:10",2,27.0690001,-82.3970173,TRUE,FALSE,TRUE,"S244756536"
"423","gloibi","Glossy Ibis","Plegadis falcinellus","L46444995","Blue Diamond Trail","2025-05-30 18:16",3,27.62076,-82.410212,TRUE,FALSE,TRUE,"S244922232"
"424","gloibi","Glossy Ibis","Plegadis falcinellus","L1349493","Higgins Beach ","2025-05-30 18:15",1,43.5596922,-70.2797696,TRUE,FALSE,FALSE,"S244744296"
"425","gloibi","Glossy Ibis","Plegadis falcinellus","L46402245","Palmer River","2025-05-30 17:24",1,41.754584,-71.289554,TRUE,FALSE,TRUE,"S244721641"
"426","gloibi","Glossy Ibis","Plegadis falcinellus","L294962","Montezuma (NMWMA)--Railroad Rd. Marshes","2025-05-30 16:45",1,43.0572241,-76.7246532,TRUE,TRUE,FALSE,"S244771256"
"427","gloibi","Glossy Ibis","Plegadis falcinellus","L44507160",".","2025-05-30 16:44",1,27.2252254,-80.2408295,TRUE,FALSE,TRUE,"S244705498"
"428","gloibi","Glossy Ibis","Plegadis falcinellus","L4079330","Moody Pond","2025-05-30 16:35",18,27.712589,-82.292589,TRUE,FALSE,FALSE,"S244702301"
"429","gloibi","Glossy Ibis","Plegadis falcinellus","L1481932","East Central Regional Rail Trail","2025-05-30 16:30",1,28.8520026,-81.1899062,TRUE,FALSE,FALSE,"S244725407"
"430","gloibi","Glossy Ibis","Plegadis falcinellus","L46397968","53 Ford St, Revere US-MA (42.4206,-70.9913)","2025-05-30 16:28",3,42.420575,-70.991266,TRUE,FALSE,TRUE,"S244701345"
"431","gloibi","Glossy Ibis","Plegadis falcinellus","L46395422","Colt State Main Building","2025-05-30 16:00",2,41.677011,-71.299104,TRUE,FALSE,TRUE,"S244688703"
"432","gloibi","Glossy Ibis","Plegadis falcinellus","L1328671","Lake Elberta","2025-05-30 15:42",1,30.4297796,-84.3005751,TRUE,FALSE,FALSE,"S244731761"
"433","gloibi","Glossy Ibis","Plegadis falcinellus","L46393681","Maine Turnpike N, Saco US-ME 43.53198, -70.44810","2025-05-30 15:38",3,43.531981,-70.448101,TRUE,FALSE,TRUE,"S244680503"
"434","gloibi","Glossy Ibis","Plegadis falcinellus","L159288","Chincoteague NWR--Black Duck Marsh","2025-05-30 15:16",2,37.9044274,-75.3574133,TRUE,FALSE,FALSE,"S244674382"
"435","gloibi","Glossy Ibis","Plegadis falcinellus","L2521058","Fishhawk","2025-05-30 15:10",1,27.8425875,-82.2141467,TRUE,FALSE,TRUE,"S244778773"
"436","gloibi","Glossy Ibis","Plegadis falcinellus","L46275566","11463 Lake Blanche Dr, New Port Richey US-FL 28.20345, -82.62761","2025-05-30 15:02",1,28.203455,-82.627614,TRUE,FALSE,TRUE,"S244666082"
"437","gloibi","Glossy Ibis","Plegadis falcinellus","L335811","Assateague Island","2025-05-30 14:52",13,37.8872945,-75.3440039,TRUE,FALSE,FALSE,"S244699038"
"438","gloibi","Glossy Ibis","Plegadis falcinellus","L566310","Cupsogue Beach County Park","2025-05-30 14:39",3,40.7713119,-72.7373457,TRUE,FALSE,FALSE,"S244719882"
"439","gloibi","Glossy Ibis","Plegadis falcinellus","L5435128","Terrace Park Pond","2025-05-30 14:34",2,28.0445992,-82.4114943,TRUE,FALSE,FALSE,"S244724613"
"440","gloibi","Glossy Ibis","Plegadis falcinellus","L161004","Barnegat Lighthouse SP","2025-05-30 14:24",1,39.7633333,-74.1058333,TRUE,FALSE,FALSE,"S244740035"
"441","gloibi","Glossy Ibis","Plegadis falcinellus","L46386013","1107 Broadway, Revere, Massachusetts, US (42.424, -71.003)","2025-05-30 14:14",5,42.4238599,-71.0025036,TRUE,FALSE,TRUE,"S244654594"
"442","gloibi","Glossy Ibis","Plegadis falcinellus","L2498666","Dune Rd., Road K","2025-05-30 14:08",12,40.8361218,-72.5053489,TRUE,FALSE,FALSE,"S244654026"
"443","gloibi","Glossy Ibis","Plegadis falcinellus","L46394004","Rhode Island Wood Estabrook Preserve Portsmouth","2025-05-30 14:00",NA,41.6303803,-71.2592822,TRUE,FALSE,TRUE,"S244682846"
"444","gloibi","Glossy Ibis","Plegadis falcinellus","L2481466","Barn Island WMA","2025-05-30 13:50",5,41.3410335,-71.8684492,TRUE,FALSE,FALSE,"S244668493"
"445","gloibi","Glossy Ibis","Plegadis falcinellus","L22064747","Heckscher SP--Field 5","2025-05-30 13:46",1,40.7069369,-73.1762438,TRUE,FALSE,FALSE,"S244670596"
"446","gloibi","Glossy Ibis","Plegadis falcinellus","L16913129","Belton Copp Preserve--Old Lyme Land Trust","2025-05-30 13:40",1,41.2948248,-72.323214,TRUE,FALSE,FALSE,"S244675198"
"447","gloibi","Glossy Ibis","Plegadis falcinellus","L450041","Poplar Island","2025-05-30 13:24",NA,38.7648589,-76.3814163,TRUE,FALSE,FALSE,"S244637904"
"448","gloibi","Glossy Ibis","Plegadis falcinellus","L12427956","Sunset Cove Park","2025-05-30 13:20",1,40.5985632,-73.8231237,TRUE,FALSE,FALSE,"S244644599"
"449","gloibi","Glossy Ibis","Plegadis falcinellus","L11313625","Blue Point Preserve","2025-05-30 13:20",9,43.5524443,-70.3559573,TRUE,FALSE,FALSE,"S244779814"
"450","gloibi","Glossy Ibis","Plegadis falcinellus","L46380549","634–654 North Dr, Melbourne US-FL 28.11340, -80.69007","2025-05-30 13:19",1,28.113404,-80.690074,TRUE,FALSE,TRUE,"S244632220"
"451","gloibi","Glossy Ibis","Plegadis falcinellus","L46470099","Goose Pond Trail, Townsend, Georgia, US (31.64, -81.271)","2025-05-30 13:17",5,31.6403387,-81.2706917,TRUE,FALSE,TRUE,"S245041106"
"452","gloibi","Glossy Ibis","Plegadis falcinellus","L1161895","Scarborough River Wildlife Sanctuary","2025-05-30 12:52",1,43.5551886,-70.3607315,TRUE,FALSE,FALSE,"S244631631"
"453","gloibi","Glossy Ibis","Plegadis falcinellus","L4019696","New Hampshire Waters between Hampton Harbor and Isles of Shoals","2025-05-30 12:30",4,42.9284386,-70.7031779,TRUE,FALSE,FALSE,"S244684224"
"454","gloibi","Glossy Ibis","Plegadis falcinellus","L46502165","West St near Ever After Mustang Reserve","2025-05-30 12:30",1,43.4303274,-70.4011153,TRUE,FALSE,TRUE,"S245173999"
"455","gloibi","Glossy Ibis","Plegadis falcinellus","L2828146","Triple N Ranch WMA","2025-05-30 12:21",1,28.1307024,-81.0206187,TRUE,FALSE,FALSE,"S244761825"
"456","gloibi","Glossy Ibis","Plegadis falcinellus","L109201","Griswold Point","2025-05-30 12:14",1,41.2797819,-72.3196399,TRUE,FALSE,FALSE,"S244673240"
"457","gloibi","Glossy Ibis","Plegadis falcinellus","L1149339","Scarborough Marsh--Behind Clambake Restaurant","2025-05-30 12:13",1,43.5430579,-70.3447509,TRUE,FALSE,FALSE,"S244659805"
"458","gloibi","Glossy Ibis","Plegadis falcinellus","L46370357","Behind Mr. Whippy’s","2025-05-30 11:31",1,37.935894,-75.368666,TRUE,FALSE,TRUE,"S244587157"
"459","gloibi","Glossy Ibis","Plegadis falcinellus","L1774964","Edwin B. Forsythe NWR--Leeds Eco-Trail","2025-05-30 11:21",14,39.4636714,-74.4487429,TRUE,FALSE,FALSE,"S244603126"
"460","gloibi","Glossy Ibis","Plegadis falcinellus","L46374735","120 Long Beach Blvd, Long Beach Township US-NJ 39.73037, -74.12343","2025-05-30 11:18",1,39.730374,-74.123426,TRUE,FALSE,TRUE,"S244606552"
"461","gloibi","Glossy Ibis","Plegadis falcinellus","L46403534","17855 Rutland Rd, Parrish US-FL 27.52489, -82.33284","2025-05-30 11:15",6,27.524889,-82.332838,TRUE,FALSE,TRUE,"S244727862"
"462","gloibi","Glossy Ibis","Plegadis falcinellus","L46382706","Lavaca Spoil Island","2025-05-30 11:11",1,28.599423,-96.562356,TRUE,FALSE,TRUE,"S244641725"
"463","gloibi","Glossy Ibis","Plegadis falcinellus","L2629925","Alhambra Way pond","2025-05-30 10:45",2,28.9530668,-81.9930053,TRUE,FALSE,FALSE,"S244571338"
"464","gloibi","Glossy Ibis","Plegadis falcinellus","L143593","Lake Munson Preserve Park & Dam","2025-05-30 10:11",1,30.365942,-84.3001404,TRUE,FALSE,FALSE,"S244731688"
"465","gloibi","Glossy Ibis","Plegadis falcinellus","L848926","Vizcaya Estates wetland","2025-05-30 10:06",1,25.957736,-80.3275681,TRUE,FALSE,FALSE,"S244583966"
"466","gloibi","Glossy Ibis","Plegadis falcinellus","L46366610","Auto selected 32.11223, -80.85789","2025-05-30 10:04",1,32.112231,-80.857886,TRUE,FALSE,TRUE,"S244570058"
"467","gloibi","Glossy Ibis","Plegadis falcinellus","L46298067","Sedge House","2025-05-30 10:04",4,39.7946016,-74.1184517,TRUE,FALSE,TRUE,"S244556979"
"468","gloibi","Glossy Ibis","Plegadis falcinellus","L598882","Edwin B. Forsythe NWR--Gull Pond","2025-05-30 09:47",12,39.46952,-74.4455696,TRUE,FALSE,FALSE,"S244548353"
"469","gloibi","Glossy Ibis","Plegadis falcinellus","L523654","Terrell River County Park","2025-05-30 09:42",1,40.7921091,-72.7785873,TRUE,FALSE,FALSE,"S244618418"
"470","gloibi","Glossy Ibis","Plegadis falcinellus","L3618730","Sabine Pass--S. 8th Avenue","2025-05-30 09:40",1,29.7247651,-93.8798226,TRUE,FALSE,FALSE,"S244573524"
"471","gloibi","Glossy Ibis","Plegadis falcinellus","L5144686","Gull Crest, Cape Elizabeth","2025-05-30 09:35",1,43.5840338,-70.2421725,TRUE,FALSE,FALSE,"S244584143"
"472","gloibi","Glossy Ibis","Plegadis falcinellus","L23726637","Sherwood Island State Park, Norwalk US-CT 41.11572, -73.32775","2025-05-30 09:33",9,41.115717,-73.327747,TRUE,FALSE,TRUE,"S244538014"
"473","gloibi","Glossy Ibis","Plegadis falcinellus","L1337432","Cliff Walk--Ledge Road Access","2025-05-30 09:30",5,41.4514032,-71.3110385,TRUE,FALSE,FALSE,"S244662775"
"474","gloibi","Glossy Ibis","Plegadis falcinellus","L46365443","Cedar Bonnet","2025-05-30 09:30",5,39.653258,-74.197063,TRUE,FALSE,TRUE,"S244565098"
"475","gloibi","Glossy Ibis","Plegadis falcinellus","L22183572","Viera","2025-05-30 09:23",12,28.261131,-80.764258,TRUE,FALSE,TRUE,"S244549796"
"476","gloibi","Glossy Ibis","Plegadis falcinellus","L1177856","Jamaica Bay, Yellow Bar Hassock","2025-05-30 09:07",3,40.6088594,-73.8430779,TRUE,FALSE,FALSE,"S244728927"
"477","gloibi","Glossy Ibis","Plegadis falcinellus","L587226","Fire Island--Watch Hill","2025-05-30 09:04",4,40.6925484,-72.9873276,TRUE,FALSE,FALSE,"S245579426"
"478","gloibi","Glossy Ibis","Plegadis falcinellus","L16135255","Mangrove Point Mitigation Bank","2025-05-30 08:57",4,27.7358814,-82.4516534,TRUE,FALSE,FALSE,"S244532857"
"479","gloibi","Glossy Ibis","Plegadis falcinellus","L1556487","Billy Creek Preserve","2025-05-30 08:52",1,26.6619555,-81.8234558,TRUE,FALSE,FALSE,"S244529758"
"480","gloibi","Glossy Ibis","Plegadis falcinellus","L4508801","Kennedy Center, East Squantum Street","2025-05-30 08:21",14,42.2900087,-71.0227168,TRUE,FALSE,TRUE,"S244563941"
"481","gloibi","Glossy Ibis","Plegadis falcinellus","L684255","Cockroach Bay Preserve and Surrounding Area","2025-05-30 08:15",1,27.6885443,-82.5014019,TRUE,FALSE,FALSE,"S244516372"
"482","gloibi","Glossy Ibis","Plegadis falcinellus","L911700","Burrage Pond WMA","2025-05-30 08:10",1,42.0212167,-70.8722806,TRUE,FALSE,FALSE,"S244590671"
"483","gloibi","Glossy Ibis","Plegadis falcinellus","L46352319","Cheney Highway, Christmas, Florida, US (28.544, -80.942)","2025-05-30 08:01",1,28.5439118,-80.942319,TRUE,FALSE,TRUE,"S244499473"
"484","gloibi","Glossy Ibis","Plegadis falcinellus","L41195698","7764 Stonebrook Cir, Wesley Chapel US-FL 28.26483, -82.25278","2025-05-30 07:44",1,28.264827,-82.252781,TRUE,FALSE,TRUE,"S244508086"
"485","gloibi","Glossy Ibis","Plegadis falcinellus","L450139","Savannah NWR--Laurel Hill Wildlife Dr","2025-05-30 07:43",2,32.1655799,-81.1152447,TRUE,FALSE,FALSE,"S244535079"
"486","gloibi","Glossy Ibis","Plegadis falcinellus","L46487299","Sorrento-East","2025-05-30 07:30",4,27.1665059,-82.4628251,TRUE,FALSE,TRUE,"S245117471"
"487","gloibi","Glossy Ibis","Plegadis falcinellus","L40936427","HarveyCedars/Loveladies","2025-05-30 07:15",2,39.710204,-74.132018,TRUE,FALSE,TRUE,"S244775433"
"488","gloibi","Glossy Ibis","Plegadis falcinellus","L129046","Parker River NWR","2025-05-30 07:13",9,42.7639008,-70.8022995,TRUE,FALSE,FALSE,"S244639166"
"489","gloibi","Glossy Ibis","Plegadis falcinellus","L46462186","Blue Cypress Marsh (Ansin East)(27.678, -80.594)","2025-05-30 07:08",1,27.6780066,-80.5943567,TRUE,FALSE,TRUE,"S245006706"
"490","gloibi","Glossy Ibis","Plegadis falcinellus","L29396573","Arthur R. Marshall Loxahatchee National Wildlife Refuge, Loxahatchee US-FL 26.68374, -80.37482","2025-05-30 07:06",1,26.683742,-80.374816,TRUE,FALSE,TRUE,"S244547332"
"491","gloibi","Glossy Ibis","Plegadis falcinellus","L35183318","21876 Albie Rd, Sherwood US-MD 38.76373, -76.31893","2025-05-30 07:02",28,38.763733,-76.318933,TRUE,FALSE,TRUE,"S244754796"
"492","gloibi","Glossy Ibis","Plegadis falcinellus","L666907","Riverbend Park","2025-05-30 07:00",3,26.9333944,-80.1751636,TRUE,FALSE,FALSE,"S244589687"
"493","gloibi","Glossy Ibis","Plegadis falcinellus","L989437","Black's Creek","2025-05-30 07:00",5,42.2616526,-71.005969,TRUE,FALSE,FALSE,"S244477218"
"494","gloibi","Glossy Ibis","Plegadis falcinellus","L4136364","Dune Road (Moriches Inlet to Shinnecock Inlet)","2025-05-30 07:00",8,40.8011408,-72.6197577,TRUE,FALSE,TRUE,"S244714294"
"495","gloibi","Glossy Ibis","Plegadis falcinellus","L7926194","Jamaica Bay, Ruffle Bar","2025-05-30 06:48",2,40.5990392,-73.8576042,TRUE,FALSE,FALSE,"S244727159"
"496","gloibi","Glossy Ibis","Plegadis falcinellus","L124353","Huntington Beach SP","2025-05-30 06:25",8,33.5083,-79.0659,TRUE,FALSE,FALSE,"S244522841"
"497","gloibi","Glossy Ibis","Plegadis falcinellus","L473315","Stratton Island","2025-05-30 06:00",NA,43.5046746,-70.3116417,TRUE,FALSE,FALSE,"S244783701"
"498","gloibi","Glossy Ibis","Plegadis falcinellus","L199461","Lake Woodruff NWR","2025-05-30 06:00",17,29.1092685,-81.3752445,TRUE,FALSE,FALSE,"S244546821"
"499","gloibi","Glossy Ibis","Plegadis falcinellus","L46343437","12 John Wise Avenue, Essex, Massachusetts, US (42.637, -70.782)","2025-05-30 05:37",2,42.63711,-70.7823366,TRUE,FALSE,TRUE,"S244455275"
"500","gloibi","Glossy Ibis","Plegadis falcinellus","L16285386","Sally Milligan Park","2025-05-30 05:21",2,42.560801,-70.858761,TRUE,FALSE,FALSE,"S244489148"
"501","gloibi","Glossy Ibis","Plegadis falcinellus","L14800259","Piney Island Rd, Chincoteague US-VA 37.92391, -75.36412","2025-05-29 20:00",4,37.923906,-75.364123,TRUE,FALSE,TRUE,"S244370988"
"502","gloibi","Glossy Ibis","Plegadis falcinellus","L3227853","Thompson Point, Portland","2025-05-29 19:39",5,43.6490783,-70.2920669,TRUE,FALSE,FALSE,"S244402065"
"503","gloibi","Glossy Ibis","Plegadis falcinellus","L11839333","12700–13248 SR-70, Okeechobee US-FL (27.2436,-80.9651)","2025-05-29 19:36",40,27.243598,-80.965089,TRUE,FALSE,TRUE,"S244362384"
"504","gloibi","Glossy Ibis","Plegadis falcinellus","L46328165","East Bay Ave over West Thorofare, LBI, NJ","2025-05-29 19:20",5,39.65575,-74.188883,TRUE,FALSE,TRUE,"S244383595"
"505","gloibi","Glossy Ibis","Plegadis falcinellus","L46322999","US-98, Lorida US-FL (27.3744,-81.0899)","2025-05-29 19:17",1,27.374386,-81.089942,TRUE,FALSE,TRUE,"S244354145"
"506","gloibi","Glossy Ibis","Plegadis falcinellus","L446446","Swan Harbor Farm Park","2025-05-29 19:10",1,39.522482,-76.11444,TRUE,TRUE,FALSE,"S244386961"
"507","gloibi","Glossy Ibis","Plegadis falcinellus","L3735885","Old Orchard Beach","2025-05-29 18:54",3,43.5204786,-70.3688049,TRUE,FALSE,FALSE,"S244366041"
"508","gloibi","Glossy Ibis","Plegadis falcinellus","L580878","Lake Marian Boat Ramp","2025-05-29 18:49",7,27.872863,-81.0518074,TRUE,FALSE,FALSE,"S245114564"
"509","gloibi","Glossy Ibis","Plegadis falcinellus","L2600100","West Beach","2025-05-29 18:46",50,42.5611864,-70.8047444,TRUE,FALSE,FALSE,"S244361850"
"510","gloibi","Glossy Ibis","Plegadis falcinellus","L109206","Hammonasset Beach SP--Willard Island","2025-05-29 17:30",4,41.2568798,-72.5446236,TRUE,FALSE,FALSE,"S244339968"
"511","gloibi","Glossy Ibis","Plegadis falcinellus","L589433","Altamaha WMA--Butler Island","2025-05-29 17:24",6,31.3487626,-81.4453894,TRUE,FALSE,FALSE,"S244352951"
"512","gloibi","Glossy Ibis","Plegadis falcinellus","L1076700","Tyrrell Park--Cattail Marsh","2025-05-29 16:38",2,30.0074226,-94.1400433,TRUE,FALSE,FALSE,"S244426299"
"513","gloibi","Glossy Ibis","Plegadis falcinellus","L46313801","9101–9425 US Highway 301 N, Parrish US-FL (27.5450,-82.4726)","2025-05-29 16:26",1,27.545048,-82.472633,TRUE,FALSE,TRUE,"S244303758"
"514","gloibi","Glossy Ibis","Plegadis falcinellus","L1031282","Stewart B. McKinney NWR, Westbrook","2025-05-29 16:16",14,41.2865461,-72.4737167,TRUE,FALSE,FALSE,"S244317240"
"515","gloibi","Glossy Ibis","Plegadis falcinellus","L1454851","Loess Bluffs NWR--Snow Goose Pool","2025-05-29 15:53",1,40.0846573,-95.2643926,TRUE,TRUE,FALSE,"S244381691"
"516","gloibi","Glossy Ibis","Plegadis falcinellus","L160183","Chautauqua NWR","2025-05-29 15:30",2,40.377205,-89.99195,TRUE,TRUE,FALSE,"S244314889"
"517","gloibi","Glossy Ibis","Plegadis falcinellus","L226811","Bradford Dam/Nike Park","2025-05-29 15:28",9,40.228034,-75.160078,TRUE,TRUE,FALSE,"S244383978"
"518","gloibi","Glossy Ibis","Plegadis falcinellus","L14180433","37 Dune Road, Hampton Bays, New York, US (40.826, -72.536)","2025-05-29 15:10",2,40.8257076,-72.5361248,TRUE,FALSE,TRUE,"S244299989"
"519","gloibi","Glossy Ibis","Plegadis falcinellus","L46405821","Ocean Dr, Wildwood US-NJ 38.95643, -74.87305","2025-05-29 15:02",1,38.956426,-74.873049,TRUE,FALSE,TRUE,"S244738854"
"520","gloibi","Glossy Ibis","Plegadis falcinellus","L31174096","Philadelphia SE, Navy Yard, Langley Rail east","2025-05-29 14:41",8,39.897741,-75.180256,TRUE,FALSE,TRUE,"S244302027"
"521","gloibi","Glossy Ibis","Plegadis falcinellus","L28217413","Sedge Island","2025-05-29 14:40",2,39.789151,-74.1200389,TRUE,FALSE,TRUE,"S244320577"
"522","gloibi","Glossy Ibis","Plegadis falcinellus","L23569427","town farm","2025-05-29 14:23",8,43.587907,-70.244968,TRUE,FALSE,TRUE,"S244285632"
"523","gloibi","Glossy Ibis","Plegadis falcinellus","L793109","Mosquito Creek Bridge--Hwy 175","2025-05-29 14:21",3,37.9419638,-75.446763,TRUE,FALSE,FALSE,"S244269314"
"524","gloibi","Glossy Ibis","Plegadis falcinellus","L26664653","Indian Point (private)","2025-05-29 14:00",1,38.7520642,-76.2998663,TRUE,FALSE,TRUE,"S244285257"
"525","gloibi","Glossy Ibis","Plegadis falcinellus","L12090440","440 East Squantum Street, Quincy, Massachusetts, US (42.29, -71.023)","2025-05-29 13:46",11,42.290287,-71.0231536,TRUE,FALSE,TRUE,"S244249121"
"526","gloibi","Glossy Ibis","Plegadis falcinellus","L35786355","Hammonasset Park Trail, West Haven US-CT 41.25485, -72.53874","2025-05-29 13:37",3,41.254853,-72.538741,TRUE,FALSE,TRUE,"S244262875"
"527","gloibi","Glossy Ibis","Plegadis falcinellus","L2403057","Stave Landing Rd. - Delaware Wild Lands","2025-05-29 13:25",38,39.4317382,-75.6037045,TRUE,FALSE,FALSE,"S244288183"
"528","gloibi","Glossy Ibis","Plegadis falcinellus","L46321614","14308 Alistar Manor Dr, Wimauma US-FL (27.7694,-82.3191)","2025-05-29 13:20",2,27.769355,-82.319125,TRUE,FALSE,TRUE,"S244346869"
"529","gloibi","Glossy Ibis","Plegadis falcinellus","L419447","Malibu Beach WMA","2025-05-29 13:15",1,39.3109586,-74.5479655,TRUE,FALSE,FALSE,"S244323510"
"530","gloibi","Glossy Ibis","Plegadis falcinellus","L267984","Cape Romain NWR--Bulls Island","2025-05-29 13:00",3,32.90017,-79.62438,TRUE,FALSE,FALSE,"S244245059"
"531","gloibi","Glossy Ibis","Plegadis falcinellus","L46297747","1 Farm Lane, Rockport, Massachusetts, US (42.632, -70.621)","2025-05-29 12:54",6,42.6321497,-70.6207545,TRUE,FALSE,TRUE,"S244230314"
"532","gloibi","Glossy Ibis","Plegadis falcinellus","L931387","Island Beach SP--Great Sedge Island","2025-05-29 12:13",4,39.782685,-74.1065598,TRUE,FALSE,FALSE,"S244230668"
"533","gloibi","Glossy Ibis","Plegadis falcinellus","L269357","Joe Overstreet Rd. and Landing","2025-05-29 12:04",1,27.9426789,-81.2050366,TRUE,FALSE,FALSE,"S244231170"
"534","gloibi","Glossy Ibis","Plegadis falcinellus","L1107662","MacDill AFB (restricted access)","2025-05-29 11:55",1,27.841171,-82.4837726,TRUE,FALSE,FALSE,"S244613464"
"535","gloibi","Glossy Ibis","Plegadis falcinellus","L12665978","Fiddler Bay Lane, Chincoteague VA","2025-05-29 11:44",1,37.922052,-75.3601178,TRUE,FALSE,TRUE,"S244223365"
"536","gloibi","Glossy Ibis","Plegadis falcinellus","L164186","Reed's Beach and Road","2025-05-29 11:30",42,39.1167451,-74.8916665,TRUE,FALSE,FALSE,"S244242968"
"537","gloibi","Glossy Ibis","Plegadis falcinellus","L46294188","Pamlico Sound, Frisco US-NC 35.22118, -75.66047","2025-05-29 10:33",3,35.221177,-75.660474,TRUE,FALSE,TRUE,"S244213493"
"538","gloibi","Glossy Ibis","Plegadis falcinellus","L1023805","North River Farms (permission required)","2025-05-29 10:28",1,34.7672108,-76.5368986,TRUE,FALSE,FALSE,"S244256548"
"539","gloibi","Glossy Ibis","Plegadis falcinellus","L4049179","Lane's Farm (private)","2025-05-29 10:22",5,42.6526943,-70.6070495,TRUE,FALSE,FALSE,"S244200897"
"540","gloibi","Glossy Ibis","Plegadis falcinellus","L2519178","Bull's Island Ferry","2025-05-29 10:20",1,32.9371618,-79.638648,TRUE,FALSE,FALSE,"S244198474"
"541","gloibi","Glossy Ibis","Plegadis falcinellus","L22853667","Lake Forest Rookery","2025-05-29 10:17",5,28.0843998,-82.4209571,TRUE,FALSE,FALSE,"S244204336"
"542","gloibi","Glossy Ibis","Plegadis falcinellus","L18940164","Crockett's Hill, Ipswich","2025-05-29 10:07",2,42.6772498,-70.7798907,TRUE,FALSE,TRUE,"S244176147"
"543","gloibi","Glossy Ibis","Plegadis falcinellus","L35964900","Wallops Island (restricted access)","2025-05-29 10:01",1,37.867665,-75.441333,TRUE,FALSE,FALSE,"S244209143"
"544","gloibi","Glossy Ibis","Plegadis falcinellus","L46328144","Kice island","2025-05-29 10:00",2,25.8148163,-81.463036,TRUE,FALSE,TRUE,"S244385183"
"545","gloibi","Glossy Ibis","Plegadis falcinellus","L42904994","3135 Hudson Court, The Villages, Florida, US (28.932, -82.004)","2025-05-29 10:00",1,28.9318565,-82.0039484,TRUE,FALSE,TRUE,"S244179692"
"546","gloibi","Glossy Ibis","Plegadis falcinellus","L607892","Venice Rookery","2025-05-29 09:36",8,27.04598,-82.39989,TRUE,FALSE,FALSE,"S244181587"
"547","gloibi","Glossy Ibis","Plegadis falcinellus","L38586376","Caddy Memorial Park","2025-05-29 09:33",1,42.2681346,-70.998408,TRUE,FALSE,FALSE,"S244155720"
"548","gloibi","Glossy Ibis","Plegadis falcinellus","L33719882","3182 SW Watson Ct, Port Saint Lucie US-FL 27.24965, -80.37156","2025-05-29 09:25",7,27.249655,-80.371559,TRUE,FALSE,TRUE,"S244359384"
"549","gloibi","Glossy Ibis","Plegadis falcinellus","L449805","Nahant--Heritage Trail and Lowlands Park","2025-05-29 09:24",2,42.4279876,-70.9326531,TRUE,FALSE,FALSE,"S244324849"
"550","gloibi","Glossy Ibis","Plegadis falcinellus","L905660","Flushing Airport","2025-05-29 09:21",8,40.7777629,-73.8341331,TRUE,FALSE,FALSE,"S244193124"
"551","gloibi","Glossy Ibis","Plegadis falcinellus","L46278183","3273 Maryland 213, Chesapeake City, Maryland, US (39.491, -75.844)","2025-05-29 08:58",1,39.4914384,-75.8436552,TRUE,FALSE,TRUE,"S244138689"
"552","gloibi","Glossy Ibis","Plegadis falcinellus","L338274","Cape Island--Garrett Family Preserve (TNC)","2025-05-29 08:45",1,38.9496222,-74.9220049,TRUE,FALSE,FALSE,"S244134009"
"553","gloibi","Glossy Ibis","Plegadis falcinellus","L778549","Cape Henlopen Hawk Watch","2025-05-29 08:42",2,38.7882952,-75.0887686,TRUE,FALSE,FALSE,"S244290656"
"554","gloibi","Glossy Ibis","Plegadis falcinellus","L621111","Smith Point County Park","2025-05-29 08:25",1,40.7352017,-72.8641286,TRUE,FALSE,FALSE,"S244219807"
"555","gloibi","Glossy Ibis","Plegadis falcinellus","L2773101","State College of Florida—Venice Campus","2025-05-29 08:17",1,27.0434172,-82.317853,TRUE,FALSE,FALSE,"S244165736"
"556","gloibi","Glossy Ibis","Plegadis falcinellus","L1874264","Galveston--Seawall Blvd Ponds area W. of 89th","2025-05-29 08:13",2,29.2511782,-94.8549646,TRUE,FALSE,FALSE,"S244152718"
"557","gloibi","Glossy Ibis","Plegadis falcinellus","L609324","Half Moon WMA","2025-05-29 08:11",2,28.8813559,-82.2261429,TRUE,FALSE,FALSE,"S245767498"
"558","gloibi","Glossy Ibis","Plegadis falcinellus","L243650","Carolina Beach State Park","2025-05-29 07:41",1,34.0499847,-77.9176247,TRUE,FALSE,FALSE,"S244148338"
"559","gloibi","Glossy Ibis","Plegadis falcinellus","L839024","Horseneck Beach","2025-05-29 07:36",12,41.5061348,-71.0554504,TRUE,FALSE,FALSE,"S244308057"
"560","gloibi","Glossy Ibis","Plegadis falcinellus","L696144","J. N. Ding Darling NWR--Observation Tower","2025-05-29 07:21",1,26.4637503,-82.1336322,TRUE,FALSE,FALSE,"S244137771"
"561","gloibi","Glossy Ibis","Plegadis falcinellus","L1917060","Barr Hammock Preserve--Levy Loop Trail","2025-05-29 06:59",1,29.5165735,-82.3061907,TRUE,FALSE,FALSE,"S244383514"
"562","gloibi","Glossy Ibis","Plegadis falcinellus","L8356324","New Creek Watershed, Olympia Blvd./Freeborn St. Pond","2025-05-29 06:44",2,40.576792,-74.0911836,TRUE,FALSE,FALSE,"S244098840"
"563","gloibi","Glossy Ibis","Plegadis falcinellus","L41497260","240–298 Sam Day Hill Rd, Phippsburg US-ME (43.7881,-69.8094)","2025-05-29 06:21",12,43.788144,-69.809384,TRUE,FALSE,TRUE,"S244085208"
"564","gloibi","Glossy Ibis","Plegadis falcinellus","L46275330","Lowlands Park, Nahant US-MA (42.4276,-70.9317)","2025-05-29 05:39",5,42.427615,-70.931738,TRUE,FALSE,TRUE,"S244123958"
"565","gloibi","Glossy Ibis","Plegadis falcinellus","L127310","Crews Lake Park","2025-05-28 20:00",1,28.3693,-82.5352,TRUE,FALSE,FALSE,"S244007485"
"566","gloibi","Glossy Ibis","Plegadis falcinellus","L13947362","324 Sleepy Point Road, Gloucester, North Carolina, US (34.722, -76.529)","2025-05-28 19:25",2,34.7223523,-76.5289557,TRUE,FALSE,TRUE,"S243997961"
"567","gloibi","Glossy Ibis","Plegadis falcinellus","L13574500","Bellagio, Florida","2025-05-28 19:07",1,26.5716412,-80.1979398,TRUE,FALSE,TRUE,"S243990888"
"568","gloibi","Glossy Ibis","Plegadis falcinellus","L45872787","Shoals","2025-05-28 18:46",5,42.987934,-70.614634,TRUE,FALSE,TRUE,"S244016255"
"569","gloibi","Glossy Ibis","Plegadis falcinellus","L46328826","650 Texas 316, Port Lavaca, Texas, US (28.561, -96.625)","2025-05-28 18:43",2,28.5613894,-96.6251024,TRUE,FALSE,TRUE,"S244386891"
"570","gloibi","Glossy Ibis","Plegadis falcinellus","L42373845","478–680 SE Cove Rd, Stuart US-FL (27.1188,-80.2455)","2025-05-28 18:00",1,27.118779,-80.245478,TRUE,FALSE,TRUE,"S243963689"
"571","gloibi","Glossy Ibis","Plegadis falcinellus","L3123151","Salt Meadow Park","2025-05-28 17:16",16,41.2725654,-72.5495231,TRUE,FALSE,FALSE,"S243960352"
"572","gloibi","Glossy Ibis","Plegadis falcinellus","L3951080","NY:WAY:Savannah: Railroad Rd: marshes","2025-05-28 16:51",1,43.0575904,-76.7227113,TRUE,TRUE,TRUE,"S243971614"
"573","gloibi","Glossy Ibis","Plegadis falcinellus","L13024457","Shinnecock inlet west to Dockers Waterside.","2025-05-28 16:31",7,40.830109,-72.519495,TRUE,FALSE,TRUE,"S244014111"
"574","gloibi","Glossy Ibis","Plegadis falcinellus","L2189839","Circle Beach Boat Ramp Road","2025-05-28 15:20",7,41.2677996,-72.6563537,TRUE,FALSE,FALSE,"S243992884"
"575","gloibi","Glossy Ibis","Plegadis falcinellus","L13553326","44th Ave E, Bradenton US-FL 27.45919, -82.43116","2025-05-28 15:02",1,27.45919,-82.431159,TRUE,FALSE,TRUE,"S243948960"
"576","gloibi","Glossy Ibis","Plegadis falcinellus","L668814","Botany Bay Plantation WMA","2025-05-28 14:39",1,32.5481155,-80.2504921,TRUE,FALSE,FALSE,"S244275062"
"577","gloibi","Glossy Ibis","Plegadis falcinellus","L1407381","Shelter Cove Park","2025-05-28 14:25",24,39.9693615,-74.1131806,TRUE,FALSE,FALSE,"S243906305"
"578","gloibi","Glossy Ibis","Plegadis falcinellus","L2897288","Chebacco Woods","2025-05-28 14:00",4,42.600846,-70.8220661,TRUE,FALSE,FALSE,"S244011650"
"579","gloibi","Glossy Ibis","Plegadis falcinellus","L654719","Monomoy NWR--Minimoy Island (restricted access)","2025-05-28 13:06",8,41.6155707,-69.9987888,TRUE,TRUE,FALSE,"S244277437"
