"","speciesCode","comName","sciName","locId","locName","obsDt","howMany","lat","lng","obsValid","obsReviewed","locationPrivate","subId"
"1","shthaw","Short-tailed Hawk","Buteo brachyurus","L30924619","Lake Placid Florida","2025-06-27 15:02",1,27.2829437,-81.3478622,TRUE,FALSE,TRUE,"S254618773"
"2","shthaw","Short-tailed Hawk","Buteo brachyurus","L48567851","Honore Ave, Sarasota US-FL 27.21417, -82.45751","2025-06-27 12:53",1,27.214175,-82.45751,TRUE,FALSE,TRUE,"S254581715"
"3","shthaw","Short-tailed Hawk","Buteo brachyurus","L48396712","7124 Universal Blvd, Orlando US-FL 28.45915, -81.46412","2025-06-27 12:47",1,28.459147,-81.464117,TRUE,FALSE,TRUE,"S254579996"
"4","shthaw","Short-tailed Hawk","Buteo brachyurus","L48563054","31549 US-27 N, Haines City US-FL (28.0643,-81.6397)","2025-06-27 11:38",1,28.064346,-81.639685,TRUE,FALSE,TRUE,"S254563362"
"5","shthaw","Short-tailed Hawk","Buteo brachyurus","L128889","Mt. Lemmon--Bear Wallow","2025-06-27 09:23",1,32.4210014,-110.731102,TRUE,TRUE,FALSE,"S254632726"
"6","shthaw","Short-tailed Hawk","Buteo brachyurus","L24326953","E Ellicott St","2025-06-27 06:20",1,27.99039,-82.3382797,TRUE,FALSE,TRUE,"S254477772"
"7","shthaw","Short-tailed Hawk","Buteo brachyurus","L13818846","Orange County Convention Center--North Concourse","2025-06-26 14:53",1,28.4323508,-81.4596825,TRUE,FALSE,FALSE,"S254326746"
"8","shthaw","Short-tailed Hawk","Buteo brachyurus","L10181836","Central Florida Zoo","2025-06-26 11:57",2,28.8260908,-81.3157216,TRUE,TRUE,FALSE,"S254284306"
"9","shthaw","Short-tailed Hawk","Buteo brachyurus","L18218314","Sunset Harbor","2025-06-26 09:50",1,28.9971184,-81.9735663,TRUE,FALSE,TRUE,"S254300617"
"10","shthaw","Short-tailed Hawk","Buteo brachyurus","L16863818","Bright Moon Bay private residence","2025-06-26 09:28",1,29.000437,-81.975031,TRUE,FALSE,TRUE,"S254540933"
"11","shthaw","Short-tailed Hawk","Buteo brachyurus","L823147","J. N. Ding Darling NWR--Wildlife Drive","2025-06-26 07:54",1,26.4540529,-82.1155071,TRUE,FALSE,FALSE,"S254393516"
"12","shthaw","Short-tailed Hawk","Buteo brachyurus","L19851230","San Marco Rd, Naples US-FL 25.96109, -81.63716","2025-06-25 12:37",1,25.961086,-81.637158,TRUE,FALSE,TRUE,"S254020437"
"13","shthaw","Short-tailed Hawk","Buteo brachyurus","L625835","Lemon Bay Park","2025-06-25 09:01",1,26.9727128,-82.3743725,TRUE,FALSE,FALSE,"S253979216"
"14","shthaw","Short-tailed Hawk","Buteo brachyurus","L502704","Brooker Creek Preserve & Surrounding Areas","2025-06-25 08:37",1,28.1439001,-82.6609078,TRUE,FALSE,FALSE,"S253965073"
"15","shthaw","Short-tailed Hawk","Buteo brachyurus","L23085635","Turkey Creek Sanctuary Trails, Palm Bay US-FL 28.01667, -80.60442","2025-06-25 07:08",1,28.016668,-80.604422,TRUE,TRUE,TRUE,"S253935607"
"16","shthaw","Short-tailed Hawk","Buteo brachyurus","L48381935","11271–11799 Oil Well Rd, Immokalee US-FL 26.29541, -81.37967","2025-06-24 13:30",1,26.295408,-81.37967,TRUE,FALSE,TRUE,"S253754366"
"17","shthaw","Short-tailed Hawk","Buteo brachyurus","L48362312","7600–7930 SR-70, Okeechobee US-FL 27.24359, -80.90427","2025-06-24 08:46",1,27.243589,-80.904271,TRUE,FALSE,TRUE,"S253667755"
"18","shthaw","Short-tailed Hawk","Buteo brachyurus","L127326","Dunedin Hammock City Park","2025-06-24 08:45",2,28.0324,-82.781,TRUE,FALSE,FALSE,"S253688006"
"19","shthaw","Short-tailed Hawk","Buteo brachyurus","L1011494","Aripeka Sandhills Preserve","2025-06-24 08:35",1,28.4179283,-82.6581287,TRUE,FALSE,FALSE,"S253705681"
"20","shthaw","Short-tailed Hawk","Buteo brachyurus","L127329","Sawgrass Lake Park","2025-06-24 07:54",1,27.8398,-82.6705,TRUE,FALSE,FALSE,"S253677787"
"21","shthaw","Short-tailed Hawk","Buteo brachyurus","L4073215","Lake Apopka North Shore--McDonald Canal Rd.--Duda (Lake County)","2025-06-24 07:11",1,28.7046871,-81.6656021,TRUE,TRUE,FALSE,"S253708048"
"22","shthaw","Short-tailed Hawk","Buteo brachyurus","L4400453","Perico Preserve","2025-06-24 06:40",1,27.4972082,-82.6779646,TRUE,FALSE,FALSE,"S253658824"
"23","shthaw","Short-tailed Hawk","Buteo brachyurus","L21116173","Cattlemen Dr, Punta Gorda US-FL 26.76968, -81.73010","2025-06-23 19:53",1,26.769676,-81.730104,TRUE,FALSE,TRUE,"S253554719"
"24","shthaw","Short-tailed Hawk","Buteo brachyurus","L1427512","West Delray Regional Park","2025-06-23 10:37",1,26.4550844,-80.2175378,TRUE,FALSE,FALSE,"S253585513"
"25","shthaw","Short-tailed Hawk","Buteo brachyurus","L20998658","Lakes Park BioBlitz Bird Walk","2025-06-23 07:20",1,26.525305,-81.8787346,TRUE,FALSE,TRUE,"S253440806"
"26","shthaw","Short-tailed Hawk","Buteo brachyurus","L13014936","Wildlife Dr, Sanibel US-FL 26.44551, -82.11343","2025-06-22 10:40",1,26.445514,-82.113432,TRUE,FALSE,TRUE,"S253144054"
"27","shthaw","Short-tailed Hawk","Buteo brachyurus","L127418","Hugh Taylor Birch SP","2025-06-22 10:33",1,26.1414,-80.1048,TRUE,FALSE,FALSE,"S254249707"
"28","shthaw","Short-tailed Hawk","Buteo brachyurus","L677845","Key West Cemetery","2025-06-22 08:05",1,24.556394,-81.7949724,TRUE,FALSE,FALSE,"S253063767"
"29","shthaw","Short-tailed Hawk","Buteo brachyurus","L48192048","Lake Pithlachocco Trail Observation Deck","2025-06-21 18:36",1,29.663749,-82.238456,TRUE,TRUE,TRUE,"S252913641"
"30","shthaw","Short-tailed Hawk","Buteo brachyurus","L19973482","Moccasin Pond (private)","2025-06-21 13:35",2,29.645577,-82.249504,TRUE,TRUE,TRUE,"S252806250"
"31","shthaw","Short-tailed Hawk","Buteo brachyurus","L131882","Newnans Lake--Earl P. Powers Park","2025-06-21 11:00",1,29.6179943,-82.2511673,TRUE,TRUE,FALSE,"S252794947"
"32","shthaw","Short-tailed Hawk","Buteo brachyurus","L48302833","21500 Miami Canal Road, Florida, US (26.358, -80.793)","2025-06-21 10:30",1,26.3583953,-80.7928596,TRUE,FALSE,TRUE,"S253408183"
"33","shthaw","Short-tailed Hawk","Buteo brachyurus","L48194292","155–199 NW Seventh St, Homestead US-FL 25.47623, -80.48060","2025-06-21 10:27",1,25.476229,-80.480599,TRUE,TRUE,TRUE,"S252922902"
"34","shthaw","Short-tailed Hawk","Buteo brachyurus","L8054430","Holey Land WMA (Palm Beach County)","2025-06-21 09:25",1,26.3690246,-80.7613493,TRUE,FALSE,FALSE,"S252730605"
"35","shthaw","Short-tailed Hawk","Buteo brachyurus","L34268917","Mt. Bigelow Overlook, Tucson US-AZ 32.41770, -110.72411","2025-06-21 08:28",1,32.417701,-110.724113,TRUE,TRUE,TRUE,"S252793854"
"36","shthaw","Short-tailed Hawk","Buteo brachyurus","L424819","Six Mile Cypress Slough Preserve","2025-06-21 07:33",1,26.5716209,-81.8258929,TRUE,FALSE,FALSE,"S252732579"
"37","shthaw","Short-tailed Hawk","Buteo brachyurus","L292553","Madera Canyon--Whitehouse Picnic area","2025-06-20 07:48",1,31.733668,-110.882269,TRUE,TRUE,FALSE,"S252445078"
"38","shthaw","Short-tailed Hawk","Buteo brachyurus","L970063","Walt Disney World--Animal Kingdom (do NOT report captive birds)","2025-06-20 07:36",1,28.3593428,-81.5909958,TRUE,FALSE,FALSE,"S253245726"
"39","shthaw","Short-tailed Hawk","Buteo brachyurus","L250250","John S. Taylor Park","2025-06-19 15:50",1,27.9023224,-82.8054893,TRUE,FALSE,FALSE,"S252133461"
"40","shthaw","Short-tailed Hawk","Buteo brachyurus","L21750506","Live Oak Blvd, Prairie Creek Preserve entrance road","2025-06-19 13:49",2,27.005263,-81.929974,TRUE,FALSE,FALSE,"S252098322"
"41","shthaw","Short-tailed Hawk","Buteo brachyurus","L677081","Tiger Bay Forest WMA","2025-06-19 13:27",1,29.168351,-81.1649323,TRUE,TRUE,FALSE,"S253526996"
"42","shthaw","Short-tailed Hawk","Buteo brachyurus","L127970","Mt. Lemmon--upper","2025-06-19 11:51",1,32.4404984,-110.7902985,TRUE,TRUE,FALSE,"S252125825"
"43","shthaw","Short-tailed Hawk","Buteo brachyurus","L148596","SLHNWR (private)","2025-06-18 10:24",1,28.6438255,-81.3941453,TRUE,FALSE,TRUE,"S251722113"
"44","shthaw","Short-tailed Hawk","Buteo brachyurus","L17587230","South County Park","2025-06-18 09:02",1,26.9327293,-82.0390494,TRUE,FALSE,FALSE,"S251831256"
"45","shthaw","Short-tailed Hawk","Buteo brachyurus","L33232350","Earl P. Powers Park","2025-06-18 08:50",1,29.6177329,-82.2554004,TRUE,TRUE,TRUE,"S251808453"
