"","speciesCode","comName","sciName","locId","locName","obsDt","howMany","lat","lng","obsValid","obsReviewed","locationPrivate","subId"
"1","bubhum","Buff-bellied Hummingbird","Amazilia yucatanensis","L209876","Frontera Audubon Center (LTC 058)","2025-06-22 14:01",3,26.1479755,-97.9897937,TRUE,FALSE,FALSE,"S253202325"
"2","bubhum","Buff-bellied Hummingbird","Amazilia yucatanensis","L12277936","La Casa Oso","2025-06-22 08:10",1,27.6651287,-97.3396652,TRUE,FALSE,TRUE,"S253080590"
"3","bubhum","Buff-bellied Hummingbird","Amazilia yucatanensis","L1174771","Bentsen-Rio Grande Val. SP--HQ Buildings area","2025-06-22 08:05",2,26.1856055,-98.3799398,TRUE,FALSE,FALSE,"S253173025"
"4","bubhum","Buff-bellied Hummingbird","Amazilia yucatanensis","L259855","Estero Llano Grande SP WBC (LTC 054)","2025-06-22 07:58",1,26.1268335,-97.9578167,TRUE,FALSE,FALSE,"S253148435"
"5","bubhum","Buff-bellied Hummingbird","Amazilia yucatanensis","L128890","Bentsen-Rio Grande Val. SP WBC (Mission) (LTC 069)","2025-06-22 07:16",1,26.1849709,-98.3793885,TRUE,FALSE,FALSE,"S253126605"
"6","bubhum","Buff-bellied Hummingbird","Amazilia yucatanensis","L33668250","4101 Carnation Ave, McAllen US-TX 26.23457, -98.26073","2025-06-21 16:01",1,26.234568,-98.260727,TRUE,FALSE,TRUE,"S252869726"
"7","bubhum","Buff-bellied Hummingbird","Amazilia yucatanensis","L4241205","Griffin - Snider Yard Harlingen TX","2025-06-21 10:44",1,26.220541,-97.693782,TRUE,FALSE,TRUE,"S253091343"
"8","bubhum","Buff-bellied Hummingbird","Amazilia yucatanensis","L16473436","Alamo Country Club","2025-06-21 06:20",1,26.196384,-98.104694,TRUE,FALSE,TRUE,"S252646567"
"9","bubhum","Buff-bellied Hummingbird","Amazilia yucatanensis","L3363854","822 E Taylor Street, Harlingen TX  78550","2025-06-21",1,26.1873114,-97.6870474,TRUE,FALSE,TRUE,"S253201982"
"10","bubhum","Buff-bellied Hummingbird","Amazilia yucatanensis","L278450","UTRGV Brownsville (campus & resacas)","2025-06-20 13:30",1,25.8954255,-97.4872156,TRUE,FALSE,FALSE,"S252566343"
"11","bubhum","Buff-bellied Hummingbird","Amazilia yucatanensis","L249887","Quinta Mazatlan WBC (LTC 063)","2025-06-20 10:34",2,26.176876,-98.2309932,TRUE,FALSE,FALSE,"S252398048"
"12","bubhum","Buff-bellied Hummingbird","Amazilia yucatanensis","L11452047","Sandpipers - Private","2025-06-20 09:12",1,26.3997085,-98.1581075,TRUE,FALSE,TRUE,"S252350392"
"13","bubhum","Buff-bellied Hummingbird","Amazilia yucatanensis","L336009","National Butterfly Center--General & area North of Levee","2025-06-20 09:05",2,26.1796025,-98.3664483,TRUE,FALSE,FALSE,"S252359605"
"14","bubhum","Buff-bellied Hummingbird","Amazilia yucatanensis","L1586667","(-1) Alamo - Cottage Bird Sanctuary","2025-06-20 08:30",1,26.1796802,-98.1180856,TRUE,FALSE,TRUE,"S252867283"
"15","bubhum","Buff-bellied Hummingbird","Amazilia yucatanensis","L48056233","5023 Lakeway Dr, Brownsville US-TX (25.9803,-97.5339)","2025-06-20 07:55",3,25.980286,-97.533913,TRUE,FALSE,TRUE,"S252343401"
"16","bubhum","Buff-bellied Hummingbird","Amazilia yucatanensis","L2154687","San Benito--Earley rd.","2025-06-20 07:10",1,26.1536756,-97.6223338,TRUE,FALSE,FALSE,"S252325977"
"17","bubhum","Buff-bellied Hummingbird","Amazilia yucatanensis","L28622779","My Texas Yard","2025-06-19 18:27",1,26.0590479,-97.625791,TRUE,FALSE,TRUE,"S252188130"
"18","bubhum","Buff-bellied Hummingbird","Amazilia yucatanensis","L17300903","West wildlife Preserve - nursery","2025-06-19 18:14",1,26.2241986,-97.5226544,TRUE,FALSE,TRUE,"S252189924"
"19","bubhum","Buff-bellied Hummingbird","Amazilia yucatanensis","L273764","Hugh Ramsey Park (Harlingen Arroyo Colorado) WBC (LTC 026)","2025-06-19 12:27",1,26.1857402,-97.6641657,TRUE,FALSE,FALSE,"S252088820"
"20","bubhum","Buff-bellied Hummingbird","Amazilia yucatanensis","L129070","Sabal Palm Sanctuary (LTC 042)","2025-06-19 11:31",1,25.85233,-97.4176839,TRUE,FALSE,FALSE,"S252823683"
"21","bubhum","Buff-bellied Hummingbird","Amazilia yucatanensis","L41442964","Valor Apartment Complex","2025-06-19 09:08",1,26.180984,-97.730547,TRUE,FALSE,TRUE,"S252033788"
"22","bubhum","Buff-bellied Hummingbird","Amazilia yucatanensis","L46506594","Palo Verde","2025-06-19 08:49",1,25.942669,-97.48712,TRUE,FALSE,TRUE,"S252017641"
"23","bubhum","Buff-bellied Hummingbird","Amazilia yucatanensis","L249889","Edinburg Scenic Wetlands WBC (LTC 061)","2025-06-18 09:41",4,26.2905822,-98.1351909,TRUE,FALSE,FALSE,"S251735204"
"24","bubhum","Buff-bellied Hummingbird","Amazilia yucatanensis","L38041147","Aegolius Basterds LRGV (Private Residence)","2025-06-18 07:28",2,26.1842336,-98.3811696,TRUE,FALSE,TRUE,"S251705155"
"25","bubhum","Buff-bellied Hummingbird","Amazilia yucatanensis","L39559477","Mission oaks","2025-06-18 07:26",1,28.890932,-97.175639,TRUE,FALSE,TRUE,"S251661894"
"26","bubhum","Buff-bellied Hummingbird","Amazilia yucatanensis","L47884659","My Yard, McAllen US-TX (26.2312,-98.2298)","2025-06-17 18:43",1,26.231202,-98.229832,TRUE,FALSE,TRUE,"S251548707"
"27","bubhum","Buff-bellied Hummingbird","Amazilia yucatanensis","L18401219","2018 Oak Creek Cove, Corpus Christi US-TX 27.66075, -97.31234","2025-06-17 12:10",1,27.660752,-97.312335,TRUE,FALSE,TRUE,"S251426235"
"28","bubhum","Buff-bellied Hummingbird","Amazilia yucatanensis","L4876566","Peaceful Valley Survey","2025-06-17 06:30",1,27.9570315,-97.804327,TRUE,FALSE,TRUE,"S252120306"
"29","bubhum","Buff-bellied Hummingbird","Amazilia yucatanensis","L41313608","Pharr","2025-06-16 18:45",1,26.1835524,-98.1820773,TRUE,FALSE,TRUE,"S251244603"
"30","bubhum","Buff-bellied Hummingbird","Amazilia yucatanensis","L47304963","2018 Oak Creek Cove, Corpus Christi US-TX 27.66075, -97.31233","2025-06-15 16:12",1,27.660753,-97.312334,TRUE,FALSE,TRUE,"S250815055"
"31","bubhum","Buff-bellied Hummingbird","Amazilia yucatanensis","L458126","South Texas Botanical Gardens (CTC 067)","2025-06-15 09:00",1,27.6525275,-97.4068666,TRUE,FALSE,FALSE,"S250865679"
"32","bubhum","Buff-bellied Hummingbird","Amazilia yucatanensis","L10876038","202 Camino Dr, Victoria US-TX 28.73381, -97.13661","2025-06-15 07:02",1,28.733807,-97.136613,TRUE,FALSE,TRUE,"S250641254"
"33","bubhum","Buff-bellied Hummingbird","Amazilia yucatanensis","L129085","Santa Ana NWR (LTC 059)","2025-06-14 07:43",1,26.0813003,-98.1351399,TRUE,FALSE,FALSE,"S250726371"
