"","speciesCode","comName","sciName","locId","locName","obsDt","howMany","lat","lng","obsValid","obsReviewed","locationPrivate","subId"
"1","comeid","Common Eider","Somateria mollissima","L9795076","80 Water Cove Road, Phippsburg, Maine, US (43.755, -69.864)","2025-06-14 19:11",10,43.7547277,-69.8640813,TRUE,FALSE,TRUE,"S250385371"
"2","comeid","Common Eider","Somateria mollissima","L340595","Wells Reserve at Laudholm","2025-06-14 18:13",3,43.3377737,-70.5497131,TRUE,FALSE,FALSE,"S250393371"
"3","comeid","Common Eider","Somateria mollissima","L5520664","Fort Baldwin Beach","2025-06-14 17:43",1,43.7450011,-69.7783756,TRUE,FALSE,FALSE,"S250381713"
"4","comeid","Common Eider","Somateria mollissima","L3408890","Pemaquid Point Lighthouse Park","2025-06-14 17:28",4,43.8366782,-69.5065498,TRUE,FALSE,FALSE,"S250360329"
"5","comeid","Common Eider","Somateria mollissima","L4829419","Gloucester Harbor/western shore","2025-06-14 17:02",10,42.592713,-70.682688,TRUE,FALSE,TRUE,"S250349493"
"6","comeid","Common Eider","Somateria mollissima","L1518775","Biddeford Pool--South Point Sanctuary","2025-06-14 16:30",15,43.4439243,-70.3453101,TRUE,FALSE,FALSE,"S250338483"
"7","comeid","Common Eider","Somateria mollissima","L168335","Odiorne Point SP, Rye","2025-06-14 15:49",47,43.045555,-70.71444,TRUE,FALSE,FALSE,"S250346650"
"8","comeid","Common Eider","Somateria mollissima","L453703","Revere Beach--South End","2025-06-14 15:39",50,42.4022912,-70.9894466,TRUE,FALSE,FALSE,"S250344824"
"9","comeid","Common Eider","Somateria mollissima","L5272264","Clark Island","2025-06-14 15:30",4,43.9868246,-69.1827106,TRUE,FALSE,FALSE,"S250364504"
"10","comeid","Common Eider","Somateria mollissima","L46617807","549–559 Revere Beach Blvd, Revere US-MA (42.4283,-70.9791)","2025-06-14 15:16",10,42.428334,-70.979108,TRUE,FALSE,TRUE,"S250338130"
"11","comeid","Common Eider","Somateria mollissima","L167326","Biddeford Pool--East Point Sanctuary","2025-06-14 15:10",27,43.4470928,-70.3369403,TRUE,FALSE,FALSE,"S250333019"
"12","comeid","Common Eider","Somateria mollissima","L1392934","Acadia NP--East Schoodic Drive ","2025-06-14 15:07",5,44.3625954,-68.0390396,TRUE,FALSE,FALSE,"S250309871"
"13","comeid","Common Eider","Somateria mollissima","L364733","Race Point","2025-06-14 14:56",23,42.0691855,-70.2381706,TRUE,FALSE,FALSE,"S250355804"
"14","comeid","Common Eider","Somateria mollissima","L47618653","Gulf of Maine, St. George US-ME 43.88814, -69.31188","2025-06-14 14:50",6,43.888142,-69.311877,TRUE,FALSE,TRUE,"S250338390"
"15","comeid","Common Eider","Somateria mollissima","L506856","Eastern Egg Rock","2025-06-14 14:47",12,43.8618863,-69.382224,TRUE,FALSE,FALSE,"S250333136"
"16","comeid","Common Eider","Somateria mollissima","L1262165","Jenness/Sawyers Beach, Rye","2025-06-14 14:33",125,42.9843117,-70.7633572,TRUE,FALSE,FALSE,"S250304588"
"17","comeid","Common Eider","Somateria mollissima","L47626421","Sheepscot River, Wiscasset","2025-06-14 14:32",1,43.9070417,-69.6865539,TRUE,FALSE,TRUE,"S250368943"
"18","comeid","Common Eider","Somateria mollissima","L6423921","Cliff Walk--Wetmore Ave. Access","2025-06-14 14:15",3,41.467171,-71.301688,TRUE,FALSE,FALSE,"S250320844"
"19","comeid","Common Eider","Somateria mollissima","L1337432","Cliff Walk--Ledge Road Access","2025-06-14 14:13",3,41.4514032,-71.3110385,TRUE,FALSE,FALSE,"S250320487"
"20","comeid","Common Eider","Somateria mollissima","L327546","Quoddy Head SP","2025-06-14 14:09",5,44.813908,-66.9525743,TRUE,FALSE,FALSE,"S250287547"
"21","comeid","Common Eider","Somateria mollissima","L452647","Fort Foster Park, Kittery","2025-06-14 14:06",150,43.0678845,-70.692451,TRUE,FALSE,FALSE,"S250328444"
"22","comeid","Common Eider","Somateria mollissima","L514035","Winthrop Beach and Five Sisters","2025-06-14 14:04",100,42.3747938,-70.9681878,TRUE,TRUE,FALSE,"S250311759"
"23","comeid","Common Eider","Somateria mollissima","L991507","Cliff Island","2025-06-14 14:03",11,43.6950186,-70.1064722,TRUE,FALSE,FALSE,"S250315018"
"24","comeid","Common Eider","Somateria mollissima","L444828","Parker River NWR--Emerson Rocks","2025-06-14 13:30",15,42.7073561,-70.7721689,TRUE,FALSE,FALSE,"S250284028"
"25","comeid","Common Eider","Somateria mollissima","L47619400","Gulf of Maine, St. George US-ME 43.90459, -69.27877","2025-06-14 13:11",2,43.904586,-69.278768,TRUE,FALSE,TRUE,"S250341269"
"26","comeid","Common Eider","Somateria mollissima","L2084913","Utqiaġvik--Old Landfill","2025-06-14 13:10",27,71.3148079,-156.721344,TRUE,FALSE,FALSE,"S250377794"
"27","comeid","Common Eider","Somateria mollissima","L478484","Rockport Harbor","2025-06-14 13:00",8,42.6607266,-70.6141949,TRUE,FALSE,FALSE,"S250330427"
"28","comeid","Common Eider","Somateria mollissima","L1291922","Port Clyde Harbor","2025-06-14 12:48",2,43.9255782,-69.260087,TRUE,FALSE,FALSE,"S250339772"
"29","comeid","Common Eider","Somateria mollissima","L47595005","Bay Ferries","2025-06-14 12:48",1,44.397911,-68.22719,TRUE,FALSE,TRUE,"S250269363"
"30","comeid","Common Eider","Somateria mollissima","L850119","Owls Head SP","2025-06-14 12:11",5,44.0912069,-69.045242,TRUE,FALSE,FALSE,"S250335193"
"31","comeid","Common Eider","Somateria mollissima","L1021477","Mount Desert Rock","2025-06-14 12:06",73,43.9686,-68.1283,TRUE,FALSE,FALSE,"S250311799"
"32","comeid","Common Eider","Somateria mollissima","L19304685","Keith's Backyard - New Harbor, ME","2025-06-14 11:41",2,43.8561681,-69.5160399,TRUE,FALSE,TRUE,"S250229330"
"33","comeid","Common Eider","Somateria mollissima","L353732","Scarborough Marsh--Pine Point","2025-06-14 10:57",50,43.5445303,-70.3331662,TRUE,FALSE,FALSE,"S250218709"
"34","comeid","Common Eider","Somateria mollissima","L365673","Hampton Beach SP","2025-06-14 10:38",2,42.898808,-70.8133006,TRUE,FALSE,FALSE,"S250222070"
"35","comeid","Common Eider","Somateria mollissima","L130929","Pemaquid Harbor","2025-06-14 10:37",2,43.8798599,-69.5206451,TRUE,FALSE,FALSE,"S250202448"
"36","comeid","Common Eider","Somateria mollissima","L784803","Allens Pond WS--Beach Loop (Mass Audubon)","2025-06-14 10:36",24,41.5070668,-71.023618,TRUE,FALSE,FALSE,"S250323676"
"37","comeid","Common Eider","Somateria mollissima","L47613407","US (43.312, -70.395)","2025-06-14 10:19",2,43.3115671,-70.3949323,TRUE,FALSE,TRUE,"S250317884"
"38","comeid","Common Eider","Somateria mollissima","L761341","Pine Point Beach--Jetty","2025-06-14 10:18",25,43.5404355,-70.3284806,TRUE,FALSE,FALSE,"S250203382"
"39","comeid","Common Eider","Somateria mollissima","L6172443","Sheriff's Meadow Pond","2025-06-14 10:15",1,41.3943969,-70.5139875,TRUE,FALSE,FALSE,"S250202050"
"40","comeid","Common Eider","Somateria mollissima","L169393","Orient Point","2025-06-14 10:14",6,41.159225,-72.23746,TRUE,FALSE,TRUE,"S250198226"
"41","comeid","Common Eider","Somateria mollissima","L357109","BHI--Webb Memorial SP","2025-06-14 10:04",7,42.2592705,-70.9236145,TRUE,FALSE,FALSE,"S250198854"
"42","comeid","Common Eider","Somateria mollissima","L16094020","Kennebunkport Harbor","2025-06-14 10:00",3,43.3576562,-70.4762284,TRUE,FALSE,FALSE,"S250193764"
"43","comeid","Common Eider","Somateria mollissima","L15481941","Milbridge Commons Wellness Park","2025-06-14 10:00",8,44.5332731,-67.881496,TRUE,FALSE,TRUE,"S250325954"
"44","comeid","Common Eider","Somateria mollissima","L47583197","Pine Point Beach, Scarborough US-ME 43.54053, -70.33712","2025-06-14 09:47",20,43.540531,-70.337119,TRUE,FALSE,TRUE,"S250203852"
"45","comeid","Common Eider","Somateria mollissima","L1897302","Salt Marsh South of Odiorne Point, Rye","2025-06-14 09:44",1,43.0394679,-70.7178759,TRUE,FALSE,FALSE,"S250204550"
"46","comeid","Common Eider","Somateria mollissima","L246772","Machias Seal Island","2025-06-14 09:29",NA,44.5017664,-67.1008222,TRUE,FALSE,FALSE,"S250243122"
"47","comeid","Common Eider","Somateria mollissima","L2897580","Utqiaġvik--Nunavaaq Rd.","2025-06-14 09:28",35,71.2757153,-156.8049967,TRUE,FALSE,FALSE,"S250327510"
"48","comeid","Common Eider","Somateria mollissima","L463994","BHI--Grape Island","2025-06-14 09:27",8,42.2695606,-70.9208679,TRUE,FALSE,FALSE,"S250192875"
"49","comeid","Common Eider","Somateria mollissima","L3926734","Acadia NP--Sundew Trail","2025-06-14 09:27",1,44.3391048,-68.0674052,TRUE,FALSE,FALSE,"S250186198"
"50","comeid","Common Eider","Somateria mollissima","L301069","Parsons Beach","2025-06-14 09:25",3,43.3443346,-70.5181011,TRUE,FALSE,FALSE,"S250212509"
"51","comeid","Common Eider","Somateria mollissima","L835192","Orient Point County Park","2025-06-14 09:20",5,41.1597479,-72.2347641,TRUE,FALSE,FALSE,"S250284717"
"52","comeid","Common Eider","Somateria mollissima","L129046","Parker River NWR","2025-06-14 09:20",6,42.7639008,-70.8022995,TRUE,FALSE,FALSE,"S250322777"
"53","comeid","Common Eider","Somateria mollissima","L2324116","Allens Pond Wildlife Sanctuary (Mass Audubon)","2025-06-14 09:09",19,41.5132529,-71.0139501,TRUE,FALSE,FALSE,"S250241729"
"54","comeid","Common Eider","Somateria mollissima","L207348","Belle Isle Marsh Reservation","2025-06-14 09:03",5,42.3910639,-70.9930195,TRUE,FALSE,FALSE,"S250384926"
"55","comeid","Common Eider","Somateria mollissima","L467585","MacMillan Wharf","2025-06-14 08:52",15,42.0494838,-70.181694,TRUE,FALSE,FALSE,"S250173939"
"56","comeid","Common Eider","Somateria mollissima","L10490223","106 Tidewater Ln, Yarmouth","2025-06-14 08:45",2,43.76189,-70.136219,TRUE,FALSE,TRUE,"S250190187"
"57","comeid","Common Eider","Somateria mollissima","L1039312","Coskata-Coatue Wildlife Refuge","2025-06-14 08:40",16,41.3497526,-70.0229073,TRUE,FALSE,FALSE,"S250233454"
"58","comeid","Common Eider","Somateria mollissima","L681049","First Beach, Newport","2025-06-14 08:37",10,41.4878636,-71.2916265,TRUE,FALSE,FALSE,"S250393759"
"59","comeid","Common Eider","Somateria mollissima","L12928050","Bartlett Rd., Winthrop","2025-06-14 08:30",8,42.3684214,-70.9869361,TRUE,FALSE,TRUE,"S250170836"
"60","comeid","Common Eider","Somateria mollissima","L19413998","Ahmoagak beach access","2025-06-14 08:26",30,71.306992,-156.74747,TRUE,FALSE,TRUE,"S250251792"
"61","comeid","Common Eider","Somateria mollissima","L4115986","Lobsterville Beach, Aquinnah","2025-06-14 08:02",2,41.350697,-70.793114,TRUE,FALSE,FALSE,"S250138685"
"62","comeid","Common Eider","Somateria mollissima","L207383","Manomet Conservation Sciences","2025-06-14 07:48",2,41.921005,-70.5442548,TRUE,FALSE,FALSE,"S250159642"
"63","comeid","Common Eider","Somateria mollissima","L279945","Andrews Point","2025-06-14 07:24",8,42.687714,-70.6204365,TRUE,FALSE,FALSE,"S250137920"
"64","comeid","Common Eider","Somateria mollissima","L784930","Gay Head, Martha's Vineyard","2025-06-14 07:23",2,41.3466667,-70.8383333,TRUE,FALSE,FALSE,"S250129942"
"65","comeid","Common Eider","Somateria mollissima","L41591591","The Knob","2025-06-14 07:18",1,41.5450017,-70.6557024,TRUE,FALSE,TRUE,"S250142038"
"66","comeid","Common Eider","Somateria mollissima","L11450199","Ship Island (restricted access)","2025-06-14 07:17",55,44.234261,-68.4402775,TRUE,FALSE,FALSE,"S250129467"
"67","comeid","Common Eider","Somateria mollissima","L3980970","Hyannisport","2025-06-14 07:06",11,41.6287239,-70.3063631,TRUE,FALSE,TRUE,"S250200233"
"68","comeid","Common Eider","Somateria mollissima","L473187","Wales (town)","2025-06-14 07:04",2,65.6101168,-168.0916226,TRUE,FALSE,FALSE,"S250349310"
"69","comeid","Common Eider","Somateria mollissima","L12677296","Dog walk","2025-06-14 07:00",25,43.763215,-70.13768,TRUE,FALSE,TRUE,"S250142936"
"70","comeid","Common Eider","Somateria mollissima","L47621474","Wales-Tin City Rd. (65.626, -168.041)","2025-06-14 06:54",2,65.6263181,-168.0407924,TRUE,FALSE,TRUE,"S250349176"
"71","comeid","Common Eider","Somateria mollissima","L714656","Outer Green Island, Casco Bay","2025-06-14 06:42",20,43.6500348,-70.1240373,TRUE,FALSE,FALSE,"S250395381"
"72","comeid","Common Eider","Somateria mollissima","L1856752","Squibnocket Pond","2025-06-14 06:38",1,41.3176502,-70.7679002,TRUE,FALSE,FALSE,"S250119036"
"73","comeid","Common Eider","Somateria mollissima","L836073","Allens Pond WS--Allens Neck Trail (Mass Audubon)","2025-06-14 06:31",3,41.5220495,-71.0097134,TRUE,FALSE,FALSE,"S250290582"
"74","comeid","Common Eider","Somateria mollissima","L33762334","13 Rawstrom Dr, Friendship US-ME 43.96707, -69.36787","2025-06-14 06:15",6,43.967073,-69.367872,TRUE,FALSE,TRUE,"S250124988"
"75","comeid","Common Eider","Somateria mollissima","L610486","Utqiaġvik--Funakoshi Memorial","2025-06-13 22:45",1,71.287852,-156.8019176,TRUE,FALSE,FALSE,"S250086899"
"76","comeid","Common Eider","Somateria mollissima","L788324","Point Barrow--Base of the Point","2025-06-13 20:22",6,71.3434786,-156.6175384,TRUE,FALSE,FALSE,"S250378305"
"77","comeid","Common Eider","Somateria mollissima","L552490","190 Ocean Avenue","2025-06-13 19:40",4,43.341995,-70.468052,TRUE,FALSE,TRUE,"S250035016"
"78","comeid","Common Eider","Somateria mollissima","L1269541","Bar Harbor--Shore Path","2025-06-13 19:20",1,44.3900496,-68.2011509,TRUE,FALSE,FALSE,"S250012657"
"79","comeid","Common Eider","Somateria mollissima","L773277","Isles of Shoals--Appledore Island","2025-06-13 19:18",8,42.9919653,-70.6149243,TRUE,FALSE,FALSE,"S250013130"
"80","comeid","Common Eider","Somateria mollissima","L280287","Gloucester Harbor","2025-06-13 18:51",20,42.592298,-70.6709858,TRUE,FALSE,FALSE,"S250008756"
"81","comeid","Common Eider","Somateria mollissima","L6010590","Coolidge Reservation (TTOR)","2025-06-13 17:54",10,42.5757821,-70.7264594,TRUE,FALSE,FALSE,"S250010193"
"82","comeid","Common Eider","Somateria mollissima","L9187373","11 Woodside Park, Winthrop, Massachusetts, US (42.369, -70.986)","2025-06-13 17:53",9,42.3687767,-70.9860454,TRUE,FALSE,TRUE,"S249989108"
"83","comeid","Common Eider","Somateria mollissima","L913804","Nantucket--Jackson Point","2025-06-13 17:30",1,41.2747344,-70.2025938,TRUE,FALSE,FALSE,"S249993209"
"84","comeid","Common Eider","Somateria mollissima","L47620145","Nome-Council Road, Nome, Alaska, US (64.507, -164.595)","2025-06-13 17:28",3,64.5074504,-164.5946106,TRUE,FALSE,TRUE,"S250343966"
"85","comeid","Common Eider","Somateria mollissima","L2345007","Acadia NP--Blueberry Hill","2025-06-13 17:10",12,44.3386398,-68.0454782,TRUE,FALSE,FALSE,"S249977021"
"86","comeid","Common Eider","Somateria mollissima","L3190643","Joseph Sylvia State Beach, Martha's Vineyard","2025-06-13 17:04",5,41.420876,-70.5516565,TRUE,FALSE,FALSE,"S249970689"
"87","comeid","Common Eider","Somateria mollissima","L1550876","Crescent Beach SP","2025-06-13 17:00",30,43.5638781,-70.2285522,TRUE,FALSE,FALSE,"S250000131"
"88","comeid","Common Eider","Somateria mollissima","L1206739","Nome-Council Rd.--Safety Sound Bridge","2025-06-13 16:54",80,64.4720541,-164.746685,TRUE,FALSE,FALSE,"S250344082"
"89","comeid","Common Eider","Somateria mollissima","L428616","Bass Harbor Head Lighthouse","2025-06-13 16:49",6,44.2219221,-68.3371925,TRUE,FALSE,FALSE,"S249971292"
"90","comeid","Common Eider","Somateria mollissima","L4678040","Nome-Council Rd.--mm 22.5 vicinity","2025-06-13 16:47",25,64.4729973,-164.72821,TRUE,FALSE,FALSE,"S250054281"
"91","comeid","Common Eider","Somateria mollissima","L159029","Acadia NP--Wonderland Trail","2025-06-13 16:38",1,44.233752,-68.3198708,TRUE,FALSE,FALSE,"S250171541"
"92","comeid","Common Eider","Somateria mollissima","L464529","Cape Nome","2025-06-13 16:38",1,64.4353696,-165.0103838,TRUE,FALSE,FALSE,"S250033702"
"93","comeid","Common Eider","Somateria mollissima","L47550485","Nome-Council Rd, Nome US-AK 64.49085, -164.65987","2025-06-13 16:36",2,64.490855,-164.659873,TRUE,FALSE,TRUE,"S250054459"
"94","comeid","Common Eider","Somateria mollissima","L865421","Acadia NP--Schoodic Point","2025-06-13 16:26",3,44.3324746,-68.0603456,TRUE,FALSE,FALSE,"S249965797"
"95","comeid","Common Eider","Somateria mollissima","L1856987","Georgica Inlet, East Hampton","2025-06-13 15:56",1,40.9320816,-72.2276141,TRUE,FALSE,FALSE,"S249953681"
"96","comeid","Common Eider","Somateria mollissima","L3190636","Squibnocket Beach","2025-06-13 15:51",7,41.3182003,-70.7650477,TRUE,FALSE,FALSE,"S249956670"
"97","comeid","Common Eider","Somateria mollissima","L454124","Eastern Promenade","2025-06-13 15:36",4,43.6715657,-70.2463567,TRUE,FALSE,FALSE,"S249942506"
"98","comeid","Common Eider","Somateria mollissima","L16875427","Squib Park lot","2025-06-13 14:26",1,41.319307,-70.765773,TRUE,FALSE,TRUE,"S249948574"
"99","comeid","Common Eider","Somateria mollissima","L1909257","Cove South of Odiorne Point SP, Rye","2025-06-13 14:09",20,43.0404771,-70.7153893,TRUE,FALSE,FALSE,"S249921073"
"100","comeid","Common Eider","Somateria mollissima","L6975167","Little Private Beach, Marblehead","2025-06-13 13:33",250,42.490443,-70.844304,TRUE,FALSE,FALSE,"S249906715"
"101","comeid","Common Eider","Somateria mollissima","L47546869","Jordans Delight, Milbridge US-ME 44.44422, -67.82495","2025-06-13 12:51",17,44.444223,-67.824946,TRUE,FALSE,TRUE,"S250038277"
"102","comeid","Common Eider","Somateria mollissima","L234625","Petit Manan NWR--Petit Manan Island","2025-06-13 12:28",22,44.367175,-67.864624,TRUE,FALSE,FALSE,"S250040748"
"103","comeid","Common Eider","Somateria mollissima","L2600100","West Beach","2025-06-13 12:26",41,42.5611864,-70.8047444,TRUE,FALSE,FALSE,"S249898811"
"104","comeid","Common Eider","Somateria mollissima","L1306390","Petit Manan NWR--Petit Manan Point","2025-06-13 12:14",30,44.3950171,-67.8993238,TRUE,FALSE,FALSE,"S249968330"
"105","comeid","Common Eider","Somateria mollissima","L215343","Napatree Point","2025-06-13 11:47",2,41.3103371,-71.8743918,TRUE,FALSE,FALSE,"S249890049"
"106","comeid","Common Eider","Somateria mollissima","L39035716","South Portland Greenbelt--Joe’s Pond and ball fields","2025-06-13 11:39",20,43.643065,-70.242542,TRUE,FALSE,FALSE,"S250228815"
"107","comeid","Common Eider","Somateria mollissima","L129084","Sandy Point State Reservation","2025-06-13 11:22",17,42.702006,-70.777711,TRUE,FALSE,FALSE,"S250258896"
"108","comeid","Common Eider","Somateria mollissima","L479571","Wharton Point, Brunswick","2025-06-13 11:11",15,43.8675956,-69.9933701,TRUE,FALSE,FALSE,"S249858909"
"109","comeid","Common Eider","Somateria mollissima","L129076","Salisbury Beach State Reservation","2025-06-13 11:10",1,42.8268013,-70.8180008,TRUE,FALSE,FALSE,"S249942222"
"110","comeid","Common Eider","Somateria mollissima","L809637","Hoicks Hollow Rd.--Seawatch","2025-06-13 11:10",4,41.2909316,-69.9689627,TRUE,FALSE,FALSE,"S249870003"
"111","comeid","Common Eider","Somateria mollissima","L474786","Barnstable Harbor Mouth","2025-06-13 11:06",1,41.7087722,-70.3001833,TRUE,FALSE,FALSE,"S249915155"
"112","comeid","Common Eider","Somateria mollissima","L33055606","Nome-Council Rd.--Last Train to Nowhere","2025-06-13 11:01",4,64.545843,-164.436344,TRUE,FALSE,FALSE,"S250055743"
"113","comeid","Common Eider","Somateria mollissima","L450133","Seapoint Beach","2025-06-13 10:54",30,43.0883224,-70.6629038,TRUE,FALSE,FALSE,"S249873419"
"114","comeid","Common Eider","Somateria mollissima","L467584","Herring Cove Beach","2025-06-13 10:50",2,42.0461217,-70.2185583,TRUE,FALSE,FALSE,"S250133915"
"115","comeid","Common Eider","Somateria mollissima","L701345","Chandler Hovey Park","2025-06-13 10:25",39,42.5057446,-70.8337444,TRUE,FALSE,FALSE,"S249849482"
"116","comeid","Common Eider","Somateria mollissima","L47511635","Great Spoon Island, Isle au Haut US-ME (44.0429,-68.5565)","2025-06-13 10:13",NA,44.042857,-68.556476,TRUE,FALSE,TRUE,"S249891144"
"117","comeid","Common Eider","Somateria mollissima","L47505792","Great Spoon Island","2025-06-13 10:00",NA,44.045012,-68.557862,TRUE,FALSE,TRUE,"S249861789"
"118","comeid","Common Eider","Somateria mollissima","L619473","Petit Manan NWR--Chair Pond","2025-06-13 09:48",32,44.4237,-67.8931,TRUE,FALSE,FALSE,"S249864708"
"119","comeid","Common Eider","Somateria mollissima","L47465612","Gulf of Maine, Ogunquit US-ME 43.24823, -70.59208","2025-06-13 09:47",58,43.248235,-70.592079,TRUE,FALSE,TRUE,"S249866092"
"120","comeid","Common Eider","Somateria mollissima","L33390399","Marginal Way, Ogunquit, ME","2025-06-13 09:47",58,43.237783,-70.590951,TRUE,FALSE,TRUE,"S249955708"
"121","comeid","Common Eider","Somateria mollissima","L27740105","Giant's Stairs & McIntosh Lot Preserve, Bailey Island","2025-06-13 09:41",11,43.724141,-69.9935,TRUE,FALSE,FALSE,"S249841887"
"122","comeid","Common Eider","Somateria mollissima","L1018954","Frenchman Bay—Egg Rock","2025-06-13 09:37",5,44.3527006,-68.139267,TRUE,FALSE,FALSE,"S249832457"
"123","comeid","Common Eider","Somateria mollissima","L47494750","Cape Elizabeth ME","2025-06-13 09:28",10,43.622515,-70.208766,TRUE,FALSE,TRUE,"S249819525"
"124","comeid","Common Eider","Somateria mollissima","L2575843","Crocketts Beach","2025-06-13 09:28",4,44.0582127,-69.0790486,TRUE,FALSE,FALSE,"S249841038"
"125","comeid","Common Eider","Somateria mollissima","L464564","Bicentennial Park, Hampton","2025-06-13 09:15",20,42.9413131,-70.7930875,TRUE,FALSE,FALSE,"S249896211"
"126","comeid","Common Eider","Somateria mollissima","L47499970","Audubon Camp Headquarters","2025-06-13 08:53",2,43.983767,-69.419772,TRUE,FALSE,TRUE,"S249841766"
"127","comeid","Common Eider","Somateria mollissima","L15114053","Old County Road, Alley Island Overlook,  Bar Harbor, Maine, US (44.415, -68.365)","2025-06-13 08:50",1,44.4151905,-68.3650506,TRUE,FALSE,TRUE,"S249833459"
"128","comeid","Common Eider","Somateria mollissima","L192297","Wells Harbor--Marshes and Beach","2025-06-13 08:48",9,43.3199326,-70.562769,TRUE,FALSE,FALSE,"S249810202"
"129","comeid","Common Eider","Somateria mollissima","L520982","First Landing Park--Jetties","2025-06-13 08:46",5,42.0368471,-70.1967144,TRUE,FALSE,FALSE,"S249927276"
"130","comeid","Common Eider","Somateria mollissima","L28315303","Gully Point Cove","2025-06-13 08:45",2,42.6599376,-70.5990485,TRUE,FALSE,FALSE,"S249835152"
"131","comeid","Common Eider","Somateria mollissima","L250902","Mackworth Island","2025-06-13 08:45",NA,43.6892617,-70.2311845,TRUE,FALSE,FALSE,"S249846778"
"132","comeid","Common Eider","Somateria mollissima","L933219","North Beach, Hampton","2025-06-13 08:20",21,42.9309135,-70.7964134,TRUE,FALSE,FALSE,"S249856604"
"133","comeid","Common Eider","Somateria mollissima","L10576286","Demarest Lloyd state Park","2025-06-13 08:15",1,41.522616,-70.988578,TRUE,FALSE,TRUE,"S250036495"
"134","comeid","Common Eider","Somateria mollissima","L251836","Monhegan Island","2025-06-13 08:07",13,43.7657055,-69.3131265,TRUE,FALSE,FALSE,"S249896621"
"135","comeid","Common Eider","Somateria mollissima","L34262115","Nome-Council Road, Nome, Alaska, US (64.446, -164.848)","2025-06-13 07:55",12,64.4455119,-164.8476956,TRUE,FALSE,TRUE,"S250057306"
"136","comeid","Common Eider","Somateria mollissima","L777463","Egypt Lane Ponds, Fairhaven","2025-06-13 07:46",1,41.634733,-70.892723,TRUE,FALSE,FALSE,"S249806110"
"137","comeid","Common Eider","Somateria mollissima","L588657","Boothbay Harbor (only--NO Eastern Egg Rock birds)","2025-06-13 07:30",NA,43.8491701,-69.6273218,TRUE,FALSE,FALSE,"S249899750"
"138","comeid","Common Eider","Somateria mollissima","L976281","Great Gull Island","2025-06-13 07:30",3,41.202544,-72.1187103,TRUE,FALSE,FALSE,"S250001253"
"139","comeid","Common Eider","Somateria mollissima","L129045","Parker River NWR--Stage Island Pool","2025-06-13 07:28",7,42.710964,-70.7760179,TRUE,FALSE,FALSE,"S249794962"
"140","comeid","Common Eider","Somateria mollissima","L1676092","Rachel Carson NWR--Timber Point Trail","2025-06-13 07:24",37,43.4012099,-70.3969941,TRUE,FALSE,FALSE,"S249975467"
"141","comeid","Common Eider","Somateria mollissima","L3647564","Metinic Island","2025-06-13 07:00",85,43.8874083,-69.1246676,TRUE,FALSE,FALSE,"S250036342"
"142","comeid","Common Eider","Somateria mollissima","L40534820","Odiorne Point State Park, Rye US-NH (43.0485,-70.7275)","2025-06-13 06:52",22,43.048528,-70.727481,TRUE,FALSE,TRUE,"S249816592"
"143","comeid","Common Eider","Somateria mollissima","L1598186","Kennebunk Beach","2025-06-13 06:49",28,43.3450614,-70.4933023,TRUE,FALSE,FALSE,"S249783729"
"144","comeid","Common Eider","Somateria mollissima","L6449464","Ripple Rock","2025-06-13 06:44",1,42.5006864,-70.851447,TRUE,FALSE,TRUE,"S249785600"
"145","comeid","Common Eider","Somateria mollissima","L17189172","School St. Swamp","2025-06-13 06:42",1,41.5265373,-70.6668147,TRUE,FALSE,FALSE,"S249783085"
"146","comeid","Common Eider","Somateria mollissima","L3089685","Fisherman's Bend Park","2025-06-13 06:40",8,42.3710911,-70.9805042,TRUE,FALSE,FALSE,"S249883067"
"147","comeid","Common Eider","Somateria mollissima","L761455","Ferry Rock, Scarborough","2025-06-13 06:10",4,43.5410048,-70.3255248,TRUE,FALSE,FALSE,"S249811411"
"148","comeid","Common Eider","Somateria mollissima","L840315","Seal Island NWR (island vicinity ONLY)","2025-06-13 06:00",67,43.8894651,-68.7374814,TRUE,FALSE,FALSE,"S250029276"
"149","comeid","Common Eider","Somateria mollissima","L473315","Stratton Island","2025-06-13 06:00",190,43.5046746,-70.3116417,TRUE,FALSE,FALSE,"S250031771"
"150","comeid","Common Eider","Somateria mollissima","L467472","Minot and The Glades","2025-06-13 05:59",8,42.2408458,-70.7620382,TRUE,FALSE,FALSE,"S249867327"
"151","comeid","Common Eider","Somateria mollissima","L25828907","Hospital Point Lighthouse","2025-06-13 05:52",20,42.546283,-70.856378,TRUE,FALSE,FALSE,"S249790854"
"152","comeid","Common Eider","Somateria mollissima","L489376","Race Point Beach, Provincetown","2025-06-13 05:38",7,42.0782217,-70.2263891,TRUE,FALSE,FALSE,"S249819221"
"153","comeid","Common Eider","Somateria mollissima","L429298","Matinicus Rock","2025-06-13 04:40",90,43.7869657,-68.8527148,TRUE,FALSE,FALSE,"S250148662"
"154","comeid","Common Eider","Somateria mollissima","L47482916","Nome-Council Road, Nome, Alaska, US (64.52, -164.542)","2025-06-12 20:31",33,64.5204025,-164.5418339,TRUE,FALSE,TRUE,"S249756205"
"155","comeid","Common Eider","Somateria mollissima","L246497","Gambell (general area)","2025-06-12 20:30",6,63.7793007,-171.7214584,TRUE,FALSE,FALSE,"S249748651"
"156","comeid","Common Eider","Somateria mollissima","L1410245","Portland Waterfront ","2025-06-12 20:22",4,43.65768,-70.24441,TRUE,FALSE,FALSE,"S249686472"
"157","comeid","Common Eider","Somateria mollissima","L47284484","Old Tin City","2025-06-12 20:21",11,65.5583822,-167.9500016,TRUE,FALSE,TRUE,"S249728288"
"158","comeid","Common Eider","Somateria mollissima","L27505839","Red Dog Port Site (restricted access)","2025-06-12 20:15",6,67.576528,-164.0608204,TRUE,FALSE,FALSE,"S249738182"
"159","comeid","Common Eider","Somateria mollissima","L481406","Nauset Light Beach, Eastham","2025-06-12 19:55",3,41.8586304,-69.9517322,TRUE,FALSE,FALSE,"S249692521"
"160","comeid","Common Eider","Somateria mollissima","L460939","Pulpit Rocks, Rye","2025-06-12 18:56",45,43.032447,-70.7185435,TRUE,FALSE,FALSE,"S249675226"
"161","comeid","Common Eider","Somateria mollissima","L33468084","Utqiaġvik--Imaiqsaun Cemetery","2025-06-12 18:31",1,71.2694868,-156.7718785,TRUE,FALSE,FALSE,"S249841055"
"162","comeid","Common Eider","Somateria mollissima","L241815","Willard Beach","2025-06-12 18:30",7,43.6432593,-70.2269073,TRUE,FALSE,FALSE,"S249655328"
"163","comeid","Common Eider","Somateria mollissima","L207352","Boston Harbor Islands National Recreation Area IBA (Suffolk Co.)","2025-06-12 18:03",10,42.3237094,-70.9544745,TRUE,FALSE,FALSE,"S249680022"
"164","comeid","Common Eider","Somateria mollissima","L47475170","Council Rd. Pullout E of Cape","2025-06-12 18:02",6,64.441436,-164.985912,TRUE,FALSE,TRUE,"S249718812"
"165","comeid","Common Eider","Somateria mollissima","L1018992","Hadley Point, Bar Harbor","2025-06-12 17:45",10,44.4441366,-68.3189964,TRUE,FALSE,FALSE,"S249709939"
"166","comeid","Common Eider","Somateria mollissima","L599237","Corporation Beach","2025-06-12 17:28",18,41.7517206,-70.1874876,TRUE,FALSE,FALSE,"S249644542"
"167","comeid","Common Eider","Somateria mollissima","L47473525","Nome-Council Road, Nome, Alaska, US (64.51, -164.578)","2025-06-12 17:09",15,64.5103977,-164.5782279,TRUE,FALSE,TRUE,"S249710850"
"168","comeid","Common Eider","Somateria mollissima","L927270","Nome-Council Rd.--Solomon","2025-06-12 16:16",3,64.5585058,-164.4438634,TRUE,FALSE,FALSE,"S249719050"
"169","comeid","Common Eider","Somateria mollissima","L752738","Isles of Shoals--White and Seavey islands, Rye","2025-06-12 15:33",22,42.9685691,-70.6241183,TRUE,FALSE,FALSE,"S250014614"
"170","comeid","Common Eider","Somateria mollissima","L455897","Gooseberry Neck","2025-06-12 15:09",12,41.4869773,-71.0375977,TRUE,FALSE,FALSE,"S249614265"
"171","comeid","Common Eider","Somateria mollissima","L3717427","Nome-Council Rd.--Safety Sound Bridge to Last Train to Nowhere","2025-06-12 14:41",40,64.5153332,-164.5622527,TRUE,FALSE,FALSE,"S249720516"
"172","comeid","Common Eider","Somateria mollissima","L159047","Acadia NP--Seawall Picnic Area","2025-06-12 14:28",1,44.2373,-68.3025,TRUE,FALSE,FALSE,"S249613293"
"173","comeid","Common Eider","Somateria mollissima","L569900","Jeffrey's Ledge (NH)","2025-06-12 14:05",2,42.9222405,-70.52948,TRUE,FALSE,FALSE,"S250240623"
"174","comeid","Common Eider","Somateria mollissima","L47479425","Nome-Council Rd, Nome US-AK 64.44323, -164.96135","2025-06-12 13:49",1,64.44323,-164.961354,TRUE,FALSE,TRUE,"S249741606"
"175","comeid","Common Eider","Somateria mollissima","L11617323","Great Duck Island (restricted access)","2025-06-12 13:45",41,44.144019,-68.24627,TRUE,FALSE,FALSE,"S249578220"
"176","comeid","Common Eider","Somateria mollissima","L159046","Acadia NP--Ship Harbor Trail","2025-06-12 13:33",5,44.2316668,-68.3256161,TRUE,FALSE,FALSE,"S249591450"
"177","comeid","Common Eider","Somateria mollissima","L805337","Nauset Beach, Orleans","2025-06-12 13:31",40,41.7888489,-69.9355316,TRUE,FALSE,FALSE,"S249595741"
"178","comeid","Common Eider","Somateria mollissima","L566310","Cupsogue Beach County Park","2025-06-12 13:00",4,40.7713119,-72.7373457,TRUE,FALSE,FALSE,"S249689775"
"179","comeid","Common Eider","Somateria mollissima","L167741","Cape Neddick Light","2025-06-12 13:00",40,43.1653,-70.59318,TRUE,FALSE,FALSE,"S249786424"
"180","comeid","Common Eider","Somateria mollissima","L47458041","Sachuest Point National Wildlife Refuge, Middletown US-RI 41.47983, -71.24347","2025-06-12 12:47",8,41.479829,-71.24347,TRUE,FALSE,TRUE,"S249632012"
"181","comeid","Common Eider","Somateria mollissima","L47461761","Nome-Council Rd, Nome US-AK 64.50393, -164.60850","2025-06-12 12:40",50,64.503925,-164.608501,TRUE,FALSE,TRUE,"S249648549"
"182","comeid","Common Eider","Somateria mollissima","L47431628","Boothbay","2025-06-12 11:44",7,43.81664,-69.487391,TRUE,FALSE,TRUE,"S249540406"
"183","comeid","Common Eider","Somateria mollissima","L1664751","Nome-Council Rd.--Cape Nome to Safety Sound Bridge","2025-06-12 11:17",65,64.4408338,-164.8940364,TRUE,FALSE,FALSE,"S249706989"
"184","comeid","Common Eider","Somateria mollissima","L17001312","Fishermans Cove","2025-06-12 11:07",13,43.2910575,-70.5706629,TRUE,FALSE,FALSE,"S249531067"
"185","comeid","Common Eider","Somateria mollissima","L1041456","Franklin Island NWR","2025-06-12 10:59",20,43.8913362,-69.3741989,TRUE,FALSE,FALSE,"S249680074"
"186","comeid","Common Eider","Somateria mollissima","L47435962","The hook","2025-06-12 10:56",25,43.720588,-70.140386,TRUE,FALSE,TRUE,"S249539986"
"187","comeid","Common Eider","Somateria mollissima","L469938","Manomet Point","2025-06-12 10:47",1,41.9264999,-70.5395651,TRUE,FALSE,FALSE,"S249529350"
"188","comeid","Common Eider","Somateria mollissima","L1353632","Reid SP--Mile Beach","2025-06-12 10:44",NA,43.7795998,-69.7266841,TRUE,FALSE,FALSE,"S249528576"
"189","comeid","Common Eider","Somateria mollissima","L21010625","Cedar Beach","2025-06-12 10:43",22,43.7433362,-69.9870515,TRUE,FALSE,FALSE,"S249523000"
"190","comeid","Common Eider","Somateria mollissima","L47391493","Stevenson Street, Utqiagvik, Alaska, US (71.318, -156.712)","2025-06-12 10:39",1,71.3177192,-156.7122216,TRUE,FALSE,TRUE,"S249640469"
"191","comeid","Common Eider","Somateria mollissima","L47459790","Gulf of Maine, St. George US-ME (43.8780,-69.3559)","2025-06-12 09:49",86,43.877996,-69.355886,TRUE,FALSE,TRUE,"S249640068"
"192","comeid","Common Eider","Somateria mollissima","L47446696","Nome-Council Road, Nome, Alaska, US (64.476, -165.25)","2025-06-12 09:46",2,64.4763744,-165.2503266,TRUE,FALSE,TRUE,"S249583194"
"193","comeid","Common Eider","Somateria mollissima","L47440485","Allen Island, St. George US-ME 43.87677, -69.31296","2025-06-12 09:26",5,43.876767,-69.312956,TRUE,FALSE,TRUE,"S249557753"
"194","comeid","Common Eider","Somateria mollissima","L779308","Forest Beach and Conservation Lands, Chatham","2025-06-12 09:26",17,41.6700588,-70.0253749,TRUE,FALSE,FALSE,"S249526306"
"195","comeid","Common Eider","Somateria mollissima","L2911963","Petit Manan NWR--Hollingsworth Trail","2025-06-12 09:24",1,44.4317256,-67.8928187,TRUE,FALSE,FALSE,"S249529670"
"196","comeid","Common Eider","Somateria mollissima","L12827195","Stony Beach, Woods Hole","2025-06-12 08:53",2,41.528885,-70.6740189,TRUE,FALSE,FALSE,"S249611360"
"197","comeid","Common Eider","Somateria mollissima","L3728424","Muscongus Bay (waters only, please use specific locations for islands)","2025-06-12 08:40",17,43.9182983,-69.4044972,TRUE,FALSE,FALSE,"S249679958"
"198","comeid","Common Eider","Somateria mollissima","L47499351","Acadia Puffin and Lighthouse Tour","2025-06-12 08:35",18,44.397981,-68.225212,TRUE,FALSE,TRUE,"S249839441"
"199","comeid","Common Eider","Somateria mollissima","L47466904","Nome, Nome US-AK (64.4490,-164.8563)","2025-06-12 08:17",13,64.44903,-164.856301,TRUE,FALSE,TRUE,"S249678144"
"200","comeid","Common Eider","Somateria mollissima","L2222767","Utqiaġvik--Middle Salt Lagoon (S end)","2025-06-12 07:36",6,71.3051952,-156.6897583,TRUE,FALSE,FALSE,"S250026310"
"201","comeid","Common Eider","Somateria mollissima","L199218","Back Cove, Portland","2025-06-12 07:35",3,43.6723674,-70.2690005,TRUE,FALSE,FALSE,"S249491442"
"202","comeid","Common Eider","Somateria mollissima","L2944567","Hog Island--Audubon Camp, North Peninsula","2025-06-12 07:33",3,43.9784052,-69.4171894,TRUE,FALSE,FALSE,"S249470833"
"203","comeid","Common Eider","Somateria mollissima","L520045","Eel Point","2025-06-12 07:32",25,41.2917377,-70.2069283,TRUE,FALSE,FALSE,"S249497999"
"204","comeid","Common Eider","Somateria mollissima","L516706","Hatches Harbor, Provincetown","2025-06-12 06:47",2,42.0616561,-70.2367973,TRUE,FALSE,FALSE,"S249498341"
"205","comeid","Common Eider","Somateria mollissima","L39728522","149 Marshall Point","2025-06-12 06:24",4,43.918811,-69.2580704,TRUE,FALSE,TRUE,"S249454450"
"206","comeid","Common Eider","Somateria mollissima","L3593329","Pools South of Odiorne, West of Rt. 1A, Rye","2025-06-12 05:56",10,43.0415205,-70.7165207,TRUE,FALSE,FALSE,"S249524243"
"207","comeid","Common Eider","Somateria mollissima","L3853553","Long Island","2025-06-12 05:46",36,43.685998,-70.1586485,TRUE,FALSE,FALSE,"S249458049"
"208","comeid","Common Eider","Somateria mollissima","L47549848","Eastern Egg Rock","2025-06-12 00:00",2,43.860623,-69.382386,TRUE,FALSE,TRUE,"S250051220"
"209","comeid","Common Eider","Somateria mollissima","L47450532","Buzzards Bay","2025-06-12",13,41.6731344,-70.7136259,TRUE,FALSE,TRUE,"S249600320"
"210","comeid","Common Eider","Somateria mollissima","L744685","Wallis Sands State Beach, Rye","2025-06-11 19:56",33,43.0249805,-70.7299805,TRUE,FALSE,FALSE,"S249373601"
"211","comeid","Common Eider","Somateria mollissima","L754513","Portland Head Light--Fort Williams Park","2025-06-11 19:20",10,43.62292,-70.2087736,TRUE,FALSE,FALSE,"S249362600"
"212","comeid","Common Eider","Somateria mollissima","L229085","Marginal Way, Ogunquit","2025-06-11 18:56",20,43.2426687,-70.5892445,TRUE,FALSE,FALSE,"S249369135"
"213","comeid","Common Eider","Somateria mollissima","L6777230","A Pleasant Hobby Farm","2025-06-11 18:56",3,41.8038714,-71.121933,TRUE,FALSE,TRUE,"S249339546"
"214","comeid","Common Eider","Somateria mollissima","L47411260","Stevenson St, Utqiagvik US-AK 71.32366, -156.69404","2025-06-11 18:45",3,71.32366,-156.694036,TRUE,FALSE,TRUE,"S249419156"
"215","comeid","Common Eider","Somateria mollissima","L595101","Biddeford Pool--Sky Harbor Dr.","2025-06-11 18:30",2,43.4492426,-70.3599215,TRUE,FALSE,FALSE,"S249349002"
"216","comeid","Common Eider","Somateria mollissima","L3295995","Biddeford Pool--Ocean Ave.","2025-06-11 18:23",34,43.444123,-70.340395,TRUE,FALSE,FALSE,"S249342630"
"217","comeid","Common Eider","Somateria mollissima","L12658569","Ann Ave, Mystic","2025-06-11 18:00",8,41.3852351,-71.983283,TRUE,FALSE,TRUE,"S249536388"
"218","comeid","Common Eider","Somateria mollissima","L823474","Red River Beach","2025-06-11 17:36",1,41.6680873,-70.039537,TRUE,FALSE,FALSE,"S249401055"
"219","comeid","Common Eider","Somateria mollissima","L473462","Kennebunk Beach Cove","2025-06-11 17:36",40,43.3442811,-70.503602,TRUE,FALSE,FALSE,"S249328071"
"220","comeid","Common Eider","Somateria mollissima","L1293907","Acadia NP--Schooner Head Overlook","2025-06-11 17:10",5,44.3396485,-68.1772259,TRUE,FALSE,FALSE,"S249314932"
"221","comeid","Common Eider","Somateria mollissima","L19499618","Schoodic Island (restricted access)","2025-06-11 17:01",10,44.331378,-68.032664,TRUE,FALSE,FALSE,"S249316426"
"222","comeid","Common Eider","Somateria mollissima","L278320","Rye Ledge","2025-06-11 16:48",38,42.9736526,-70.7647414,TRUE,FALSE,FALSE,"S249312966"
"223","comeid","Common Eider","Somateria mollissima","L1169563","Pine Point Beach--Ave. 5","2025-06-11 16:41",40,43.5406589,-70.3370583,TRUE,FALSE,FALSE,"S249334752"
"224","comeid","Common Eider","Somateria mollissima","L489477","Morse Mountain, Phippsburg","2025-06-11 16:31",3,43.7379258,-69.8259687,TRUE,FALSE,FALSE,"S249348755"
"225","comeid","Common Eider","Somateria mollissima","L481602","Bug Light","2025-06-11 16:03",5,43.6539627,-70.2338791,TRUE,FALSE,FALSE,"S249312692"
"226","comeid","Common Eider","Somateria mollissima","L621078","UConn Avery Point Campus","2025-06-11 15:25",5,41.3174963,-72.0645404,TRUE,FALSE,FALSE,"S249322652"
"227","comeid","Common Eider","Somateria mollissima","L22032772","3 Lords Point Rd, Kennebunk US-ME 43.34333, -70.50043","2025-06-11 14:40",8,43.343331,-70.500428,TRUE,FALSE,TRUE,"S249296324"
"228","comeid","Common Eider","Somateria mollissima","L9659539","Pigeon Hill Preserve (DCC)","2025-06-11 14:32",1,44.4556653,-67.8883247,TRUE,FALSE,FALSE,"S249282348"
"229","comeid","Common Eider","Somateria mollissima","L35812473","Fort Foster, Kittery Point US-ME 43.06610, -70.68796","2025-06-11 14:03",30,43.066105,-70.687956,TRUE,FALSE,TRUE,"S249262801"
"230","comeid","Common Eider","Somateria mollissima","L47314143","201 Long Beach Avenue, York, Maine, US (43.163, -70.62)","2025-06-11 13:50",88,43.1626873,-70.619557,TRUE,FALSE,TRUE,"S249262023"
"231","comeid","Common Eider","Somateria mollissima","L47514300","Nome-Council Rd, Nome US-AK 64.46085, -164.77374","2025-06-11 13:47",5,64.460848,-164.773735,TRUE,FALSE,TRUE,"S249902084"
"232","comeid","Common Eider","Somateria mollissima","L207462","Wellfleet Bay Wildlife Sanctuary (Mass Audubon)","2025-06-11 13:46",1,41.8825315,-69.995712,TRUE,FALSE,FALSE,"S249298197"
"233","comeid","Common Eider","Somateria mollissima","L918302","Isles of Shoals (NH)","2025-06-11 13:44",NA,42.9736571,-70.6214819,TRUE,FALSE,FALSE,"S249928891"
"234","comeid","Common Eider","Somateria mollissima","L654697","Steuben Harbor","2025-06-11 13:14",3,44.5031289,-67.9697621,TRUE,FALSE,FALSE,"S249247041"
"235","comeid","Common Eider","Somateria mollissima","L1906442","Rt. 1A, Second Pullout South of Odiorne Point, Rye","2025-06-11 13:11",23,43.0400379,-70.7150774,TRUE,FALSE,FALSE,"S249251379"
"236","comeid","Common Eider","Somateria mollissima","L4007749","Teller--spit","2025-06-11 13:07",5,65.2709052,-166.3575125,TRUE,FALSE,FALSE,"S249534141"
"237","comeid","Common Eider","Somateria mollissima","L9492944","Ocean Street","2025-06-11 13:06",32,42.5766227,-70.7351828,TRUE,FALSE,FALSE,"S249245567"
"238","comeid","Common Eider","Somateria mollissima","L34868360","Briggs Marsh, Little Compton (limited access)","2025-06-11 13:01",6,41.475236,-71.162768,TRUE,FALSE,FALSE,"S249242205"
"239","comeid","Common Eider","Somateria mollissima","L47398189","Eastern Egg Rock","2025-06-11 12:30",12,43.8606199,-69.3825401,TRUE,FALSE,TRUE,"S249354599"
"240","comeid","Common Eider","Somateria mollissima","L732004","Demarest Lloyd SP","2025-06-11 12:11",2,41.5271179,-70.9857559,TRUE,FALSE,FALSE,"S249384562"
"241","comeid","Common Eider","Somateria mollissima","L594639","Pine Point Beach","2025-06-11 12:10",44,43.5376916,-70.3483987,TRUE,FALSE,FALSE,"S249292118"
"242","comeid","Common Eider","Somateria mollissima","L47376903","Sachuest Point National Wildlife Refuge, Middletown US-RI 41.47997, -71.24347","2025-06-11 12:00",10,41.479969,-71.24347,TRUE,FALSE,TRUE,"S249257920"
"243","comeid","Common Eider","Somateria mollissima","L332411","Popham Beach SP","2025-06-11 11:45",1,43.7358483,-69.7985888,TRUE,FALSE,FALSE,"S249309035"
"244","comeid","Common Eider","Somateria mollissima","L47384409","seawall picnic area","2025-06-11 11:45",30,44.237606,-68.3023229,TRUE,FALSE,TRUE,"S249288982"
"245","comeid","Common Eider","Somateria mollissima","L830335","Plum Island (please use more refined location)","2025-06-11 11:35",30,42.7987508,-70.8114526,TRUE,FALSE,FALSE,"S249836637"
"246","comeid","Common Eider","Somateria mollissima","L1273673","Acadia NP--Seawall Pond","2025-06-11 11:35",1,44.2426166,-68.299427,TRUE,FALSE,FALSE,"S249289458"
"247","comeid","Common Eider","Somateria mollissima","L47409503","Agagrak Creek","2025-06-11 11:20",9,67.52462,-163.991446,TRUE,FALSE,TRUE,"S249410886"
"248","comeid","Common Eider","Somateria mollissima","L47368627","Reid State Park, Georgetown US-ME 43.78445, -69.72286","2025-06-11 11:08",3,43.784453,-69.722863,TRUE,FALSE,TRUE,"S249223386"
"249","comeid","Common Eider","Somateria mollissima","L1400869","Isle au Haut--South Shore","2025-06-11 11:08",40,44.0166405,-68.6400468,TRUE,FALSE,FALSE,"S249488799"
"250","comeid","Common Eider","Somateria mollissima","L47378896","Gulf of Maine, Friendship US-ME 43.86881, -69.38446","2025-06-11 11:04",4,43.868814,-69.384462,TRUE,FALSE,TRUE,"S249266005"
"251","comeid","Common Eider","Somateria mollissima","L20665146","Allen Island (general)","2025-06-11 11:00",35,43.865341,-69.315915,TRUE,FALSE,TRUE,"S249266760"
"252","comeid","Common Eider","Somateria mollissima","L2746109","Wheeler Wildlife Refuge, York","2025-06-11 10:50",2,43.1305008,-70.6480712,TRUE,FALSE,FALSE,"S249200122"
"253","comeid","Common Eider","Somateria mollissima","L9864150","Fort Gorges","2025-06-11 10:45",5,43.663037,-70.221416,TRUE,FALSE,FALSE,"S249219820"
"254","comeid","Common Eider","Somateria mollissima","L269484","Duxbury Beach","2025-06-11 10:42",41,42.0295225,-70.6261466,TRUE,TRUE,FALSE,"S249285198"
"255","comeid","Common Eider","Somateria mollissima","L47476139","Oliktok Point Area","2025-06-11 10:38",6,70.49852,-149.888694,TRUE,FALSE,TRUE,"S249724440"
"256","comeid","Common Eider","Somateria mollissima","L3192009","Hampton Harbor Inlet","2025-06-11 10:15",NA,42.8955855,-70.81285,TRUE,FALSE,FALSE,"S249999947"
"257","comeid","Common Eider","Somateria mollissima","L455424","North Hampton State Beach","2025-06-11 10:10",45,42.9546165,-70.7819617,TRUE,FALSE,FALSE,"S249782259"
"258","comeid","Common Eider","Somateria mollissima","L6046415","Ten Pound Island","2025-06-11 10:09",45,42.6019532,-70.6649358,TRUE,FALSE,FALSE,"S249181860"
"259","comeid","Common Eider","Somateria mollissima","L448190","Scarborough Marsh--Pelreco Building","2025-06-11 10:07",1,43.5435712,-70.3495789,TRUE,FALSE,FALSE,"S249196902"
"260","comeid","Common Eider","Somateria mollissima","L2743842","Ferry, Stonington-Isle au Haut (Hancock Co.)","2025-06-11 09:57",55,44.1426746,-68.6627483,TRUE,FALSE,FALSE,"S249488681"
"261","comeid","Common Eider","Somateria mollissima","L6213026","Reid SP--Half Mile Beach","2025-06-11 09:45",4,43.773075,-69.734529,TRUE,FALSE,FALSE,"S249197847"
"262","comeid","Common Eider","Somateria mollissima","L5746590","Allen Island houses (Friendship SE)","2025-06-11 09:40",5,43.8762033,-69.3108189,TRUE,FALSE,TRUE,"S249201842"
"263","comeid","Common Eider","Somateria mollissima","L383678","Niles Beach","2025-06-11 09:36",4,42.5976396,-70.6550503,TRUE,FALSE,FALSE,"S249173270"
"264","comeid","Common Eider","Somateria mollissima","L207416","West Dennis Beach","2025-06-11 09:27",2,41.65,-70.189,TRUE,FALSE,FALSE,"S249228767"
"265","comeid","Common Eider","Somateria mollissima","L38253350","Great Head Trail, Bar Harbor US-ME 44.33197, -68.18010","2025-06-11 09:21",3,44.331969,-68.1801,TRUE,FALSE,TRUE,"S249890360"
"266","comeid","Common Eider","Somateria mollissima","L282743","Castle Rock","2025-06-11 09:20",10,42.4993118,-70.8340903,TRUE,FALSE,FALSE,"S249177994"
"267","comeid","Common Eider","Somateria mollissima","L47409184","Tasaitsat Lagoon","2025-06-11 08:47",8,67.558216,-164.030504,TRUE,FALSE,TRUE,"S249408856"
"268","comeid","Common Eider","Somateria mollissima","L47375092","117 Eden St, Bar Harbor US-ME 44.39732, -68.22463","2025-06-11 08:43",75,44.397322,-68.224626,TRUE,FALSE,TRUE,"S249253433"
"269","comeid","Common Eider","Somateria mollissima","L280303","Eastern Point Wildlife Sanctuary (Mass Audubon)","2025-06-11 08:40",4,42.5811683,-70.6642726,TRUE,FALSE,FALSE,"S249166359"
"270","comeid","Common Eider","Somateria mollissima","L47399584","Acadian Boat tour","2025-06-11 08:35",1,44.3962364,-68.2255054,TRUE,FALSE,TRUE,"S249362929"
"271","comeid","Common Eider","Somateria mollissima","L7449685","Quidnet Beach","2025-06-11 08:30",7,41.3045054,-69.9780071,TRUE,FALSE,TRUE,"S249178537"
"272","comeid","Common Eider","Somateria mollissima","L11516232","Mosquito Cove, Martinsville, St. George, ME","2025-06-11 08:24",2,43.9434252,-69.2298643,TRUE,FALSE,TRUE,"S249149228"
"273","comeid","Common Eider","Somateria mollissima","L297947","Harkness Memorial SP","2025-06-11 08:24",8,41.3014861,-72.1119044,TRUE,FALSE,FALSE,"S249188558"
"274","comeid","Common Eider","Somateria mollissima","L47361656","Left Stern Parking","2025-06-11 08:17",5,43.544269,-70.334485,TRUE,FALSE,TRUE,"S249193163"
"275","comeid","Common Eider","Somateria mollissima","L7900725","Alaska Maritime NWR--Chowiet Island","2025-06-11 08:00",8,56.032946,-156.705554,TRUE,TRUE,FALSE,"S249421675"
"276","comeid","Common Eider","Somateria mollissima","L25308524","Harbor Cove","2025-06-11 08:00",20,42.6104383,-70.6635059,TRUE,FALSE,FALSE,"S249385254"
"277","comeid","Common Eider","Somateria mollissima","L1245178","Boat Trip, Cutler-Machias Seal Island","2025-06-11 07:21",1,44.5748174,-67.1796799,TRUE,FALSE,FALSE,"S249139955"
"278","comeid","Common Eider","Somateria mollissima","L954538","Bowdoin College Coastal Studies Center, Harpswell","2025-06-11 07:18",13,43.788306,-69.9579549,TRUE,FALSE,FALSE,"S249188102"
"279","comeid","Common Eider","Somateria mollissima","L47404669","Anvil Trail, Bar Harbor US-ME (44.3402,-68.0449)","2025-06-11 07:15",1,44.340163,-68.04488,TRUE,FALSE,TRUE,"S249386338"
"280","comeid","Common Eider","Somateria mollissima","L754450","Plaice Cove, Hampton","2025-06-11 07:10",60,42.9433316,-70.7880664,TRUE,FALSE,FALSE,"S249135645"
"281","comeid","Common Eider","Somateria mollissima","L47348215","20 Timothy Nye Cart Way, Falmouth, Massachusetts, US (41.544, -70.61)","2025-06-11 06:29",1,41.5443206,-70.6099332,TRUE,FALSE,TRUE,"S249124135"
"282","comeid","Common Eider","Somateria mollissima","L25206158","Acadia NP--Anvil Trail","2025-06-11 06:25",1,44.3462065,-68.0505964,TRUE,FALSE,FALSE,"S249146849"
"283","comeid","Common Eider","Somateria mollissima","L278355","Isles of Shoals--Star Island, Rye","2025-06-11 06:05",NA,42.9764333,-70.6125,TRUE,FALSE,FALSE,"S249128943"
"284","comeid","Common Eider","Somateria mollissima","L2329969","Jenny Island (landing prohibited May-Aug.)","2025-06-11 06:00",1,43.765031,-69.908553,TRUE,FALSE,FALSE,"S249567783"
"285","comeid","Common Eider","Somateria mollissima","L492180","Ocean Point Path, Boothbay","2025-06-11 05:50",31,43.815617,-69.595229,TRUE,FALSE,FALSE,"S249121509"
"286","comeid","Common Eider","Somateria mollissima","L207365","Eastern Point--General Area","2025-06-11 04:56",100,42.5847513,-70.6572351,TRUE,FALSE,FALSE,"S249323895"
"287","comeid","Common Eider","Somateria mollissima","L602509","Sears Island","2025-06-11 04:55",3,44.453009,-68.8808956,TRUE,FALSE,FALSE,"S249199237"
"288","comeid","Common Eider","Somateria mollissima","L14704091","David S. Lynch Memorial Park","2025-06-10 19:18",10,42.5468284,-70.8608723,TRUE,FALSE,FALSE,"S249023705"
"289","comeid","Common Eider","Somateria mollissima","L489398","Hills Beach and Basket Island Causeway","2025-06-10 19:05",8,43.4527802,-70.3656473,TRUE,FALSE,FALSE,"S249012462"
"290","comeid","Common Eider","Somateria mollissima","L47407865","Nome-Council Rd, Nome US-AK 64.49109, -164.65868","2025-06-10 19:03",2,64.491092,-164.658676,TRUE,FALSE,TRUE,"S249401115"
"291","comeid","Common Eider","Somateria mollissima","L3295986","Biddeford Pool--Vines Landing & Yacht Club","2025-06-10 19:00",20,43.4471731,-70.3552008,TRUE,FALSE,FALSE,"S249025361"
"292","comeid","Common Eider","Somateria mollissima","L2696319","Eastern Promenade Trail (South end)","2025-06-10 18:58",12,43.661046,-70.244874,TRUE,FALSE,FALSE,"S249044619"
"293","comeid","Common Eider","Somateria mollissima","L11960283","Woods Hole-Martha’s Vineyard Ferry (Dukes Co)","2025-06-10 18:30",8,41.491612,-70.614035,TRUE,FALSE,TRUE,"S249000816"
"294","comeid","Common Eider","Somateria mollissima","L168280","Brenton Point SP","2025-06-10 18:04",24,41.452055,-71.35427,TRUE,FALSE,FALSE,"S249006456"
"295","comeid","Common Eider","Somateria mollissima","L47407837","Nome-Council Rd, Nome US-AK 64.50612, -164.59929","2025-06-10 18:02",10,64.506117,-164.599291,TRUE,FALSE,TRUE,"S249400976"
"296","comeid","Common Eider","Somateria mollissima","L490189","Camp Cronin Fishing Area","2025-06-10 18:02",1,41.3621949,-71.4872164,TRUE,FALSE,FALSE,"S249027738"
"297","comeid","Common Eider","Somateria mollissima","L569873","Prudhoe Bay Oil Field--general area (restricted access)","2025-06-10 18:00",2,70.2887481,-148.5031394,TRUE,FALSE,FALSE,"S249531895"
"298","comeid","Common Eider","Somateria mollissima","L191762","Goose Neck Cove","2025-06-10 17:57",7,41.45498,-71.333405,TRUE,FALSE,FALSE,"S249015004"
"299","comeid","Common Eider","Somateria mollissima","L11960289","Woods Hole-Martha’s Vineyard Ferry (Barnstable Co)","2025-06-10 17:57",1,41.498325,-70.653666,TRUE,FALSE,TRUE,"S248995694"
"300","comeid","Common Eider","Somateria mollissima","L3043541","Kittery ME - Chauncey Creek","2025-06-10 17:55",6,43.083276,-70.695126,TRUE,FALSE,TRUE,"S249002295"
"301","comeid","Common Eider","Somateria mollissima","L211434","Crane Beach (TTOR)","2025-06-10 17:55",17,42.6839598,-70.7667586,TRUE,FALSE,FALSE,"S249039049"
"302","comeid","Common Eider","Somateria mollissima","L383673","Atlantic Road--Bass Rocks","2025-06-10 16:44",55,42.6092074,-70.6332574,TRUE,FALSE,FALSE,"S248980570"
"303","comeid","Common Eider","Somateria mollissima","L47407779","Nome-Council Rd, Nome US-AK 64.44221, -164.92228","2025-06-10 16:05",5,64.442207,-164.92228,TRUE,FALSE,TRUE,"S249400614"
"304","comeid","Common Eider","Somateria mollissima","L4827905","Lake Tashmoo","2025-06-10 16:00",3,41.4607391,-70.6249237,TRUE,FALSE,FALSE,"S249135739"
"305","comeid","Common Eider","Somateria mollissima","L3822121","Seguin Island","2025-06-10 15:50",1,43.7086912,-69.7567785,TRUE,FALSE,FALSE,"S249825923"
"306","comeid","Common Eider","Somateria mollissima","L15379241","Womens Bay by Mary Island","2025-06-10 15:45",47,57.70856,-152.544026,TRUE,FALSE,TRUE,"S249384071"
"307","comeid","Common Eider","Somateria mollissima","L6826450","Arey Cove Turnout","2025-06-10 14:58",5,44.336492,-68.0563813,TRUE,FALSE,FALSE,"S248950434"
"308","comeid","Common Eider","Somateria mollissima","L1331370","Pebble Beach","2025-06-10 14:26",50,42.6358609,-70.6003547,TRUE,FALSE,FALSE,"S248944569"
"309","comeid","Common Eider","Somateria mollissima","L267010","Hog Island","2025-06-10 14:19",6,43.9737548,-69.4210172,TRUE,FALSE,FALSE,"S248960289"
"310","comeid","Common Eider","Somateria mollissima","L41133711","Marine Science Center","2025-06-10 14:18",1,43.649472,-70.229089,TRUE,FALSE,TRUE,"S248938775"
"311","comeid","Common Eider","Somateria mollissima","L1600754","Hog Island--Cross Trail","2025-06-10 14:15",4,43.9711617,-69.4240288,TRUE,FALSE,FALSE,"S248990781"
"312","comeid","Common Eider","Somateria mollissima","L27151291","Atlantic Road--South Spur","2025-06-10 13:53",15,42.593246,-70.644846,TRUE,FALSE,FALSE,"S248931964"
"313","comeid","Common Eider","Somateria mollissima","L457419","Niles Pond and Brace Cove","2025-06-10 13:13",2,42.59031,-70.6522179,TRUE,FALSE,FALSE,"S248915914"
"314","comeid","Common Eider","Somateria mollissima","L3409816","East End Beach, Portland","2025-06-10 12:54",24,43.6700535,-70.2411626,TRUE,FALSE,FALSE,"S248910266"
"315","comeid","Common Eider","Somateria mollissima","L695922","Straits of Alliquippa, Phippsburg","2025-06-10 12:35",27,43.7414895,-69.8442239,TRUE,FALSE,FALSE,"S248953642"
"316","comeid","Common Eider","Somateria mollissima","L7615669","Utqiaġvik--Airport Bluffs","2025-06-10 11:20",10,71.285293,-156.8092219,TRUE,FALSE,FALSE,"S249409993"
"317","comeid","Common Eider","Somateria mollissima","L829067","Town Neck Rd., Sandwich","2025-06-10 10:58",9,41.7722559,-70.4924226,TRUE,FALSE,FALSE,"S248864543"
"318","comeid","Common Eider","Somateria mollissima","L193141","Sandwich Marina","2025-06-10 10:53",8,41.7736623,-70.4996526,TRUE,FALSE,FALSE,"S248989845"
"319","comeid","Common Eider","Somateria mollissima","L474417","Kettle Cove","2025-06-10 10:45",52,43.5622948,-70.2186012,TRUE,FALSE,FALSE,"S248927817"
"320","comeid","Common Eider","Somateria mollissima","L247489","Seawall Point, Southwest Harbor","2025-06-10 10:10",2,44.2468206,-68.2909674,TRUE,FALSE,FALSE,"S248946291"
"321","comeid","Common Eider","Somateria mollissima","L476611","Acadia NP--Schoodic Peninsula","2025-06-10 10:01",4,44.3403019,-68.0582428,TRUE,FALSE,FALSE,"S248848130"
"322","comeid","Common Eider","Somateria mollissima","L47287334","Town Way","2025-06-10 09:57",31,41.540684,-71.204162,TRUE,FALSE,TRUE,"S248839806"
"323","comeid","Common Eider","Somateria mollissima","L829816","Dowses Beach, Osterville","2025-06-10 09:52",2,41.6221797,-70.3663588,TRUE,FALSE,FALSE,"S249717241"
"324","comeid","Common Eider","Somateria mollissima","L1349493","Higgins Beach ","2025-06-10 09:32",11,43.5596922,-70.2797696,TRUE,FALSE,FALSE,"S248842190"
"325","comeid","Common Eider","Somateria mollissima","L47361294","Auto selected 43.16248, -70.51693","2025-06-10 08:56",30,43.162477,-70.516928,TRUE,FALSE,TRUE,"S249191526"
"326","comeid","Common Eider","Somateria mollissima","L590369","Pemaquid Beach","2025-06-10 08:55",5,43.8713848,-69.5199823,TRUE,FALSE,FALSE,"S248824409"
"327","comeid","Common Eider","Somateria mollissima","L47297290","Puffin Cruise","2025-06-10 08:37",10,44.4012,-68.210825,TRUE,FALSE,TRUE,"S248888128"
"328","comeid","Common Eider","Somateria mollissima","L480187","Fort Popham & Kennebec River","2025-06-10 08:37",4,43.7544811,-69.7839546,TRUE,FALSE,FALSE,"S248820968"
"329","comeid","Common Eider","Somateria mollissima","L265656","South Cape Beach SP","2025-06-10 08:34",1,41.5536361,-70.4993146,TRUE,FALSE,FALSE,"S248859904"
"330","comeid","Common Eider","Somateria mollissima","L22949248","Thames River, Groton US-CT 41.32129, -72.08124","2025-06-10 08:03",13,41.321289,-72.081238,TRUE,FALSE,TRUE,"S248807434"
"331","comeid","Common Eider","Somateria mollissima","L294949","Nome-Council Rd. (please use a more specific location)","2025-06-10 07:54",33,64.4998619,-164.6239604,TRUE,FALSE,FALSE,"S249013334"
"332","comeid","Common Eider","Somateria mollissima","L46848149","Utqiaġvik--Tahak-Stevenson St. Seawatch","2025-06-10 07:41",1,71.299897,-156.770387,TRUE,FALSE,TRUE,"S249344611"
"333","comeid","Common Eider","Somateria mollissima","L19384496","707 Shirley Street, Winthrop, Massachusetts, US (42.367, -70.973)","2025-06-10 07:32",2,42.3667332,-70.9727901,TRUE,FALSE,TRUE,"S248797619"
"334","comeid","Common Eider","Somateria mollissima","L7486041","Utqiaġvik--Nunavaaq Rd. Gravel Pit","2025-06-10 00:04",20,71.280187,-156.818218,TRUE,FALSE,FALSE,"S249400935"
"335","comeid","Common Eider","Somateria mollissima","L45881621","Drakes Island beach, Wells, Maine","2025-06-10",4,43.3217596,-70.5545659,TRUE,FALSE,TRUE,"S249020658"
"336","comeid","Common Eider","Somateria mollissima","L1579238","Utqiaġvik--Cakeeater Rd.","2025-06-09 23:29",35,71.2879072,-156.6631195,TRUE,FALSE,FALSE,"S249401216"
"337","comeid","Common Eider","Somateria mollissima","L1214940","Utqiaġvik (town; please use a more specific location)","2025-06-09 21:37",300,71.2906914,-156.7885494,TRUE,FALSE,FALSE,"S248769039"
"338","comeid","Common Eider","Somateria mollissima","L1041469","Pond Island NWR","2025-06-09 20:06",40,43.73898,-69.7709084,TRUE,FALSE,FALSE,"S248707413"
"339","comeid","Common Eider","Somateria mollissima","L20373178","USFWS Eider Project Study Area","2025-06-09 20:00",1,71.2371505,-156.6825217,TRUE,FALSE,TRUE,"S248952250"
"340","comeid","Common Eider","Somateria mollissima","L47255010","04074, Scarborough US-ME (43.5715,-70.3294)","2025-06-09 18:51",4,43.571515,-70.329368,TRUE,FALSE,TRUE,"S248686460"
"341","comeid","Common Eider","Somateria mollissima","L9187652","11 Woodside Park, Winthrop, Massachusetts, US (42.369, -70.986)","2025-06-09 18:00",5,42.3689455,-70.9861553,TRUE,FALSE,TRUE,"S248679779"
"342","comeid","Common Eider","Somateria mollissima","L9505290","Magnolia Point","2025-06-09 17:44",50,42.5727941,-70.7147917,TRUE,FALSE,FALSE,"S248882456"
"343","comeid","Common Eider","Somateria mollissima","L2647616","Boothbay Harbor Footbridge","2025-06-09 17:27",2,43.8512024,-69.6254522,TRUE,FALSE,FALSE,"S248679902"
"344","comeid","Common Eider","Somateria mollissima","L129057","Plum Island--North End","2025-06-09 17:22",5,42.8165016,-70.8199005,TRUE,FALSE,FALSE,"S248682568"
"345","comeid","Common Eider","Somateria mollissima","L21161705","Utqiaġvik--Whale Bone Arch","2025-06-09 17:10",75,71.298579,-156.773667,TRUE,FALSE,FALSE,"S248744728"
"346","comeid","Common Eider","Somateria mollissima","L1436170","Acadia NP--Thunder Hole","2025-06-09 17:00",1,44.320651,-68.1887506,TRUE,FALSE,FALSE,"S248684072"
"347","comeid","Common Eider","Somateria mollissima","L2685321","Camden Harbor","2025-06-09 16:45",8,44.2099418,-69.0623331,TRUE,FALSE,FALSE,"S248734006"
"348","comeid","Common Eider","Somateria mollissima","L4113619","Nobska Lighthouse","2025-06-09 16:38",11,41.5155507,-70.6550932,TRUE,FALSE,FALSE,"S248658813"
"349","comeid","Common Eider","Somateria mollissima","L2901555","Utqiaġvik--New Landfill Rd.","2025-06-09 14:55",37,71.2502605,-156.5665054,TRUE,FALSE,FALSE,"S249057316"
"350","comeid","Common Eider","Somateria mollissima","L278317","Rye Harbor","2025-06-09 13:51",2,43.0008809,-70.747962,TRUE,FALSE,FALSE,"S248608685"
"351","comeid","Common Eider","Somateria mollissima","L47257222","causway between Perry and Easport towns","2025-06-09 13:07",13,44.9360046,-67.0486954,TRUE,FALSE,TRUE,"S248699758"
"352","comeid","Common Eider","Somateria mollissima","L47258082","causway between Perry and Easport towns","2025-06-09 13:07",13,44.9507501,-67.0388406,TRUE,FALSE,TRUE,"S248699380"
"353","comeid","Common Eider","Somateria mollissima","L1071539","Fort Sewall","2025-06-09 12:59",34,42.5090111,-70.8410454,TRUE,FALSE,FALSE,"S248598584"
"354","comeid","Common Eider","Somateria mollissima","L47261900","Ship Harbor Trail, Southwest Harbor US-ME 44.23114, -68.32312","2025-06-09 12:57",2,44.231138,-68.323122,TRUE,FALSE,TRUE,"S248720401"
"355","comeid","Common Eider","Somateria mollissima","L29114159","Gooseberry island","2025-06-09 12:27",10,41.4865723,-71.0361023,TRUE,FALSE,TRUE,"S248615507"
"356","comeid","Common Eider","Somateria mollissima","L2984314","Utqiaġvik--Middle Salt Lagoon","2025-06-09 12:06",1,71.3158115,-156.6885567,TRUE,FALSE,FALSE,"S248688383"
"357","comeid","Common Eider","Somateria mollissima","L477509","Stover's Point Preserve (HHLT), Harpswell","2025-06-09 11:44",11,43.7578559,-69.9988639,TRUE,FALSE,FALSE,"S248601341"
"358","comeid","Common Eider","Somateria mollissima","L47227553","Sconset beach nantucket","2025-06-09 11:43",1,41.261162,-69.962586,TRUE,FALSE,TRUE,"S248560933"
"359","comeid","Common Eider","Somateria mollissima","L4718980","Scoter Hole","2025-06-09 11:23",4,43.9681098,-69.3903565,TRUE,FALSE,FALSE,"S248634136"
"360","comeid","Common Eider","Somateria mollissima","L1303132","Rockland Harbor--Breakwater","2025-06-09 11:22",6,44.1130005,-69.0810657,TRUE,FALSE,FALSE,"S248569779"
"361","comeid","Common Eider","Somateria mollissima","L46655247","Dogfish Bar Beach","2025-06-09 11:22",6,41.357047,-70.812682,TRUE,FALSE,TRUE,"S248567424"
"362","comeid","Common Eider","Somateria mollissima","L3724032","Acadia NP--Dorr Point and Compass Harbor","2025-06-09 11:11",1,44.375481,-68.1922996,TRUE,FALSE,FALSE,"S248573207"
"363","comeid","Common Eider","Somateria mollissima","L7540291","Petit Manan NWR--Jordan’s Delight Island (restricted access Apr-Aug)","2025-06-09 11:04",9,44.443705,-67.823278,TRUE,FALSE,FALSE,"S248556041"
"364","comeid","Common Eider","Somateria mollissima","L47283969","Tin City LRRS (restricted access)","2025-06-09 11:00",18,65.5647108,-167.9674589,TRUE,FALSE,TRUE,"S248840325"
"365","comeid","Common Eider","Somateria mollissima","L47261041","Marginal Way Walk, Ogunquit US-ME (43.2446,-70.5915)","2025-06-09 11:00",29,43.244636,-70.591485,TRUE,FALSE,TRUE,"S248716427"
"366","comeid","Common Eider","Somateria mollissima","L2222756","Utqiaġvik--South Salt Lagoons","2025-06-09 10:46",1,71.3121267,-156.7134476,TRUE,FALSE,FALSE,"S248765274"
"367","comeid","Common Eider","Somateria mollissima","L446782","Nantasket Beach, Hull","2025-06-09 10:40",5,42.286453,-70.8710861,TRUE,FALSE,FALSE,"S248581589"
"368","comeid","Common Eider","Somateria mollissima","L20781578","Bremen Long Island","2025-06-09 10:25",14,43.9916391,-69.3934605,TRUE,FALSE,FALSE,"S248568633"
"369","comeid","Common Eider","Somateria mollissima","L47239637","Gulf of Maine, Boothbay US-ME","2025-06-09 10:03",10,43.817204,-69.618513,TRUE,FALSE,TRUE,"S248616699"
"370","comeid","Common Eider","Somateria mollissima","L1883825","Thomas Knight Park, South Portland","2025-06-09 10:02",5,43.6420358,-70.2557087,TRUE,FALSE,FALSE,"S248531956"
"371","comeid","Common Eider","Somateria mollissima","L47523176","Auto selected 60.99645, -165.06162 / EMGO CAMP ADFG","2025-06-09 10:00",2,60.996452,-165.061623,TRUE,FALSE,TRUE,"S249939829"
"372","comeid","Common Eider","Somateria mollissima","L731311","East Beach, Charlestown","2025-06-09 09:41",2,41.3485928,-71.6697192,TRUE,FALSE,FALSE,"S248642939"
"373","comeid","Common Eider","Somateria mollissima","L283811","Bar Harbor Whale/Pelagic Trip","2025-06-09 09:29",48,44.3356363,-68.1390953,TRUE,FALSE,FALSE,"S248572666"
"374","comeid","Common Eider","Somateria mollissima","L47217535","Gulf of Maine, Hull US-MA 42.31457, -70.85960","2025-06-09 09:25",NA,42.314568,-70.859598,TRUE,FALSE,TRUE,"S248517845"
"375","comeid","Common Eider","Somateria mollissima","L47396949","Stevenson St, Utqiagvik US-AK 71.31825, -156.71072","2025-06-09 09:14",1,71.318246,-156.71072,TRUE,FALSE,TRUE,"S249346488"
"376","comeid","Common Eider","Somateria mollissima","L374648","Halibut Point SP","2025-06-09 08:52",3,42.6910153,-70.6317011,TRUE,FALSE,FALSE,"S248520949"
"377","comeid","Common Eider","Somateria mollissima","L3723586","Muscongus Sound","2025-06-09 08:31",19,43.9649469,-69.4355679,TRUE,FALSE,FALSE,"S248541990"
"378","comeid","Common Eider","Somateria mollissima","L47266795","Flambeau River mouth","2025-06-09 08:30",1,64.476265,-164.903169,TRUE,FALSE,TRUE,"S248743008"
"379","comeid","Common Eider","Somateria mollissima","L5650267","Southern Maine Community College Campus Center","2025-06-09 08:14",11,43.6484899,-70.2286786,TRUE,FALSE,FALSE,"S248531721"
"380","comeid","Common Eider","Somateria mollissima","L38876906","James Pond Preserve","2025-06-09 07:45",1,41.4410436,-70.6703154,TRUE,FALSE,FALSE,"S248705615"
"381","comeid","Common Eider","Somateria mollissima","L272667","Dyer Point","2025-06-09 07:35",7,43.5653323,-70.1971416,TRUE,FALSE,FALSE,"S248479260"
"382","comeid","Common Eider","Somateria mollissima","L47182996","Inner Harbor Retreat","2025-06-09 07:32",2,44.190067,-68.645837,TRUE,FALSE,TRUE,"S248494932"
"383","comeid","Common Eider","Somateria mollissima","L463985","BHI--Deer Island","2025-06-09 07:05",1,42.3516938,-70.9582901,TRUE,FALSE,FALSE,"S248473085"
"384","comeid","Common Eider","Somateria mollissima","L7648269","Acadia NP--Schoodic Institute Campus","2025-06-09 05:48",15,44.3353649,-68.0611429,TRUE,FALSE,FALSE,"S248457524"
"385","comeid","Common Eider","Somateria mollissima","L47237046","Bob Blodgett Hwy, Teller US-AK","2025-06-08 23:33",10,65.255063,-166.344316,TRUE,FALSE,TRUE,"S248606166"
"386","comeid","Common Eider","Somateria mollissima","L2572643","Gap Cove","2025-06-08 19:21",51,42.6578346,-70.597415,TRUE,FALSE,FALSE,"S248339417"
"387","comeid","Common Eider","Somateria mollissima","L47179303","100–158 Shore Rd, East Boothbay US-ME","2025-06-08 19:08",6,43.814583,-69.605051,TRUE,FALSE,TRUE,"S248341789"
"388","comeid","Common Eider","Somateria mollissima","L47177289","100 Ochre Point Avenue, Newport, Rhode Island, US (41.472, -71.298)","2025-06-08 18:41",3,41.4723852,-71.2979463,TRUE,FALSE,TRUE,"S248332249"
"389","comeid","Common Eider","Somateria mollissima","L209518","Safety Sound general area","2025-06-08 18:28",47,64.4792511,-164.7624136,TRUE,FALSE,FALSE,"S248418739"
"390","comeid","Common Eider","Somateria mollissima","L109240","Bluff Point SP","2025-06-08 17:59",8,41.3224276,-72.0298862,TRUE,FALSE,FALSE,"S248360772"
"391","comeid","Common Eider","Somateria mollissima","L3120125","Angelica Point, Nyes Cove, and Pine Island","2025-06-08 17:58",3,41.6450494,-70.7687115,TRUE,FALSE,FALSE,"S248381790"
"392","comeid","Common Eider","Somateria mollissima","L9475512","11 Woodside Park, Winthrop, Massachusetts, US (42.369, -70.986)","2025-06-08 17:29",14,42.368908,-70.9859822,TRUE,FALSE,TRUE,"S248314095"
"393","comeid","Common Eider","Somateria mollissima","L15542603","Rhode Island Sachuest Point NWR","2025-06-08 17:00",NA,41.4830791,-71.2348631,TRUE,FALSE,TRUE,"S248336035"
"394","comeid","Common Eider","Somateria mollissima","L47309081","Two Lights State Park, Cape Elizabeth US-ME 43.56075, -70.20463","2025-06-08 16:26",3,43.560751,-70.204628,TRUE,FALSE,TRUE,"S248942254"
"395","comeid","Common Eider","Somateria mollissima","L166400","Seawall Beach, Phippsburg","2025-06-08 16:24",3,43.729443,-69.81371,TRUE,FALSE,FALSE,"S249548360"
"396","comeid","Common Eider","Somateria mollissima","L7501259","Pine Point Beach, Scarborough","2025-06-08 16:06",7,43.5411136,-70.3330457,TRUE,FALSE,TRUE,"S248627466"
"397","comeid","Common Eider","Somateria mollissima","L13237756","Acadia NP--Beehive Trail","2025-06-08 16:02",4,44.3319015,-68.186077,TRUE,FALSE,FALSE,"S248669667"
"398","comeid","Common Eider","Somateria mollissima","L161004","Barnegat Lighthouse SP","2025-06-08 15:52",5,39.7633333,-74.1058333,TRUE,TRUE,FALSE,"S248313202"
"399","comeid","Common Eider","Somateria mollissima","L47183384","Gulf of Maine, Phippsburg US-ME (43.7473,-69.7717)","2025-06-08 15:45",20,43.747336,-69.771727,TRUE,FALSE,TRUE,"S248361926"
"400","comeid","Common Eider","Somateria mollissima","L47163310","12 Captain Strout Circle, Cape Elizabeth, Maine, US (43.623, -70.209)","2025-06-08 15:40",6,43.62255,-70.2090177,TRUE,FALSE,TRUE,"S248271952"
"401","comeid","Common Eider","Somateria mollissima","L131590","Biddeford Pool--Beach and Trails","2025-06-08 15:35",25,43.4421372,-70.351211,TRUE,FALSE,FALSE,"S248267767"
"402","comeid","Common Eider","Somateria mollissima","L47169847","19 Turnip Island Ln, Georgetown US-ME (43.8321,-69.7094)","2025-06-08 15:28",11,43.832061,-69.709405,TRUE,FALSE,TRUE,"S248298853"
"403","comeid","Common Eider","Somateria mollissima","L47165236","02670, West Dennis US-MA 41.64913, -70.19440","2025-06-08 15:11",6,41.649129,-70.194401,TRUE,FALSE,TRUE,"S248279840"
"404","comeid","Common Eider","Somateria mollissima","L29027915","The Salvages","2025-06-08 14:45",10,42.6723582,-70.5706754,TRUE,FALSE,FALSE,"S248258340"
"405","comeid","Common Eider","Somateria mollissima","L2995339","Isles of Shoals--Smuttynose Island","2025-06-08 14:30",200,42.9823605,-70.6069422,TRUE,FALSE,FALSE,"S248297949"
"406","comeid","Common Eider","Somateria mollissima","L713652","Yirrell Beach, Winthrop","2025-06-08 14:09",48,42.3613345,-70.9692764,TRUE,FALSE,FALSE,"S248275411"
"407","comeid","Common Eider","Somateria mollissima","L1243234","Petit Manan NWR","2025-06-08 13:45",20,44.4394794,-67.8929329,TRUE,FALSE,FALSE,"S248990506"
"408","comeid","Common Eider","Somateria mollissima","L10816975","Seamark","2025-06-08 13:15",1,43.2082041,-70.5882313,TRUE,FALSE,TRUE,"S248207250"
"409","comeid","Common Eider","Somateria mollissima","L2568100","Mariners Point","2025-06-08 12:42",1,37.9014725,-75.4074499,TRUE,TRUE,FALSE,"S248230216"
"410","comeid","Common Eider","Somateria mollissima","L131686","Wolfe's Neck Woods SP","2025-06-08 12:41",20,43.8212814,-70.0819397,TRUE,FALSE,FALSE,"S248258665"
"411","comeid","Common Eider","Somateria mollissima","L280295","Stage Fort Park","2025-06-08 12:40",14,42.605221,-70.6780529,TRUE,FALSE,FALSE,"S248242348"
"412","comeid","Common Eider","Somateria mollissima","L685834","Alaska Maritime NWR--Buldir Island","2025-06-08 12:37",15,52.3504409,175.9172058,TRUE,FALSE,FALSE,"S248410993"
"413","comeid","Common Eider","Somateria mollissima","L47137502","225 Two Lights Rd, Cape Elizabeth US-ME 43.56456, -70.19857","2025-06-08 11:57",9,43.564557,-70.198572,TRUE,FALSE,TRUE,"S248170904"
"414","comeid","Common Eider","Somateria mollissima","L140043","Sachuest Point NWR","2025-06-08 11:36",3,41.4799232,-71.2431946,TRUE,FALSE,FALSE,"S249995219"
"415","comeid","Common Eider","Somateria mollissima","L916679","Isles of Shoals--Lunging Island, Rye","2025-06-08 11:30",50,42.9758613,-70.6256533,TRUE,FALSE,FALSE,"S250024382"
"416","comeid","Common Eider","Somateria mollissima","L333970","BHI--Spectacle Island","2025-06-08 11:25",1,42.3240953,-70.9859705,TRUE,FALSE,FALSE,"S248197502"
"417","comeid","Common Eider","Somateria mollissima","L5894925","Between Rye Harbor and Isles of Shoals","2025-06-08 11:04",11,42.9862534,-70.6832027,TRUE,FALSE,TRUE,"S248319597"
"418","comeid","Common Eider","Somateria mollissima","L2396620","South Beach SP","2025-06-08 11:00",2,41.3490267,-70.521841,TRUE,FALSE,FALSE,"S248827898"
"419","comeid","Common Eider","Somateria mollissima","L6241780","US- MA, Nantucket: Sconset Bluff: Beach and Bluffwalk","2025-06-08 10:28",8,41.275148,-69.96166,TRUE,FALSE,TRUE,"S248218956"
"420","comeid","Common Eider","Somateria mollissima","L267994","Bailey Island","2025-06-08 10:25",13,43.72713,-69.99636,TRUE,FALSE,FALSE,"S248198543"
"421","comeid","Common Eider","Somateria mollissima","L1044370","Weekapaug Park","2025-06-08 10:23",8,41.326424,-71.7542303,TRUE,FALSE,FALSE,"S248155131"
"422","comeid","Common Eider","Somateria mollissima","L1579234","Robinson Woods Preserve, Cape Elizabeth","2025-06-08 10:22",1,43.6106674,-70.2164627,TRUE,FALSE,FALSE,"S248202143"
"423","comeid","Common Eider","Somateria mollissima","L47129895","Gulf of Maine, Boothbay, Pink Lady II to Eastern Egg Rock","2025-06-08 10:21",3,43.807365,-69.588926,TRUE,FALSE,TRUE,"S248138866"
"424","comeid","Common Eider","Somateria mollissima","L47286511","Tin City Beach S of Runway","2025-06-08 10:06",35,65.5558148,-167.9287961,TRUE,FALSE,TRUE,"S248835934"
"425","comeid","Common Eider","Somateria mollissima","L15366028","Moshup Beach, Aquinnah","2025-06-08 09:50",7,41.3408926,-70.8324432,TRUE,FALSE,FALSE,"S248649257"
"426","comeid","Common Eider","Somateria mollissima","L47133087","Pigeon Hill Bay, Steuben US-ME 44.46678, -67.87997","2025-06-08 09:48",26,44.46678,-67.879975,TRUE,FALSE,TRUE,"S248152605"
"427","comeid","Common Eider","Somateria mollissima","L737084","Stellwagen Bank--SE Waters","2025-06-08 09:45",40,42.0839551,-70.0490427,TRUE,FALSE,FALSE,"S248507229"
"428","comeid","Common Eider","Somateria mollissima","L6244559","Odiorne Point State Park","2025-06-08 09:44",20,43.0428211,-70.7140589,TRUE,FALSE,TRUE,"S248098211"
"429","comeid","Common Eider","Somateria mollissima","L24936921","44 Water Cove Rd, Phippsburg US-ME 43.75215, -69.86364","2025-06-08 09:27",3,43.752146,-69.863641,TRUE,FALSE,TRUE,"S248132454"
"430","comeid","Common Eider","Somateria mollissima","L47111259","Ravens Nest Schodic Loop","2025-06-08 09:12",13,44.35283,-68.074622,TRUE,FALSE,TRUE,"S248093912"
"431","comeid","Common Eider","Somateria mollissima","L47145178","Auto selected 41.75402, -70.15308","2025-06-08 08:44",2,41.754022,-70.15308,TRUE,FALSE,TRUE,"S248201147"
"432","comeid","Common Eider","Somateria mollissima","L32867723","Nantucket Sound: Stage Harbor to Monomoy (tern camp)","2025-06-08 08:43",1,41.658159,-69.981453,TRUE,FALSE,TRUE,"S248732778"
"433","comeid","Common Eider","Somateria mollissima","L47284921","Tin City (65.557, -167.911)","2025-06-08 08:42",6,65.5569838,-167.9114771,TRUE,FALSE,TRUE,"S248835039"
"434","comeid","Common Eider","Somateria mollissima","L466296","Watch Hill Lighthouse","2025-06-08 08:19",2,41.3045,-71.8583,TRUE,FALSE,FALSE,"S248081370"
"435","comeid","Common Eider","Somateria mollissima","L502926","Norwalk Islands","2025-06-08 07:45",1,41.0710691,-73.3914185,TRUE,FALSE,FALSE,"S248366347"
"436","comeid","Common Eider","Somateria mollissima","L3918097","Cape Cod National Seashore--Hatches Harbor Fire Road","2025-06-08 07:30",4,42.061532,-70.222664,TRUE,FALSE,FALSE,"S248181227"
"437","comeid","Common Eider","Somateria mollissima","L34611628","Ocean Blvd, Hampton Yard List","2025-06-08 07:20",7,42.924967,-70.799463,TRUE,FALSE,TRUE,"S248344616"
"438","comeid","Common Eider","Somateria mollissima","L46958171","Wolf’s Neck Farm Campsite","2025-06-08 07:19",1,43.825864,-70.07226,TRUE,FALSE,TRUE,"S248044231"
"439","comeid","Common Eider","Somateria mollissima","L3253010","Acadia NP--Schoodic Head","2025-06-08 07:06",4,44.3500922,-68.0540156,TRUE,FALSE,FALSE,"S248137966"
"440","comeid","Common Eider","Somateria mollissima","L453702","Revere Beach--Point of Pines","2025-06-08 06:51",2,42.4408143,-70.9601784,TRUE,FALSE,FALSE,"S248047728"
"441","comeid","Common Eider","Somateria mollissima","L521509","Revere Beach--Pink Apartments","2025-06-08 06:30",1,42.4205103,-70.9857291,TRUE,FALSE,FALSE,"S248005354"
"442","comeid","Common Eider","Somateria mollissima","L47100056","11 Woodside Park, Winthrop US-MA 42.36888, -70.98596","2025-06-08 05:21",8,42.368882,-70.985962,TRUE,FALSE,TRUE,"S247995227"
"443","comeid","Common Eider","Somateria mollissima","L47285978","Tin City--Tin City LRRS to Tram Building","2025-06-08 03:55",14,65.5656352,-167.974558,TRUE,FALSE,TRUE,"S248833301"
"444","comeid","Common Eider","Somateria mollissima","L4856050","Short Beach, Winthrop","2025-06-07 19:55",39,42.391756,-70.980489,TRUE,FALSE,FALSE,"S248241400"
"445","comeid","Common Eider","Somateria mollissima","L280283","Good Harbor Beach","2025-06-07 19:30",25,42.61992,-70.63346,TRUE,FALSE,FALSE,"S247900154"
"446","comeid","Common Eider","Somateria mollissima","L46989842","Stebbins Saint Michael, Stebbins US-AK 63.52406, -162.22643","2025-06-07 19:05",3,63.524058,-162.226433,TRUE,FALSE,TRUE,"S247946054"
"447","comeid","Common Eider","Somateria mollissima","L474685","Little Boars Head, North Hampton","2025-06-07 16:57",NA,42.9584012,-70.7752562,TRUE,FALSE,FALSE,"S249051020"
"448","comeid","Common Eider","Somateria mollissima","L47183496","Nome-Council Rd, Nome US-AK (64.4735,-164.7401)","2025-06-07 16:43",14,64.473534,-164.740087,TRUE,FALSE,TRUE,"S248362504"
"449","comeid","Common Eider","Somateria mollissima","L47065042","337-345 Commercial St, Provincetown US-MA 42.05189, -70.18412","2025-06-07 16:30",3,42.051886,-70.184123,TRUE,FALSE,TRUE,"S247838542"
"450","comeid","Common Eider","Somateria mollissima","L687201","Scarborough Marsh--Jones Creek","2025-06-07 16:29",17,43.5446599,-70.3408241,TRUE,FALSE,FALSE,"S247880675"
"451","comeid","Common Eider","Somateria mollissima","L472167","Ferry Beach, Scarborough","2025-06-07 16:26",10,43.5427701,-70.3229553,TRUE,FALSE,FALSE,"S249441353"
"452","comeid","Common Eider","Somateria mollissima","L40978609","1368 Harpswell Island Road, Harpswell, Maine, US (43.777, -69.958)","2025-06-07 16:17",8,43.7771636,-69.9576075,TRUE,FALSE,TRUE,"S247824209"
"453","comeid","Common Eider","Somateria mollissima","L27403720","US-NH-Rye, Gulf of Maine (43.0181,-70.6754)","2025-06-07 16:00",15,43.01809,-70.675411,TRUE,FALSE,TRUE,"S248008413"
"454","comeid","Common Eider","Somateria mollissima","L3842647","Western Beach, Scarborough","2025-06-07 15:54",16,43.5379957,-70.3205252,TRUE,FALSE,FALSE,"S247848208"
"455","comeid","Common Eider","Somateria mollissima","L47057620","North Hampton State Beach, North Hampton US-NH (42.9560,-70.7809)","2025-06-07 15:30",40,42.955987,-70.780851,TRUE,FALSE,TRUE,"S247810029"
"456","comeid","Common Eider","Somateria mollissima","L47056911","10 Riversands Dr, Scarborough US-ME 43.54430, -70.33291","2025-06-07 15:19",9,43.544304,-70.332907,TRUE,FALSE,TRUE,"S247807338"
"457","comeid","Common Eider","Somateria mollissima","L40042993","Webb park","2025-06-07 14:46",2,42.258001,-70.926307,TRUE,FALSE,TRUE,"S247792938"
"458","comeid","Common Eider","Somateria mollissima","L241820","Prouts Neck, Scarborough","2025-06-07 14:16",15,43.530069,-70.3211902,TRUE,FALSE,FALSE,"S249441278"
"459","comeid","Common Eider","Somateria mollissima","L839024","Horseneck Beach","2025-06-07 13:46",14,41.5061348,-71.0554504,TRUE,FALSE,FALSE,"S247800142"
"460","comeid","Common Eider","Somateria mollissima","L47060001","Saint Criox Island International Historic Site","2025-06-07 13:35",5,45.123741,-67.145831,TRUE,FALSE,TRUE,"S247819231"
"461","comeid","Common Eider","Somateria mollissima","L842144","Two Lights SP","2025-06-07 13:27",16,43.5589517,-70.2049971,TRUE,FALSE,FALSE,"S247802536"
"462","comeid","Common Eider","Somateria mollissima","L2058525","Falmouth Harbor","2025-06-07 13:13",1,41.5461351,-70.6036806,TRUE,FALSE,FALSE,"S247755073"
"463","comeid","Common Eider","Somateria mollissima","L595793","Teller (town)","2025-06-07 13:10",16,65.2592929,-166.3549805,TRUE,FALSE,FALSE,"S247933816"
"464","comeid","Common Eider","Somateria mollissima","L3329598","Westport River","2025-06-07 12:56",16,41.518989,-71.0673165,TRUE,FALSE,TRUE,"S247762973"
"465","comeid","Common Eider","Somateria mollissima","L4646807","Nome-Council Rd.--Nome River Bridge","2025-06-07 12:42",25,64.4856626,-165.2910662,TRUE,FALSE,FALSE,"S247921247"
"466","comeid","Common Eider","Somateria mollissima","L694889","Kodiak Is.--Womens Bay-Head","2025-06-07 12:30",82,57.7059242,-152.5714839,TRUE,TRUE,FALSE,"S247951681"
"467","comeid","Common Eider","Somateria mollissima","L132239","CBBT--North Chesapeake Island (#4)","2025-06-07 12:30",1,37.0465759,-76.0621288,TRUE,TRUE,FALSE,"S247934747"
"468","comeid","Common Eider","Somateria mollissima","L871404","Brant Rock Beach, Marshfield","2025-06-07 11:39",1,42.0900075,-70.64199,TRUE,FALSE,FALSE,"S247719088"
"469","comeid","Common Eider","Somateria mollissima","L28984732","Odiorne Point State Park, Rye US-NH 43.04275, -70.71486","2025-06-07 10:53",12,43.042754,-70.714856,TRUE,FALSE,TRUE,"S247755805"
"470","comeid","Common Eider","Somateria mollissima","L913593","Nantucket--UMass Field Station","2025-06-07 10:29",2,41.2950911,-70.0405884,TRUE,FALSE,FALSE,"S247687523"
"471","comeid","Common Eider","Somateria mollissima","L1252215","Fort Baldwin, Phippsburg","2025-06-07 10:22",7,43.753524,-69.7887987,TRUE,FALSE,FALSE,"S247686159"
"472","comeid","Common Eider","Somateria mollissima","L684954","Great Island, Wellfleet","2025-06-07 10:12",6,41.9183734,-70.0663376,TRUE,FALSE,FALSE,"S247808822"
"473","comeid","Common Eider","Somateria mollissima","L19185461","222 Ocean Ave, Newport US-RI 41.45706, -71.32831","2025-06-07 09:50",15,41.457058,-71.328313,TRUE,FALSE,TRUE,"S247702310"
"474","comeid","Common Eider","Somateria mollissima","L12013447","UMass Field Station Tours, Nantucket US-MA 41.29437, -70.04014","2025-06-07 09:32",2,41.294366,-70.040141,TRUE,FALSE,TRUE,"S247670595"
"475","comeid","Common Eider","Somateria mollissima","L3677751","Acadia NP--Alder Trail","2025-06-07 09:27",1,44.3443026,-68.0561185,TRUE,FALSE,FALSE,"S247699414"
"476","comeid","Common Eider","Somateria mollissima","L47016830","York, ME","2025-06-07 09:21",4,43.171519,-70.59778,TRUE,FALSE,TRUE,"S247690500"
"477","comeid","Common Eider","Somateria mollissima","L47084287","Nome-Council Rd, Nome US-AK 64.44455, -164.85459","2025-06-07 09:16",7,64.444554,-164.854588,TRUE,FALSE,TRUE,"S247927472"
"478","comeid","Common Eider","Somateria mollissima","L47285264","Tin City--Ocean Creek","2025-06-07 09:12",8,65.5477456,-167.8815778,TRUE,FALSE,TRUE,"S248829761"
"479","comeid","Common Eider","Somateria mollissima","L11875048","Popponesset Spit","2025-06-07 09:05",2,41.5792878,-70.4551897,TRUE,FALSE,FALSE,"S247669050"
"480","comeid","Common Eider","Somateria mollissima","L46997190","Nome-Council Rd, Nome US-AK 64.44172, -164.90045","2025-06-07 08:51",48,64.441717,-164.900448,TRUE,FALSE,TRUE,"S247927340"
"481","comeid","Common Eider","Somateria mollissima","L1783103","Marblehead Neck Causeway","2025-06-07 08:41",16,42.491832,-70.8508061,TRUE,FALSE,FALSE,"S247661325"
"482","comeid","Common Eider","Somateria mollissima","L47285152","Tin City Beach (65.553, -167.913)","2025-06-07 08:13",49,65.553027,-167.9132822,TRUE,FALSE,TRUE,"S248829270"
"483","comeid","Common Eider","Somateria mollissima","L32525123","Bush Neighborhood","2025-06-07 07:11",6,43.346422,-70.459812,TRUE,FALSE,TRUE,"S247592521"
"484","comeid","Common Eider","Somateria mollissima","L1873645","Wolfe's Neck Farm, Freeport","2025-06-07 07:00",10,43.8309692,-70.0719965,TRUE,FALSE,FALSE,"S247610921"
"485","comeid","Common Eider","Somateria mollissima","L270936","Monomoy NWR--Morris Island","2025-06-07 06:46",1,41.6568485,-69.9582152,TRUE,FALSE,FALSE,"S247636084"
"486","comeid","Common Eider","Somateria mollissima","L790945","Point Barrow","2025-06-06 23:17",55,71.3870157,-156.4774776,TRUE,FALSE,FALSE,"S247542236"
"487","comeid","Common Eider","Somateria mollissima","L10948468","Pequot Ave. seawall","2025-06-06 18:25",12,41.3144086,-72.0938678,TRUE,FALSE,FALSE,"S247480785"
"488","comeid","Common Eider","Somateria mollissima","L47284220","Tin City Rd. (65.563, -167.951)","2025-06-06 17:52",1,65.5628835,-167.9513806,TRUE,FALSE,TRUE,"S248824543"
"489","comeid","Common Eider","Somateria mollissima","L11967603","11 Woodside Park, Winthrop, Mass., US (42.369, -70.986)","2025-06-06 17:51",16,42.3688425,-70.9861536,TRUE,FALSE,TRUE,"S247447250"
"490","comeid","Common Eider","Somateria mollissima","L278184","Rye Harbor SP (Ragged Neck)","2025-06-06 17:32",6,43.00162,-70.74497,TRUE,FALSE,FALSE,"S247905952"
"491","comeid","Common Eider","Somateria mollissima","L18743269","Trunk River Beach","2025-06-06 16:35",1,41.534408,-70.641323,TRUE,FALSE,TRUE,"S247423844"
"492","comeid","Common Eider","Somateria mollissima","L46985082","Nome-Council Rd, Nome US-AK 64.44361, -164.86638","2025-06-06 16:18",2,64.44361,-164.866383,TRUE,FALSE,TRUE,"S247499016"
"493","comeid","Common Eider","Somateria mollissima","L46981720","East end of Wallis road, beach","2025-06-06 15:55",6,43.0216122,-70.7319798,TRUE,FALSE,TRUE,"S247487931"
"494","comeid","Common Eider","Somateria mollissima","L8916726","Wyman Woods Conservation Area","2025-06-06 15:49",4,42.4963048,-70.8802672,TRUE,FALSE,FALSE,"S247412808"
"495","comeid","Common Eider","Somateria mollissima","L46968720","Eallerton","2025-06-06 15:30",2,42.3039015,-70.8865221,TRUE,FALSE,TRUE,"S247422884"
"496","comeid","Common Eider","Somateria mollissima","L1040731","Great Island Common, New Castle","2025-06-06 15:15",18,43.0648434,-70.712471,TRUE,FALSE,FALSE,"S247402890"
"497","comeid","Common Eider","Somateria mollissima","L46982811","Egg Rock Lighthouse","2025-06-06 15:15",12,44.3519392,-68.1402326,TRUE,FALSE,TRUE,"S247491227"
"498","comeid","Common Eider","Somateria mollissima","L46962278","Cliff Walk, Newport US-RI 41.47662, -71.29727","2025-06-06 15:14",1,41.476621,-71.297273,TRUE,FALSE,TRUE,"S247393305"
"499","comeid","Common Eider","Somateria mollissima","L1001590","Block Island NWR","2025-06-06 15:05",3,41.2272898,-71.5752733,TRUE,FALSE,FALSE,"S249590148"
"500","comeid","Common Eider","Somateria mollissima","L163579","Gambell--Point (seawatch only)","2025-06-06 15:05",3,63.7869979,-171.7400408,TRUE,FALSE,FALSE,"S247468477"
"501","comeid","Common Eider","Somateria mollissima","L484338","Perkins Cove, Ogunquit","2025-06-06 15:04",60,43.2373401,-70.5906987,TRUE,FALSE,FALSE,"S247462337"
"502","comeid","Common Eider","Somateria mollissima","L38662429","Portsmouth Harbor near research pier","2025-06-06 14:44",21,43.071596,-70.713451,TRUE,FALSE,TRUE,"S247482939"
"503","comeid","Common Eider","Somateria mollissima","L796417","Phillips Cove","2025-06-06 13:39",40,43.204644,-70.590055,TRUE,FALSE,FALSE,"S247439559"
"504","comeid","Common Eider","Somateria mollissima","L878708","Sandy Point Beach Park and Trails","2025-06-06 13:27",10,44.5060159,-68.8074884,TRUE,FALSE,FALSE,"S247399689"
"505","comeid","Common Eider","Somateria mollissima","L2330793","Pinkham Bay","2025-06-06 12:21",6,44.49039,-67.910386,TRUE,FALSE,FALSE,"S247344583"
"506","comeid","Common Eider","Somateria mollissima","L484173","Bar Harbor--Town Landing","2025-06-06 12:09",3,44.392112,-68.2040799,TRUE,FALSE,FALSE,"S247348463"
"507","comeid","Common Eider","Somateria mollissima","L21711118","RT-88 Bridge parking area","2025-06-06 12:05",25,41.520021,-71.069262,TRUE,FALSE,TRUE,"S247577061"
"508","comeid","Common Eider","Somateria mollissima","L46947024","Gulf of Maine, South Bristol US-ME 43.81618, -69.53071","2025-06-06 12:02",9,43.816178,-69.53071,TRUE,FALSE,TRUE,"S247330528"
"509","comeid","Common Eider","Somateria mollissima","L805096","Allens Pond WS--Quansett Trail (Mass Audubon)","2025-06-06 11:15",8,41.51298,-71.0225773,TRUE,FALSE,FALSE,"S247321345"
"510","comeid","Common Eider","Somateria mollissima","L12486564","Ryder Beach, South Truro","2025-06-06 11:02",5,41.9630113,-70.0768656,TRUE,FALSE,FALSE,"S247307046"
"511","comeid","Common Eider","Somateria mollissima","L26452322","Salem Willows Park","2025-06-06 10:36",15,42.535297,-70.870451,TRUE,FALSE,FALSE,"S247342506"
"512","comeid","Common Eider","Somateria mollissima","L46939778","Gulf of Maine, Boothbay US-ME 43.80701, -69.60042","2025-06-06 10:23",16,43.807009,-69.600419,TRUE,FALSE,TRUE,"S247300182"
"513","comeid","Common Eider","Somateria mollissima","L3562597","Fishers Island","2025-06-06 10:10",15,41.2707322,-71.9902611,TRUE,FALSE,FALSE,"S247398125"
"514","comeid","Common Eider","Somateria mollissima","L36324401","71 Long Beach Avenue, York, Maine, US (43.168, -70.613)","2025-06-06 09:10",28,43.1680692,-70.6132131,TRUE,FALSE,TRUE,"S247267062"
"515","comeid","Common Eider","Somateria mollissima","L12320250","Waquoit Bay National Estuarine Research Reserve--Visitor Center","2025-06-06 09:09",4,41.5813141,-70.5249425,TRUE,FALSE,FALSE,"S247423907"
"516","comeid","Common Eider","Somateria mollissima","L8145524","Coskata - Great Point Area","2025-06-06 08:57",38,41.355516,-70.0128999,TRUE,FALSE,TRUE,"S247326960"
"517","comeid","Common Eider","Somateria mollissima","L2372899","Island Beach SP--Southern Natural Area (A23 to inlet)","2025-06-06 08:28",3,39.7776269,-74.0953363,TRUE,TRUE,FALSE,"S247351450"
"518","comeid","Common Eider","Somateria mollissima","L14401158","Sipson Island, Orleans","2025-06-06 08:22",19,41.736992,-69.963275,TRUE,FALSE,FALSE,"S247339629"
"519","comeid","Common Eider","Somateria mollissima","L5928803","Nome-Council Rd.--Nome River to Cape Nome","2025-06-06 08:17",20,64.4477456,-165.0624213,TRUE,FALSE,FALSE,"S247496959"
"520","comeid","Common Eider","Somateria mollissima","L46929593","347-399 Washington Street, Bath, Maine, US (43.897, -69.814)","2025-06-06 07:56",1,43.8969989,-69.8142106,TRUE,FALSE,TRUE,"S247250001"
"521","comeid","Common Eider","Somateria mollissima","L279360","Nome River Mouth","2025-06-06 07:43",9,64.4831392,-165.3024186,TRUE,FALSE,FALSE,"S247519932"
"522","comeid","Common Eider","Somateria mollissima","L444898","Hampton Harbor (overall)","2025-06-06 07:20",4,42.8964669,-70.8253055,TRUE,FALSE,FALSE,"S247232418"
"523","comeid","Common Eider","Somateria mollissima","L109209","Lighthouse Point Park","2025-06-06 07:16",2,41.24858,-72.90293,TRUE,FALSE,FALSE,"S247511377"
"524","comeid","Common Eider","Somateria mollissima","L22133728","Green Hill Beach","2025-06-06 06:40",2,41.3647805,-71.6000266,TRUE,FALSE,FALSE,"S247225643"
"525","comeid","Common Eider","Somateria mollissima","L4445656","Woods Hole--Vineyard Haven Ferry","2025-06-06 06:06",1,41.5004396,-70.6451797,TRUE,FALSE,FALSE,"S247212829"
"526","comeid","Common Eider","Somateria mollissima","L17092135","Roaring Spout Seawatch","2025-06-06 05:55",12,43.94434,-69.201686,TRUE,FALSE,TRUE,"S247247404"
"527","comeid","Common Eider","Somateria mollissima","L177775","Cable Crossing Road, Southwest Harbor","2025-06-06 04:43",6,44.2564713,-68.2944961,TRUE,FALSE,FALSE,"S247474134"
"528","comeid","Common Eider","Somateria mollissima","L46907214","226 Farnham Point Rd, East Boothbay US-ME 43.85852, -69.57481","2025-06-05 19:48",2,43.858525,-69.574808,TRUE,FALSE,TRUE,"S247136404"
"529","comeid","Common Eider","Somateria mollissima","L33523241","Hampton Beach -- North Edge","2025-06-05 18:51",11,42.9173209,-70.8037238,TRUE,FALSE,TRUE,"S247109655"
"530","comeid","Common Eider","Somateria mollissima","L156791","Woolley Lagoon (restricted access)","2025-06-05 16:47",2,64.8555975,-166.4027262,TRUE,FALSE,FALSE,"S249064494"
"531","comeid","Common Eider","Somateria mollissima","L46892091","York River, York US-ME 43.12870, -70.64455","2025-06-05 15:57",6,43.128703,-70.644553,TRUE,FALSE,TRUE,"S247060454"
"532","comeid","Common Eider","Somateria mollissima","L47523066","Auto selected 60.97271, -164.92758","2025-06-05 15:25",6,60.972713,-164.927584,TRUE,FALSE,TRUE,"S249938471"
"533","comeid","Common Eider","Somateria mollissima","L1349691","Winter Island","2025-06-05 15:25",11,42.5267677,-70.8681893,TRUE,FALSE,FALSE,"S247052464"
"534","comeid","Common Eider","Somateria mollissima","L996025","Seal Cove Picnic Area","2025-06-05 15:19",8,44.2829852,-68.4081007,TRUE,FALSE,FALSE,"S247050031"
"535","comeid","Common Eider","Somateria mollissima","L46889199","Cape Neddick","2025-06-05 15:09",3,43.173325,-70.604684,TRUE,FALSE,TRUE,"S247085029"
"536","comeid","Common Eider","Somateria mollissima","L27196107","Wells Beach","2025-06-05 14:35",8,43.315835,-70.560386,TRUE,FALSE,TRUE,"S247132857"
"537","comeid","Common Eider","Somateria mollissima","L46883136","West Chop","2025-06-05 13:47",6,41.482162,-70.597982,TRUE,FALSE,TRUE,"S247021417"
"538","comeid","Common Eider","Somateria mollissima","L166160","Second Beach, Middletown","2025-06-05 13:42",5,41.487244,-71.257866,TRUE,FALSE,FALSE,"S247042385"
"539","comeid","Common Eider","Somateria mollissima","L46926369","Sm island with harbor seals US-ME 44.40521, -67.87072","2025-06-05 12:55",6,44.405212,-67.870719,TRUE,FALSE,TRUE,"S247230643"
"540","comeid","Common Eider","Somateria mollissima","L47113843","750 Seashore Avenue, Portland, Maine, US (43.665, -70.182)","2025-06-05 12:28",38,43.6653922,-70.1816906,TRUE,FALSE,TRUE,"S248061101"
"541","comeid","Common Eider","Somateria mollissima","L46917064","Seawall breach 64.48479, -164.68444","2025-06-05 12:09",4,64.484792,-164.684441,TRUE,FALSE,TRUE,"S247187679"
"542","comeid","Common Eider","Somateria mollissima","L1662739","Cutler Harbor","2025-06-05 11:47",1,44.6568072,-67.2067421,TRUE,FALSE,FALSE,"S247017427"
"543","comeid","Common Eider","Somateria mollissima","L7540451","Pigeon Hill Bay","2025-06-05 11:46",6,44.436082,-67.880703,TRUE,FALSE,FALSE,"S247232222"
"544","comeid","Common Eider","Somateria mollissima","L3559907","Fishers Island--South Beach","2025-06-05 11:26",7,41.2528227,-72.0223331,TRUE,FALSE,FALSE,"S246988050"
"545","comeid","Common Eider","Somateria mollissima","L46913470","Nome-Council Rd, Nome US-AK 64.44322, -164.87037","2025-06-05 11:13",3,64.443224,-164.870369,TRUE,FALSE,TRUE,"S247170411"
"546","comeid","Common Eider","Somateria mollissima","L28822963","Dune Rd (general)","2025-06-05 10:55",16,40.833441,-72.510949,TRUE,FALSE,TRUE,"S247084656"
"547","comeid","Common Eider","Somateria mollissima","L474885","Rachel Carson NWR--Granite Point Rd.","2025-06-05 10:15",3,43.416263,-70.3878808,TRUE,FALSE,FALSE,"S246953308"
"548","comeid","Common Eider","Somateria mollissima","L46981092","Council Road-Mile 29","2025-06-05 09:54",4,64.521224,-164.538834,TRUE,FALSE,TRUE,"S247481088"
"549","comeid","Common Eider","Somateria mollissima","L46866641","15 Lighthouse View, Ogunquit, Maine, US (43.243, -70.589)","2025-06-05 09:23",8,43.2426342,-70.5890463,TRUE,FALSE,TRUE,"S246943994"
"550","comeid","Common Eider","Somateria mollissima","L25839639","Boston Harbor--Outer Harbor","2025-06-05 09:08",NA,42.3296055,-70.9040027,TRUE,FALSE,FALSE,"S247043415"
"551","comeid","Common Eider","Somateria mollissima","L463992","BHI--Peddocks Island","2025-06-05 07:28",22,42.2996589,-70.9315109,TRUE,FALSE,FALSE,"S247043645"
"552","comeid","Common Eider","Somateria mollissima","L1458076","Fortunes Rocks--Beach and Ponds","2025-06-05 07:15",10,43.4287166,-70.3761886,TRUE,FALSE,FALSE,"S246937571"
"553","comeid","Common Eider","Somateria mollissima","L12658453","Cranberry Island, Friendship US-ME 43.93981, -69.35590","2025-06-05 07:14",4,43.939815,-69.3559,TRUE,FALSE,TRUE,"S247094040"
"554","comeid","Common Eider","Somateria mollissima","L11606007","2–298 Timber Point Rd, Biddeford US-ME 43.40716, -70.39566","2025-06-05 06:47",17,43.407164,-70.395662,TRUE,FALSE,TRUE,"S246904152"
"555","comeid","Common Eider","Somateria mollissima","L478509","Savin Hill Cove","2025-06-05 06:42",1,42.3117528,-71.042573,TRUE,FALSE,FALSE,"S246997845"
"556","comeid","Common Eider","Somateria mollissima","L567911","West Beach, Westport","2025-06-05 06:19",20,41.5098628,-71.0836887,TRUE,FALSE,FALSE,"S247576704"
"557","comeid","Common Eider","Somateria mollissima","L6237342","Cooksey Drive Overlook","2025-06-05 05:52",19,44.2942441,-68.2243252,TRUE,FALSE,FALSE,"S247125922"
