"","speciesCode","comName","sciName","locId","locName","obsDt","howMany","lat","lng","obsValid","obsReviewed","locationPrivate","subId"
"1","tufpuf","Tufted Puffin","Fratercula cirrhata","L820722","Homer Spit--Lands End","2025-05-10 16:37",2,59.6003137,-151.408596,TRUE,FALSE,FALSE,"S235995463"
"2","tufpuf","Tufted Puffin","Fratercula cirrhata","L9847543","Kachemak Bay--Gull Island","2025-05-10 15:45",20,59.5850521,-151.3284206,TRUE,FALSE,FALSE,"S236054060"
"3","tufpuf","Tufted Puffin","Fratercula cirrhata","L800185","Cape Flattery","2025-05-10 14:51",8,48.385884,-124.7266299,TRUE,FALSE,FALSE,"S235957177"
"4","tufpuf","Tufted Puffin","Fratercula cirrhata","L11977399","Lower Cook Inlet","2025-05-10 13:00",1,59.6087667,-152.4843501,TRUE,FALSE,FALSE,"S236067867"
"5","tufpuf","Tufted Puffin","Fratercula cirrhata","L44631497","Hoonah, Alaska, US (58.135, -135.451)","2025-05-10 10:54",4,58.1345381,-135.4506728,TRUE,FALSE,TRUE,"S235852917"
"6","tufpuf","Tufted Puffin","Fratercula cirrhata","L548476","Haystack Rock","2025-05-10 09:56",9,45.8847357,-123.9683104,TRUE,FALSE,FALSE,"S235659064"
"7","tufpuf","Tufted Puffin","Fratercula cirrhata","L6055998","Chinitna Bay--Gull Island","2025-05-10 09:14",9,59.8407084,-152.9916221,TRUE,FALSE,FALSE,"S236067474"
"8","tufpuf","Tufted Puffin","Fratercula cirrhata","L2155797","Homer Spit--Boat Harbor entrance","2025-05-10 08:58",2,59.6038316,-151.415205,TRUE,FALSE,FALSE,"S235826237"
"9","tufpuf","Tufted Puffin","Fratercula cirrhata","L159580","Kronenberg County Park--Coquille Point","2025-05-10 08:38",3,43.1147,-124.4353,TRUE,FALSE,FALSE,"S235630799"
"10","tufpuf","Tufted Puffin","Fratercula cirrhata","L44578457","Haystack Rock","2025-05-10 08:31",4,45.886225,-123.966456,TRUE,FALSE,TRUE,"S235635915"
"11","tufpuf","Tufted Puffin","Fratercula cirrhata","L638805","Cannon Beach","2025-05-10 08:24",3,45.888186,-123.9646626,TRUE,FALSE,FALSE,"S235726400"
"12","tufpuf","Tufted Puffin","Fratercula cirrhata","L10058820","Bandon beach Tish-a-Tang to Redmon Pond","2025-05-10 07:37",3,43.1089949,-124.4337825,TRUE,FALSE,TRUE,"S235728118"
"13","tufpuf","Tufted Puffin","Fratercula cirrhata","L329116","Southeast Farallon Island (Farallon Islands NWR, restricted access)","2025-05-10 07:00",22,37.69852,-123.002789,TRUE,FALSE,FALSE,"S236050332"
"14","tufpuf","Tufted Puffin","Fratercula cirrhata","L44576543","207 East 5th Street, Cannon Beach, Oregon, US (45.902, -123.958)","2025-05-10 06:25",7,45.9022185,-123.9576994,TRUE,FALSE,TRUE,"S235595990"
"15","tufpuf","Tufted Puffin","Fratercula cirrhata","L44502059","Unalaska Island, Unalaska Bay","2025-05-09 11:54",3,53.86955,-166.585705,TRUE,FALSE,TRUE,"S235212706"
"16","tufpuf","Tufted Puffin","Fratercula cirrhata","L444583","Kachemak Bay (NE of Homer Spit)","2025-05-09 08:15",5,59.6698211,-151.2432861,TRUE,FALSE,FALSE,"S235275120"
"17","tufpuf","Tufted Puffin","Fratercula cirrhata","L44477208","Approaching Kodiak Island Alaska, US (57.726, -152.202)","2025-05-09 07:56",NA,57.7264523,-152.2024192,TRUE,FALSE,TRUE,"S235085814"
"18","tufpuf","Tufted Puffin","Fratercula cirrhata","L44432903","No. Pacific Ocean (55.88269, -155.16372) 29 km ENE of Chirikof Island","2025-05-08 19:57",2,55.88269,-155.16372,TRUE,FALSE,TRUE,"S234833932"
"19","tufpuf","Tufted Puffin","Fratercula cirrhata","L7706326","Smith Island","2025-05-08 15:52",7,48.318233,-122.8410187,TRUE,TRUE,FALSE,"S234837012"
"20","tufpuf","Tufted Puffin","Fratercula cirrhata","L15209150","Major Marine Tours","2025-05-08 12:30",76,59.8159296,-149.5308975,TRUE,FALSE,TRUE,"S235246752"
"21","tufpuf","Tufted Puffin","Fratercula cirrhata","L3738869","Kachemak Bay SP--Grewingk Creek/Lake","2025-05-08 11:11",6,59.6269709,-151.1631846,TRUE,FALSE,FALSE,"S234820033"
"22","tufpuf","Tufted Puffin","Fratercula cirrhata","L156941","Yaquina Head Outstanding Natural Area--Lighthouse","2025-05-08 10:33",1,44.6768624,-124.0788388,TRUE,FALSE,FALSE,"S234698392"
"23","tufpuf","Tufted Puffin","Fratercula cirrhata","L44401811","Haystack Rock viewpoint","2025-05-08 10:02",3,45.88496,-123.964175,TRUE,FALSE,TRUE,"S234662120"
"24","tufpuf","Tufted Puffin","Fratercula cirrhata","L44416948","4350 Homer Spit Rd, Homer US-AK 59.60301, -151.42187","2025-05-08 09:50",3,59.603009,-151.421871,TRUE,FALSE,TRUE,"S234741146"
"25","tufpuf","Tufted Puffin","Fratercula cirrhata","L44405580","Green Buoy ""1""","2025-05-08 09:38",20,60.5326662,-147.2893684,TRUE,FALSE,TRUE,"S234680901"
"26","tufpuf","Tufted Puffin","Fratercula cirrhata","L302743","Protection Island","2025-05-08 09:35",1,48.1275273,-122.9284031,TRUE,FALSE,FALSE,"S234834175"
"27","tufpuf","Tufted Puffin","Fratercula cirrhata","L1364956","Kachemak Bay--Halibut Cove","2025-05-08 09:10",4,59.5936678,-151.2371063,TRUE,FALSE,FALSE,"S235058699"
"28","tufpuf","Tufted Puffin","Fratercula cirrhata","L3706985","Glacier Bay NP--Lamplugh Glacier","2025-05-08 08:48",3,58.8979677,-136.928401,TRUE,FALSE,FALSE,"S234784260"
"29","tufpuf","Tufted Puffin","Fratercula cirrhata","L44499085","boat trip colony","2025-05-08 08:45",20,59.9143912,-149.3022141,TRUE,FALSE,TRUE,"S235197877"
"30","tufpuf","Tufted Puffin","Fratercula cirrhata","L19104315","Chief Kiawanda Rock","2025-05-08 08:08",3,45.2120032,-123.9875279,TRUE,FALSE,FALSE,"S234618964"
"31","tufpuf","Tufted Puffin","Fratercula cirrhata","L788239","Alaska Maritime NWR--East Amatuli Island","2025-05-07 19:58",50,58.9171441,-151.9905281,TRUE,FALSE,FALSE,"S234573300"
"32","tufpuf","Tufted Puffin","Fratercula cirrhata","L9564097","Resurrection Bay--Rugged Island","2025-05-07 13:25",3,59.8667823,-149.4055922,TRUE,FALSE,FALSE,"S234349631"
"33","tufpuf","Tufted Puffin","Fratercula cirrhata","L2135865","Kachemak Bay--Cohen Is./ 60' Rk / Lancashire Rks","2025-05-07 10:49",34,59.5460658,-151.4738274,TRUE,FALSE,FALSE,"S234314583"
"34","tufpuf","Tufted Puffin","Fratercula cirrhata","L16062624","Middleton Island (restricted)--Shipwreck","2025-05-07 10:15",150,59.4270462,-146.3573399,TRUE,FALSE,FALSE,"S234438350"
"35","tufpuf","Tufted Puffin","Fratercula cirrhata","L44334378","At Sea Towards Anchorage","2025-05-07 08:58",4,58.0497812,-144.3980566,TRUE,FALSE,TRUE,"S234272600"
"36","tufpuf","Tufted Puffin","Fratercula cirrhata","L44344444","4350 Homer Spit Rd, Homer US-AK 59.60281, -151.42189","2025-05-07 08:25",1,59.60281,-151.421885,TRUE,FALSE,TRUE,"S234327739"
"37","tufpuf","Tufted Puffin","Fratercula cirrhata","L15802580","Chinitna Bay","2025-05-07 08:10",14,59.8501755,-153.0824073,TRUE,FALSE,FALSE,"S234450648"
"38","tufpuf","Tufted Puffin","Fratercula cirrhata","L865443","Glacier Bay NP--Icy Strait (mouth of Glacier Bay)","2025-05-07 07:45",2,58.349866,-136.005249,TRUE,FALSE,FALSE,"S234247840"
"39","tufpuf","Tufted Puffin","Fratercula cirrhata","L559390","Middleton Island (restricted access)","2025-05-06 20:15",200,59.4278983,-146.33008,TRUE,FALSE,FALSE,"S234211801"
"40","tufpuf","Tufted Puffin","Fratercula cirrhata","L44325568","WINGS 05.2025 4.15","2025-05-06 17:55",7,47.779788,-125.314288,TRUE,FALSE,TRUE,"S234225327"
"41","tufpuf","Tufted Puffin","Fratercula cirrhata","L44321829","North Pacific Ocean (46.6291,-125.7338)","2025-05-06 17:30",1,46.629116,-125.733829,TRUE,FALSE,TRUE,"S234204016"
"42","tufpuf","Tufted Puffin","Fratercula cirrhata","L44292456","Auto selected 47.62450, -125.31197","2025-05-06 17:30",3,47.624503,-125.311969,TRUE,FALSE,TRUE,"S234033413"
"43","tufpuf","Tufted Puffin","Fratercula cirrhata","L44412756","Zaandam Cruise 5/25 3/#11 47.61795, -125.31107","2025-05-06 17:29",3,47.617955,-125.311066,TRUE,FALSE,TRUE,"S234717459"
"44","tufpuf","Tufted Puffin","Fratercula cirrhata","L44292190","North Pacific Ocean (47.4976,-124.6940)","2025-05-06 17:20",2,47.497646,-124.693965,TRUE,FALSE,TRUE,"S234031837"
"45","tufpuf","Tufted Puffin","Fratercula cirrhata","L44295367","Auto selected 47.45565, -125.30397","2025-05-06 17:00",4,47.455647,-125.303971,TRUE,FALSE,TRUE,"S234048979"
"46","tufpuf","Tufted Puffin","Fratercula cirrhata","L44290926","250506 #10, North Pacific 47.43470, -125.30262","2025-05-06 16:56",3,47.434702,-125.302621,TRUE,FALSE,TRUE,"S234024262"
"47","tufpuf","Tufted Puffin","Fratercula cirrhata","L44336293","Auto selected 47.33170, -125.30013","2025-05-06 16:38",6,47.331702,-125.30013,TRUE,FALSE,TRUE,"S234282358"
"48","tufpuf","Tufted Puffin","Fratercula cirrhata","L44333417","North Pacific Ocean (47.6412,-125.3195)","2025-05-06 16:30",2,47.641196,-125.319482,TRUE,FALSE,TRUE,"S234267525"
"49","tufpuf","Tufted Puffin","Fratercula cirrhata","L44412734","Zaandam Cruise 5/25 3/#10 47.12167, -125.30112","2025-05-06 16:00",3,47.12167,-125.301117,TRUE,FALSE,TRUE,"S234717369"
"50","tufpuf","Tufted Puffin","Fratercula cirrhata","L44288325","250506 #9, North Pacific 47.08313, -125.30118","2025-05-06 15:54",2,47.083133,-125.301183,TRUE,FALSE,TRUE,"S234006755"
"51","tufpuf","Tufted Puffin","Fratercula cirrhata","L44336338","Auto selected 47.00812, -125.30070","2025-05-06 15:40",2,47.008123,-125.3007,TRUE,FALSE,TRUE,"S234282529"
"52","tufpuf","Tufted Puffin","Fratercula cirrhata","L44295344","Auto selected 46.78220, -125.29967","2025-05-06 15:00",2,46.782204,-125.299669,TRUE,FALSE,TRUE,"S234048867"
"53","tufpuf","Tufted Puffin","Fratercula cirrhata","L44285369","WINGS 05.2025 4.13","2025-05-06 15:00",4,46.7826292,-125.2997268,TRUE,FALSE,TRUE,"S233987458"
"54","tufpuf","Tufted Puffin","Fratercula cirrhata","L44412707","Zaandam Cruise 5/25 3/#9 (46.7806,-125.2995)","2025-05-06 15:00",2,46.780586,-125.299473,TRUE,FALSE,TRUE,"S234717258"
"55","tufpuf","Tufted Puffin","Fratercula cirrhata","L44277788","WINGS 05.2025 4.10","2025-05-06 12:40",3,46.0465276,-125.2844341,TRUE,FALSE,TRUE,"S233941295"
"56","tufpuf","Tufted Puffin","Fratercula cirrhata","L4971000","Kodiak Is.--Marine--Kodiak harbor to Cape Chiniak area","2025-05-06 11:02",15,57.6863857,-152.276207,TRUE,FALSE,FALSE,"S233936255"
"57","tufpuf","Tufted Puffin","Fratercula cirrhata","L7764922","Ecola SP--Indian Beach","2025-05-06 10:37",4,45.928339,-123.978472,TRUE,FALSE,FALSE,"S233901452"
"58","tufpuf","Tufted Puffin","Fratercula cirrhata","L44251578","North Pacific Ocean, Sitka US-AK (56.5370,-135.2159)","2025-05-06 05:23",4,56.536987,-135.215922,TRUE,FALSE,TRUE,"S233797971"
"59","tufpuf","Tufted Puffin","Fratercula cirrhata","L44281829","2025-Noordam reposition cruise from Asia, leaving Kodiak headin.","2025-05-05 19:45",35,57.4345,-152.0652,TRUE,FALSE,TRUE,"S233967185"
"60","tufpuf","Tufted Puffin","Fratercula cirrhata","L44230781","Oceania Riviera Deck 7 Starboard US (54.844, -157.765)","2025-05-05 17:50",2,54.8436367,-157.7649147,TRUE,FALSE,TRUE,"S233676586"
"61","tufpuf","Tufted Puffin","Fratercula cirrhata","L44229725","Oceania Riviera Deck 7 Starboard US (54.72, -158.198)","2025-05-05 16:49",3,54.7195277,-158.1980729,TRUE,FALSE,TRUE,"S233671465"
"62","tufpuf","Tufted Puffin","Fratercula cirrhata","L15478755","Kodiak Is.--Near Is.-Dog Bay Harbor area","2025-05-05 09:00",16,57.7768279,-152.4170815,TRUE,FALSE,FALSE,"S233627065"
"63","tufpuf","Tufted Puffin","Fratercula cirrhata","L44224289","Noordam 2025 cruise","2025-05-05 08:00",4,57.4253,-152.0831,TRUE,FALSE,TRUE,"S233639696"
"64","tufpuf","Tufted Puffin","Fratercula cirrhata","L44224783","Noordam 2025 cruise","2025-05-05 07:00",4,57.291,-152.0237,TRUE,FALSE,TRUE,"S233642793"
"65","tufpuf","Tufted Puffin","Fratercula cirrhata","L1018792","Boiler Bay State Wayside","2025-05-05 06:15",1,44.8288173,-124.0658998,TRUE,FALSE,FALSE,"S233476965"
"66","tufpuf","Tufted Puffin","Fratercula cirrhata","L44225467","2025- Noordam Cruise back to NA","2025-05-04 18:30",1,55.1513,-156.1352,TRUE,FALSE,TRUE,"S233648016"
"67","tufpuf","Tufted Puffin","Fratercula cirrhata","L44226580","2025- Noordam cruise - heading to Kodiak","2025-05-04 17:30",3,55.0733,-156.3842,TRUE,FALSE,TRUE,"S233653853"
"68","tufpuf","Tufted Puffin","Fratercula cirrhata","L44220499","Auto selected 58.69598, -136.12292","2025-05-04 17:01",10,58.695982,-136.122923,TRUE,FALSE,TRUE,"S233613699"
"69","tufpuf","Tufted Puffin","Fratercula cirrhata","L44230165","2025-Noordam Cruise- heading to Kodiak","2025-05-04 16:30",3,54.5905,-157.0949,TRUE,FALSE,TRUE,"S233674283"
"70","tufpuf","Tufted Puffin","Fratercula cirrhata","L44426704","2025- Noordam reposition cruise","2025-05-04 16:00",1,54.2157,-167.5054,TRUE,FALSE,TRUE,"S234800902"
"71","tufpuf","Tufted Puffin","Fratercula cirrhata","L44227646","2025-Noordam Cruise- heading to Kodiak","2025-05-04 15:30",4,54.5058,-157.3508,TRUE,FALSE,TRUE,"S233660646"
"72","tufpuf","Tufted Puffin","Fratercula cirrhata","L44283380","2025- Noordam reposition cruise from Japan","2025-05-04 11:00",4,54.241,-159.0021,TRUE,FALSE,TRUE,"S233975750"
"73","tufpuf","Tufted Puffin","Fratercula cirrhata","L44420959","2025-Noordam repositioning cruise","2025-05-04 10:00",2,54.1922,-159.2535,TRUE,FALSE,TRUE,"S234765236"
"74","tufpuf","Tufted Puffin","Fratercula cirrhata","L44420002","2025-Noordam reposition cruise","2025-05-04 09:00",9,54.1641,-159.5157,TRUE,FALSE,TRUE,"S234760181"
"75","tufpuf","Tufted Puffin","Fratercula cirrhata","L44152841","Noordam 2025 cruise to North America","2025-05-04 08:00",3,54.1459,-160.1458,TRUE,FALSE,TRUE,"S233256394"
"76","tufpuf","Tufted Puffin","Fratercula cirrhata","L44428113","2025- Noordam repositioning cruise","2025-05-03 10:30",1,54.1532,-169.4431,TRUE,FALSE,TRUE,"S234808795"
"77","tufpuf","Tufted Puffin","Fratercula cirrhata","L44492149","2025- Noordam repositioning cruise","2025-05-02 18:30",1,53.3124,-178.5752,TRUE,FALSE,TRUE,"S235162467"
"78","tufpuf","Tufted Puffin","Fratercula cirrhata","L44493719","2025- Noordam reposition cruise","2025-05-02 17:30",1,53.2656,-179.3343,TRUE,FALSE,TRUE,"S235169938"
"79","tufpuf","Tufted Puffin","Fratercula cirrhata","L44495317","2025- Noordam reposition cruise","2025-05-02 14:30",1,53.136,-178.4932,TRUE,FALSE,TRUE,"S235177932"
"80","tufpuf","Tufted Puffin","Fratercula cirrhata","L44050513","Leg 11 5/2/25 Sean boat -- 40.667, -124.928","2025-05-02 14:07",2,40.6671709,-124.9279353,TRUE,TRUE,TRUE,"S232716327"
"81","tufpuf","Tufted Puffin","Fratercula cirrhata","L43942631","Auto selected 42.39180, -125.13504","2025-05-02 12:24",2,42.391796,-125.135042,TRUE,FALSE,TRUE,"S232169718"
"82","tufpuf","Tufted Puffin","Fratercula cirrhata","L44138732","CAS Nieuw Amsterdam 2025 3.7","2025-05-02 12:21",2,42.365772,-125.132861,TRUE,FALSE,TRUE,"S233192090"
"83","tufpuf","Tufted Puffin","Fratercula cirrhata","L44498882","2025 - Noordam reposition cruise","2025-05-02 10:30",5,52.5758,-177.0905,TRUE,FALSE,TRUE,"S235197682"
"84","tufpuf","Tufted Puffin","Fratercula cirrhata","L44052430","Auto selected 42.38479, -125.13422","2025-05-02 10:08",2,42.384787,-125.134221,TRUE,FALSE,TRUE,"S232727041"
"85","tufpuf","Tufted Puffin","Fratercula cirrhata","L44500603","2025-Noordam cruise","2025-05-02 08:30",3,52.4419,-176.0147,TRUE,FALSE,TRUE,"S235206785"
"86","tufpuf","Tufted Puffin","Fratercula cirrhata","L44501397","2025 - Noordam reposition cruise","2025-05-02 07:30",1,52.326,-175.3224,TRUE,FALSE,TRUE,"S235210248"
