"","speciesCode","comName","sciName","locId","locName","obsDt","howMany","lat","lng","obsValid","obsReviewed","locationPrivate","subId"
"1","lobdow","Long-billed Dowitcher","Limnodromus scolopaceus","L1138866","Salt Plains NWR--Sandpiper Trail","2025-05-17 18:22",2,36.7992854,-98.249917,TRUE,FALSE,FALSE,"S239451498"
"2","lobdow","Long-billed Dowitcher","Limnodromus scolopaceus","L282520","Lagerman Agricultural Preserve--Lagerman Reservoir","2025-05-17 17:31",6,40.1348086,-105.1888925,TRUE,FALSE,FALSE,"S239445261"
"3","lobdow","Long-billed Dowitcher","Limnodromus scolopaceus","L1893162","Hillsdale WA--Antioch Marsh (south)","2025-05-17 17:21",8,38.7096879,-94.9662173,TRUE,FALSE,FALSE,"S239441973"
"4","lobdow","Long-billed Dowitcher","Limnodromus scolopaceus","L504335","4000 West & Lake Shore (Utah Co.)","2025-05-17 16:55",12,40.1437905,-111.7493248,TRUE,FALSE,FALSE,"S239437847"
"5","lobdow","Long-billed Dowitcher","Limnodromus scolopaceus","L25158650","Turnbull NWR--Smith Rd","2025-05-17 15:57",1,47.4186776,-117.5563674,TRUE,FALSE,FALSE,"S239434279"
"6","lobdow","Long-billed Dowitcher","Limnodromus scolopaceus","L283255","Utah Lake SP","2025-05-17 15:45",2,40.2367208,-111.7394114,TRUE,FALSE,FALSE,"S239430119"
"7","lobdow","Long-billed Dowitcher","Limnodromus scolopaceus","L922196","Ulrich-Schotte Nature Trail","2025-05-17 15:40",1,45.99435,-112.5348114,TRUE,FALSE,FALSE,"S239452271"
"8","lobdow","Long-billed Dowitcher","Limnodromus scolopaceus","L7438611","Harmodon Park Slough","2025-05-17 15:37",2,43.5015,-96.653144,TRUE,FALSE,FALSE,"S239450174"
"9","lobdow","Long-billed Dowitcher","Limnodromus scolopaceus","L597864","Old Vincent Mini-refuge","2025-05-17 15:00",3,30.0647114,-92.2931385,TRUE,FALSE,FALSE,"S239423899"
"10","lobdow","Long-billed Dowitcher","Limnodromus scolopaceus","L678659","Skipper Bay Trail","2025-05-17 14:26",1,40.2486775,-111.7311287,TRUE,FALSE,FALSE,"S239392629"
"11","lobdow","Long-billed Dowitcher","Limnodromus scolopaceus","L906328","Fairbanks Int. Airpt--Float Plane Ponds (possibly restricted)","2025-05-17 14:19",1,64.8246316,-147.8380394,TRUE,FALSE,FALSE,"S239427494"
"12","lobdow","Long-billed Dowitcher","Limnodromus scolopaceus","L691081","Ottawa NWR--Walking Trail Pools","2025-05-17 14:17",1,41.6148718,-83.2053364,TRUE,FALSE,FALSE,"S239452593"
"13","lobdow","Long-billed Dowitcher","Limnodromus scolopaceus","L966521","Lawen Marshes","2025-05-17 14:16",250,43.40224,-118.84859,TRUE,FALSE,FALSE,"S239408003"
"14","lobdow","Long-billed Dowitcher","Limnodromus scolopaceus","L272215","Wyoming Hereford Ranch Reservoir #1","2025-05-17 13:55",1,41.1167222,-104.7379491,TRUE,FALSE,FALSE,"S239388554"
"15","lobdow","Long-billed Dowitcher","Limnodromus scolopaceus","L267805","Ensley Bottoms--Maxson Wastewater Lagoons/Earth Complex  (The Pits)","2025-05-17 13:20",2,35.05958,-90.1410198,TRUE,FALSE,FALSE,"S239415362"
"16","lobdow","Long-billed Dowitcher","Limnodromus scolopaceus","L1333782","Malheur NWR--Wright's Pond","2025-05-17 13:13",14,43.2299022,-118.8752213,TRUE,FALSE,FALSE,"S239393286"
"17","lobdow","Long-billed Dowitcher","Limnodromus scolopaceus","L266875","Willcox--Lake Cochise and Twin Lakes Golf Course","2025-05-17 12:53",24,32.2298515,-109.8243175,TRUE,FALSE,FALSE,"S239422034"
"18","lobdow","Long-billed Dowitcher","Limnodromus scolopaceus","L166564","Long Bridge/Head of the bay, Ashland","2025-05-17 12:40",3,46.58829,-90.945175,TRUE,FALSE,FALSE,"S239386600"
"19","lobdow","Long-billed Dowitcher","Limnodromus scolopaceus","L45288183","64801–64817 Lawen Rd, Burns US-OR (43.3962,-118.8037)","2025-05-17 12:37",70,43.396181,-118.803672,TRUE,FALSE,TRUE,"S239372970"
"20","lobdow","Long-billed Dowitcher","Limnodromus scolopaceus","L128537","Creamer's Field MWR","2025-05-17 12:35",5,64.86305,-147.7381727,TRUE,FALSE,FALSE,"S239408936"
"21","lobdow","Long-billed Dowitcher","Limnodromus scolopaceus","L158584","Bowdoin NWR","2025-05-17 12:24",3,48.4018332,-107.6784611,TRUE,FALSE,FALSE,"S239448562"
"22","lobdow","Long-billed Dowitcher","Limnodromus scolopaceus","L247792","Delta Junction--Clearwater Lake","2025-05-17 12:16",8,64.0864192,-145.5800915,TRUE,FALSE,FALSE,"S239382057"
"23","lobdow","Long-billed Dowitcher","Limnodromus scolopaceus","L445373","Celery Bog Nature Area","2025-05-17 12:06",1,40.4520417,-86.9324112,TRUE,FALSE,FALSE,"S239270045"
"24","lobdow","Long-billed Dowitcher","Limnodromus scolopaceus","L131039","Fairbanks International Airport--ponds","2025-05-17 12:04",7,64.8213599,-147.8650492,TRUE,FALSE,FALSE,"S239404058"
"25","lobdow","Long-billed Dowitcher","Limnodromus scolopaceus","L518546","Malheur NWR--Narrows","2025-05-17 12:03",30,43.2873151,-118.9591885,TRUE,FALSE,FALSE,"S239355198"
"26","lobdow","Long-billed Dowitcher","Limnodromus scolopaceus","L9052595","TAPS road b/w Love Rd/Steele Creek","2025-05-17 11:58",7,64.8833013,-147.4984955,TRUE,FALSE,TRUE,"S239401097"
"27","lobdow","Long-billed Dowitcher","Limnodromus scolopaceus","L41823131","Resevoir Road, Lucas, Kansas, US (38.954, -98.664)","2025-05-17 11:53",24,38.9535842,-98.6636821,TRUE,FALSE,TRUE,"S239303843"
"28","lobdow","Long-billed Dowitcher","Limnodromus scolopaceus","L1545636","Anchorage Coastal WR--Clitheroe flats","2025-05-17 11:44",1,61.178193,-150.0367842,TRUE,FALSE,FALSE,"S239385901"
"29","lobdow","Long-billed Dowitcher","Limnodromus scolopaceus","L5739629","Ridott-Cherry Hill Road (West of Ridott)","2025-05-17 11:40",5,42.2952964,-89.4971995,TRUE,TRUE,FALSE,"S239323896"
"30","lobdow","Long-billed Dowitcher","Limnodromus scolopaceus","L282253","Billy Frank Jr. Nisqually NWR","2025-05-17 11:27",2,47.0812514,-122.7180576,TRUE,FALSE,FALSE,"S239390695"
"31","lobdow","Long-billed Dowitcher","Limnodromus scolopaceus","L264861","Hoquiam STP","2025-05-17 11:24",2,46.9732093,-123.9165354,TRUE,FALSE,FALSE,"S239400707"
"32","lobdow","Long-billed Dowitcher","Limnodromus scolopaceus","L9792780","Mendenhall Wetlands SGR (E of Mendenhall River mouth)","2025-05-17 11:23",10,58.3504297,-134.6000631,TRUE,FALSE,FALSE,"S239441322"
"33","lobdow","Long-billed Dowitcher","Limnodromus scolopaceus","L45273254","N-2, Alliance US-NE 42.06768, -102.62070","2025-05-17 11:22",1,42.06768,-102.620705,TRUE,FALSE,TRUE,"S239309251"
"34","lobdow","Long-billed Dowitcher","Limnodromus scolopaceus","L2137091","Bench Road--lower","2025-05-17 11:21",2,45.8537283,-111.555469,TRUE,FALSE,FALSE,"S239383304"
"35","lobdow","Long-billed Dowitcher","Limnodromus scolopaceus","L1540350","Lake Wanahoo--Sediment Trap Wetlands","2025-05-17 11:13",5,41.2647484,-96.618282,TRUE,FALSE,FALSE,"S239329485"
"36","lobdow","Long-billed Dowitcher","Limnodromus scolopaceus","L3156434","Bosque del Apache NWR--Flight Deck","2025-05-17 11:10",6,33.8049577,-106.8843985,TRUE,FALSE,FALSE,"S239377717"
"37","lobdow","Long-billed Dowitcher","Limnodromus scolopaceus","L45264214","Jackson WTP","2025-05-17 11:00",1,42.455638,-96.556637,TRUE,FALSE,TRUE,"S239271200"
"38","lobdow","Long-billed Dowitcher","Limnodromus scolopaceus","L1874705","Bench Rd.","2025-05-17 10:58",1,45.820296,-111.5760183,TRUE,FALSE,FALSE,"S239340514"
"39","lobdow","Long-billed Dowitcher","Limnodromus scolopaceus","L498314","Tualatin River NWR--Atfálat'i Unit","2025-05-17 10:54",40,45.3817834,-122.8312254,TRUE,FALSE,FALSE,"S239390060"
"40","lobdow","Long-billed Dowitcher","Limnodromus scolopaceus","L45265970","Ouray NWR (40.12985, -109.64511)","2025-05-17 10:34",4,40.12985,-109.645109,TRUE,FALSE,TRUE,"S239278779"
"41","lobdow","Long-billed Dowitcher","Limnodromus scolopaceus","L272998","Boyd Lake","2025-05-17 10:32",8,40.4341128,-105.0338644,TRUE,FALSE,FALSE,"S239310845"
"42","lobdow","Long-billed Dowitcher","Limnodromus scolopaceus","L1896322","Jocelyn Nungaray NWR-- Shoveler Pond Loop","2025-05-17 10:29",3,29.6138335,-94.5452351,TRUE,FALSE,FALSE,"S239299311"
"43","lobdow","Long-billed Dowitcher","Limnodromus scolopaceus","L469546","Skagit Wildlife Area--Fir Island Farm Reserve (Hayton Reserve)","2025-05-17 10:16",7,48.3356338,-122.4131659,TRUE,FALSE,FALSE,"S239328067"
"44","lobdow","Long-billed Dowitcher","Limnodromus scolopaceus","L45278581","Chena Flood Plain Pond","2025-05-17 10:00",3,64.7216001,-147.258081,TRUE,FALSE,TRUE,"S239331339"
"45","lobdow","Long-billed Dowitcher","Limnodromus scolopaceus","L493044","Philomath Sewage Ponds (restricted access)","2025-05-17 09:59",5,44.5185755,-123.3444586,TRUE,FALSE,FALSE,"S239302514"
"46","lobdow","Long-billed Dowitcher","Limnodromus scolopaceus","L901766","Billy Frank Jr. Nisqually NWR--Twin Barns Loop","2025-05-17 09:30",3,47.0780133,-122.7119207,TRUE,FALSE,FALSE,"S239405190"
"47","lobdow","Long-billed Dowitcher","Limnodromus scolopaceus","L128874","Jocelyn Nungaray NWR  Anahuac, TX (UTC 049)","2025-05-17 09:24",2,29.6148414,-94.5344353,TRUE,FALSE,FALSE,"S239360491"
"48","lobdow","Long-billed Dowitcher","Limnodromus scolopaceus","L999763","Lake Springfield--Lake Springfield Park","2025-05-17 09:20",11,37.1160556,-93.2514596,TRUE,FALSE,FALSE,"S239340936"
"49","lobdow","Long-billed Dowitcher","Limnodromus scolopaceus","L815005","Baskett Slough NWR--The Narrows and Cottonwood Pond","2025-05-17 09:18",10,44.9592377,-123.2700262,TRUE,FALSE,FALSE,"S239277893"
"50","lobdow","Long-billed Dowitcher","Limnodromus scolopaceus","L1358840","Bosque del Apache NWR--North Loop (formerly Farm Loop)","2025-05-17 09:01",5,33.8151614,-106.8722406,TRUE,FALSE,FALSE,"S239339546"
"51","lobdow","Long-billed Dowitcher","Limnodromus scolopaceus","L453974","Oaks Bottom Wildlife Refuge","2025-05-17 08:50",3,45.4776166,-122.6553154,TRUE,FALSE,FALSE,"S239371402"
"52","lobdow","Long-billed Dowitcher","Limnodromus scolopaceus","L45250286","Horseshoe Bend Mudflats","2025-05-17 08:48",30,38.9546325,-98.6630647,TRUE,FALSE,TRUE,"S239209034"
"53","lobdow","Long-billed Dowitcher","Limnodromus scolopaceus","L2220366","Hayward Regional Shoreline--Hayward Marsh","2025-05-17 08:47",2,37.6298244,-122.138958,TRUE,FALSE,FALSE,"S239386215"
"54","lobdow","Long-billed Dowitcher","Limnodromus scolopaceus","L109176","Camas NWR","2025-05-17 08:43",7,43.9509896,-112.2557731,TRUE,FALSE,FALSE,"S239317716"
"55","lobdow","Long-billed Dowitcher","Limnodromus scolopaceus","L22330914","Ballona Wetlands Reserve--Area B Open Marsh","2025-05-17 08:40",4,33.9675676,-118.4361703,TRUE,FALSE,FALSE,"S239414814"
"56","lobdow","Long-billed Dowitcher","Limnodromus scolopaceus","L259855","Estero Llano Grande SP WBC (LTC 054)","2025-05-17 08:35",4,26.1268335,-97.9578167,TRUE,FALSE,FALSE,"S239403223"
"57","lobdow","Long-billed Dowitcher","Limnodromus scolopaceus","L11005216","Creamer's Field MWR--Boreal Forest Trail","2025-05-17 08:09",4,64.8666675,-147.7306822,TRUE,FALSE,FALSE,"S239404942"
"58","lobdow","Long-billed Dowitcher","Limnodromus scolopaceus","L158589","Lake Helena WMA","2025-05-17 08:07",10,46.701,-111.9584,TRUE,FALSE,FALSE,"S239393050"
"59","lobdow","Long-billed Dowitcher","Limnodromus scolopaceus","L298015","Old Cedar Ave. Bridge","2025-05-17 08:02",3,44.8306236,-93.2436534,TRUE,FALSE,FALSE,"S239209431"
"60","lobdow","Long-billed Dowitcher","Limnodromus scolopaceus","L756025","Webster Res.","2025-05-17 08:01",4,39.3905707,-99.4430923,TRUE,FALSE,FALSE,"S239335150"
"61","lobdow","Long-billed Dowitcher","Limnodromus scolopaceus","L45238826","28009 S Ave, Dallas Center US-IA 41.62902, -93.93108","2025-05-17 08:01",1,41.629022,-93.931082,TRUE,TRUE,TRUE,"S239151130"
"62","lobdow","Long-billed Dowitcher","Limnodromus scolopaceus","L159550","Lake Ilo NWR","2025-05-17 07:58",8,47.3437922,-102.659793,TRUE,FALSE,FALSE,"S239276143"
"63","lobdow","Long-billed Dowitcher","Limnodromus scolopaceus","L807500","Koll Center Wetlands Area","2025-05-17 07:55",6,45.4561652,-122.7919064,TRUE,FALSE,FALSE,"S239355555"
"64","lobdow","Long-billed Dowitcher","Limnodromus scolopaceus","L5829215","Fairbanks International Airport--Perimeter Rd./Tria Rd. pond","2025-05-17 07:53",27,64.7984675,-147.8698182,TRUE,FALSE,FALSE,"S239299829"
"65","lobdow","Long-billed Dowitcher","Limnodromus scolopaceus","L17355439","Ingersoll, OK","2025-05-17 07:48",6,36.797337,-98.390052,TRUE,FALSE,TRUE,"S239139136"
"66","lobdow","Long-billed Dowitcher","Limnodromus scolopaceus","L724714","Chena Lake RA","2025-05-17 07:45",5,64.7706866,-147.2272682,TRUE,FALSE,FALSE,"S239290427"
"67","lobdow","Long-billed Dowitcher","Limnodromus scolopaceus","L159584","Jackson Bottom Wetlands Preserve","2025-05-17 07:38",1,45.505,-122.9889,TRUE,FALSE,FALSE,"S239308940"
"68","lobdow","Long-billed Dowitcher","Limnodromus scolopaceus","L716976","Fern Ridge WMA--Fisher Butte Unit south (dikes around Pond 1, 2, and east edge of 3)","2025-05-17 07:36",7,44.0561844,-123.2576752,TRUE,FALSE,FALSE,"S239302515"
"69","lobdow","Long-billed Dowitcher","Limnodromus scolopaceus","L11407320","Ballona freshwater marsh","2025-05-17 07:28",2,33.9690699,-118.4333836,TRUE,FALSE,TRUE,"S239307360"
"70","lobdow","Long-billed Dowitcher","Limnodromus scolopaceus","L140473","Cherry Creek SP","2025-05-17 07:21",1,39.6402646,-104.8538589,TRUE,FALSE,FALSE,"S239444794"
"71","lobdow","Long-billed Dowitcher","Limnodromus scolopaceus","L6471374","Quivira NWR--Big Salt Marsh--Wildlife Drive","2025-05-17 07:17",NA,38.1856615,-98.5338718,TRUE,FALSE,FALSE,"S239215038"
"72","lobdow","Long-billed Dowitcher","Limnodromus scolopaceus","L3239468","Tijuana Slough NWR--Visitor Center/North McCoy Trail","2025-05-17 07:15",1,32.5748894,-117.1259087,TRUE,FALSE,FALSE,"S239369565"
"73","lobdow","Long-billed Dowitcher","Limnodromus scolopaceus","L2864133","Goose Bay SGR","2025-05-17 07:15",1,61.3914177,-149.8669052,TRUE,FALSE,FALSE,"S239284178"
"74","lobdow","Long-billed Dowitcher","Limnodromus scolopaceus","L772634","Richland Creek WMA (N. Unit)(Freestone Co.)","2025-05-17 07:14",NA,31.9832577,-96.0818564,TRUE,FALSE,FALSE,"S239270103"
"75","lobdow","Long-billed Dowitcher","Limnodromus scolopaceus","L479513","Oliver Reservoir SRA","2025-05-17 07:03",6,41.2285718,-103.8267231,TRUE,FALSE,FALSE,"S239288701"
"76","lobdow","Long-billed Dowitcher","Limnodromus scolopaceus","L852058","Cheney SP--West Shore Area (Kingman Co.)","2025-05-17 07:00",8,37.7253794,-97.8364277,TRUE,FALSE,FALSE,"S239128911"
"77","lobdow","Long-billed Dowitcher","Limnodromus scolopaceus","L159619","Malheur NWR--Headquarters","2025-05-17 06:56",20,43.2658741,-118.8448941,TRUE,FALSE,FALSE,"S239318554"
"78","lobdow","Long-billed Dowitcher","Limnodromus scolopaceus","L444656","Summer Lake Wildlife Area","2025-05-17 06:56",50,42.950819,-120.7639503,TRUE,FALSE,FALSE,"S239274341"
"79","lobdow","Long-billed Dowitcher","Limnodromus scolopaceus","L447435","Hatfield Lake","2025-05-17 06:47",70,44.1232081,-121.198554,TRUE,FALSE,FALSE,"S239316412"
"80","lobdow","Long-billed Dowitcher","Limnodromus scolopaceus","L1678863","Potholes Reservoir--south half","2025-05-17 06:41",20,46.991357,-119.3181243,TRUE,FALSE,FALSE,"S239370865"
"81","lobdow","Long-billed Dowitcher","Limnodromus scolopaceus","L209342","Henderson Bird Viewing Preserve","2025-05-17 06:39",1,36.0749791,-115.0021416,TRUE,FALSE,FALSE,"S239402037"
"82","lobdow","Long-billed Dowitcher","Limnodromus scolopaceus","L580373","Tualatin River NWR","2025-05-17 06:27",25,45.3811203,-122.8353667,TRUE,FALSE,FALSE,"S239266563"
"83","lobdow","Long-billed Dowitcher","Limnodromus scolopaceus","L199461","Lake Woodruff NWR","2025-05-17 06:02",1,29.1092685,-81.3752445,TRUE,FALSE,FALSE,"S239255906"
"84","lobdow","Long-billed Dowitcher","Limnodromus scolopaceus","L1847188","La Llorana Trail Extension","2025-05-17 05:59",1,32.2653601,-106.8259735,TRUE,FALSE,FALSE,"S239245081"
"85","lobdow","Long-billed Dowitcher","Limnodromus scolopaceus","L1339539","Kenai Flats--Sea Catch Dr. & Cannery Rd.","2025-05-16 18:55",55,60.5351637,-151.2629414,TRUE,TRUE,FALSE,"S239006601"
"86","lobdow","Long-billed Dowitcher","Limnodromus scolopaceus","L18332630","F Road Pond, Syracuse, Nebraska, US (40.712, -96.203)","2025-05-16 18:36",19,40.7115453,-96.2032182,TRUE,FALSE,TRUE,"S238954119"
"87","lobdow","Long-billed Dowitcher","Limnodromus scolopaceus","L208905","Mendenhall Wetlands SGR--W of river","2025-05-16 18:32",4,58.3553602,-134.6259499,TRUE,FALSE,FALSE,"S238999279"
"88","lobdow","Long-billed Dowitcher","Limnodromus scolopaceus","L1536151","Glorfield Road","2025-05-16 18:21",2,47.1629405,-117.7567918,TRUE,FALSE,FALSE,"S238998518"
"89","lobdow","Long-billed Dowitcher","Limnodromus scolopaceus","L5988406","Fern Ridge WMA--Fisher Butte Unit north (dikes around Pond 4, 5, 6, and west edge of 3)","2025-05-16 18:16",12,44.0667313,-123.263855,TRUE,FALSE,FALSE,"S239182093"
"90","lobdow","Long-billed Dowitcher","Limnodromus scolopaceus","L23830175","67634, Dorrance US-KS (38.9546,-98.6630)","2025-05-16 18:14",1,38.954562,-98.663004,TRUE,FALSE,TRUE,"S238961108"
"91","lobdow","Long-billed Dowitcher","Limnodromus scolopaceus","L152879","Willow Creek Reservoir","2025-05-16 17:56",1,43.941814,-92.4874463,TRUE,FALSE,FALSE,"S238967200"
"92","lobdow","Long-billed Dowitcher","Limnodromus scolopaceus","L5488871","Oklahoma City Community College Pond","2025-05-16 17:51",1,35.3907448,-97.5668764,TRUE,FALSE,FALSE,"S238950784"
"93","lobdow","Long-billed Dowitcher","Limnodromus scolopaceus","L2878457","Hansen Spreading Grounds","2025-05-16 17:39",1,34.2532614,-118.3924055,TRUE,FALSE,FALSE,"S239007966"
"94","lobdow","Long-billed Dowitcher","Limnodromus scolopaceus","L165048","Farmington Bay WMA","2025-05-16 17:39",80,40.955141,-111.9191396,TRUE,FALSE,FALSE,"S238994517"
"95","lobdow","Long-billed Dowitcher","Limnodromus scolopaceus","L2073467","Salt Plains NWR--Eagle Roost Nature Trail","2025-05-16 17:28",14,36.783717,-98.18573,TRUE,FALSE,FALSE,"S238983037"
"96","lobdow","Long-billed Dowitcher","Limnodromus scolopaceus","L23169349","Point San Luis - Catalina Drive Area","2025-05-16 17:20",1,29.1142488,-95.0883826,TRUE,FALSE,TRUE,"S238975549"
"97","lobdow","Long-billed Dowitcher","Limnodromus scolopaceus","L15095645","Crazy D Ranch - Sweet Grass Creek Rd, South","2025-05-16 17:04",2,46.048327,-109.8096937,TRUE,FALSE,TRUE,"S238964960"
"98","lobdow","Long-billed Dowitcher","Limnodromus scolopaceus","L1884575","Palouse region--Ewan","2025-05-16 17:02",45,47.1183774,-117.7307847,TRUE,FALSE,FALSE,"S238982304"
"99","lobdow","Long-billed Dowitcher","Limnodromus scolopaceus","L4971040","Howard Marsh Metropark","2025-05-16 17:00",8,41.6450689,-83.2637178,TRUE,FALSE,FALSE,"S238926351"
"100","lobdow","Long-billed Dowitcher","Limnodromus scolopaceus","L45290713","Location Old US Hwy 195 and Davis Rd Seasonal Pool","2025-05-16 16:58",8,47.3751239,-117.3824373,TRUE,FALSE,TRUE,"S239386935"
"101","lobdow","Long-billed Dowitcher","Limnodromus scolopaceus","L1067145","Kasilof--Kasilof River Mouth","2025-05-16 16:40",6,60.3859137,-151.302166,TRUE,FALSE,FALSE,"S239008175"
"102","lobdow","Long-billed Dowitcher","Limnodromus scolopaceus","L45199796","Washington 23, Lamont, Washington, US (47.271, -117.947)","2025-05-16 16:34",34,47.2710783,-117.9470127,TRUE,FALSE,TRUE,"S238951124"
"103","lobdow","Long-billed Dowitcher","Limnodromus scolopaceus","L152046","Lordsburg Sewage Ponds","2025-05-16 15:46",1,32.3592192,-108.6999428,TRUE,FALSE,FALSE,"S238993220"
"104","lobdow","Long-billed Dowitcher","Limnodromus scolopaceus","L6035187","Dalton Hwy.--Pump Station No. 3","2025-05-16 15:44",1,68.8427642,-148.8249636,TRUE,FALSE,FALSE,"S238953938"
"105","lobdow","Long-billed Dowitcher","Limnodromus scolopaceus","L875038","North Platte--North Airport Rd.","2025-05-16 15:20",1,41.1428227,-100.6958556,TRUE,FALSE,FALSE,"S238919910"
"106","lobdow","Long-billed Dowitcher","Limnodromus scolopaceus","L14482779","99611, Kenai US-AK 60.53569, -151.26155","2025-05-16 15:14",17,60.535694,-151.261555,TRUE,FALSE,TRUE,"S238948673"
"107","lobdow","Long-billed Dowitcher","Limnodromus scolopaceus","L45194798","36975–36999 Highway 20 E, Burns US-OR 43.61353, -118.80399","2025-05-16 15:11",1,43.613529,-118.803994,TRUE,FALSE,TRUE,"S238923541"
"108","lobdow","Long-billed Dowitcher","Limnodromus scolopaceus","L45201342","36604–36680 CR-409, Princeton US-OR 43.04476, -118.83783","2025-05-16 15:02",5,43.044761,-118.837825,TRUE,FALSE,TRUE,"S238960017"
"109","lobdow","Long-billed Dowitcher","Limnodromus scolopaceus","L7516407","Middleton Island (restricted)--Sea Lion point","2025-05-16 14:40",8,59.4692924,-146.3046828,TRUE,FALSE,FALSE,"S239328627"
"110","lobdow","Long-billed Dowitcher","Limnodromus scolopaceus","L9348754","Ft. Wainwright--Manchu Lake (restricted access)","2025-05-16 14:35",15,64.703149,-147.0310656,TRUE,FALSE,FALSE,"S238939239"
"111","lobdow","Long-billed Dowitcher","Limnodromus scolopaceus","L275227","Piute Ponds (permit required)","2025-05-16 14:24",5,34.7901193,-118.1181776,TRUE,FALSE,FALSE,"S238959934"
"112","lobdow","Long-billed Dowitcher","Limnodromus scolopaceus","L9477478","Dalton Highway, Anchorage, Alaska, US (68.854, -148.831)","2025-05-16 14:22",1,68.8541018,-148.8312148,TRUE,FALSE,TRUE,"S238926148"
"113","lobdow","Long-billed Dowitcher","Limnodromus scolopaceus","L45187404","68743, Jackson US-NE 42.45585, -96.55650","2025-05-16 14:21",33,42.455847,-96.556502,TRUE,FALSE,TRUE,"S238884714"
"114","lobdow","Long-billed Dowitcher","Limnodromus scolopaceus","L18016271","Tualitin National Wildlife Refuge","2025-05-16 14:20",2,45.382317,-122.832115,TRUE,FALSE,TRUE,"S238992322"
"115","lobdow","Long-billed Dowitcher","Limnodromus scolopaceus","L170028","Loess Bluffs NWR","2025-05-16 14:19",6,40.068893,-95.23534,TRUE,FALSE,FALSE,"S238920218"
"116","lobdow","Long-billed Dowitcher","Limnodromus scolopaceus","L9706489","Pothole area SE of Rugby","2025-05-16 14:12",12,48.2680814,-99.9024035,TRUE,FALSE,TRUE,"S238908948"
"117","lobdow","Long-billed Dowitcher","Limnodromus scolopaceus","L11350270","TAPS road b/w Love and Andromeda Roads","2025-05-16 13:45",15,64.8669444,-147.4725176,TRUE,FALSE,TRUE,"S238934925"
"118","lobdow","Long-billed Dowitcher","Limnodromus scolopaceus","L9287545","Liberty Road","2025-05-16 13:40",3,45.795644,-92.937197,TRUE,FALSE,TRUE,"S238867504"
"119","lobdow","Long-billed Dowitcher","Limnodromus scolopaceus","L45182301","5911 11th Avenue Southwest, Rochester, Minnesota, US (43.938, -92.484)","2025-05-16 13:35",1,43.9380705,-92.484485,TRUE,FALSE,TRUE,"S238859562"
"120","lobdow","Long-billed Dowitcher","Limnodromus scolopaceus","L45183446","17654 220th St, Audubon US-MN 46.89199, -96.03373","2025-05-16 13:31",1,46.891992,-96.033726,TRUE,FALSE,TRUE,"S238864942"
"121","lobdow","Long-billed Dowitcher","Limnodromus scolopaceus","L20842114","Willow Creek Reservoir, Rochester, Minnesota, US (43.936, -92.484)","2025-05-16 13:30",1,43.9363172,-92.484108,TRUE,FALSE,TRUE,"S238888242"
"122","lobdow","Long-billed Dowitcher","Limnodromus scolopaceus","L151122","Antelope Island SP--Causeway","2025-05-16 13:30",50,41.08841,-112.186714,TRUE,FALSE,FALSE,"S238910545"
"123","lobdow","Long-billed Dowitcher","Limnodromus scolopaceus","L9756335","sanford road","2025-05-16 13:30",24,47.5421628,-114.1778536,TRUE,FALSE,TRUE,"S238890608"
"124","lobdow","Long-billed Dowitcher","Limnodromus scolopaceus","L487048","Fern Ridge WMA--Royal Ave. area (general)","2025-05-16 13:29",18,44.0705825,-123.2574606,TRUE,FALSE,FALSE,"S238955822"
"125","lobdow","Long-billed Dowitcher","Limnodromus scolopaceus","L38184774","Loess Bluffs National Wildlife Refuge, Forest City US-MO 40.05988, -95.23695","2025-05-16 13:26",15,40.059884,-95.236945,TRUE,FALSE,TRUE,"S238926889"
"126","lobdow","Long-billed Dowitcher","Limnodromus scolopaceus","L802533","Colville Valley--Colville STP","2025-05-16 12:37",50,48.5377498,-117.9169464,TRUE,FALSE,FALSE,"S238895819"
"127","lobdow","Long-billed Dowitcher","Limnodromus scolopaceus","L9155870","21243 Liberty Rd SE, Pine City US-MN (45.7955,-92.9348)","2025-05-16 12:36",3,45.795507,-92.934818,TRUE,FALSE,TRUE,"S238845545"
"128","lobdow","Long-billed Dowitcher","Limnodromus scolopaceus","L44966549","County Road 184, Crosbyton, Texas, US (33.617, -101.238)","2025-05-16 12:14",19,33.6166192,-101.2375136,TRUE,FALSE,TRUE,"S238822061"
"129","lobdow","Long-billed Dowitcher","Limnodromus scolopaceus","L4380490","Weekley Community Center Park","2025-05-16 12:10",6,29.8989496,-95.7019633,TRUE,FALSE,FALSE,"S238842477"
"130","lobdow","Long-billed Dowitcher","Limnodromus scolopaceus","L6425455","Lovell Lakes","2025-05-16 11:59",20,44.8042063,-108.3565195,TRUE,FALSE,FALSE,"S238857525"
"131","lobdow","Long-billed Dowitcher","Limnodromus scolopaceus","L2281032","Glacier Bay NP--Tlinget Trail","2025-05-16 11:53",20,58.4553433,-135.8739281,TRUE,FALSE,FALSE,"S238888853"
"132","lobdow","Long-billed Dowitcher","Limnodromus scolopaceus","L127945","Bosque del Apache NWR","2025-05-16 11:39",33,33.802,-106.88,TRUE,FALSE,FALSE,"S239004039"
"133","lobdow","Long-billed Dowitcher","Limnodromus scolopaceus","L22868103","Baskett Slough NWR--Headquarters Rd and Pond","2025-05-16 11:32",8,44.9481535,-123.2588209,TRUE,FALSE,TRUE,"S238855663"
"134","lobdow","Long-billed Dowitcher","Limnodromus scolopaceus","L45201929","Center Patrol Road, Princeton, Oregon, US (43.252, -118.853)","2025-05-16 11:32",NA,43.2515408,-118.8530986,TRUE,FALSE,TRUE,"S238963187"
"135","lobdow","Long-billed Dowitcher","Limnodromus scolopaceus","L37302255","Merced NWR--Northbound Auto Loop from Pintail Marsh platform parking lot to NE corner at Sandy Mush Rd","2025-05-16 11:28",NA,37.1761379,-120.6054482,TRUE,FALSE,FALSE,"S238855605"
"136","lobdow","Long-billed Dowitcher","Limnodromus scolopaceus","L19291847","Eielson Air Force Base, Alaska, US (64.635, -147.028)","2025-05-16 11:25",13,64.6352172,-147.0282159,TRUE,FALSE,TRUE,"S238873129"
"137","lobdow","Long-billed Dowitcher","Limnodromus scolopaceus","L338760","Highline Lake SP","2025-05-16 11:15",2,39.2741769,-108.8396124,TRUE,FALSE,FALSE,"S238909533"
"138","lobdow","Long-billed Dowitcher","Limnodromus scolopaceus","L2300607","Stewart's Pond","2025-05-16 11:14",18,40.3245862,-104.709084,TRUE,FALSE,FALSE,"S238986591"
"139","lobdow","Long-billed Dowitcher","Limnodromus scolopaceus","L1299729","West Valley Ponds","2025-05-16 11:07",135,48.2745105,-114.3729973,TRUE,FALSE,FALSE,"S238825210"
"140","lobdow","Long-billed Dowitcher","Limnodromus scolopaceus","L45173939","305 US Highway 14, Greybull, Wyoming, US (44.494, -107.993)","2025-05-16 11:00",2,44.4940027,-107.9931708,TRUE,FALSE,TRUE,"S238821508"
"141","lobdow","Long-billed Dowitcher","Limnodromus scolopaceus","L9706615","Pothole area E of Rugby","2025-05-16 10:49",8,48.3713135,-99.9170035,TRUE,FALSE,TRUE,"S238832842"
"142","lobdow","Long-billed Dowitcher","Limnodromus scolopaceus","L9317056","Eielson AFB--Mullins Pit (restricted access)","2025-05-16 10:31",4,64.6438472,-147.0303321,TRUE,FALSE,FALSE,"S238868603"
"143","lobdow","Long-billed Dowitcher","Limnodromus scolopaceus","L45169016","Gladu Rd, Kaplan US-LA 30.06496, -92.29936","2025-05-16 10:27",1,30.064963,-92.299359,TRUE,FALSE,TRUE,"S238797904"
"144","lobdow","Long-billed Dowitcher","Limnodromus scolopaceus","L247316","Ninepipe NWR","2025-05-16 10:16",21,47.4379957,-114.1184238,TRUE,FALSE,FALSE,"S238824388"
"145","lobdow","Long-billed Dowitcher","Limnodromus scolopaceus","L45191831","64801–64817 Lawen Rd, Burns US-OR 43.39572, -118.80547","2025-05-16 10:13",100,43.395723,-118.805466,TRUE,FALSE,TRUE,"S238907441"
"146","lobdow","Long-billed Dowitcher","Limnodromus scolopaceus","L20588956","Harrop Pond","2025-05-16 10:12",1,43.838942,-111.235227,TRUE,FALSE,FALSE,"S238802160"
"147","lobdow","Long-billed Dowitcher","Limnodromus scolopaceus","L45175993","Honey Lake State Wildlife Area, Wendel US-CA 40.35823, -120.29805","2025-05-16 10:09",1,40.358232,-120.298047,TRUE,FALSE,TRUE,"S238830935"
"148","lobdow","Long-billed Dowitcher","Limnodromus scolopaceus","L526888","Tanana Lakes Recreation Area","2025-05-16 10:00",33,64.7966492,-147.7180481,TRUE,FALSE,FALSE,"S238885750"
"149","lobdow","Long-billed Dowitcher","Limnodromus scolopaceus","L15097757","Fairbanks--Water Wagon Pond","2025-05-16 09:43",1,64.8501242,-147.8698516,TRUE,FALSE,FALSE,"S238833599"
"150","lobdow","Long-billed Dowitcher","Limnodromus scolopaceus","L30039293","Lagerman Reservoir","2025-05-16 09:39",1,40.134067,-105.187757,TRUE,FALSE,TRUE,"S238833595"
"151","lobdow","Long-billed Dowitcher","Limnodromus scolopaceus","L2609622","Creston Wetland","2025-05-16 09:34",32,48.200033,-114.1397095,TRUE,FALSE,FALSE,"S238780430"
"152","lobdow","Long-billed Dowitcher","Limnodromus scolopaceus","L3441004","Bluestem SRA","2025-05-16 09:34",1,40.6342778,-96.7950439,TRUE,FALSE,FALSE,"S238872741"
"153","lobdow","Long-billed Dowitcher","Limnodromus scolopaceus","L24858917","Steamboat Landing","2025-05-16 09:15",19,64.8302902,-147.8658485,TRUE,FALSE,FALSE,"S238884801"
"154","lobdow","Long-billed Dowitcher","Limnodromus scolopaceus","L1616831","SPO-Old SR195/Bradshaw Rd. mud","2025-05-16 09:11",10,47.382338,-117.386553,TRUE,FALSE,TRUE,"S238798454"
"155","lobdow","Long-billed Dowitcher","Limnodromus scolopaceus","L2739826","R. Michael Rhoades Wetlands Park","2025-05-16 08:49",25,38.0287485,-97.3630607,TRUE,FALSE,FALSE,"S238608266"
"156","lobdow","Long-billed Dowitcher","Limnodromus scolopaceus","L9267698","21243 Liberty Rd SE, Pine City US-MN (45.7955,-92.9349)","2025-05-16 08:32",3,45.795518,-92.93487,TRUE,FALSE,TRUE,"S238599102"
"157","lobdow","Long-billed Dowitcher","Limnodromus scolopaceus","L2126114","Horseshoe Bend","2025-05-16 08:32",8,38.9535353,-98.665638,TRUE,FALSE,TRUE,"S238615335"
"158","lobdow","Long-billed Dowitcher","Limnodromus scolopaceus","L211851","Avra Valley WTP","2025-05-16 08:05",1,32.165,-111.179,TRUE,FALSE,FALSE,"S238892779"
"159","lobdow","Long-billed Dowitcher","Limnodromus scolopaceus","L569284","Wagon Train RA","2025-05-16 08:00",2,40.6295879,-96.5819263,TRUE,FALSE,FALSE,"S238608145"
"160","lobdow","Long-billed Dowitcher","Limnodromus scolopaceus","L2961471","Knolle Ranch","2025-05-16 07:51",3,27.9719658,-97.8255701,TRUE,FALSE,FALSE,"S238587112"
"161","lobdow","Long-billed Dowitcher","Limnodromus scolopaceus","L366519","Lewisville Lake Park","2025-05-16 07:32",1,33.0703978,-96.9915962,TRUE,FALSE,FALSE,"S238611275"
"162","lobdow","Long-billed Dowitcher","Limnodromus scolopaceus","L43929720","97637, Plush US-OR 42.48614, -119.84217","2025-05-16 07:19",15,42.486144,-119.842175,TRUE,FALSE,TRUE,"S238826253"
"163","lobdow","Long-billed Dowitcher","Limnodromus scolopaceus","L732337","Malheur NWR--Field Station","2025-05-16 07:18",89,43.2438272,-118.894558,TRUE,FALSE,FALSE,"S238984778"
"164","lobdow","Long-billed Dowitcher","Limnodromus scolopaceus","L887672","Neosho WA","2025-05-16 07:05",16,37.4923621,-95.1404214,TRUE,FALSE,FALSE,"S238926467"
"165","lobdow","Long-billed Dowitcher","Limnodromus scolopaceus","L898742","Bosque del Apache NWR--Seasonal Tour Road (closed Oct. 1 - Mar. 31)","2025-05-16 06:58",3,33.8071442,-106.8775535,TRUE,FALSE,FALSE,"S238806675"
"166","lobdow","Long-billed Dowitcher","Limnodromus scolopaceus","L191760","Bear Island WMA (fall and winter restricted access)","2025-05-16 06:55",2,32.5918043,-80.4641247,TRUE,FALSE,FALSE,"S238565754"
"167","lobdow","Long-billed Dowitcher","Limnodromus scolopaceus","L1646841","Fort Hancock Sewage Ponds","2025-05-16 06:54",5,31.283332,-105.8410568,TRUE,FALSE,FALSE,"S238583831"
"168","lobdow","Long-billed Dowitcher","Limnodromus scolopaceus","L353034","McArthur Swamp / Rat Farm","2025-05-16 06:40",4,41.099179,-121.411165,TRUE,FALSE,FALSE,"S239429359"
"169","lobdow","Long-billed Dowitcher","Limnodromus scolopaceus","L8910590","Twenty Mile River Mouth","2025-05-16 06:28",14,60.845838,-148.990241,TRUE,FALSE,FALSE,"S238964035"
"170","lobdow","Long-billed Dowitcher","Limnodromus scolopaceus","L45172897","Klemme Range research station","2025-05-16 06:26",12,35.404655,-99.064152,TRUE,FALSE,TRUE,"S238816692"
"171","lobdow","Long-billed Dowitcher","Limnodromus scolopaceus","L715412","Higley and Ocotillo Rds. ponds","2025-05-16 06:15",5,33.2533311,-111.7181683,TRUE,FALSE,FALSE,"S238851732"
"172","lobdow","Long-billed Dowitcher","Limnodromus scolopaceus","L109299","John Martin Reservoir","2025-05-16 05:57",2,38.0729604,-103.0172539,TRUE,FALSE,FALSE,"S238831991"
"173","lobdow","Long-billed Dowitcher","Limnodromus scolopaceus","L777215","Napa-Sonoma Marshes WA--Napa River Units - Pond 1","2025-05-15 19:56",1,38.142204,-122.3490097,TRUE,FALSE,FALSE,"S238462377"
"174","lobdow","Long-billed Dowitcher","Limnodromus scolopaceus","L417835","Waterbird Regional Preserve/McNabney Marsh","2025-05-15 19:51",22,38.0236359,-122.0956349,TRUE,FALSE,FALSE,"S238510282"
"175","lobdow","Long-billed Dowitcher","Limnodromus scolopaceus","L11314797","Upper Gem Lake--East Side","2025-05-15 19:32",1,43.4531993,-112.0879269,TRUE,FALSE,FALSE,"S238455690"
"176","lobdow","Long-billed Dowitcher","Limnodromus scolopaceus","L534241","Fairbanks--Peat Ponds Wildlife Area","2025-05-15 19:17",1,64.9110145,-147.9393518,TRUE,FALSE,FALSE,"S238464558"
"177","lobdow","Long-billed Dowitcher","Limnodromus scolopaceus","L36616231","276th St, Parker US-SD 43.38652, -97.23980","2025-05-15 19:15",5,43.386517,-97.239803,TRUE,FALSE,TRUE,"S238431401"
"178","lobdow","Long-billed Dowitcher","Limnodromus scolopaceus","L594020","Cottonwood Reservoir ","2025-05-15 18:31",2,46.037731,-110.6865692,TRUE,FALSE,FALSE,"S238450029"
"179","lobdow","Long-billed Dowitcher","Limnodromus scolopaceus","L233071","Amado WTP","2025-05-15 18:25",1,31.7306042,-111.0544619,TRUE,FALSE,FALSE,"S238446387"
"180","lobdow","Long-billed Dowitcher","Limnodromus scolopaceus","L41676805","Barker Road and Fivemile Reservoir","2025-05-15 18:00",2,44.9534828,-107.2717548,TRUE,FALSE,TRUE,"S238430950"
"181","lobdow","Long-billed Dowitcher","Limnodromus scolopaceus","L14859390","Tanana Lakes Recreation Area, Fairbanks US-AK 64.79791, -147.71623","2025-05-15 17:41",30,64.797907,-147.716228,TRUE,FALSE,TRUE,"S238455213"
"182","lobdow","Long-billed Dowitcher","Limnodromus scolopaceus","L34823658","Tanana Lakes Recreation Area, Fairbanks US-AK 64.79603, -147.71233","2025-05-15 17:41",72,64.796032,-147.712326,TRUE,FALSE,TRUE,"S238466546"
"183","lobdow","Long-billed Dowitcher","Limnodromus scolopaceus","L168765","Whitewater Draw Wildlife Area","2025-05-15 17:30",4,31.5614979,-109.7200191,TRUE,FALSE,FALSE,"S239377009"
"184","lobdow","Long-billed Dowitcher","Limnodromus scolopaceus","L1568467","Lincoln Beach--Boat Launch Area","2025-05-15 17:28",1,40.1395552,-111.8015004,TRUE,FALSE,FALSE,"S238449504"
"185","lobdow","Long-billed Dowitcher","Limnodromus scolopaceus","L730351","Charleston Slough/Coast Casey Forebay","2025-05-15 17:05",2,37.4359191,-122.098918,TRUE,FALSE,FALSE,"S238460708"
"186","lobdow","Long-billed Dowitcher","Limnodromus scolopaceus","L15943606","1700-1768 Farm to Market Road 40, Crosbyton, Texas, US (33.559, -101.286)","2025-05-15 16:53",8,33.5586338,-101.2855347,TRUE,FALSE,TRUE,"S238388663"
"187","lobdow","Long-billed Dowitcher","Limnodromus scolopaceus","L45089263","Davis x Old Hwy 195 Wetland","2025-05-15 16:45",14,47.374813,-117.38272,TRUE,FALSE,TRUE,"S238431640"
"188","lobdow","Long-billed Dowitcher","Limnodromus scolopaceus","L45084798","4234 Salomon Road, Polson, Montana, US (47.591, -114.135)","2025-05-15 16:36",4,47.59096,-114.1346662,TRUE,FALSE,TRUE,"S238404552"
"189","lobdow","Long-billed Dowitcher","Limnodromus scolopaceus","L4648340","US-Oregon-Princeton-Lawen Ln - 43.426x-118.802","2025-05-15 16:25",20,43.4264218,-118.8023762,TRUE,FALSE,TRUE,"S238411866"
"190","lobdow","Long-billed Dowitcher","Limnodromus scolopaceus","L11137311","Marys River Mitigation Bank wetland","2025-05-15 16:25",2,44.5208411,-123.3378038,TRUE,FALSE,FALSE,"S238428456"
"191","lobdow","Long-billed Dowitcher","Limnodromus scolopaceus","L45091220","37255 Schoolhouse Lane, Burns, Oregon, US (43.438, -118.802)","2025-05-15 16:16",3,43.4376315,-118.8019093,TRUE,FALSE,TRUE,"S238442783"
"192","lobdow","Long-billed Dowitcher","Limnodromus scolopaceus","L1774054","Hwy 86 roadside ponds","2025-05-15 15:57",7,39.2969385,-104.3350931,TRUE,FALSE,FALSE,"S238384125"
"193","lobdow","Long-billed Dowitcher","Limnodromus scolopaceus","L45143272","23324 SD-25, Howard US-SD 44.00191, -97.67091","2025-05-15 15:25",4,44.001911,-97.670911,TRUE,FALSE,TRUE,"S238599580"
"194","lobdow","Long-billed Dowitcher","Limnodromus scolopaceus","L4270470","Colorado River SP--Pear Park section","2025-05-15 15:21",2,39.0533575,-108.5078645,TRUE,FALSE,FALSE,"S238380750"
"195","lobdow","Long-billed Dowitcher","Limnodromus scolopaceus","L375293","Alexandre Dairy","2025-05-15 14:41",5,41.8951218,-124.1744328,TRUE,FALSE,FALSE,"S238465087"
"196","lobdow","Long-billed Dowitcher","Limnodromus scolopaceus","L43877230","Raptor Survey — Pigeon Butte Lowlands 1","2025-05-15 14:38",1,44.392827,-123.30535,TRUE,FALSE,TRUE,"S238380482"
"197","lobdow","Long-billed Dowitcher","Limnodromus scolopaceus","L472951","Paloma Ranch","2025-05-15 14:21",1,32.9189081,-112.8944135,TRUE,FALSE,FALSE,"S238375551"
"198","lobdow","Long-billed Dowitcher","Limnodromus scolopaceus","L144858","Riparian Preserve at Gilbert Water Ranch","2025-05-15 14:19",1,33.3614502,-111.7339478,TRUE,FALSE,FALSE,"S238473071"
"199","lobdow","Long-billed Dowitcher","Limnodromus scolopaceus","L278056","Fords Pond","2025-05-15 14:05",1,43.3913165,-123.363111,TRUE,FALSE,FALSE,"S238465310"
"200","lobdow","Long-billed Dowitcher","Limnodromus scolopaceus","L152823","Mendenhall Wetlands SGR--Airport Dike Trail","2025-05-15 13:42",8,58.3523993,-134.5945144,TRUE,FALSE,FALSE,"S238410120"
"201","lobdow","Long-billed Dowitcher","Limnodromus scolopaceus","L158903","Long Lake NWR","2025-05-15 13:24",20,46.6698025,-100.2278475,TRUE,FALSE,FALSE,"S238322798"
"202","lobdow","Long-billed Dowitcher","Limnodromus scolopaceus","L3992005","Kettle Falls STP","2025-05-15 13:13",40,48.6055887,-118.0658841,TRUE,FALSE,FALSE,"S238364597"
"203","lobdow","Long-billed Dowitcher","Limnodromus scolopaceus","L30874926","Hitchcock pond","2025-05-15 13:11",2,35.998132,-98.316873,TRUE,FALSE,TRUE,"S238360461"
"204","lobdow","Long-billed Dowitcher","Limnodromus scolopaceus","L352958","Fish Springs NWR","2025-05-15 13:10",60,39.865343,-113.3936175,TRUE,FALSE,FALSE,"S238436056"
"205","lobdow","Long-billed Dowitcher","Limnodromus scolopaceus","L30880331","Hitchcock pond","2025-05-15 13:05",2,35.9983464,-98.3168287,TRUE,FALSE,TRUE,"S238364689"
"206","lobdow","Long-billed Dowitcher","Limnodromus scolopaceus","L45072415","33719–34099 General Brant Rd, Rio Hondo US-TX 26.21927, -97.47887","2025-05-15 12:59",1,26.219267,-97.47887,TRUE,FALSE,TRUE,"S238334423"
"207","lobdow","Long-billed Dowitcher","Limnodromus scolopaceus","L2440035","Stateline Rd. (CA)","2025-05-15 12:50",32,41.994,-121.7586,TRUE,FALSE,FALSE,"S238424023"
"208","lobdow","Long-billed Dowitcher","Limnodromus scolopaceus","L35618118","Rim Lake","2025-05-15 12:46",1,41.7018322,-107.2804115,TRUE,FALSE,TRUE,"S238333638"
"209","lobdow","Long-billed Dowitcher","Limnodromus scolopaceus","L2563871","Chugach NF--Alaganik Slough & boardwalk","2025-05-15 12:36",2,60.42944,-145.29944,TRUE,FALSE,FALSE,"S238369796"
"210","lobdow","Long-billed Dowitcher","Limnodromus scolopaceus","L421073","Beck & Alkali Lakes","2025-05-15 12:19",6,44.5096973,-109.0376973,TRUE,FALSE,FALSE,"S238317083"
"211","lobdow","Long-billed Dowitcher","Limnodromus scolopaceus","L45066607","32700–33998 89th Ave SE, Driscoll US-ND 46.70637, -100.25689","2025-05-15 12:14",5,46.706374,-100.256889,TRUE,FALSE,TRUE,"S238303679"
"212","lobdow","Long-billed Dowitcher","Limnodromus scolopaceus","L3605538","Big Stone NWR--Auto Tour Road","2025-05-15 12:12",NA,45.254879,-96.390382,TRUE,FALSE,FALSE,"S238324780"
"213","lobdow","Long-billed Dowitcher","Limnodromus scolopaceus","L1573218","Long Lake Creek","2025-05-15 12:01",35,46.7385816,-100.3529953,TRUE,FALSE,FALSE,"S238290026"
"214","lobdow","Long-billed Dowitcher","Limnodromus scolopaceus","L793009","Grandview Wastewater Treatment Facility","2025-05-15 11:56",43,46.2088241,-119.9072313,TRUE,FALSE,FALSE,"S238361553"
"215","lobdow","Long-billed Dowitcher","Limnodromus scolopaceus","L5697376","Pole Mountain Lake","2025-05-15 11:56",12,40.5580585,-106.4813804,TRUE,TRUE,FALSE,"S238330514"
"216","lobdow","Long-billed Dowitcher","Limnodromus scolopaceus","L129095","Sierra Vista EOP","2025-05-15 11:50",5,31.5627101,-110.2027562,TRUE,FALSE,FALSE,"S238338967"
"217","lobdow","Long-billed Dowitcher","Limnodromus scolopaceus","L422541","Leonabelle Turnbull Birding Ctr. (CTC 057)","2025-05-15 11:42",12,27.8275297,-97.0789558,TRUE,FALSE,FALSE,"S239416018"
"218","lobdow","Long-billed Dowitcher","Limnodromus scolopaceus","L3787321","Bosque del Apache NWR--Main 2-Way Road (East-West)","2025-05-15 11:32",44,33.7991685,-106.8844113,TRUE,FALSE,FALSE,"S238465267"
"219","lobdow","Long-billed Dowitcher","Limnodromus scolopaceus","L5859531","Pipestone WTP","2025-05-15 11:30",13,43.99232,-96.3612791,TRUE,FALSE,FALSE,"S238346522"
"220","lobdow","Long-billed Dowitcher","Limnodromus scolopaceus","L4196645","Webb City WWTP","2025-05-15 11:30",20,37.1761462,-94.4742143,TRUE,FALSE,FALSE,"S238382579"
"221","lobdow","Long-billed Dowitcher","Limnodromus scolopaceus","L716993","Chester Creek & Fish Creek Mouths (Audubon Bench & Fish Creek Bench)","2025-05-15 11:25",1,61.2075708,-149.9289732,TRUE,FALSE,FALSE,"S238343409"
"222","lobdow","Long-billed Dowitcher","Limnodromus scolopaceus","L455722","Para/McCain's Ponds","2025-05-15 10:50",15,46.8574296,-119.1854596,TRUE,FALSE,FALSE,"S238331545"
"223","lobdow","Long-billed Dowitcher","Limnodromus scolopaceus","L1173410","Ducks Unlimited Warm Springs Ponds","2025-05-15 10:49",7,46.1809001,-112.8020382,TRUE,FALSE,FALSE,"S238430944"
"224","lobdow","Long-billed Dowitcher","Limnodromus scolopaceus","L557908","Ruskin Feedlot Pond","2025-05-15 10:34",2,40.1481761,-97.8871536,TRUE,FALSE,TRUE,"S238183597"
"225","lobdow","Long-billed Dowitcher","Limnodromus scolopaceus","L1909499","Billy Frank Jr. Nisqually NWR--Estuary Boardwalk Trail","2025-05-15 10:24",4,47.0898654,-122.7250109,TRUE,FALSE,FALSE,"S238378495"
"226","lobdow","Long-billed Dowitcher","Limnodromus scolopaceus","L45076411","Tanana Lakes Recreation Area, Fairbanks US-AK 64.79740, -147.71204","2025-05-15 10:00",NA,64.797398,-147.712039,TRUE,FALSE,TRUE,"S238356000"
"227","lobdow","Long-billed Dowitcher","Limnodromus scolopaceus","L45064471","2020 East Davis Road, Spangle, Washington, US (47.374, -117.382)","2025-05-15 10:00",10,47.3742733,-117.3819324,TRUE,FALSE,TRUE,"S238292768"
"228","lobdow","Long-billed Dowitcher","Limnodromus scolopaceus","L45073391","FM-40, Ralls US-TX 33.55859, -101.29022","2025-05-15 09:59",14,33.558589,-101.290219,TRUE,FALSE,TRUE,"S238339678"
"229","lobdow","Long-billed Dowitcher","Limnodromus scolopaceus","L109548","McNary NWR--Walla Walla River Delta","2025-05-15 09:50",1,46.0685319,-118.9096792,TRUE,FALSE,FALSE,"S238394849"
"230","lobdow","Long-billed Dowitcher","Limnodromus scolopaceus","L7731353","Nisqually National Wildlife Refuge","2025-05-15 09:41",5,47.0732228,-122.7135417,TRUE,FALSE,TRUE,"S238305335"
"231","lobdow","Long-billed Dowitcher","Limnodromus scolopaceus","L1575305","Brazoria NWR--Auto Tour Loop and Discovery Center","2025-05-15 09:40",1,29.0599843,-95.267568,TRUE,FALSE,FALSE,"S238321061"
"232","lobdow","Long-billed Dowitcher","Limnodromus scolopaceus","L40267062","57501, Pierre US-SD (44.4481,-100.3930)","2025-05-15 09:17",4,44.448126,-100.393013,TRUE,FALSE,TRUE,"S238151843"
"233","lobdow","Long-billed Dowitcher","Limnodromus scolopaceus","L687936","Chico Basin Ranch ,Pueblo Cty","2025-05-15 09:11",1,38.5079452,-104.4404125,TRUE,FALSE,TRUE,"S238397579"
"234","lobdow","Long-billed Dowitcher","Limnodromus scolopaceus","L19424237","700 N. east of Buck Creek Road","2025-05-15 09:02",20,40.0325333,-85.2602075,TRUE,TRUE,TRUE,"S238360636"
"235","lobdow","Long-billed Dowitcher","Limnodromus scolopaceus","L10907975","John Paul Landing Park--Environmental Education Center","2025-05-15 08:32",8,29.9121081,-95.7905095,TRUE,FALSE,FALSE,"S238179481"
"236","lobdow","Long-billed Dowitcher","Limnodromus scolopaceus","L7623349","Lagerman Agricultural Preserve--Swede Lakes","2025-05-15 08:10",2,40.1389577,-105.1983208,TRUE,FALSE,FALSE,"S238194521"
"237","lobdow","Long-billed Dowitcher","Limnodromus scolopaceus","L165307","Mann Lake","2025-05-15 08:04",11,46.371455,-116.8511029,TRUE,FALSE,FALSE,"S238190344"
"238","lobdow","Long-billed Dowitcher","Limnodromus scolopaceus","L523501","Anchorage Coastal WR--Carr-Gottstein Park to Campbell Creek","2025-05-15 07:53",2,61.1151712,-149.9404769,TRUE,FALSE,FALSE,"S238337927"
"239","lobdow","Long-billed Dowitcher","Limnodromus scolopaceus","L45095109","Utah Lake State Park, Provo US-UT 40.24069, -111.73470","2025-05-15 07:50",2,40.240691,-111.734697,TRUE,FALSE,TRUE,"S238463673"
"240","lobdow","Long-billed Dowitcher","Limnodromus scolopaceus","L1528497","Quivira NWR--Big Salt Marsh","2025-05-15 07:46",1,38.1781394,-98.540411,TRUE,FALSE,FALSE,"S238189295"
"241","lobdow","Long-billed Dowitcher","Limnodromus scolopaceus","L927270","Nome-Council Rd--Solomon","2025-05-15 07:39",6,64.5585058,-164.4438634,TRUE,FALSE,FALSE,"S238458958"
"242","lobdow","Long-billed Dowitcher","Limnodromus scolopaceus","L510925","Chico Basin Ranch--Bell Grove (El Paso Co) (mandatory registration required at www.aikenaudubon.com)","2025-05-15 07:19",1,38.5356787,-104.4588983,TRUE,FALSE,FALSE,"S238331127"
"243","lobdow","Long-billed Dowitcher","Limnodromus scolopaceus","L283726","South Padre Is.--WBC/Conv. Center/Laguna Madre Trail (LTC 035)","2025-05-15 07:19",4,26.1400912,-97.1748233,TRUE,FALSE,FALSE,"S238158482"
"244","lobdow","Long-billed Dowitcher","Limnodromus scolopaceus","L456359","Sleepy Eye WTP","2025-05-15 07:17",2,44.2612907,-94.7197437,TRUE,FALSE,FALSE,"S238117621"
"245","lobdow","Long-billed Dowitcher","Limnodromus scolopaceus","L11510059","Spot Road Farm","2025-05-15 07:01",1,32.7969853,-113.352323,TRUE,FALSE,FALSE,"S238364387"
"246","lobdow","Long-billed Dowitcher","Limnodromus scolopaceus","L1312278","Arco Ponds","2025-05-15 06:55",25,46.1624744,-112.7791214,TRUE,FALSE,FALSE,"S238442844"
"247","lobdow","Long-billed Dowitcher","Limnodromus scolopaceus","L4289495","Vancouver Lowlands--End of Lower River Road","2025-05-15 06:40",6,45.723659,-122.7540757,TRUE,FALSE,FALSE,"S238335217"
"248","lobdow","Long-billed Dowitcher","Limnodromus scolopaceus","L3631177","ACWR North: Johns Park at Furrow Creek","2025-05-15 06:23",5,61.104654,-149.890168,TRUE,FALSE,TRUE,"S238200780"
"249","lobdow","Long-billed Dowitcher","Limnodromus scolopaceus","L212070","Glover Lane & GSL Nature Center","2025-05-15 06:12",500,40.9650238,-111.9299004,TRUE,FALSE,FALSE,"S238348685"
"250","lobdow","Long-billed Dowitcher","Limnodromus scolopaceus","L45068134","1157 South Waterfowl Way, Farmington US-UT 40.96183, -111.92852","2025-05-15 06:02",500,40.961828,-111.928521,TRUE,FALSE,TRUE,"S238311761"
"251","lobdow","Long-billed Dowitcher","Limnodromus scolopaceus","L800627","North Spit--old Weyco Settling Pond & deflation plain","2025-05-15 05:56",7,43.4210895,-124.2850935,TRUE,FALSE,FALSE,"S238195097"
"252","lobdow","Long-billed Dowitcher","Limnodromus scolopaceus","L1287940","Ferndale Flats, N of Slater Road","2025-05-14 20:13",2,48.8270399,-122.6167774,TRUE,FALSE,FALSE,"S238016773"
"253","lobdow","Long-billed Dowitcher","Limnodromus scolopaceus","L44869768","Olson Rd Wet Area (South of Thornton Rd)","2025-05-14 19:53",7,48.8608006,-122.6386911,TRUE,FALSE,TRUE,"S238015775"
"254","lobdow","Long-billed Dowitcher","Limnodromus scolopaceus","L1923166","Waterbird Way pond","2025-05-14 19:51",6,38.0257668,-122.0939807,TRUE,FALSE,FALSE,"S238023872"
"255","lobdow","Long-billed Dowitcher","Limnodromus scolopaceus","L10294433","Sibley Lake","2025-05-14 19:29",5,46.9549987,-99.7379466,TRUE,FALSE,FALSE,"S237998209"
"256","lobdow","Long-billed Dowitcher","Limnodromus scolopaceus","L448084","Woodland WTP","2025-05-14 19:05",30,38.6624345,-121.7173585,TRUE,FALSE,FALSE,"S238002093"
"257","lobdow","Long-billed Dowitcher","Limnodromus scolopaceus","L15200006","30248–30588 Stanfield Meadows Rd, Stanfield US-OR 45.78443, -119.30660","2025-05-14 19:00",8,45.784432,-119.306595,TRUE,FALSE,TRUE,"S237998713"
"258","lobdow","Long-billed Dowitcher","Limnodromus scolopaceus","L23694646","Northwest Arm of Bluewater Lake (McKinley County)","2025-05-14 18:28",1,35.323188,-108.176088,TRUE,FALSE,FALSE,"S238018651"
"259","lobdow","Long-billed Dowitcher","Limnodromus scolopaceus","L14138467","Saltese Flats","2025-05-14 18:27",4,47.6402533,-117.1261561,TRUE,FALSE,FALSE,"S237997090"
"260","lobdow","Long-billed Dowitcher","Limnodromus scolopaceus","L45015150","Port Krestof","2025-05-14 18:00",NA,57.1503204,-135.5930401,TRUE,FALSE,TRUE,"S238020403"
"261","lobdow","Long-billed Dowitcher","Limnodromus scolopaceus","L3083105","Lund WPA","2025-05-14 17:30",11,44.3369869,-96.9934845,TRUE,FALSE,FALSE,"S237947561"
"262","lobdow","Long-billed Dowitcher","Limnodromus scolopaceus","L1019091","Drummond Flats WMA","2025-05-14 17:17",12,36.3094538,-98.0698013,TRUE,FALSE,FALSE,"S237985443"
"263","lobdow","Long-billed Dowitcher","Limnodromus scolopaceus","L6471373","Quivira NWR--Big Salt Marsh--NE 170th St.","2025-05-14 16:58",5,38.2017745,-98.5267379,TRUE,FALSE,FALSE,"S237973857"
"264","lobdow","Long-billed Dowitcher","Limnodromus scolopaceus","L12973338","West Valley Bird and Wildlife Viewing Area","2025-05-14 16:50",9,48.2579407,-114.3905326,TRUE,FALSE,FALSE,"S237989033"
"265","lobdow","Long-billed Dowitcher","Limnodromus scolopaceus","L274946","Bitter Lake NWR","2025-05-14 16:42",50,33.4512089,-104.3998146,TRUE,FALSE,FALSE,"S237989249"
"266","lobdow","Long-billed Dowitcher","Limnodromus scolopaceus","L387620","Harvey Marsh","2025-05-14 16:26",34,37.4156239,-121.9809008,TRUE,FALSE,FALSE,"S238003309"
"267","lobdow","Long-billed Dowitcher","Limnodromus scolopaceus","L761141","San Elijo Lagoon--west","2025-05-14 16:00",1,33.0087881,-117.2720733,TRUE,FALSE,FALSE,"S237984137"
"268","lobdow","Long-billed Dowitcher","Limnodromus scolopaceus","L270282","Inland Sea Shorebird Reserve (restricted access)","2025-05-14 15:40",20,40.7837893,-112.100346,TRUE,FALSE,FALSE,"S237995958"
"269","lobdow","Long-billed Dowitcher","Limnodromus scolopaceus","L1481753","Pajaro Dunes--Shorebirds Pond (restricted access)","2025-05-14 15:30",2,36.8732828,-121.821171,TRUE,FALSE,FALSE,"S237951886"
"270","lobdow","Long-billed Dowitcher","Limnodromus scolopaceus","L44944925","Kenai Gas Field (restricted access)","2025-05-14 14:40",6,60.448173,-151.248104,TRUE,FALSE,TRUE,"S238006413"
"271","lobdow","Long-billed Dowitcher","Limnodromus scolopaceus","L592967","Ridgefield NWR--River 'S' Unit","2025-05-14 13:36",16,45.7990694,-122.7490082,TRUE,FALSE,FALSE,"S237984979"
"272","lobdow","Long-billed Dowitcher","Limnodromus scolopaceus","L1669998","Sugar House Pond (park along FM1425)","2025-05-14 13:31",6,26.2804286,-97.8644635,TRUE,FALSE,FALSE,"S237880463"
"273","lobdow","Long-billed Dowitcher","Limnodromus scolopaceus","L10946308","Old State Rd. 195","2025-05-14 13:15",10,47.4081603,-117.3746711,TRUE,FALSE,TRUE,"S238015822"
"274","lobdow","Long-billed Dowitcher","Limnodromus scolopaceus","L44984003","111–309 Doyle Edwards Rd, Byers US-TX 34.09111, -98.29109","2025-05-14 13:05",5,34.091114,-98.291093,TRUE,FALSE,TRUE,"S237866546"
"275","lobdow","Long-billed Dowitcher","Limnodromus scolopaceus","L2182908","North Ottawa Impoundment","2025-05-14 12:58",NA,45.9856315,-96.2471008,TRUE,FALSE,FALSE,"S237983914"
"276","lobdow","Long-billed Dowitcher","Limnodromus scolopaceus","L159562","Stewart Lake NWR","2025-05-14 12:53",8,46.3453878,-103.4339805,TRUE,FALSE,FALSE,"S237879869"
"277","lobdow","Long-billed Dowitcher","Limnodromus scolopaceus","L249812","Blacks Creek Bird Reserve","2025-05-14 12:31",1,43.4584433,-116.1426544,TRUE,FALSE,FALSE,"S237902164"
"278","lobdow","Long-billed Dowitcher","Limnodromus scolopaceus","L2128132","Cheney WA--Yoder Cove","2025-05-14 12:10",60,37.8047319,-97.8795362,TRUE,FALSE,FALSE,"S237857960"
"279","lobdow","Long-billed Dowitcher","Limnodromus scolopaceus","L753048","Malheur NWR--Central Patrol Rd.","2025-05-14 12:07",180,43.2024856,-118.8875628,TRUE,FALSE,FALSE,"S237986376"
"280","lobdow","Long-billed Dowitcher","Limnodromus scolopaceus","L14914980","Eagle Beach Rec Area, Juneau US-AK 58.52996, -134.82838","2025-05-14 11:59",4,58.529963,-134.828379,TRUE,FALSE,TRUE,"S237931507"
"281","lobdow","Long-billed Dowitcher","Limnodromus scolopaceus","L385867","Salton Sea NWR--Unit 1 (no public access north of observation deck)","2025-05-14 11:51",23,33.0826963,-115.7097244,TRUE,FALSE,FALSE,"S237879980"
"282","lobdow","Long-billed Dowitcher","Limnodromus scolopaceus","L25789467","Turnagain hood and Westchester","2025-05-14 11:48",8,61.194509,-149.930985,TRUE,FALSE,TRUE,"S237938016"
"283","lobdow","Long-billed Dowitcher","Limnodromus scolopaceus","L160935","Ballona Freshwater Marsh","2025-05-14 11:30",2,33.9701285,-118.4305573,TRUE,FALSE,FALSE,"S237890003"
"284","lobdow","Long-billed Dowitcher","Limnodromus scolopaceus","L45012746","Lake Cochise Wildlife Viewing Area","2025-05-14 11:25",14,32.2329779,-109.8247004,TRUE,FALSE,TRUE,"S238006551"
"285","lobdow","Long-billed Dowitcher","Limnodromus scolopaceus","L464480","Ninilchik--Deep Creek","2025-05-14 11:18",2,60.0325353,-151.7000127,TRUE,FALSE,FALSE,"S237887296"
"286","lobdow","Long-billed Dowitcher","Limnodromus scolopaceus","L12548090","San Joaquin Marsh","2025-05-14 11:00",4,33.6629261,-117.842401,TRUE,FALSE,TRUE,"S237889319"
"287","lobdow","Long-billed Dowitcher","Limnodromus scolopaceus","L256021","Moss Landing--Jetty Road, north jetty & State Beach","2025-05-14 10:42",1,36.8151691,-121.7900355,TRUE,FALSE,FALSE,"S237879226"
"288","lobdow","Long-billed Dowitcher","Limnodromus scolopaceus","L158585","Hewitt Lake NWR","2025-05-14 10:37",6,48.5377,-107.5896,TRUE,FALSE,FALSE,"S238144972"
"289","lobdow","Long-billed Dowitcher","Limnodromus scolopaceus","L29276931","Tillman - Hackberry Flat Survey","2025-05-14 10:36",2,34.294819,-98.956751,TRUE,FALSE,TRUE,"S237879737"
"290","lobdow","Long-billed Dowitcher","Limnodromus scolopaceus","L16174004","Artichoke WPA","2025-05-14 10:33",2,45.3787676,-96.1609225,TRUE,FALSE,FALSE,"S237940641"
"291","lobdow","Long-billed Dowitcher","Limnodromus scolopaceus","L590812","Napa-Sonoma Marshes WA--Huichica Creek Unit","2025-05-14 10:19",6,38.2076388,-122.3329353,TRUE,FALSE,FALSE,"S237860467"
"292","lobdow","Long-billed Dowitcher","Limnodromus scolopaceus","L3406540","Market Lake WMA--General","2025-05-14 10:14",6,43.7808238,-112.146163,TRUE,FALSE,FALSE,"S237828044"
"293","lobdow","Long-billed Dowitcher","Limnodromus scolopaceus","L591920","Nelson Reservoir","2025-05-14 10:06",5,48.5288834,-107.5307465,TRUE,FALSE,FALSE,"S237947001"
"294","lobdow","Long-billed Dowitcher","Limnodromus scolopaceus","L39694513","10750 Pleasanton Rd, San Antonio US-TX (29.3109,-98.4997)","2025-05-14 10:01",4,29.310924,-98.499655,TRUE,FALSE,TRUE,"S237823631"
"295","lobdow","Long-billed Dowitcher","Limnodromus scolopaceus","L6475311","Little Egypt Park","2025-05-14 09:55",4,48.1561005,-103.0394253,TRUE,FALSE,FALSE,"S237802767"
"296","lobdow","Long-billed Dowitcher","Limnodromus scolopaceus","L109339","IRWD San Joaquin Marsh & Wildlife Sanctuary, Irvine","2025-05-14 09:54",2,33.6637274,-117.8426814,TRUE,FALSE,FALSE,"S237850428"
"297","lobdow","Long-billed Dowitcher","Limnodromus scolopaceus","L12968236","Bolsa Chica Ecological Reserve-Backside (restricted access)","2025-05-14 09:45",4,33.7025628,-118.035571,TRUE,FALSE,FALSE,"S237853977"
"298","lobdow","Long-billed Dowitcher","Limnodromus scolopaceus","L282997","County Line Ponds (Grant Co.)","2025-05-14 09:31",5,46.8260629,-119.3809247,TRUE,FALSE,FALSE,"S237914256"
"299","lobdow","Long-billed Dowitcher","Limnodromus scolopaceus","L130766","Hornsby Bend (HOTE 037)","2025-05-14 09:13",2,30.2181988,-97.6458054,TRUE,FALSE,FALSE,"S237912068"
"300","lobdow","Long-billed Dowitcher","Limnodromus scolopaceus","L44967735","6234–6298 SH-8, Aline US-OK 36.49812, -98.42642","2025-05-14 09:12",14,36.498117,-98.426419,TRUE,FALSE,TRUE,"S237757890"
"301","lobdow","Long-billed Dowitcher","Limnodromus scolopaceus","L3539554","Sunnyside Wildlife Recreation Area","2025-05-14 09:07",30,46.2439223,-120.0268579,TRUE,FALSE,FALSE,"S238311001"
"302","lobdow","Long-billed Dowitcher","Limnodromus scolopaceus","L4549626","Columbus WTP","2025-05-14 09:04",1,31.8336749,-107.6243462,TRUE,FALSE,FALSE,"S237868351"
"303","lobdow","Long-billed Dowitcher","Limnodromus scolopaceus","L1201545","Villa Creek Marsh","2025-05-14 08:54",4,35.4620479,-120.9690126,TRUE,FALSE,TRUE,"S237925922"
"304","lobdow","Long-billed Dowitcher","Limnodromus scolopaceus","L44971241","46316–46356 Sanford Rd, Ronan US-MT 47.53722, -114.17726","2025-05-14 08:53",1,47.537215,-114.177259,TRUE,FALSE,TRUE,"S237777621"
"305","lobdow","Long-billed Dowitcher","Limnodromus scolopaceus","L24642449","Lonesome Lake, Big Sandy, Montana, US (48.262, -110.195)","2025-05-14 08:42",107,48.2616489,-110.1948972,TRUE,TRUE,TRUE,"S237941748"
"306","lobdow","Long-billed Dowitcher","Limnodromus scolopaceus","L837268","Sacramento NWR--Auto Route & Visitor Center","2025-05-14 08:08",25,39.4284385,-122.1564999,TRUE,FALSE,FALSE,"S237906613"
"307","lobdow","Long-billed Dowitcher","Limnodromus scolopaceus","L2181197","Municipality of Anchorage--former Anchorage Regional Compost Facility","2025-05-14 07:44",1,61.1753158,-150.0330267,TRUE,FALSE,FALSE,"S237809395"
"308","lobdow","Long-billed Dowitcher","Limnodromus scolopaceus","L44938523","Airport Dike Rd, Fairbanks US-AK 64.79609, -147.89580","2025-05-14 07:34",6,64.79609,-147.895795,TRUE,FALSE,TRUE,"S237813122"
"309","lobdow","Long-billed Dowitcher","Limnodromus scolopaceus","L3068595","Malheur NWR--Central Patrol Rd.--Buena Vista Rd to Diamond Rd.","2025-05-14 07:27",20,43.0547154,-118.8386822,TRUE,FALSE,FALSE,"S237833914"
"310","lobdow","Long-billed Dowitcher","Limnodromus scolopaceus","L267812","San Jacinto Wildlife Area--Mystic Lake","2025-05-14 06:49",2,33.8839706,-117.0884961,TRUE,FALSE,FALSE,"S237941841"
"311","lobdow","Long-billed Dowitcher","Limnodromus scolopaceus","L30970067","Tony Knowles Coastal Trail, Anchorage US-AK 61.20661, -149.92875","2025-05-14 06:32",1,61.206611,-149.928751,TRUE,FALSE,TRUE,"S237839886"
"312","lobdow","Long-billed Dowitcher","Limnodromus scolopaceus","L1312792","Ketchikan Airport Perimeter","2025-05-14 06:15",6,55.3612831,-131.7197227,TRUE,FALSE,FALSE,"S237955182"
"313","lobdow","Long-billed Dowitcher","Limnodromus scolopaceus","L158902","McKenzie Slough","2025-05-14 06:05",15,46.7942788,-100.4157696,TRUE,FALSE,FALSE,"S238447132"
"314","lobdow","Long-billed Dowitcher","Limnodromus scolopaceus","L710850","Glendale Recharge Ponds","2025-05-14 06:04",10,33.5242237,-112.286582,TRUE,FALSE,FALSE,"S237839219"
"315","lobdow","Long-billed Dowitcher","Limnodromus scolopaceus","L44938322","34371–34999 Fernando E Rd, Rio Hondo US-TX 26.26113, -97.46232","2025-05-13 20:06",5,26.261134,-97.462321,TRUE,FALSE,TRUE,"S237584429"
"316","lobdow","Long-billed Dowitcher","Limnodromus scolopaceus","L45091911","262nd St Shorebirds","2025-05-13 19:37",30,46.756615,-100.374642,TRUE,FALSE,TRUE,"S238447100"
"317","lobdow","Long-billed Dowitcher","Limnodromus scolopaceus","L339165","North Diversion Channel Outflow (East of Fourth Street Bridge only)","2025-05-13 19:29",3,35.2084325,-106.6051265,TRUE,FALSE,FALSE,"S237590900"
"318","lobdow","Long-billed Dowitcher","Limnodromus scolopaceus","L44937230","N-12, Naper US-NE 42.91507, -98.97968","2025-05-13 19:21",7,42.915068,-98.979678,TRUE,FALSE,TRUE,"S237577646"
"319","lobdow","Long-billed Dowitcher","Limnodromus scolopaceus","L44938494","Kuna-Mora Road, Kuna, Idaho, US (43.452, -116.132)","2025-05-13 19:08",50,43.4518051,-116.131864,TRUE,TRUE,TRUE,"S237585596"
"320","lobdow","Long-billed Dowitcher","Limnodromus scolopaceus","L15065561","Airport Perimeter Road, Fairbanks, Alaska, US (64.8, -147.87)","2025-05-13 18:39",20,64.7996346,-147.8703711,TRUE,FALSE,TRUE,"S237598189"
"321","lobdow","Long-billed Dowitcher","Limnodromus scolopaceus","L1612967","John Martin Reservoir--Dam area","2025-05-13 18:36",1,38.0737712,-102.9403496,TRUE,FALSE,FALSE,"S237607422"
"322","lobdow","Long-billed Dowitcher","Limnodromus scolopaceus","L726903","Fort Stockton WTP","2025-05-13 18:35",17,30.912461,-102.8798819,TRUE,TRUE,FALSE,"S237565672"
"323","lobdow","Long-billed Dowitcher","Limnodromus scolopaceus","L924821","Gloyd Seeps Wetland","2025-05-13 18:32",3,47.2414827,-119.2848301,TRUE,FALSE,FALSE,"S237615658"
"324","lobdow","Long-billed Dowitcher","Limnodromus scolopaceus","L2898687","Muirhead Springs Forest Preserve","2025-05-13 18:30",1,42.0466113,-88.4521948,TRUE,FALSE,FALSE,"S237627252"
"325","lobdow","Long-billed Dowitcher","Limnodromus scolopaceus","L210257","Weld CR 59 wetlands","2025-05-13 18:02",NA,40.3609628,-104.5068109,TRUE,FALSE,FALSE,"S237567832"
"326","lobdow","Long-billed Dowitcher","Limnodromus scolopaceus","L21270660","Dale Rd.  Tanana River","2025-05-13 18:00",40,64.794998,-147.895775,TRUE,FALSE,TRUE,"S237620627"
"327","lobdow","Long-billed Dowitcher","Limnodromus scolopaceus","L32538128","Sloan Lakes","2025-05-13 17:42",10,47.542414,-114.180036,TRUE,FALSE,TRUE,"S237597751"
"328","lobdow","Long-billed Dowitcher","Limnodromus scolopaceus","L41219526","Niobrara boat ramp and WTP","2025-05-13 17:41",7,42.7609622,-98.0274796,TRUE,FALSE,FALSE,"S237533962"
"329","lobdow","Long-billed Dowitcher","Limnodromus scolopaceus","L1386107","Northlake Park & Loch Lomond Pond","2025-05-13 17:38",1,40.3620139,-111.859546,TRUE,FALSE,FALSE,"S238976269"
"330","lobdow","Long-billed Dowitcher","Limnodromus scolopaceus","L212323","Lee Kay Ponds","2025-05-13 17:31",5,40.7397136,-112.0437241,TRUE,FALSE,FALSE,"S237591951"
"331","lobdow","Long-billed Dowitcher","Limnodromus scolopaceus","L44932533","8577–8599 CR 324 Slone Ranch Rd, Palacios US-TX 28.78229, -96.28261","2025-05-13 17:30",4,28.782286,-96.282614,TRUE,FALSE,TRUE,"S237537382"
"332","lobdow","Long-billed Dowitcher","Limnodromus scolopaceus","L44655017","Harrison Ranch (private)","2025-05-13 17:30",4,28.791195,-96.274141,TRUE,FALSE,TRUE,"S237605324"
"333","lobdow","Long-billed Dowitcher","Limnodromus scolopaceus","L2342380","Malheur NWR--Central Patrol Rd.--Krumbo Reservoir Rd. to P Ranch","2025-05-13 17:19",20,42.8368515,-118.8856745,TRUE,FALSE,FALSE,"S237603517"
"334","lobdow","Long-billed Dowitcher","Limnodromus scolopaceus","L44938291","Airport Perimeter Rd, Fairbanks US-AK 64.79751, -147.87537","2025-05-13 17:16",50,64.797509,-147.875369,TRUE,FALSE,TRUE,"S237584235"
"335","lobdow","Long-billed Dowitcher","Limnodromus scolopaceus","L578869","Stillhouse Hollow Lake- Union Grove WMA","2025-05-13 17:09",2,31.0109757,-97.5938272,TRUE,FALSE,FALSE,"S237847968"
"336","lobdow","Long-billed Dowitcher","Limnodromus scolopaceus","L159708","Loloff Reservoir","2025-05-13 16:58",2,40.3533207,-104.5238106,TRUE,FALSE,FALSE,"S237548290"
"337","lobdow","Long-billed Dowitcher","Limnodromus scolopaceus","L4479046","Creamer's Field MWR--Seasonal Wetland Trail","2025-05-13 16:53",3,64.866383,-147.7409676,TRUE,FALSE,FALSE,"S237580200"
"338","lobdow","Long-billed Dowitcher","Limnodromus scolopaceus","L3809656","Helen's Pond, Dungeness","2025-05-13 16:45",3,48.1496,-123.118,TRUE,FALSE,FALSE,"S237567724"
"339","lobdow","Long-billed Dowitcher","Limnodromus scolopaceus","L7377331","WA-Spokane--US-195-flooded fields b/t Spangle and Plaza","2025-05-13 16:39",9,47.374481,-117.38427,TRUE,FALSE,TRUE,"S237552558"
"340","lobdow","Long-billed Dowitcher","Limnodromus scolopaceus","L9072169","Sanduri Ave.","2025-05-13 16:36",29,64.8045555,-147.749122,TRUE,FALSE,TRUE,"S237604519"
"341","lobdow","Long-billed Dowitcher","Limnodromus scolopaceus","L44933840","Old Kucks big pond","2025-05-13 16:29",10,47.594519,-118.25372,TRUE,FALSE,TRUE,"S237547743"
"342","lobdow","Long-billed Dowitcher","Limnodromus scolopaceus","L937659","Kenai--Tarbox Wildlife Viewing Platform","2025-05-13 16:26",2,60.5420341,-151.2194681,TRUE,FALSE,FALSE,"S237574252"
"343","lobdow","Long-billed Dowitcher","Limnodromus scolopaceus","L338774","Neegronda Reservoir","2025-05-13 16:14",8,38.3034071,-102.7543708,TRUE,FALSE,FALSE,"S237529878"
"344","lobdow","Long-billed Dowitcher","Limnodromus scolopaceus","L559390","Middleton Island (restricted access)","2025-05-13 16:11",3,59.4278983,-146.33008,TRUE,FALSE,FALSE,"S239309877"
"345","lobdow","Long-billed Dowitcher","Limnodromus scolopaceus","L3804094","Ruby Lake NWR--Auto Tour South","2025-05-13 15:57",19,40.1756592,-115.4802957,TRUE,FALSE,FALSE,"S237586531"
"346","lobdow","Long-billed Dowitcher","Limnodromus scolopaceus","L44928182","Bosque Redondo Park, Fort Sumner US-NM 34.42953, -104.21294","2025-05-13 15:46",3,34.429531,-104.212938,TRUE,FALSE,TRUE,"S237510260"
"347","lobdow","Long-billed Dowitcher","Limnodromus scolopaceus","L44937428","7498 W Tawa Pl, Prescott US-AZ 34.76034, -112.60039","2025-05-13 15:23",4,34.760338,-112.600387,TRUE,FALSE,TRUE,"S237578805"
"348","lobdow","Long-billed Dowitcher","Limnodromus scolopaceus","L44935588","1071 S Hillhurst Rd, Vancouver US-WA 45.80694, -122.74316","2025-05-13 14:27",5,45.806938,-122.74316,TRUE,FALSE,TRUE,"S237566762"
"349","lobdow","Long-billed Dowitcher","Limnodromus scolopaceus","L4491511","Copper River Hwy.--Pavilion","2025-05-13 14:15",11,60.5014816,-145.5113786,TRUE,FALSE,FALSE,"S237916521"
"350","lobdow","Long-billed Dowitcher","Limnodromus scolopaceus","L827977","Bayfront Park (J St.)","2025-05-13 14:12",1,32.6186091,-117.1033868,TRUE,FALSE,FALSE,"S237513687"
"351","lobdow","Long-billed Dowitcher","Limnodromus scolopaceus","L16871107","Underwood--CR-12 Slough","2025-05-13 14:08",16,47.501856,-101.161843,TRUE,FALSE,TRUE,"S237590561"
"352","lobdow","Long-billed Dowitcher","Limnodromus scolopaceus","L385598","Bark Bay Slough SNA","2025-05-13 13:00",1,46.8495085,-91.1990547,TRUE,FALSE,FALSE,"S237546124"
"353","lobdow","Long-billed Dowitcher","Limnodromus scolopaceus","L1594731","Malheur NWR--Diamond Ln.","2025-05-13 12:48",23,43.0090177,-118.7228851,TRUE,FALSE,FALSE,"S237490219"
"354","lobdow","Long-billed Dowitcher","Limnodromus scolopaceus","L44939265","ND-200, McClusky US-ND 47.48706, -100.36980","2025-05-13 12:48",16,47.487059,-100.369795,TRUE,FALSE,TRUE,"S237590356"
"355","lobdow","Long-billed Dowitcher","Limnodromus scolopaceus","L910074","Worthing Marshes","2025-05-13 12:40",1,43.2841099,-96.7656577,TRUE,FALSE,FALSE,"S237430685"
"356","lobdow","Long-billed Dowitcher","Limnodromus scolopaceus","L44921117","Button Road Mesa Playa","2025-05-13 12:32",55,33.441162,-103.65338,TRUE,TRUE,TRUE,"S237467838"
"357","lobdow","Long-billed Dowitcher","Limnodromus scolopaceus","L21892412","Bayshore Gardens Condominiums & Beaches","2025-05-13 12:24",1,27.4244471,-82.5986148,TRUE,FALSE,FALSE,"S237398500"
"358","lobdow","Long-billed Dowitcher","Limnodromus scolopaceus","L44934959","Tonsina Beach","2025-05-13 12:18",6,60.049473,-149.447375,TRUE,FALSE,TRUE,"S237561762"
"359","lobdow","Long-billed Dowitcher","Limnodromus scolopaceus","L961319","Beluga--North Bog","2025-05-13 12:15",2,61.2094437,-151.0248041,TRUE,FALSE,FALSE,"S237606023"
"360","lobdow","Long-billed Dowitcher","Limnodromus scolopaceus","L2520115","Kern NWR--South Auto Tour Route","2025-05-13 12:13",4,35.7486973,-119.5972538,TRUE,FALSE,FALSE,"S237477414"
"361","lobdow","Long-billed Dowitcher","Limnodromus scolopaceus","L584006","Yanney Heritage Park","2025-05-13 12:00",5,40.6816469,-99.1070223,TRUE,FALSE,FALSE,"S238014685"
"362","lobdow","Long-billed Dowitcher","Limnodromus scolopaceus","L7428374","Nelson Reservoir (south Phillips Co.)","2025-05-13 11:59",28,48.0612278,-107.8910891,TRUE,FALSE,FALSE,"S237447928"
"363","lobdow","Long-billed Dowitcher","Limnodromus scolopaceus","L2263572","San Joaquin Wildlife Sanctuary--Fledgling Loop Trail","2025-05-13 11:50",3,33.6609892,-117.8437141,TRUE,FALSE,FALSE,"S237535731"
"364","lobdow","Long-billed Dowitcher","Limnodromus scolopaceus","L198798","Shollenberger Park","2025-05-13 11:19",3,38.2262552,-122.5976274,TRUE,FALSE,FALSE,"S237449668"
"365","lobdow","Long-billed Dowitcher","Limnodromus scolopaceus","L27285147","Heartland Expressway, Minatare, Nebraska, US (41.822, -103.547)","2025-05-13 11:08",1,41.821688,-103.546874,TRUE,FALSE,TRUE,"S237436121"
"366","lobdow","Long-billed Dowitcher","Limnodromus scolopaceus","L492645","Shasta Valley Wildlife Area","2025-05-13 11:00",20,41.7192157,-122.4745989,TRUE,FALSE,FALSE,"S237484878"
"367","lobdow","Long-billed Dowitcher","Limnodromus scolopaceus","L44338583","Button Mesa Road Playa","2025-05-13 11:00",25,33.4406163,-103.6526912,TRUE,FALSE,TRUE,"S237421702"
"368","lobdow","Long-billed Dowitcher","Limnodromus scolopaceus","L463228","White City Lagoons (Kirtland Rd. Ponds)","2025-05-13 10:52",3,42.4336881,-122.9128075,TRUE,FALSE,FALSE,"S237441466"
"369","lobdow","Long-billed Dowitcher","Limnodromus scolopaceus","L907929","Ray Lake East","2025-05-13 10:48",7,42.9537527,-108.7914276,TRUE,FALSE,FALSE,"S237514178"
"370","lobdow","Long-billed Dowitcher","Limnodromus scolopaceus","L44914901","Wet spot","2025-05-13 10:32",6,47.372889,-117.380788,TRUE,FALSE,TRUE,"S237434459"
"371","lobdow","Long-billed Dowitcher","Limnodromus scolopaceus","L42984004","Flooded Field Behind Barnside Creamery","2025-05-13 10:14",1,41.6025479,-83.1441554,TRUE,FALSE,TRUE,"S237348979"
"372","lobdow","Long-billed Dowitcher","Limnodromus scolopaceus","L3671978","N Harney Ln Ponds (restricted access)","2025-05-13 10:14",8,43.6287913,-118.8611269,TRUE,FALSE,FALSE,"S237426682"
"373","lobdow","Long-billed Dowitcher","Limnodromus scolopaceus","L1882190","Linda S. Castro Nature Sanctuary","2025-05-13 09:56",6,28.0740695,-97.0416845,TRUE,FALSE,FALSE,"S237365500"
"374","lobdow","Long-billed Dowitcher","Limnodromus scolopaceus","L30421703","3300–3398 Old Highway 10, Valley City US-ND 46.93307, -98.10173","2025-05-13 09:51",4,46.93307,-98.101734,TRUE,FALSE,TRUE,"S237360306"
"375","lobdow","Long-billed Dowitcher","Limnodromus scolopaceus","L24178847","Northwest Tour Route Road, Ridgefield, Washington, US (45.799, -122.756)","2025-05-13 09:45",1,45.799026,-122.7560668,TRUE,FALSE,TRUE,"S237497030"
"376","lobdow","Long-billed Dowitcher","Limnodromus scolopaceus","L285737","Chico Basin Ranch (Pueblo Co) (mandatory registration required at www.aikenaudubon.com)","2025-05-13 09:41",3,38.48682,-104.43801,TRUE,FALSE,FALSE,"S237498493"
"377","lobdow","Long-billed Dowitcher","Limnodromus scolopaceus","L44915228","Ridgefield wildlife blind","2025-05-13 09:38",1,45.79863,-122.753237,TRUE,FALSE,TRUE,"S237436308"
"378","lobdow","Long-billed Dowitcher","Limnodromus scolopaceus","L502607","Bishop WTP (restricted access)","2025-05-13 09:20",16,37.3561041,-118.3751106,TRUE,FALSE,FALSE,"S237428735"
"379","lobdow","Long-billed Dowitcher","Limnodromus scolopaceus","L44973571","Cranberry Beach Rd","2025-05-13 09:08",1,46.7944706,-124.0974632,TRUE,FALSE,FALSE,"S237796278"
"380","lobdow","Long-billed Dowitcher","Limnodromus scolopaceus","L352261","Pebble Beach--Pt. Joe to Ocean Road shores","2025-05-13 09:03",3,36.605319,-121.9589952,TRUE,FALSE,FALSE,"S237407818"
"381","lobdow","Long-billed Dowitcher","Limnodromus scolopaceus","L9306796","Svensen Island","2025-05-13 08:55",1,46.175724,-123.652065,TRUE,FALSE,TRUE,"S237482443"
"382","lobdow","Long-billed Dowitcher","Limnodromus scolopaceus","L44828095","North Coastal Trail, Anchorage US-AK 61.20962, -149.92314","2025-05-13 08:37",1,61.209624,-149.92314,TRUE,FALSE,TRUE,"S237402067"
"383","lobdow","Long-billed Dowitcher","Limnodromus scolopaceus","L2390461","Okanogan River--Monse Bridge","2025-05-13 08:33",5,48.1401395,-119.6709609,TRUE,FALSE,FALSE,"S237553997"
"384","lobdow","Long-billed Dowitcher","Limnodromus scolopaceus","L44904506","46430 Sanford Rd, Ronan US-MT 47.53761, -114.17723","2025-05-13 08:15",7,47.537608,-114.177229,TRUE,FALSE,TRUE,"S237379356"
"385","lobdow","Long-billed Dowitcher","Limnodromus scolopaceus","L44903416","95901, Marysville US-CA (39.1120,-121.5213)","2025-05-13 08:00",5,39.112029,-121.52134,TRUE,FALSE,TRUE,"S237373817"
"386","lobdow","Long-billed Dowitcher","Limnodromus scolopaceus","L44892345","1637–1695 County Road 109, Seymour US-TX 33.59754, -99.30628","2025-05-13 07:51",12,33.597543,-99.306277,TRUE,FALSE,TRUE,"S237305714"
"387","lobdow","Long-billed Dowitcher","Limnodromus scolopaceus","L523265","Ship Creek--Ship Creek mouth & Small Boat Launch Rd.","2025-05-13 07:43",10,61.2250765,-149.9045473,TRUE,FALSE,FALSE,"S237383733"
"388","lobdow","Long-billed Dowitcher","Limnodromus scolopaceus","L285733","Chico Basin Ranch--headquarters area (Pueblo Co) (mandatory registration required at www.aikenaudubon.com)","2025-05-13 07:28",2,38.5070217,-104.4403696,TRUE,FALSE,FALSE,"S237358548"
"389","lobdow","Long-billed Dowitcher","Limnodromus scolopaceus","L3520197","Johnson Lake WPA","2025-05-13 07:19",7,48.3358552,-104.5726132,TRUE,FALSE,FALSE,"S237329129"
"390","lobdow","Long-billed Dowitcher","Limnodromus scolopaceus","L767320","Anchor Point","2025-05-13 07:10",3,59.7790573,-151.8633485,TRUE,FALSE,FALSE,"S238023425"
"391","lobdow","Long-billed Dowitcher","Limnodromus scolopaceus","L1272980","Otter Slough CA","2025-05-13 07:07",3,36.7255392,-90.0963879,TRUE,FALSE,FALSE,"S237584422"
"392","lobdow","Long-billed Dowitcher","Limnodromus scolopaceus","L1509906","Utah Lake Parkway Trail (North Shore)","2025-05-13 06:30",1,40.3622447,-111.8832118,TRUE,FALSE,FALSE,"S237608104"
"393","lobdow","Long-billed Dowitcher","Limnodromus scolopaceus","L31026249","69333, Ashby US-NE (41.9345,-101.9733)","2025-05-13 05:33",5,41.934535,-101.973265,TRUE,FALSE,TRUE,"S237274743"
"394","lobdow","Long-billed Dowitcher","Limnodromus scolopaceus","L7506647","Thunder Basin NG--Dunham Road","2025-05-13 05:15",2,43.871043,-104.453527,TRUE,FALSE,FALSE,"S237472110"
"395","lobdow","Long-billed Dowitcher","Limnodromus scolopaceus","L913173","Kellys Slough NWR--Observation platform","2025-05-12 20:34",NA,47.9849436,-97.2616111,TRUE,FALSE,FALSE,"S239190641"
"396","lobdow","Long-billed Dowitcher","Limnodromus scolopaceus","L4459347","Grass Valley Road Pond (private, view from road)","2025-05-12 20:18",1,39.6270278,-107.6482326,TRUE,TRUE,FALSE,"S237175911"
"397","lobdow","Long-billed Dowitcher","Limnodromus scolopaceus","L2161824","Springer/Bump Sullivan Wildlife Habitat Management Area--Bump-Sullivan Reservoir","2025-05-12 19:16",NA,41.863169,-104.3146706,TRUE,FALSE,FALSE,"S237164974"
"398","lobdow","Long-billed Dowitcher","Limnodromus scolopaceus","L43298181","Walk the Plank Rd","2025-05-12 19:05",2,44.9054234,-97.3759869,TRUE,FALSE,TRUE,"S237175340"
"399","lobdow","Long-billed Dowitcher","Limnodromus scolopaceus","L109489","Bodega Bay--harbor and immediate vicinity","2025-05-12 18:14",60,38.3238144,-123.0488491,TRUE,FALSE,FALSE,"S237176967"
"400","lobdow","Long-billed Dowitcher","Limnodromus scolopaceus","L32342946","Springer/Bump-Sullivan WHMA—James F. Powers Wetlands","2025-05-12 18:11",1,41.863529,-104.290196,TRUE,FALSE,FALSE,"S238996769"
"401","lobdow","Long-billed Dowitcher","Limnodromus scolopaceus","L44860922","1701 Illinois Plant Road, Lake Arthur, Louisiana, US (30.063, -92.912)","2025-05-12 18:01",3,30.0631065,-92.9116683,TRUE,FALSE,TRUE,"S237110791"
"402","lobdow","Long-billed Dowitcher","Limnodromus scolopaceus","L19267856","5300–5700 Grass Valley Rd, Rifle US-CO 39.62634, -107.63793","2025-05-12 17:48",1,39.626344,-107.637931,TRUE,TRUE,TRUE,"S237156833"
"403","lobdow","Long-billed Dowitcher","Limnodromus scolopaceus","L19403313","390th Street Paddies","2025-05-12 17:12",2,46.577899,-93.57277,TRUE,FALSE,FALSE,"S237098045"
"404","lobdow","Long-billed Dowitcher","Limnodromus scolopaceus","L1766904","McCabe Lane Wetlands","2025-05-12 17:11",1,38.5157289,-106.9935485,TRUE,FALSE,FALSE,"S237125327"
"405","lobdow","Long-billed Dowitcher","Limnodromus scolopaceus","L788284","Homer--Beluga Slough & Bishops Beach","2025-05-12 16:45",2,59.6385129,-151.5362263,TRUE,FALSE,FALSE,"S237414409"
"406","lobdow","Long-billed Dowitcher","Limnodromus scolopaceus","L31132666","Intersection of 14th St SE and 98th Ave SE, Wimbledon, ND","2025-05-12 16:44",4,47.211539,-98.424522,TRUE,FALSE,TRUE,"S237168851"
"407","lobdow","Long-billed Dowitcher","Limnodromus scolopaceus","L874514","North Platte WTP","2025-05-12 16:39",6,41.1189351,-100.7230532,TRUE,FALSE,FALSE,"S237088458"
"408","lobdow","Long-billed Dowitcher","Limnodromus scolopaceus","L755849","Ketchikan--Herring Cove/Bay","2025-05-12 16:11",2,55.3246522,-131.5211105,TRUE,FALSE,FALSE,"S237159793"
"409","lobdow","Long-billed Dowitcher","Limnodromus scolopaceus","L891066","Davenport Area--Old Kucks Rd.","2025-05-12 15:54",16,47.5934593,-118.2543039,TRUE,FALSE,FALSE,"S237158119"
"410","lobdow","Long-billed Dowitcher","Limnodromus scolopaceus","L673436","Sonny Bono Salton Sea NWR--Union Tract / Visitor Center","2025-05-12 15:53",5,33.1774666,-115.6150961,TRUE,FALSE,FALSE,"S237148720"
"411","lobdow","Long-billed Dowitcher","Limnodromus scolopaceus","L1002743","Lake Arrowhead--western end (Archer Co.)","2025-05-12 15:48",2,33.6785689,-98.4642996,TRUE,FALSE,FALSE,"S237107496"
"412","lobdow","Long-billed Dowitcher","Limnodromus scolopaceus","L929964","Beluga--South Bog","2025-05-12 15:43",8,61.1223093,-151.1026955,TRUE,FALSE,FALSE,"S237178736"
"413","lobdow","Long-billed Dowitcher","Limnodromus scolopaceus","L1000975","Quanah- Depot Playa","2025-05-12 15:41",1,34.2825828,-99.7213018,TRUE,FALSE,FALSE,"S237055616"
"414","lobdow","Long-billed Dowitcher","Limnodromus scolopaceus","L914873","Lake Byllesby Regional Park--west end access (Dakota Co.)","2025-05-12 15:33",2,44.5245079,-93.0059838,TRUE,FALSE,FALSE,"S237287832"
"415","lobdow","Long-billed Dowitcher","Limnodromus scolopaceus","L44850948","6684 East County Road 700 North, Mooreland, Indiana, US (40.033, -85.257)","2025-05-12 15:26",9,40.0334837,-85.257229,TRUE,FALSE,TRUE,"S237049829"
"416","lobdow","Long-billed Dowitcher","Limnodromus scolopaceus","L131620","Cheraw Lake","2025-05-12 15:08",12,38.1007663,-103.5127017,TRUE,FALSE,FALSE,"S237164445"
"417","lobdow","Long-billed Dowitcher","Limnodromus scolopaceus","L1161518","Glenn Hwy.--Tahneta Lake & Startup Creek","2025-05-12 15:06",20,61.9056665,-147.2992434,TRUE,FALSE,FALSE,"S237154249"
"418","lobdow","Long-billed Dowitcher","Limnodromus scolopaceus","L2376984","Homer--Beluga Lake (east end & overlook)","2025-05-12 15:04",8,59.6446348,-151.4919913,TRUE,FALSE,FALSE,"S237185237"
"419","lobdow","Long-billed Dowitcher","Limnodromus scolopaceus","L35597549","Hernando County Airport Water Reclamation Facility","2025-05-12 15:00",6,28.4520015,-82.4815986,TRUE,FALSE,FALSE,"S237350631"
"420","lobdow","Long-billed Dowitcher","Limnodromus scolopaceus","L44862729","Baylands Nature Preserve, Palo Alto US-CA (37.4442,-122.1069)","2025-05-12 14:55",4,37.44419,-122.106932,TRUE,FALSE,TRUE,"S237123220"
"421","lobdow","Long-billed Dowitcher","Limnodromus scolopaceus","L44851750","Seasonal pond CR T","2025-05-12 14:48",3,37.993606,-105.989145,TRUE,FALSE,TRUE,"S237054419"
"422","lobdow","Long-billed Dowitcher","Limnodromus scolopaceus","L10215017","Turnaround","2025-05-12 14:37",2,57.0581341,-135.3500215,TRUE,FALSE,TRUE,"S237099844"
"423","lobdow","Long-billed Dowitcher","Limnodromus scolopaceus","L1110101","Matagorda Co.- CR383/CR381 Sod Farm area","2025-05-12 14:32",8,28.7628438,-96.1027765,TRUE,FALSE,FALSE,"S237029668"
"424","lobdow","Long-billed Dowitcher","Limnodromus scolopaceus","L15140325","San Elijo Lagoon - West of Rios","2025-05-12 14:19",1,33.0050677,-117.2744145,TRUE,FALSE,TRUE,"S237076323"
"425","lobdow","Long-billed Dowitcher","Limnodromus scolopaceus","L1759273","Greenhouse Ln.","2025-05-12 14:07",3,43.512015,-119.0786411,TRUE,FALSE,FALSE,"S237069416"
"426","lobdow","Long-billed Dowitcher","Limnodromus scolopaceus","L827128","Hecla Ponds","2025-05-12 14:00",8,45.8786464,-98.1308215,TRUE,FALSE,FALSE,"S237175904"
"427","lobdow","Long-billed Dowitcher","Limnodromus scolopaceus","L246035","Famosa Slough","2025-05-12 13:41",1,32.7504404,-117.2283546,TRUE,FALSE,FALSE,"S237082397"
"428","lobdow","Long-billed Dowitcher","Limnodromus scolopaceus","L22229545","Utah Lake State Park","2025-05-12 13:26",7,40.240472,-111.739848,TRUE,FALSE,TRUE,"S237032785"
"429","lobdow","Long-billed Dowitcher","Limnodromus scolopaceus","L391210","Point Bridget SP","2025-05-12 13:15",3,58.6640847,-134.9630928,TRUE,FALSE,FALSE,"S237178113"
"430","lobdow","Long-billed Dowitcher","Limnodromus scolopaceus","L657546","Lower Klamath NWR--Auto Tour Route","2025-05-12 12:58",15,41.9717075,-121.7260158,TRUE,FALSE,FALSE,"S237179878"
"431","lobdow","Long-billed Dowitcher","Limnodromus scolopaceus","L882592","McAlister Park, Lubbock","2025-05-12 12:10",3,33.5422531,-101.9487476,TRUE,FALSE,FALSE,"S237336539"
"432","lobdow","Long-billed Dowitcher","Limnodromus scolopaceus","L361018","Lower River Road Ponds","2025-05-12 11:38",1,33.3624704,-112.6889563,TRUE,FALSE,FALSE,"S238461654"
"433","lobdow","Long-billed Dowitcher","Limnodromus scolopaceus","L628412","Kern NWR","2025-05-12 11:36",35,35.7592007,-119.5933604,TRUE,FALSE,FALSE,"S237177294"
"434","lobdow","Long-billed Dowitcher","Limnodromus scolopaceus","L164961","Bear River MBR--Auto Tour Loop","2025-05-12 11:25",180,41.4692291,-112.2947788,TRUE,FALSE,FALSE,"S237032556"
"435","lobdow","Long-billed Dowitcher","Limnodromus scolopaceus","L7853433","Matagorda Co.--TX60 at Dryer rd. turf farm","2025-05-12 11:02",3,28.854801,-95.943022,TRUE,FALSE,FALSE,"S236938599"
"436","lobdow","Long-billed Dowitcher","Limnodromus scolopaceus","L9844017","Tule Lake NWR--Tule Lake overlook","2025-05-12 11:01",9,41.8974745,-121.5640754,TRUE,FALSE,FALSE,"S237179677"
"437","lobdow","Long-billed Dowitcher","Limnodromus scolopaceus","L168162","Sweitzer Lake SP","2025-05-12 10:48",2,38.712734,-108.032265,TRUE,FALSE,FALSE,"S237590963"
"438","lobdow","Long-billed Dowitcher","Limnodromus scolopaceus","L6956499","Pond north of Horseshoe Reservoir","2025-05-12 10:43",5,40.4515191,-105.0518274,TRUE,FALSE,FALSE,"S236949585"
"439","lobdow","Long-billed Dowitcher","Limnodromus scolopaceus","L247305","Central Park Pond","2025-05-12 10:34",1,45.8284823,-111.2841328,TRUE,FALSE,FALSE,"S236966693"
"440","lobdow","Long-billed Dowitcher","Limnodromus scolopaceus","L459755","Pescadero Marsh and Natural Preserve--(North pond,lagoon and marsh trails east of Hwy 1)","2025-05-12 10:30",6,37.2681846,-122.4079944,TRUE,FALSE,FALSE,"S238574384"
"441","lobdow","Long-billed Dowitcher","Limnodromus scolopaceus","L3870544","Ketchikan Int. Airport--floatplane base","2025-05-12 10:26",1,55.3585752,-131.7118864,TRUE,FALSE,FALSE,"S237198380"
"442","lobdow","Long-billed Dowitcher","Limnodromus scolopaceus","L44835916","36600–36602 CR-409, Princeton US-OR 43.04501, -118.83856","2025-05-12 10:22",20,43.045007,-118.838559,TRUE,FALSE,TRUE,"S236968124"
"443","lobdow","Long-billed Dowitcher","Limnodromus scolopaceus","L464323","Kirby Lake (PHP 005)","2025-05-12 10:18",4,32.3724227,-99.7345734,TRUE,FALSE,FALSE,"S237368372"
"444","lobdow","Long-billed Dowitcher","Limnodromus scolopaceus","L44856040","Howell Reservoir","2025-05-12 10:06",5,43.75354,-104.191949,TRUE,FALSE,TRUE,"S237079556"
"445","lobdow","Long-billed Dowitcher","Limnodromus scolopaceus","L38009480","Boat Harbor Drive, Provo, Utah, US (40.24, -111.734)","2025-05-12 09:58",12,40.2396258,-111.7342266,TRUE,FALSE,TRUE,"S236989028"
"446","lobdow","Long-billed Dowitcher","Limnodromus scolopaceus","L44852097","Auto selected 55.61824, -132.93374","2025-05-12 09:57",1,55.618242,-132.933741,TRUE,FALSE,TRUE,"S237056817"
"447","lobdow","Long-billed Dowitcher","Limnodromus scolopaceus","L44915378","Swan song","2025-05-12 09:57",1,55.618451,-132.934047,TRUE,FALSE,TRUE,"S237437085"
"448","lobdow","Long-billed Dowitcher","Limnodromus scolopaceus","L1312636","Big Salt Lake","2025-05-12 09:54",1,55.626833,-132.9428101,TRUE,FALSE,FALSE,"S237437835"
"449","lobdow","Long-billed Dowitcher","Limnodromus scolopaceus","L365439","Pastorius Reservoir","2025-05-12 09:45",1,37.1999797,-107.8119278,TRUE,FALSE,FALSE,"S236954722"
"450","lobdow","Long-billed Dowitcher","Limnodromus scolopaceus","L247312","Freezout Lake WMA","2025-05-12 09:25",50,47.6657859,-112.0112392,TRUE,FALSE,FALSE,"S237006030"
"451","lobdow","Long-billed Dowitcher","Limnodromus scolopaceus","L578601","Doran Regional Park - entrance pond to jetty","2025-05-12 09:00",2,38.3146057,-123.0438066,TRUE,FALSE,FALSE,"S237182767"
"452","lobdow","Long-billed Dowitcher","Limnodromus scolopaceus","L1283484","Quivira NWR--Migrant's Mile & Park Smith Lake","2025-05-12 08:58",7,38.1438472,-98.4915894,TRUE,FALSE,FALSE,"S237106444"
"453","lobdow","Long-billed Dowitcher","Limnodromus scolopaceus","L24494158","Flushing Meadows","2025-05-12 08:57",25,31.9853785,-101.989604,TRUE,FALSE,TRUE,"S236925393"
"454","lobdow","Long-billed Dowitcher","Limnodromus scolopaceus","L3437558","Norman Rd, Stanwood","2025-05-12 08:34",8,48.2085793,-122.2731113,TRUE,FALSE,FALSE,"S236933383"
"455","lobdow","Long-billed Dowitcher","Limnodromus scolopaceus","L285281","Cesar Chavez Park","2025-05-12 08:28",3,37.8709227,-122.3150389,TRUE,FALSE,FALSE,"S236936074"
"456","lobdow","Long-billed Dowitcher","Limnodromus scolopaceus","L597003","Berkeley Aquatic Park","2025-05-12 08:27",25,37.855813,-122.2977448,TRUE,FALSE,FALSE,"S236963811"
"457","lobdow","Long-billed Dowitcher","Limnodromus scolopaceus","L289812","Canyon of the Eagles (HOTE 020)","2025-05-12 08:20",5,30.8773,-98.438,TRUE,FALSE,FALSE,"S236911369"
"458","lobdow","Long-billed Dowitcher","Limnodromus scolopaceus","L15027328","Tanana Lakes Recreation Area, Fairbanks US-AK 64.79610, -147.73946","2025-05-12 08:05",1,64.796096,-147.739458,TRUE,FALSE,TRUE,"S237029527"
"459","lobdow","Long-billed Dowitcher","Limnodromus scolopaceus","L1642362","Holden Beach, West End","2025-05-12 08:00",2,33.9051959,-78.3594418,TRUE,FALSE,TRUE,"S236821595"
"460","lobdow","Long-billed Dowitcher","Limnodromus scolopaceus","L2175957","Crom Lake","2025-05-12 08:00",2,40.6337241,-104.7730494,TRUE,FALSE,FALSE,"S236929533"
"461","lobdow","Long-billed Dowitcher","Limnodromus scolopaceus","L12742110","Palo Alto Baylands--Boardwalk","2025-05-12 08:00",80,37.459984,-122.106112,TRUE,FALSE,FALSE,"S236988668"
"462","lobdow","Long-billed Dowitcher","Limnodromus scolopaceus","L267480","Rio Blanco SWA--Rio Blanco Lake","2025-05-12 07:20",1,40.0881027,-108.2080536,TRUE,TRUE,FALSE,"S237094940"
"463","lobdow","Long-billed Dowitcher","Limnodromus scolopaceus","L30058782","San Joaquin Marsh and Wildlife Sanctuary, Irvine US-CA 33.66060, -117.84304","2025-05-12 07:05",3,33.660598,-117.843043,TRUE,FALSE,TRUE,"S236936584"
"464","lobdow","Long-billed Dowitcher","Limnodromus scolopaceus","L9887884","Chico Basin Ranch (Pueblo Co)","2025-05-12 06:59",2,38.514429,-104.436518,TRUE,FALSE,TRUE,"S237086633"
"465","lobdow","Long-billed Dowitcher","Limnodromus scolopaceus","L44358547","Airport Dike Rd, Fairbanks US-AK 64.79895, -147.89546","2025-05-12 06:47",7,64.798953,-147.895465,TRUE,FALSE,TRUE,"S236926698"
"466","lobdow","Long-billed Dowitcher","Limnodromus scolopaceus","L1839493","Tijuana Slough NWR--South McCoy Trail area","2025-05-12 06:36",5,32.5639629,-117.1255231,TRUE,FALSE,FALSE,"S236881770"
"467","lobdow","Long-billed Dowitcher","Limnodromus scolopaceus","L982486","Bosque del Apache NWR--Boardwalk Lagoon","2025-05-12 06:30",1,33.7724767,-106.9021654,TRUE,FALSE,FALSE,"S236866234"
"468","lobdow","Long-billed Dowitcher","Limnodromus scolopaceus","L1853103","Lake Mead NRA--33 Hole Overlook","2025-05-12 06:26",2,36.11529,-114.8417187,TRUE,FALSE,FALSE,"S236913724"
"469","lobdow","Long-billed Dowitcher","Limnodromus scolopaceus","L127275","Paynes Prairie Preserve SP--East of US 441 (Please consider using a more specific location/hotspot)","2025-05-12 06:24",4,29.5821766,-82.3076009,TRUE,FALSE,FALSE,"S236900149"
"470","lobdow","Long-billed Dowitcher","Limnodromus scolopaceus","L1219633","Crescent Lake NWR","2025-05-12 02:18",NA,41.7609727,-102.4375534,TRUE,FALSE,FALSE,"S237596483"
"471","lobdow","Long-billed Dowitcher","Limnodromus scolopaceus","L876716","Bosque del Apache NWR--South Loop (formerly Marsh Loop)","2025-05-12 01:11",8,33.7831424,-106.8928528,TRUE,FALSE,FALSE,"S237178144"
"472","lobdow","Long-billed Dowitcher","Limnodromus scolopaceus","L29757613","Nelchina Lodge","2025-05-11 19:35",1,61.989779,-146.779167,TRUE,FALSE,FALSE,"S236717920"
"473","lobdow","Long-billed Dowitcher","Limnodromus scolopaceus","L1570131","River Lane--Sandy Beach","2025-05-11 19:30",4,40.1676042,-111.7469285,TRUE,FALSE,FALSE,"S236700219"
"474","lobdow","Long-billed Dowitcher","Limnodromus scolopaceus","L25046614","Three pond loop","2025-05-11 18:58",3,35.711131,-106.072097,TRUE,FALSE,TRUE,"S236704026"
"475","lobdow","Long-billed Dowitcher","Limnodromus scolopaceus","L342296","Box Springs Pond","2025-05-11 18:54",8,38.478466,-103.7018387,TRUE,FALSE,FALSE,"S236704392"
"476","lobdow","Long-billed Dowitcher","Limnodromus scolopaceus","L44790986","27919 West Jefferson Boulevard, Los Angeles, California, US (33.969, -118.436)","2025-05-11 18:44",10,33.9694086,-118.4359134,TRUE,FALSE,TRUE,"S236709333"
"477","lobdow","Long-billed Dowitcher","Limnodromus scolopaceus","L454527","Wagon Mound Waterfowl Area","2025-05-11 18:00",1,36.0307765,-104.7024536,TRUE,FALSE,FALSE,"S236720157"
"478","lobdow","Long-billed Dowitcher","Limnodromus scolopaceus","L754091","Kenny Lake","2025-05-11 18:00",45,61.731924,-144.9402344,TRUE,FALSE,FALSE,"S238944111"
"479","lobdow","Long-billed Dowitcher","Limnodromus scolopaceus","L44813167","Sunshine Lake","2025-05-11 17:56",1,44.052385,-101.636186,TRUE,FALSE,TRUE,"S236837370"
"480","lobdow","Long-billed Dowitcher","Limnodromus scolopaceus","L43899797","Pleasant Valley Lakelet Overlook, Frontenac SP, Minnesota, US (44.507, -92.337)","2025-05-11 17:43",2,44.5074491,-92.3371901,TRUE,FALSE,TRUE,"S236689418"
"481","lobdow","Long-billed Dowitcher","Limnodromus scolopaceus","L458089","Twin Buttes Reservoir","2025-05-11 17:40",10,31.3774555,-100.5366611,TRUE,FALSE,FALSE,"S236710393"
"482","lobdow","Long-billed Dowitcher","Limnodromus scolopaceus","L1054171","Campion Trails--Mountain Creek Preserve, Irving","2025-05-11 17:30",2,32.7827646,-96.927309,TRUE,FALSE,FALSE,"S236693931"
"483","lobdow","Long-billed Dowitcher","Limnodromus scolopaceus","L2755995","Weitz Road Ponds","2025-05-11 17:24",1,43.6754684,-116.7623949,TRUE,FALSE,TRUE,"S236651235"
"484","lobdow","Long-billed Dowitcher","Limnodromus scolopaceus","L782141","Gustavus--Forelands Preserve (Salmon River)","2025-05-11 17:06",3,58.3996429,-135.7380581,TRUE,FALSE,FALSE,"S236718793"
"485","lobdow","Long-billed Dowitcher","Limnodromus scolopaceus","L44927440","Hwy 44 & 423rd Ave, Hutchinson County","2025-05-11 16:34",10,43.3860523,-97.7382444,TRUE,FALSE,TRUE,"S236604998"
"486","lobdow","Long-billed Dowitcher","Limnodromus scolopaceus","L443535","Yolo Bypass Wildlife Area","2025-05-11 16:16",2,38.551789,-121.6208018,TRUE,FALSE,FALSE,"S237476878"
"487","lobdow","Long-billed Dowitcher","Limnodromus scolopaceus","L461293","Polliwog Park","2025-05-11 16:12",1,33.8888713,-118.3853674,TRUE,FALSE,FALSE,"S236714765"
"488","lobdow","Long-billed Dowitcher","Limnodromus scolopaceus","L30906027","Fehr Farm","2025-05-11 15:52",1,47.236902,-98.4511,TRUE,FALSE,TRUE,"S236724079"
"489","lobdow","Long-billed Dowitcher","Limnodromus scolopaceus","L691056","Howard Marsh--West Side of Howard Rd.","2025-05-11 15:46",8,41.6500553,-83.278719,TRUE,FALSE,FALSE,"S236591971"
"490","lobdow","Long-billed Dowitcher","Limnodromus scolopaceus","L16062624","Middleton Island (restricted)--Shipwreck","2025-05-11 15:32",5,59.4270462,-146.3573399,TRUE,FALSE,FALSE,"S236750706"
"491","lobdow","Long-billed Dowitcher","Limnodromus scolopaceus","L275032","Hackberry Flat WMA","2025-05-11 15:29",2,34.2846781,-98.9394741,TRUE,FALSE,FALSE,"S236582435"
"492","lobdow","Long-billed Dowitcher","Limnodromus scolopaceus","L44775976","Center Patrol Rd, Princeton US-OR 43.22876, -118.88214","2025-05-11 15:27",45,43.228758,-118.882145,TRUE,FALSE,TRUE,"S236621057"
"493","lobdow","Long-billed Dowitcher","Limnodromus scolopaceus","L44773584","Button Mesa Road Playa","2025-05-11 15:25",4,33.440748,-103.6525929,TRUE,FALSE,TRUE,"S236608468"
"494","lobdow","Long-billed Dowitcher","Limnodromus scolopaceus","L14592871","Howard Marsh Metropark","2025-05-11 15:16",1,41.6435204,-83.2630844,TRUE,FALSE,TRUE,"S236519222"
"495","lobdow","Long-billed Dowitcher","Limnodromus scolopaceus","L387773","Richland Creek WMA (N. Unit)(Navarro Co) PPW-W 019","2025-05-11 15:01",6,32.0072107,-96.0808261,TRUE,FALSE,FALSE,"S236712377"
"496","lobdow","Long-billed Dowitcher","Limnodromus scolopaceus","L24562800","Howard Marsh Metropark","2025-05-11 15:00",3,41.6422592,-83.2727623,TRUE,FALSE,TRUE,"S236689458"
"497","lobdow","Long-billed Dowitcher","Limnodromus scolopaceus","L38614029","11800 N Douglas Hwy, Juneau US-AK 58.32326, -134.61979","2025-05-11 14:53",20,58.323263,-134.619791,TRUE,FALSE,TRUE,"S236950744"
"498","lobdow","Long-billed Dowitcher","Limnodromus scolopaceus","L1178205","Osakis Sewage Ponds","2025-05-11 14:35",1,45.8526891,-95.1670074,TRUE,FALSE,FALSE,"S236548048"
"499","lobdow","Long-billed Dowitcher","Limnodromus scolopaceus","L18311685","Fisher Butte Fern Ridge Wetlands Wildlife Area, Eugene, Oregon","2025-05-11 14:30",7,44.053205,-123.2558298,TRUE,FALSE,TRUE,"S236705067"
"500","lobdow","Long-billed Dowitcher","Limnodromus scolopaceus","L251458","Homer Spit--Mud Bay","2025-05-11 14:16",NA,59.635823,-151.4965296,TRUE,FALSE,FALSE,"S236632172"
"501","lobdow","Long-billed Dowitcher","Limnodromus scolopaceus","L17604250","Ridgefield NWR","2025-05-11 14:15",20,45.793935,-122.750439,TRUE,FALSE,TRUE,"S236654412"
"502","lobdow","Long-billed Dowitcher","Limnodromus scolopaceus","L18243950","Fort Boise Observation Tower","2025-05-11 13:44",10,43.821631,-117.00893,TRUE,FALSE,TRUE,"S236903328"
"503","lobdow","Long-billed Dowitcher","Limnodromus scolopaceus","L44596178","34255-34257 Disabled American Veterans Highway, Frontenac, Minnesota, US (44.507, -92.337)","2025-05-11 13:41",2,44.50745,-92.3372383,TRUE,FALSE,TRUE,"S236511657"
"504","lobdow","Long-billed Dowitcher","Limnodromus scolopaceus","L4343845","Hackberry Flat WMA--Weir Unit","2025-05-11 13:38",120,34.2767668,-98.958898,TRUE,FALSE,FALSE,"S236552807"
"505","lobdow","Long-billed Dowitcher","Limnodromus scolopaceus","L44764649","Jocelyn Nungaray National Wildlife Refuge, Anahuac US-TX 29.64626, -94.54454","2025-05-11 13:37",1,29.646262,-94.544537,TRUE,FALSE,TRUE,"S236564632"
"506","lobdow","Long-billed Dowitcher","Limnodromus scolopaceus","L11113211","Liberty Island Eco Reserve","2025-05-11 13:33",70,38.3066103,-121.6935197,TRUE,TRUE,FALSE,"S236627440"
"507","lobdow","Long-billed Dowitcher","Limnodromus scolopaceus","L771913","Canyon Lake--Cranes Mill Park (HOTE076)","2025-05-11 13:21",2,29.8940852,-98.2908582,TRUE,FALSE,FALSE,"S237071788"
"508","lobdow","Long-billed Dowitcher","Limnodromus scolopaceus","L2421349","A St. ponds","2025-05-11 13:20",1,34.9298363,-120.4626539,TRUE,FALSE,FALSE,"S236577890"
"509","lobdow","Long-billed Dowitcher","Limnodromus scolopaceus","L697999","Cheney Reservoir","2025-05-11 13:12",2,38.883617,-108.3213329,TRUE,FALSE,FALSE,"S236621988"
"510","lobdow","Long-billed Dowitcher","Limnodromus scolopaceus","L1971374","Corpus Christi, County Road 12","2025-05-11 13:02",5,27.6009,-97.47568,TRUE,FALSE,TRUE,"S236477535"
"511","lobdow","Long-billed Dowitcher","Limnodromus scolopaceus","L23161150","Milam Co.-Detmold 463/437 loop","2025-05-11 12:45",3,30.6502751,-97.2139915,TRUE,FALSE,TRUE,"S236717729"
"512","lobdow","Long-billed Dowitcher","Limnodromus scolopaceus","L44746434","E1900 Road, Davidson, Oklahoma, US (34.262, -99.06)","2025-05-11 12:37",4,34.2615628,-99.0595888,TRUE,FALSE,TRUE,"S236480190"
"513","lobdow","Long-billed Dowitcher","Limnodromus scolopaceus","L693440","Amalga Barrens","2025-05-11 12:08",1,41.8599089,-111.9320583,TRUE,FALSE,FALSE,"S236675712"
"514","lobdow","Long-billed Dowitcher","Limnodromus scolopaceus","L1336436","Chinook Mine North (Vigo Co.)","2025-05-11 12:01",2,39.4626128,-87.2477666,TRUE,FALSE,FALSE,"S236649698"
"515","lobdow","Long-billed Dowitcher","Limnodromus scolopaceus","L4073128","Patagonia Lake dam/spillway area","2025-05-11 11:57",4,31.4891873,-110.8682724,TRUE,FALSE,FALSE,"S236538169"
"516","lobdow","Long-billed Dowitcher","Limnodromus scolopaceus","L319397","Bear Butte Lake","2025-05-11 11:52",3,44.4563502,-103.4452331,TRUE,FALSE,FALSE,"S236563994"
"517","lobdow","Long-billed Dowitcher","Limnodromus scolopaceus","L4323171","Lake Apopka North Shore--Lust Rd. Gate Area Only (Not for entire wildlife drive)","2025-05-11 11:33",1,28.671831,-81.559615,TRUE,FALSE,FALSE,"S236936823"
"518","lobdow","Long-billed Dowitcher","Limnodromus scolopaceus","L5606812","Johnstone Lake","2025-05-11 11:26",17,46.751494,-104.0099272,TRUE,FALSE,FALSE,"S236443432"
"519","lobdow","Long-billed Dowitcher","Limnodromus scolopaceus","L44745572","Cusick Meadows","2025-05-11 11:21",1,48.329363,-117.322845,TRUE,FALSE,TRUE,"S236481888"
"520","lobdow","Long-billed Dowitcher","Limnodromus scolopaceus","L159573","Baskett Slough NWR","2025-05-11 11:21",35,44.9614021,-123.257246,TRUE,FALSE,FALSE,"S236618702"
"521","lobdow","Long-billed Dowitcher","Limnodromus scolopaceus","L2342351","Malheur NWR--Central Patrol Rd.--Between Headquarters and the Field Station","2025-05-11 11:19",13,43.238598,-118.8540888,TRUE,FALSE,FALSE,"S236702678"
"522","lobdow","Long-billed Dowitcher","Limnodromus scolopaceus","L14509351","Rogg Road, Bunker Hill, Kansas, US (38.959, -98.678)","2025-05-11 11:17",9,38.9585536,-98.6782461,TRUE,FALSE,TRUE,"S236415020"
"523","lobdow","Long-billed Dowitcher","Limnodromus scolopaceus","L44759334","Lower Klamath National Wildlife Refuge, Klamath Falls US-OR 42.03371, -121.79375","2025-05-11 11:06",19,42.033713,-121.793745,TRUE,FALSE,TRUE,"S236539088"
"524","lobdow","Long-billed Dowitcher","Limnodromus scolopaceus","L586881","Seward--Airport Mudflats","2025-05-11 10:58",2,60.1253055,-149.4220018,TRUE,FALSE,FALSE,"S236609707"
"525","lobdow","Long-billed Dowitcher","Limnodromus scolopaceus","L447002","Boca Chica Rd.","2025-05-11 10:58",10,24.5660155,-81.6732337,TRUE,FALSE,FALSE,"S236340477"
"526","lobdow","Long-billed Dowitcher","Limnodromus scolopaceus","L35330584","Sanford Road, Ronan, MT, USA","2025-05-11 10:47",3,47.5373553,-114.1772777,TRUE,FALSE,TRUE,"S236714750"
"527","lobdow","Long-billed Dowitcher","Limnodromus scolopaceus","L44790669","Olson Road flooded field","2025-05-11 10:45",5,48.8613624,-122.6386756,TRUE,FALSE,TRUE,"S236707857"
"528","lobdow","Long-billed Dowitcher","Limnodromus scolopaceus","L44732208","22804–22836 US-2, Browning US-MT 48.53857, -112.94154","2025-05-11 10:34",1,48.538573,-112.941542,TRUE,FALSE,TRUE,"S236414072"
"529","lobdow","Long-billed Dowitcher","Limnodromus scolopaceus","L1239694","Kechter Pit wetland","2025-05-11 10:31",1,40.5134076,-104.9950504,TRUE,FALSE,FALSE,"S236416916"
"530","lobdow","Long-billed Dowitcher","Limnodromus scolopaceus","L8268081","Leazenby Lake","2025-05-11 10:06",3,41.174569,-105.584982,TRUE,FALSE,FALSE,"S236406607"
"531","lobdow","Long-billed Dowitcher","Limnodromus scolopaceus","L280754","Lake Andes NWR","2025-05-11 10:00",35,43.1648925,-98.4469981,TRUE,FALSE,FALSE,"S236411216"
"532","lobdow","Long-billed Dowitcher","Limnodromus scolopaceus","L1783363","Alaska Wildlife Conservation Center","2025-05-11 09:42",50,60.8215092,-148.9844546,TRUE,FALSE,FALSE,"S236516181"
"533","lobdow","Long-billed Dowitcher","Limnodromus scolopaceus","L44735999","11169 River St, Klamath Falls US-OR 42.12763, -121.92889","2025-05-11 09:42",19,42.127628,-121.928891,TRUE,FALSE,TRUE,"S236432214"
"534","lobdow","Long-billed Dowitcher","Limnodromus scolopaceus","L770872","Bird Refuge Rd.","2025-05-11 09:30",1,41.4689719,-112.1759892,TRUE,FALSE,FALSE,"S236620743"
