"","speciesCode","comName","sciName","locId","locName","obsDt","howMany","lat","lng","obsValid","obsReviewed","locationPrivate","subId"
"1","towsol","Townsend's Solitaire","Myadestes townsendi","L1743056","Yellowstone NP--Mt. Washburn overlook","2025-06-29 15:02",1,44.824842,-110.44448,TRUE,FALSE,FALSE,"S255415256"
"2","towsol","Townsend's Solitaire","Myadestes townsendi","L4007383","Turquoise Lake","2025-06-29 14:23",1,39.2691929,-106.3707018,TRUE,FALSE,FALSE,"S255387563"
"3","towsol","Townsend's Solitaire","Myadestes townsendi","L1472534","Nebo Loop--Payson Lakes CG","2025-06-29 14:05",1,39.929885,-111.6424987,TRUE,FALSE,FALSE,"S255412701"
"4","towsol","Townsend's Solitaire","Myadestes townsendi","L854339","Blue Mountain","2025-06-29 13:20",1,46.8259467,-114.1742575,TRUE,FALSE,FALSE,"S255433960"
"5","towsol","Townsend's Solitaire","Myadestes townsendi","L48766232","National Forest Development Road 4220, Oregon, US (44.825, -121.794)","2025-06-29 13:04",2,44.8248717,-121.7944233,TRUE,FALSE,TRUE,"S255420295"
"6","towsol","Townsend's Solitaire","Myadestes townsendi","L48760057","Forest Service Road 2516.050, Silver Lake US-OR 43.36960, -121.21297","2025-06-29 13:04",1,43.369597,-121.212965,TRUE,FALSE,TRUE,"S255394520"
"7","towsol","Townsend's Solitaire","Myadestes townsendi","L285637","Calliope Crossing","2025-06-29 12:18",1,44.3507699,-121.5526056,TRUE,FALSE,FALSE,"S255371620"
"8","towsol","Townsend's Solitaire","Myadestes townsendi","L5738544","Browns Creek Trail","2025-06-29 11:52",1,39.3433088,-119.8386741,TRUE,FALSE,FALSE,"S255415385"
"9","towsol","Townsend's Solitaire","Myadestes townsendi","L3307450","Malheur NF--Myrtle Creek Trail No. 308","2025-06-29 11:43",1,43.9565241,-119.0790681,TRUE,FALSE,FALSE,"S255391474"
"10","towsol","Townsend's Solitaire","Myadestes townsendi","L26716432","Mini Ridge","2025-06-29 11:37",1,46.562734,-112.092002,TRUE,FALSE,TRUE,"S255418392"
"11","towsol","Townsend's Solitaire","Myadestes townsendi","L48765562","Middle Fork Judith River Trail 437","2025-06-29 11:36",3,46.85306,-110.308536,TRUE,FALSE,TRUE,"S255417175"
"12","towsol","Townsend's Solitaire","Myadestes townsendi","L48766207","National Forest Development Road 4220, Oregon, US (44.821, -121.794)","2025-06-29 11:28",1,44.82059,-121.7938517,TRUE,FALSE,TRUE,"S255420162"
"13","towsol","Townsend's Solitaire","Myadestes townsendi","L11474909","Boise Ridge Road, Boise, Idaho, US (43.673, -116.096)","2025-06-29 11:14",1,43.6731637,-116.0959528,TRUE,FALSE,TRUE,"S255333192"
"14","towsol","Townsend's Solitaire","Myadestes townsendi","L48758568","FS road to PO'Hara","2025-06-29 11:10",1,44.7279802,-109.3761894,TRUE,FALSE,TRUE,"S255389471"
"15","towsol","Townsend's Solitaire","Myadestes townsendi","L721939","Flying J Ranch Park","2025-06-29 11:01",1,39.5450915,-105.3225256,TRUE,FALSE,FALSE,"S255388989"
"16","towsol","Townsend's Solitaire","Myadestes townsendi","L32770488","Ulher Creek Road, Seeley Lake US-MT 47.34084, -113.65490","2025-06-29 10:50",1,47.340839,-113.654901,TRUE,FALSE,TRUE,"S255310917"
"17","towsol","Townsend's Solitaire","Myadestes townsendi","L48747730","Flat Creek Ranch—loop downstream","2025-06-29 10:21",1,43.533848,-110.556971,TRUE,FALSE,TRUE,"S255345683"
"18","towsol","Townsend's Solitaire","Myadestes townsendi","L48734079","Lamphere Ranch Campground 
13010 Lamphere Ranch Road, Sturgis, SD 57785","2025-06-29 10:05",1,44.4213403,-103.4456634,TRUE,FALSE,TRUE,"S255291996"
"19","towsol","Townsend's Solitaire","Myadestes townsendi","L325223","Rocky Mountain NP--Upper Beaver Meadows","2025-06-29 09:55",1,40.3730498,-105.6140614,TRUE,FALSE,FALSE,"S255329946"
"20","towsol","Townsend's Solitaire","Myadestes townsendi","L48286712","Bunny Flat Trailhead","2025-06-29 09:54",4,41.3541339,-122.2333074,TRUE,FALSE,FALSE,"S255335542"
"21","towsol","Townsend's Solitaire","Myadestes townsendi","L6165162","Top Spur Trailhead & Trail","2025-06-29 09:27",1,45.407694,-121.786073,TRUE,FALSE,FALSE,"S255430634"
"22","towsol","Townsend's Solitaire","Myadestes townsendi","L388198","Crater Lake NP","2025-06-29 09:16",1,42.9423499,-122.1240234,TRUE,FALSE,FALSE,"S255352450"
"23","towsol","Townsend's Solitaire","Myadestes townsendi","L6266511","Lassen Volcanic NP--Cinder Cone Trail","2025-06-29 09:15",1,40.5573216,-121.3133183,TRUE,FALSE,FALSE,"S255410186"
"24","towsol","Townsend's Solitaire","Myadestes townsendi","L25539730","Crater Lake NP--Discovery Point","2025-06-29 09:13",1,42.920232,-122.162247,TRUE,FALSE,FALSE,"S255293571"
"25","towsol","Townsend's Solitaire","Myadestes townsendi","L48751412","Deer Creek Trail to Box Elder Peak","2025-06-29 08:58",2,40.499988,-111.665427,TRUE,FALSE,TRUE,"S255360089"
"26","towsol","Townsend's Solitaire","Myadestes townsendi","L505441","White Mtns.--Schulman Grove and nearby trails","2025-06-29 08:51",2,37.3855716,-118.1782258,TRUE,FALSE,FALSE,"S255411959"
"27","towsol","Townsend's Solitaire","Myadestes townsendi","L48769625","Bunsen Peak Trail, Yellowstone National Park US-WY (44.9321,-110.7278)","2025-06-29 08:45",2,44.932136,-110.7278,TRUE,FALSE,TRUE,"S255435573"
"28","towsol","Townsend's Solitaire","Myadestes townsendi","L26095684","Obstruction Point Rd, Port Angeles US-WA 47.96907, -123.49338","2025-06-29 08:35",3,47.969066,-123.493382,TRUE,FALSE,TRUE,"S255426290"
"29","towsol","Townsend's Solitaire","Myadestes townsendi","L48749507","Mount Herman Trail, Colorado Springs US-CO 39.07117, -104.93198","2025-06-29 08:32",1,39.071173,-104.931977,TRUE,FALSE,TRUE,"S255352486"
"30","towsol","Townsend's Solitaire","Myadestes townsendi","L48748627","Plumas National Forest, Greenville US-CA 40.24749, -120.54963","2025-06-29 08:27",1,40.247492,-120.549633,TRUE,FALSE,TRUE,"S255349174"
"31","towsol","Townsend's Solitaire","Myadestes townsendi","L4692629","Fallen Leaf Lake--Glen Alpine Trail","2025-06-29 08:14",1,38.8779622,-120.0907888,TRUE,FALSE,FALSE,"S255372361"
"32","towsol","Townsend's Solitaire","Myadestes townsendi","L1569886","Sun Mountain Lodge parking area and trails","2025-06-29 08:13",1,48.478042,-120.2568462,TRUE,FALSE,FALSE,"S255330281"
"33","towsol","Townsend's Solitaire","Myadestes townsendi","L13726271","Crazy Canyon Trail","2025-06-29 08:11",1,46.825673,-113.9385814,TRUE,FALSE,FALSE,"S255291824"
"34","towsol","Townsend's Solitaire","Myadestes townsendi","L966731","Mueller SP","2025-06-29 08:05",1,38.8826716,-105.1813421,TRUE,FALSE,FALSE,"S255342316"
"35","towsol","Townsend's Solitaire","Myadestes townsendi","L48732142","1897 Elks Club Drive, South Lake Tahoe, California, US (38.871, -119.995)","2025-06-29 07:59",1,38.8709521,-119.9946084,TRUE,FALSE,TRUE,"S255284044"
"36","towsol","Townsend's Solitaire","Myadestes townsendi","L48751545","Willow Creek Horse Camp To Black Elk Peak Miles 3-6","2025-06-29 07:58",3,43.8655835,-103.5296896,TRUE,FALSE,TRUE,"S255360609"
"37","towsol","Townsend's Solitaire","Myadestes townsendi","L11799333","Bighorn NF--Lake Angeline","2025-06-29 07:55",1,44.2976486,-107.0866635,TRUE,FALSE,FALSE,"S255372166"
"38","towsol","Townsend's Solitaire","Myadestes townsendi","L34641713","117 Meadowlark Trail, Jefferson City US-MT 46.38655, -112.06910","2025-06-29 07:38",1,46.386549,-112.0691,TRUE,FALSE,TRUE,"S255243728"
"39","towsol","Townsend's Solitaire","Myadestes townsendi","L6147740","Chugach SP--Little O'Malley Peak Trail (Ballfield)","2025-06-29 07:34",2,61.1041688,-149.609846,TRUE,FALSE,FALSE,"S255389134"
"40","towsol","Townsend's Solitaire","Myadestes townsendi","L721552","Black Butte","2025-06-29 07:27",2,44.3950328,-121.6337585,TRUE,FALSE,FALSE,"S255334340"
"41","towsol","Townsend's Solitaire","Myadestes townsendi","L9329481","Sherrard Point","2025-06-29 07:27",1,45.53289,-122.087717,TRUE,FALSE,FALSE,"S255284199"
"42","towsol","Townsend's Solitaire","Myadestes townsendi","L3294970","Theimer Canyon","2025-06-29 06:37",1,43.7468592,-119.0014084,TRUE,FALSE,FALSE,"S255390620"
"43","towsol","Townsend's Solitaire","Myadestes townsendi","L342330","Rocky Mountain NP--Medicine Bow Curve","2025-06-29 06:37",1,40.4479738,-105.7516322,TRUE,FALSE,FALSE,"S255394985"
"44","towsol","Townsend's Solitaire","Myadestes townsendi","L982949","Olympic NP -- Obstruction Point Rd.","2025-06-29 06:36",1,47.9295136,-123.4125996,TRUE,FALSE,FALSE,"S255431390"
"45","towsol","Townsend's Solitaire","Myadestes townsendi","L1252141","Falcon Ridge - Cub Creek","2025-06-29 06:26",3,39.5946769,-105.3377295,TRUE,FALSE,TRUE,"S255270402"
"46","towsol","Townsend's Solitaire","Myadestes townsendi","L7367501","Larch Mtn Trailhead","2025-06-29 06:09",1,45.722141,-122.313894,TRUE,FALSE,FALSE,"S255339526"
"47","towsol","Townsend's Solitaire","Myadestes townsendi","L752925","Malheur NF--Idlewild Campground","2025-06-29 06:08",1,43.7991715,-118.9912891,TRUE,FALSE,FALSE,"S255337469"
"48","towsol","Townsend's Solitaire","Myadestes townsendi","L3106819","Whites Creek Canyon","2025-06-29 06:08",1,39.3818286,-119.845916,TRUE,FALSE,FALSE,"S255244305"
"49","towsol","Townsend's Solitaire","Myadestes townsendi","L48754510","Angeline Trail, Buffalo US-WY","2025-06-29 06:06",2,44.304848,-107.043788,TRUE,FALSE,TRUE,"S255372415"
"50","towsol","Townsend's Solitaire","Myadestes townsendi","L160120","Rocky Mountain NP--Glacier Gorge/Loch Vale","2025-06-29 06:04",2,40.2984567,-105.6397864,TRUE,FALSE,FALSE,"S255382494"
"51","towsol","Townsend's Solitaire","Myadestes townsendi","L48751720","Willow Creek Horse Camp To Black Elk Peak Miles 1-3","2025-06-29 05:46",2,43.8927658,-103.5354355,TRUE,FALSE,TRUE,"S255361231"
"52","towsol","Townsend's Solitaire","Myadestes townsendi","L920759","White Ranch Park--Upper Trails","2025-06-29 05:35",2,39.8197489,-105.2853763,TRUE,FALSE,FALSE,"S255272334"
"53","towsol","Townsend's Solitaire","Myadestes townsendi","L48725721","Red Mountain Road, Wyoming, US (40.995, -105.934)","2025-06-29 05:23",4,40.9954989,-105.934241,TRUE,FALSE,TRUE,"S255256815"
"54","towsol","Townsend's Solitaire","Myadestes townsendi","L48744901","Grand Canyon National Park, Grand Canyon US-AZ 36.25712, -112.22659","2025-06-29 05:13",3,36.257123,-112.226595,TRUE,FALSE,TRUE,"S255334978"
"55","towsol","Townsend's Solitaire","Myadestes townsendi","L48745885","Idaho, US (42.199, -114.295)","2025-06-28 19:34",1,42.1991919,-114.2948967,TRUE,FALSE,TRUE,"S255341245"
"56","towsol","Townsend's Solitaire","Myadestes townsendi","L48740365","Forest Service Road 5N01, Long Barn US-CA (38.3119,-119.8975)","2025-06-28 19:31",1,38.31192,-119.897517,TRUE,FALSE,TRUE,"S255327692"
"57","towsol","Townsend's Solitaire","Myadestes townsendi","L4811377","Castle Rock Trail","2025-06-28 18:58",2,34.2365591,-116.9617474,TRUE,FALSE,FALSE,"S255080387"
"58","towsol","Townsend's Solitaire","Myadestes townsendi","L779563","Custer SP--Mt. Coolidge Lookout","2025-06-28 18:34",1,43.745,-103.48147,TRUE,FALSE,FALSE,"S255052484"
"59","towsol","Townsend's Solitaire","Myadestes townsendi","L48744682","Phi Kappa Creek Road, Mackay, Idaho, US (43.855, -114.21)","2025-06-28 18:26",1,43.8548889,-114.2096869,TRUE,FALSE,TRUE,"S255334020"
"60","towsol","Townsend's Solitaire","Myadestes townsendi","L34532009","cabin","2025-06-28 18:15",1,38.825856,-120.036949,TRUE,FALSE,TRUE,"S255060253"
"61","towsol","Townsend's Solitaire","Myadestes townsendi","L12767330","Beattie Trailhead and Mount Ascension Trails","2025-06-28 17:52",1,46.578019,-112.029589,TRUE,FALSE,FALSE,"S255052483"
"62","towsol","Townsend's Solitaire","Myadestes townsendi","L1008375","Spearfish Canyon--Roughlock Falls","2025-06-28 17:27",1,44.3506788,-103.9417036,TRUE,FALSE,FALSE,"S255060676"
"63","towsol","Townsend's Solitaire","Myadestes townsendi","L48744140","Stanislaus National Forest, Long Barn US-CA 38.28760, -119.83329","2025-06-28 16:45",1,38.2876,-119.833286,TRUE,FALSE,TRUE,"S255331995"
"64","towsol","Townsend's Solitaire","Myadestes townsendi","L6187447","Chugach SP--Flattop Mountain","2025-06-28 16:32",1,61.0907907,-149.6688652,TRUE,FALSE,FALSE,"S255089509"
"65","towsol","Townsend's Solitaire","Myadestes townsendi","L1638454","Crater Lake NP--Skell Head","2025-06-28 16:21",2,42.9475324,-122.0487499,TRUE,FALSE,FALSE,"S255052000"
"66","towsol","Townsend's Solitaire","Myadestes townsendi","L2257289","Sequoia NP--Lakes Trail to Heather Lake","2025-06-28 15:56",1,36.5972,-118.7137985,TRUE,FALSE,FALSE,"S255080968"
"67","towsol","Townsend's Solitaire","Myadestes townsendi","L2373347","Keno Access Rd.","2025-06-28 15:48",1,42.2537679,-122.3986504,TRUE,FALSE,FALSE,"S255431342"
"68","towsol","Townsend's Solitaire","Myadestes townsendi","L7337031","Chugach SP--Rabbit Creek","2025-06-28 15:25",2,61.079682,-149.678082,TRUE,FALSE,FALSE,"S255089797"
"69","towsol","Townsend's Solitaire","Myadestes townsendi","L15802804","Custer SP - Lover's Leap Trail","2025-06-28 15:14",1,43.764041,-103.383133,TRUE,FALSE,FALSE,"S255227040"
"70","towsol","Townsend's Solitaire","Myadestes townsendi","L327358","Chinook Pass (Pierce Co.)","2025-06-28 15:00",1,46.8716556,-121.5154556,TRUE,FALSE,FALSE,"S255074291"
"71","towsol","Townsend's Solitaire","Myadestes townsendi","L48738815","Pacific Crest Methow Valley Trail, Acme US-WA 48.73200, -120.67492","2025-06-28 14:43",2,48.732002,-120.674916,TRUE,FALSE,TRUE,"S255310720"
"72","towsol","Townsend's Solitaire","Myadestes townsendi","L48684181","YEGR Stakeout 40.35167, -105.51626","2025-06-28 14:28",1,40.351675,-105.516256,TRUE,FALSE,TRUE,"S255056710"
"73","towsol","Townsend's Solitaire","Myadestes townsendi","L11054489","Metolius River Trails","2025-06-28 13:57",1,44.483066,-121.6381109,TRUE,FALSE,FALSE,"S255001928"
"74","towsol","Townsend's Solitaire","Myadestes townsendi","L942502","Santa Fe Canyon Preserve","2025-06-28 13:43",1,35.6883371,-105.8927482,TRUE,FALSE,FALSE,"S254981427"
"75","towsol","Townsend's Solitaire","Myadestes townsendi","L48683835","Payette NF--Lava Ridge Trail","2025-06-28 13:26",1,45.270579,-116.128003,TRUE,FALSE,TRUE,"S255055470"
"76","towsol","Townsend's Solitaire","Myadestes townsendi","L1215734","Gray Jay Lava Rock Bowl","2025-06-28 13:21",1,40.366031,-121.4156467,TRUE,FALSE,TRUE,"S255022258"
"77","towsol","Townsend's Solitaire","Myadestes townsendi","L2276227","Station Creek Trail","2025-06-28 13:12",1,44.0653904,-115.9194314,TRUE,FALSE,FALSE,"S254987858"
"78","towsol","Townsend's Solitaire","Myadestes townsendi","L782202","Hell Canyon","2025-06-28 13:10",2,43.7383599,-103.8451767,TRUE,FALSE,FALSE,"S255010642"
"79","towsol","Townsend's Solitaire","Myadestes townsendi","L48768223","Norton-Miner Canyon Trail, Ketchum US-ID 43.75572, -114.65355","2025-06-28 13:04",1,43.755718,-114.653546,TRUE,FALSE,TRUE,"S255429259"
"80","towsol","Townsend's Solitaire","Myadestes townsendi","L48634729","Purgatory Flats Trail, Durango, Colorado, US (37.631, -107.8)","2025-06-28 12:42",1,37.6305006,-107.8001827,TRUE,FALSE,TRUE,"S254947750"
"81","towsol","Townsend's Solitaire","Myadestes townsendi","L48680621","Delamar Peak","2025-06-28 12:22",4,34.283753,-116.917511,TRUE,FALSE,TRUE,"S255041670"
"82","towsol","Townsend's Solitaire","Myadestes townsendi","L48651668","377–399 Snow Bank Mountain Rd, Cascade US-ID 44.42302, -116.14272","2025-06-28 11:49",2,44.423023,-116.142724,TRUE,FALSE,TRUE,"S254930800"
"83","towsol","Townsend's Solitaire","Myadestes townsendi","L2954304","Yellowstone NP--Bunsen Peak Trail","2025-06-28 11:45",1,44.9326027,-110.7067823,TRUE,FALSE,FALSE,"S254980040"
"84","towsol","Townsend's Solitaire","Myadestes townsendi","L48654801","Forest Road 395, Placerville, Idaho, US (43.983, -115.929)","2025-06-28 11:41",1,43.983229,-115.9293828,TRUE,FALSE,TRUE,"S254942491"
"85","towsol","Townsend's Solitaire","Myadestes townsendi","L5239478","Golden Gate Canyon SP--Black Bear Trail","2025-06-28 11:38",1,39.8352792,-105.4101491,TRUE,FALSE,FALSE,"S255067267"
"86","towsol","Townsend's Solitaire","Myadestes townsendi","L843792","Cibola NF--10K North Trail","2025-06-28 11:33",1,35.2099868,-106.4359693,TRUE,FALSE,FALSE,"S254938058"
"87","towsol","Townsend's Solitaire","Myadestes townsendi","L48657396","US-36, Estes Park US-CO 40.37038, -105.58882","2025-06-28 11:26",1,40.370384,-105.58882,TRUE,FALSE,TRUE,"S254951628"
"88","towsol","Townsend's Solitaire","Myadestes townsendi","L33485532","Toll Road, Tillamook, Oregon, US (45.364, -123.57)","2025-06-28 11:18",NA,45.3643923,-123.5703908,TRUE,FALSE,TRUE,"S255298155"
"89","towsol","Townsend's Solitaire","Myadestes townsendi","L5921506","Upper Old McCloud Road","2025-06-28 11:15",1,41.312328,-122.245388,TRUE,FALSE,TRUE,"S255071076"
"90","towsol","Townsend's Solitaire","Myadestes townsendi","L2528680","Ken Caryl Valley - Silverberry","2025-06-28 11:13",8,39.577396,-105.1634744,TRUE,FALSE,TRUE,"S255062263"
"91","towsol","Townsend's Solitaire","Myadestes townsendi","L1321662","Rocky Mountain NP--Hidden Valley Beaver Ponds","2025-06-28 11:06",1,40.3997813,-105.6418678,TRUE,FALSE,FALSE,"S254951539"
"92","towsol","Townsend's Solitaire","Myadestes townsendi","L2882293","South Yuba River--Emerald Pools Falls","2025-06-28 10:42",1,39.3203096,-120.6625179,TRUE,FALSE,FALSE,"S255049267"
"93","towsol","Townsend's Solitaire","Myadestes townsendi","L48648637","National Forest Development Road 307 Wet Gulch, Idaho City/Placerville, Idaho, US (43.91, -115.924)","2025-06-28 10:39",1,43.9097015,-115.9244873,TRUE,FALSE,TRUE,"S254919553"
"94","towsol","Townsend's Solitaire","Myadestes townsendi","L591327","Steens Mountain--East Rim","2025-06-28 10:37",1,42.6663004,-118.5646731,TRUE,FALSE,FALSE,"S254966257"
"95","towsol","Townsend's Solitaire","Myadestes townsendi","L48659548","American Three Toed Stakeout","2025-06-28 10:34",1,43.8888523,-121.5936719,TRUE,FALSE,TRUE,"S254959528"
"96","towsol","Townsend's Solitaire","Myadestes townsendi","L48459479","CR-3, Leadville US-CO 39.25809, -106.21998","2025-06-28 10:32",1,39.258092,-106.219979,TRUE,FALSE,TRUE,"S254999900"
"97","towsol","Townsend's Solitaire","Myadestes townsendi","L48731927","Lunch Loop","2025-06-28 10:29",1,39.6281532,-120.5040537,TRUE,FALSE,TRUE,"S255287310"
"98","towsol","Townsend's Solitaire","Myadestes townsendi","L9539253","Sucker Creek","2025-06-28 10:21",2,46.9967685,-112.641534,TRUE,FALSE,TRUE,"S254929225"
"99","towsol","Townsend's Solitaire","Myadestes townsendi","L3743791","North Wenas Road","2025-06-28 10:02",1,46.9045271,-120.7248603,TRUE,FALSE,FALSE,"S255012995"
"100","towsol","Townsend's Solitaire","Myadestes townsendi","L779572","Roby Canyon","2025-06-28 09:58",1,43.8086104,-104.0345836,TRUE,FALSE,FALSE,"S254942859"
"101","towsol","Townsend's Solitaire","Myadestes townsendi","L1764891","Medicine Bow NF--Vedauwoo CG area","2025-06-28 09:41",1,41.1570413,-105.3780484,TRUE,FALSE,FALSE,"S254938588"
"102","towsol","Townsend's Solitaire","Myadestes townsendi","L1629001","Steens Mountain--Kiger Gorge Overlook","2025-06-28 09:40",2,42.7085712,-118.5752193,TRUE,FALSE,FALSE,"S254966350"
"103","towsol","Townsend's Solitaire","Myadestes townsendi","L15127005","1-9 Rancheria Road, Wofford Heights, California, US (35.731, -118.561)Unal Trail","2025-06-28 09:31",3,35.7306089,-118.56067,TRUE,FALSE,TRUE,"S254959824"
"104","towsol","Townsend's Solitaire","Myadestes townsendi","L48654053","Tropic Trail, Tropic US-UT 37.61760, -112.15830","2025-06-28 09:26",2,37.6176,-112.158295,TRUE,FALSE,TRUE,"S254939787"
"105","towsol","Townsend's Solitaire","Myadestes townsendi","L48737401","Twins Peak Trail, Oakridge US-OR 43.68286, -122.01648","2025-06-28 09:16",1,43.682856,-122.016484,TRUE,FALSE,TRUE,"S255305364"
"106","towsol","Townsend's Solitaire","Myadestes townsendi","L48682464","Lundy Lake Rd, Lee Vining US-CA (38.0255,-119.2453)","2025-06-28 09:15",1,38.02549,-119.245272,TRUE,FALSE,TRUE,"S255049705"
"107","towsol","Townsend's Solitaire","Myadestes townsendi","L11594554","Sucker Creek Rd","2025-06-28 09:09",2,47.017614,-112.563905,TRUE,FALSE,TRUE,"S254929786"
"108","towsol","Townsend's Solitaire","Myadestes townsendi","L6088851","Ski Apache Ski Valley ","2025-06-28 09:06",3,33.396785,-105.788564,TRUE,FALSE,FALSE,"S254960202"
"109","towsol","Townsend's Solitaire","Myadestes townsendi","L9374311","Ramona Falls Trailhead","2025-06-28 08:59",1,45.3867643,-121.8318021,TRUE,FALSE,FALSE,"S254980778"
"110","towsol","Townsend's Solitaire","Myadestes townsendi","L4845756","South Crestone Trail above Willow Lake Trailhead","2025-06-28 08:57",1,37.9921054,-105.6572342,TRUE,FALSE,FALSE,"S254918463"
"111","towsol","Townsend's Solitaire","Myadestes townsendi","L1206720","Tally Lake Campground","2025-06-28 08:54",1,48.4128526,-114.5826817,TRUE,FALSE,FALSE,"S255078422"
"112","towsol","Townsend's Solitaire","Myadestes townsendi","L45944584","Joffe Lake","2025-06-28 08:51",1,44.947619,-110.700643,TRUE,FALSE,TRUE,"S254908116"
"113","towsol","Townsend's Solitaire","Myadestes townsendi","L2736013","Green Mountain West Ridge Trail","2025-06-28 08:50",1,39.9821679,-105.3019595,TRUE,FALSE,FALSE,"S255218946"
"114","towsol","Townsend's Solitaire","Myadestes townsendi","L1447945","Packer John's Cabin Park","2025-06-28 08:47",1,44.9566456,-116.2245827,TRUE,FALSE,FALSE,"S254893573"
"115","towsol","Townsend's Solitaire","Myadestes townsendi","L48684505","Highland Lakes Road, Arnold, California, US (38.496, -119.796)","2025-06-28 08:46",1,38.4963237,-119.7962069,TRUE,FALSE,TRUE,"S255058166"
"116","towsol","Townsend's Solitaire","Myadestes townsendi","L7281022","OR, Deschutes, Bend, Deschutes River Trail 1st Bench","2025-06-28 08:44",1,44.094135,-121.3356042,TRUE,FALSE,TRUE,"S254918836"
"117","towsol","Townsend's Solitaire","Myadestes townsendi","L48634972","West Magnolia Trailhead","2025-06-28 08:40",2,39.9486364,-105.516929,TRUE,FALSE,TRUE,"S254866890"
"118","towsol","Townsend's Solitaire","Myadestes townsendi","L26302076","Sheep Lake Trail - Medicine Bow NF","2025-06-28 08:38",1,41.38038,-106.242502,TRUE,FALSE,TRUE,"S254964747"
"119","towsol","Townsend's Solitaire","Myadestes townsendi","L48667701","80 Mill Creek Rd, Big Bear Lake US-CA 34.22646, -116.93269","2025-06-28 08:38",2,34.226462,-116.932687,TRUE,FALSE,TRUE,"S254989246"
"120","towsol","Townsend's Solitaire","Myadestes townsendi","L1391100","Thunder Knob","2025-06-28 08:38",1,48.7019398,-121.1048192,TRUE,FALSE,FALSE,"S255005640"
"121","towsol","Townsend's Solitaire","Myadestes townsendi","L48663544","Hike Elk Park Trail","2025-06-28 08:27",1,38.86716,-105.054375,TRUE,FALSE,TRUE,"S254956159"
"122","towsol","Townsend's Solitaire","Myadestes townsendi","L566945","Mirror Lake Hwy--Bald Mountain","2025-06-28 08:26",1,40.6971692,-110.904103,TRUE,FALSE,FALSE,"S255015415"
"123","towsol","Townsend's Solitaire","Myadestes townsendi","L48755018","Bighorn NF - Lost Twin Lakes","2025-06-28 08:23",1,44.277538,-107.137685,TRUE,FALSE,TRUE,"S255374120"
"124","towsol","Townsend's Solitaire","Myadestes townsendi","L25130272","sanctuary","2025-06-28 08:22",1,44.2429466,-103.7684479,TRUE,FALSE,TRUE,"S254912584"
"125","towsol","Townsend's Solitaire","Myadestes townsendi","L12194462","Woods Lake to Winnemucca Lake Trail","2025-06-28 08:21",2,38.6792169,-119.999692,TRUE,FALSE,FALSE,"S255029356"
"126","towsol","Townsend's Solitaire","Myadestes townsendi","L1177300","Aspen Grove Campground and Picnic Area","2025-06-28 08:18",1,46.9779466,-112.5309098,TRUE,FALSE,FALSE,"S254929386"
"127","towsol","Townsend's Solitaire","Myadestes townsendi","L48630842","Sierra Blanca Stonecrop","2025-06-28 08:00",1,33.402084,-105.76216,TRUE,FALSE,TRUE,"S254849502"
"128","towsol","Townsend's Solitaire","Myadestes townsendi","L48647679","Canyons Village, Park City US-UT (40.6883,-111.5726)","2025-06-28 07:46",2,40.68833,-111.572618,TRUE,FALSE,TRUE,"S254916131"
"129","towsol","Townsend's Solitaire","Myadestes townsendi","L5105498","Angeles NF--Burkhart Trail, Burkhart CG to Cooper Canyon Falls","2025-06-28 07:39",1,34.3567824,-117.9060459,TRUE,FALSE,FALSE,"S255023942"
"130","towsol","Townsend's Solitaire","Myadestes townsendi","L3824747","Moraine Lake","2025-06-28 07:33",2,44.0625035,-121.7633522,TRUE,FALSE,FALSE,"S254876373"
"131","towsol","Townsend's Solitaire","Myadestes townsendi","L14849033","44 to Silver Lake Rd.","2025-06-28 07:26",1,40.510421,-121.0620144,TRUE,FALSE,TRUE,"S254956719"
"132","towsol","Townsend's Solitaire","Myadestes townsendi","L37367070","Bryce Canyon NP--Sunrise Point","2025-06-28 07:24",3,37.6283549,-112.1629429,TRUE,FALSE,FALSE,"S254939925"
"133","towsol","Townsend's Solitaire","Myadestes townsendi","L12278706","Maryland Mountain Hidden Treasure Trail Network","2025-06-28 07:08",8,39.812492,-105.5058396,TRUE,FALSE,FALSE,"S254963354"
"134","towsol","Townsend's Solitaire","Myadestes townsendi","L48757405","Lost Twin Lake Trail (Bighorn co.)","2025-06-28 06:51",3,44.282176,-107.172598,TRUE,FALSE,TRUE,"S255383768"
"135","towsol","Townsend's Solitaire","Myadestes townsendi","L285168","Devils Tower NM","2025-06-28 06:49",1,44.590762,-104.7180517,TRUE,FALSE,FALSE,"S254957653"
"136","towsol","Townsend's Solitaire","Myadestes townsendi","L26321806","Helena Saddle","2025-06-28 06:49",2,43.588747,-122.613102,TRUE,FALSE,FALSE,"S254994743"
"137","towsol","Townsend's Solitaire","Myadestes townsendi","L3028520","Carson NF--Canjilon Lakes","2025-06-28 06:42",1,36.5494567,-106.341691,TRUE,FALSE,FALSE,"S254930407"
"138","towsol","Townsend's Solitaire","Myadestes townsendi","L48624612","Cattle Guard - Dave Wood Rd, Montrose US-CO 38.22145, -107.99744","2025-06-28 06:41",1,38.221447,-107.997439,TRUE,FALSE,TRUE,"S254820886"
"139","towsol","Townsend's Solitaire","Myadestes townsendi","L1631922","Pine Flats Campground","2025-06-28 06:36",1,44.0629698,-115.6815588,TRUE,FALSE,TRUE,"S255433492"
"140","towsol","Townsend's Solitaire","Myadestes townsendi","L48669404","Beard’s Mountain","2025-06-28 06:35",1,43.821366,-110.974138,TRUE,FALSE,TRUE,"S254995592"
"141","towsol","Townsend's Solitaire","Myadestes townsendi","L4828083","Schweitzer Resort--Front Side","2025-06-28 06:34",2,48.3742687,-116.6288424,TRUE,FALSE,FALSE,"S254913894"
"142","towsol","Townsend's Solitaire","Myadestes townsendi","L23495889","88 Hat Creek Ct, Durango US-CO (37.3065,-107.7842)","2025-06-28 06:30",1,37.306513,-107.784232,TRUE,FALSE,TRUE,"S254858011"
"143","towsol","Townsend's Solitaire","Myadestes townsendi","L48628833","Dry Creek Rd, Mammoth Lakes US-CA 37.69342, -118.98321","2025-06-28 06:22",1,37.693423,-118.983208,TRUE,FALSE,TRUE,"S254840607"
"144","towsol","Townsend's Solitaire","Myadestes townsendi","L48626287","NF Road 9736","2025-06-28 06:05",2,43.68692,-121.386317,TRUE,FALSE,TRUE,"S254828782"
"145","towsol","Townsend's Solitaire","Myadestes townsendi","L7735682","23736 Storm Mountain Road, Rapid City, South Dakota, US (43.963, -103.377)","2025-06-28 05:52",2,43.963387,-103.3774387,TRUE,FALSE,TRUE,"S254823443"
"146","towsol","Townsend's Solitaire","Myadestes townsendi","L12507777","Wall Lake","2025-06-28 05:50",2,40.6956041,-110.9591049,TRUE,FALSE,FALSE,"S254998803"
"147","towsol","Townsend's Solitaire","Myadestes townsendi","L22620121","Six-Mile Sno-Park","2025-06-28 05:34",1,43.7090441,-121.3893557,TRUE,FALSE,TRUE,"S254814923"
"148","towsol","Townsend's Solitaire","Myadestes townsendi","L7870111","Laramie Peak HMA","2025-06-28 05:22",1,41.973896,-105.451844,TRUE,FALSE,TRUE,"S255432805"
"149","towsol","Townsend's Solitaire","Myadestes townsendi","L562342","Biscuit Ridge Road","2025-06-28 05:15",1,46.0822806,-118.0446625,TRUE,FALSE,FALSE,"S254989052"
"150","towsol","Townsend's Solitaire","Myadestes townsendi","L48757345","Bird Monitoring Transect 22, West Arm","2025-06-28 05:05",1,36.3358496,-112.136044,TRUE,FALSE,TRUE,"S255383511"
"151","towsol","Townsend's Solitaire","Myadestes townsendi","L20004657","Woodfords BBS stops 41-50","2025-06-28 05:03",1,38.5882961,-119.7860813,TRUE,FALSE,TRUE,"S255386985"
"152","towsol","Townsend's Solitaire","Myadestes townsendi","L5991888","Butterfield Peaks Trail (Salt Lake Co.)","2025-06-27 19:35",1,40.4764968,-112.1739078,TRUE,FALSE,FALSE,"S254716424"
"153","towsol","Townsend's Solitaire","Myadestes townsendi","L694062","Horse Mountain--summit","2025-06-27 19:14",2,40.874162,-123.7323403,TRUE,FALSE,FALSE,"S255081006"
"154","towsol","Townsend's Solitaire","Myadestes townsendi","L24941165","McKelevey Trail, Helena US-MT 46.57576, -112.05669","2025-06-27 18:56",2,46.575758,-112.056691,TRUE,FALSE,TRUE,"S254711001"
"155","towsol","Townsend's Solitaire","Myadestes townsendi","L1580174","Forest Service Rte. 1 (Titlow Hill Rd.)--Horse Mtn. saddle","2025-06-27 18:38",2,40.8657651,-123.7338754,TRUE,FALSE,FALSE,"S255080800"
"156","towsol","Townsend's Solitaire","Myadestes townsendi","L48601730","Wilbur, Riverside State Park, Nine Mile Falls, Washington, US (47.732, -117.514)","2025-06-27 18:09",5,47.7322526,-117.5144041,TRUE,FALSE,TRUE,"S254717519"
"157","towsol","Townsend's Solitaire","Myadestes townsendi","L8066573","(43.7985,-119.0002) Poison Creek","2025-06-27 17:39",1,43.798477,-119.000194,TRUE,FALSE,TRUE,"S254701241"
"158","towsol","Townsend's Solitaire","Myadestes townsendi","L36997129","West Mancos Trail, Mancos US-CO (37.4588,-108.0936)","2025-06-27 17:10",1,37.458764,-108.093602,TRUE,FALSE,TRUE,"S254706889"
"159","towsol","Townsend's Solitaire","Myadestes townsendi","L3071413","Steens Mountain--Jackman Park","2025-06-27 17:07",1,42.7188863,-118.6240679,TRUE,FALSE,FALSE,"S254705988"
"160","towsol","Townsend's Solitaire","Myadestes townsendi","L1305369","Tamarack Sno-Park","2025-06-27 16:08",1,37.1623771,-119.2018747,TRUE,FALSE,FALSE,"S254694031"
"161","towsol","Townsend's Solitaire","Myadestes townsendi","L1207442","Blewett Pass Discovery Trail","2025-06-27 15:48",1,47.3342566,-120.5810452,TRUE,FALSE,FALSE,"S254686242"
"162","towsol","Townsend's Solitaire","Myadestes townsendi","L48596387","46305–46561 Highway 145, Rico US-CO 37.68373, -108.03373","2025-06-27 15:47",1,37.683733,-108.033733,TRUE,FALSE,TRUE,"S254695863"
"163","towsol","Townsend's Solitaire","Myadestes townsendi","L11286162","Bryce Canyon NP--Navajo Loop Trail","2025-06-27 15:19",1,37.6206881,-112.1636885,TRUE,FALSE,FALSE,"S254684569"
"164","towsol","Townsend's Solitaire","Myadestes townsendi","L48599390","Yellowstone NP--Sepulcher Mountain Trail, trailhead to Clagett Butte Trail","2025-06-27 15:05",1,44.974803,-110.715232,TRUE,FALSE,TRUE,"S254708205"
"165","towsol","Townsend's Solitaire","Myadestes townsendi","L2959569","Rampart Reservoir","2025-06-27 15:00",2,38.976685,-104.9716401,TRUE,FALSE,FALSE,"S254670614"
"166","towsol","Townsend's Solitaire","Myadestes townsendi","L48689661","Forest Service Road 51, Blue Lake US-CA 40.81993, -123.69899","2025-06-27 14:57",2,40.81993,-123.698986,TRUE,FALSE,TRUE,"S255080496"
"167","towsol","Townsend's Solitaire","Myadestes townsendi","L48596534","Hillside Drive Road, Dolores US-CO 37.58224, -108.15250","2025-06-27 14:30",1,37.582241,-108.152505,TRUE,FALSE,TRUE,"S254696404"
"168","towsol","Townsend's Solitaire","Myadestes townsendi","L48727554","Mt Pinos Rd","2025-06-27 14:30",1,34.8239571,-119.0835636,TRUE,FALSE,TRUE,"S255267883"
"169","towsol","Townsend's Solitaire","Myadestes townsendi","L48757587","Bighorn NF - Lily Lake","2025-06-27 14:20",1,44.313996,-107.28339,TRUE,FALSE,TRUE,"S255384442"
"170","towsol","Townsend's Solitaire","Myadestes townsendi","L7530966","Fallen Leaf Campground","2025-06-27 14:04",1,38.9260971,-120.0512981,TRUE,FALSE,FALSE,"S254650632"
"171","towsol","Townsend's Solitaire","Myadestes townsendi","L1108796","'Oak Grove', MHNF Rd. 27","2025-06-27 14:04",1,45.3339868,-121.3442516,TRUE,FALSE,TRUE,"S255264522"
"172","towsol","Townsend's Solitaire","Myadestes townsendi","L48581555","Lowman Home Road, Lowman, Idaho, US (44.027, -115.631)","2025-06-27 13:59",1,44.0274777,-115.6313532,TRUE,FALSE,TRUE,"S254634763"
"173","towsol","Townsend's Solitaire","Myadestes townsendi","L996128","Yosemite NP--Mariposa Grove","2025-06-27 13:52",1,37.51,-119.603,TRUE,FALSE,FALSE,"S254728187"
"174","towsol","Townsend's Solitaire","Myadestes townsendi","L346676","Washington Pass (Okanogan Co.)","2025-06-27 13:40",1,48.5258316,-120.6474222,TRUE,FALSE,FALSE,"S254671514"
"175","towsol","Townsend's Solitaire","Myadestes townsendi","L48600678","Stakeout YEGR - Estes Park 2025","2025-06-27 13:17",1,40.351295,-105.516148,TRUE,FALSE,TRUE,"S254713527"
"176","towsol","Townsend's Solitaire","Myadestes townsendi","L2980351","Yosemite NP--Glacier Point Four Mile Trail","2025-06-27 13:12",1,37.732668,-119.5818901,TRUE,FALSE,FALSE,"S254712414"
"177","towsol","Townsend's Solitaire","Myadestes townsendi","L3946959","Five Lakes","2025-06-27 13:00",3,39.1768246,-120.2515133,TRUE,FALSE,FALSE,"S254713401"
"178","towsol","Townsend's Solitaire","Myadestes townsendi","L12099264","Nature Walk Hiking Trail","2025-06-27 12:48",1,39.26066,-106.3568116,TRUE,FALSE,FALSE,"S254702553"
"179","towsol","Townsend's Solitaire","Myadestes townsendi","L1040000","Mt. Ashland Ski Area","2025-06-27 12:48",1,42.0807302,-122.7057806,TRUE,FALSE,FALSE,"S254635320"
"180","towsol","Townsend's Solitaire","Myadestes townsendi","L47453910","72019 Courtright Way, Shaver Lake, California, US (37.072, -118.975)","2025-06-27 12:12",1,37.0716601,-118.9745118,TRUE,FALSE,TRUE,"S254714206"
"181","towsol","Townsend's Solitaire","Myadestes townsendi","L18566342","Chilcoot Pocket","2025-06-27 12:08",1,39.8254742,-120.1179577,TRUE,FALSE,FALSE,"S254669797"
"182","towsol","Townsend's Solitaire","Myadestes townsendi","L48590426","71141–71147 Courtright Way, Shaver Lake US-CA 37.05320, -118.98091","2025-06-27 11:57",1,37.053203,-118.980915,TRUE,FALSE,TRUE,"S254670449"
"183","towsol","Townsend's Solitaire","Myadestes townsendi","L11672615","72133 Courtright Way, Shaver Lake, California, US (37.052, -118.982)","2025-06-27 11:51",1,37.0518208,-118.981703,TRUE,FALSE,TRUE,"S254714226"
"184","towsol","Townsend's Solitaire","Myadestes townsendi","L15428716","7 Devils Road","2025-06-27 11:49",1,45.380305,-116.428055,TRUE,FALSE,TRUE,"S254695503"
"185","towsol","Townsend's Solitaire","Myadestes townsendi","L26943744","National Forest Development Road 4220, Oregon, US (44.824, -121.795)","2025-06-27 11:45",1,44.8242034,-121.7947873,TRUE,FALSE,TRUE,"S254977196"
"186","towsol","Townsend's Solitaire","Myadestes townsendi","L48685332","Government Harvey Pass Rd (FS Road 29), Paisley US-OR 42.72991, -120.74825","2025-06-27 11:43",1,42.729907,-120.748246,TRUE,FALSE,TRUE,"S255061603"
"187","towsol","Townsend's Solitaire","Myadestes townsendi","L48603241","Forest Service Road 376, Jemez Springs US-NM (35.8634,-106.7241)","2025-06-27 11:35",1,35.86335,-106.7241,TRUE,FALSE,TRUE,"S254724711"
"188","towsol","Townsend's Solitaire","Myadestes townsendi","L589672","Great Basin NP--Lexington Arch","2025-06-27 11:10",1,38.8436853,-114.2079449,TRUE,FALSE,FALSE,"S254725467"
"189","towsol","Townsend's Solitaire","Myadestes townsendi","L684685","Horseshoe Meadow","2025-06-27 11:06",1,36.4473296,-118.1702864,TRUE,FALSE,FALSE,"S254685897"
"190","towsol","Townsend's Solitaire","Myadestes townsendi","L48590317","WISA Stop #1","2025-06-27 10:45",1,37.020134,-118.989587,TRUE,FALSE,TRUE,"S254670005"
"191","towsol","Townsend's Solitaire","Myadestes townsendi","L25714407","3350 Hermit Park Road, Estes Park, Colorado, US (40.336, -105.472)","2025-06-27 10:40",1,40.3357063,-105.4720036,TRUE,FALSE,TRUE,"S254648014"
"192","towsol","Townsend's Solitaire","Myadestes townsendi","L2520505","Lump Gulch Rd 5 miles","2025-06-27 10:38",2,46.4794095,-112.0678854,TRUE,FALSE,TRUE,"S254667426"
"193","towsol","Townsend's Solitaire","Myadestes townsendi","L48572131","Saint Marys Peak Road, Stevensville, Montana, US (46.5, -114.193)","2025-06-27 10:17",1,46.5001219,-114.192568,TRUE,FALSE,TRUE,"S254597932"
"194","towsol","Townsend's Solitaire","Myadestes townsendi","L1112229","Jelm Access Area","2025-06-27 10:13",1,41.0794644,-106.0121387,TRUE,FALSE,FALSE,"S254582045"
"195","towsol","Townsend's Solitaire","Myadestes townsendi","L2255990","Little Cottonwood Canyon--Cardiff Pass","2025-06-27 10:11",1,40.5939338,-111.6563272,TRUE,FALSE,FALSE,"S254740066"
"196","towsol","Townsend's Solitaire","Myadestes townsendi","L1213072","Santa Fe NF--Chamisa Trail","2025-06-27 10:07",1,35.7286155,-105.8657813,TRUE,FALSE,FALSE,"S254603690"
"197","towsol","Townsend's Solitaire","Myadestes townsendi","L48587448","North Loop Trail, Las Vegas US-NV 36.30884, -115.61164","2025-06-27 09:58",1,36.308837,-115.611645,TRUE,FALSE,TRUE,"S254658598"
"198","towsol","Townsend's Solitaire","Myadestes townsendi","L48566980","Boise Ridge Rd","2025-06-27 09:53",1,43.665657,-116.092497,TRUE,FALSE,TRUE,"S254575835"
"199","towsol","Townsend's Solitaire","Myadestes townsendi","L2464461","Blue Lakes","2025-06-27 09:46",3,39.3872373,-106.1009359,TRUE,FALSE,FALSE,"S254622531"
"200","towsol","Townsend's Solitaire","Myadestes townsendi","L1182097","Conboy NWR--Willard Springs Foot Trail","2025-06-27 09:32",2,45.9759095,-121.3367897,TRUE,FALSE,FALSE,"S254662547"
"201","towsol","Townsend's Solitaire","Myadestes townsendi","L48565467","10619 Roughlock Falls Rd, Lead US-SD 44.35052, -103.93264","2025-06-27 09:29",1,44.350524,-103.932642,TRUE,FALSE,TRUE,"S254572738"
"202","towsol","Townsend's Solitaire","Myadestes townsendi","L962679","Rocky Mountain NP--Gem Lake Trail","2025-06-27 09:25",1,40.4098241,-105.5036992,TRUE,FALSE,FALSE,"S254606238"
"203","towsol","Townsend's Solitaire","Myadestes townsendi","L48602741","Caples Spur Dr, Twin Bridges US-CA 38.69488, -120.19890","2025-06-27 09:25",5,38.694878,-120.198904,TRUE,FALSE,TRUE,"S254722200"
"204","towsol","Townsend's Solitaire","Myadestes townsendi","L27727242","Berthoud Pass (pass area only)","2025-06-27 09:24",2,39.7985279,-105.7765725,TRUE,FALSE,FALSE,"S254710941"
"205","towsol","Townsend's Solitaire","Myadestes townsendi","L48571049","Stump Reservoir","2025-06-27 09:18",1,37.5045964,-108.4466981,TRUE,FALSE,TRUE,"S254593970"
"206","towsol","Townsend's Solitaire","Myadestes townsendi","L6080283","Cromwell Creek Rd.","2025-06-27 09:17",2,47.874756,-114.533545,TRUE,FALSE,TRUE,"S254626724"
"207","towsol","Townsend's Solitaire","Myadestes townsendi","L4984290","Sugarloaf Mountain Trail","2025-06-27 08:47",1,34.196945,-116.8108377,TRUE,FALSE,FALSE,"S254693192"
"208","towsol","Townsend's Solitaire","Myadestes townsendi","L264794","Kendrick Peak","2025-06-27 08:45",1,35.4080079,-111.8509303,TRUE,FALSE,FALSE,"S254709939"
"209","towsol","Townsend's Solitaire","Myadestes townsendi","L4431953","Scratchgravel Trailhead-John G Mine Rd.","2025-06-27 08:43",1,46.6885319,-112.0696831,TRUE,FALSE,TRUE,"S254580561"
"210","towsol","Townsend's Solitaire","Myadestes townsendi","L48571780","Upper Swanson Gulch Rd","2025-06-27 08:35",3,47.927676,-120.090134,TRUE,FALSE,TRUE,"S254596656"
"211","towsol","Townsend's Solitaire","Myadestes townsendi","L2271195","Staunton SP (Jefferson Co)","2025-06-27 08:28",1,39.5174412,-105.3884554,TRUE,FALSE,FALSE,"S254716267"
"212","towsol","Townsend's Solitaire","Myadestes townsendi","L2319316","Sequoia NP--Little Baldy Trail","2025-06-27 08:26",1,36.6144528,-118.8078582,TRUE,FALSE,FALSE,"S254721043"
"213","towsol","Townsend's Solitaire","Myadestes townsendi","L48675974","BLM Road 25-3-36 0, Oregon, US (43.376, -123.021)","2025-06-27 08:21",1,43.3757637,-123.0208143,TRUE,FALSE,TRUE,"S255023618"
"214","towsol","Townsend's Solitaire","Myadestes townsendi","L9647607","Fresno_TEAK_N9","2025-06-27 08:16",3,37.046879,-119.026878,TRUE,FALSE,TRUE,"S255050592"
"215","towsol","Townsend's Solitaire","Myadestes townsendi","L16209719","2647 N Chelton Rd, Colorado Springs US-CO 38.87044, -104.77511","2025-06-27 08:15",1,38.870438,-104.775105,TRUE,FALSE,TRUE,"S254543362"
"216","towsol","Townsend's Solitaire","Myadestes townsendi","L48604823","Maredith Mill area","2025-06-27 08:00",3,39.638346,-120.881645,TRUE,FALSE,TRUE,"S254732796"
"217","towsol","Townsend's Solitaire","Myadestes townsendi","L7683994","Castle Lake","2025-06-27 07:59",1,41.2274098,-122.383039,TRUE,FALSE,FALSE,"S254609055"
"218","towsol","Townsend's Solitaire","Myadestes townsendi","L1247263","San Bernardino Mtns--Sugarloaf Tail to FR 2N93","2025-06-27 07:53",2,34.2106795,-116.7780375,TRUE,FALSE,TRUE,"S254693216"
"219","towsol","Townsend's Solitaire","Myadestes townsendi","L48592027","Mount Ida Trail, Grand Lake US-CO (40.4130,-105.8087)","2025-06-27 07:51",1,40.412952,-105.808687,TRUE,FALSE,TRUE,"S254677024"
"220","towsol","Townsend's Solitaire","Myadestes townsendi","L4789214","Yosemite NP--Clouds Rest Trail","2025-06-27 07:45",2,37.7885562,-119.4890213,TRUE,FALSE,FALSE,"S254714461"
"221","towsol","Townsend's Solitaire","Myadestes townsendi","L4151195","Bowdish Road","2025-06-27 07:30",2,48.3202334,-114.3209302,TRUE,FALSE,FALSE,"S254575424"
"222","towsol","Townsend's Solitaire","Myadestes townsendi","L33707924","Payette NF--Lick Creek Lookout","2025-06-27 07:25",1,45.106364,-116.504955,TRUE,FALSE,TRUE,"S254608630"
"223","towsol","Townsend's Solitaire","Myadestes townsendi","L48564313","National Forest Development Road 2804, Silver Lake, Oregon, US","2025-06-27 07:19",1,43.0928263,-121.2682633,TRUE,FALSE,TRUE,"S254568464"
"224","towsol","Townsend's Solitaire","Myadestes townsendi","L585741","Spring Mountains NRA--Fletcher Canyon","2025-06-27 07:15",2,36.2660753,-115.6122851,TRUE,FALSE,FALSE,"S254644121"
"225","towsol","Townsend's Solitaire","Myadestes townsendi","L37630174","Sheep Mountain Trail","2025-06-27 07:07",2,43.557226,-110.566378,TRUE,FALSE,TRUE,"S255030604"
"226","towsol","Townsend's Solitaire","Myadestes townsendi","L34980782","Noonday Saddle","2025-06-27 07:03",5,43.5939072,-122.6088553,TRUE,FALSE,TRUE,"S254606024"
"227","towsol","Townsend's Solitaire","Myadestes townsendi","L4663211","Tawlks-Foster suspension bridge","2025-06-27 07:01",1,48.5715528,-120.368464,TRUE,FALSE,FALSE,"S254601553"
"228","towsol","Townsend's Solitaire","Myadestes townsendi","L268297","Bryce Canyon NP","2025-06-27 06:57",1,37.6461898,-112.1660052,TRUE,FALSE,FALSE,"S254557804"
"229","towsol","Townsend's Solitaire","Myadestes townsendi","L478982","Pine Valley Ranch ","2025-06-27 06:40",1,39.4075167,-105.34863,TRUE,FALSE,FALSE,"S254578249"
"230","towsol","Townsend's Solitaire","Myadestes townsendi","L449534","Zion NP--Lava Point (NO Blue Springs Reservoir birds)","2025-06-27 06:16",1,37.383304,-113.0295539,TRUE,FALSE,FALSE,"S255292136"
"231","towsol","Townsend's Solitaire","Myadestes townsendi","L878486","Plumas Eureka SP","2025-06-27 06:10",1,39.7520733,-120.7006073,TRUE,FALSE,FALSE,"S254709320"
"232","towsol","Townsend's Solitaire","Myadestes townsendi","L570464","Olympic Valley (PLA Co.)","2025-06-27 06:09",2,39.1960436,-120.2444172,TRUE,FALSE,FALSE,"S254783964"
"233","towsol","Townsend's Solitaire","Myadestes townsendi","L48582500","Cotopaxi, Colorado, US (38.402, -105.733)","2025-06-27 06:08",1,38.4024947,-105.7326771,TRUE,FALSE,TRUE,"S254638661"
"234","towsol","Townsend's Solitaire","Myadestes townsendi","L863246","Mt. Bolivar","2025-06-27 06:01",2,42.7917789,-123.8370285,TRUE,FALSE,FALSE,"S254584893"
"235","towsol","Townsend's Solitaire","Myadestes townsendi","L3807304","Coconino NF--Sandy's Canyon Trail","2025-06-27 06:01",1,35.1269096,-111.5986973,TRUE,FALSE,FALSE,"S254649709"
"236","towsol","Townsend's Solitaire","Myadestes townsendi","L1217046","Loyalton Rotary Park (SIE Co.)","2025-06-27 06:00",1,39.6259618,-120.1940131,TRUE,FALSE,FALSE,"S254864157"
"237","towsol","Townsend's Solitaire","Myadestes townsendi","L48756820","Bird Monitoring Transect 6, West Arm","2025-06-27 05:50",1,36.292917,-112.1352266,TRUE,FALSE,TRUE,"S255381558"
"238","towsol","Townsend's Solitaire","Myadestes townsendi","L9647613","Fresno_TEAK_N8","2025-06-27 05:47",1,37.041582,-119.036846,TRUE,FALSE,TRUE,"S255050755"
"239","towsol","Townsend's Solitaire","Myadestes townsendi","L2882297","Yellowstone NP--Junction Butte","2025-06-27 05:42",1,44.9198107,-110.3884578,TRUE,FALSE,FALSE,"S254554103"
"240","towsol","Townsend's Solitaire","Myadestes townsendi","L48572858","Tahoe Rim Trail, southbound, Carson City US-NV 39.08606, -119.88703","2025-06-27 05:29",3,39.086062,-119.887035,TRUE,FALSE,TRUE,"S254600594"
"241","towsol","Townsend's Solitaire","Myadestes townsendi","L48573521","North Rim, Arizona, US (36.344, -112.246)","2025-06-27 05:13",2,36.3437069,-112.2455113,TRUE,FALSE,TRUE,"S254602999"
"242","towsol","Townsend's Solitaire","Myadestes townsendi","L2950605","Lassen NP--Noble Trail Hat Creek service road","2025-06-27 05:12",1,40.5122331,-121.4607239,TRUE,FALSE,FALSE,"S254921195"
"243","towsol","Townsend's Solitaire","Myadestes townsendi","L48583800","Auto selected 36.29340, -112.09195","2025-06-27 05:12",1,36.293402,-112.091947,TRUE,FALSE,TRUE,"S254644196"
"244","towsol","Townsend's Solitaire","Myadestes townsendi","L48565581","LP WHMA Sugarloaf","2025-06-27 04:25",1,41.9608566,-105.4053715,TRUE,FALSE,TRUE,"S254573162"
"245","towsol","Townsend's Solitaire","Myadestes townsendi","L35144153","Herman Gulch","2025-06-26 21:50",1,45.8836682,-112.5059954,TRUE,FALSE,TRUE,"S254553462"
"246","towsol","Townsend's Solitaire","Myadestes townsendi","L48534971","Anne U. White Trail, Boulder, Colorado, US (40.057, -105.323)","2025-06-26 20:25",1,40.05711,-105.3233086,TRUE,FALSE,TRUE,"S254428791"
"247","towsol","Townsend's Solitaire","Myadestes townsendi","L48533147","Multi-Use Path, Tropic US-UT 37.63830, -112.16927","2025-06-26 20:24",1,37.638298,-112.169269,TRUE,FALSE,TRUE,"S254420377"
"248","towsol","Townsend's Solitaire","Myadestes townsendi","L48536670","NFD-4410, Winthrop, Washington, US (48.453, -120.27)","2025-06-26 20:05",2,48.453068,-120.2696945,TRUE,FALSE,TRUE,"S254437205"
"249","towsol","Townsend's Solitaire","Myadestes townsendi","L45013346","Forest Service Road 170, Arizona, US (34.434, -110.817)","2025-06-26 18:36",1,34.4341831,-110.8171304,TRUE,FALSE,TRUE,"S254434432"
"250","towsol","Townsend's Solitaire","Myadestes townsendi","L273687","Roger Lake","2025-06-26 18:04",1,48.6474774,-119.9691343,TRUE,FALSE,FALSE,"S254426555"
"251","towsol","Townsend's Solitaire","Myadestes townsendi","L3846397","Golden Gate SP--Kriley Pond","2025-06-26 16:39",1,39.8336807,-105.4290329,TRUE,FALSE,FALSE,"S254388596"
"252","towsol","Townsend's Solitaire","Myadestes townsendi","L2400030","State Forest SP--Ranger Lakes Campground area","2025-06-26 16:31",1,40.5030389,-105.9695546,TRUE,FALSE,FALSE,"S255067337"
"253","towsol","Townsend's Solitaire","Myadestes townsendi","L2305088","Yampa River Botanic & Emerald Parks","2025-06-26 16:19",1,40.4707642,-106.8293166,TRUE,FALSE,FALSE,"S254383383"
"254","towsol","Townsend's Solitaire","Myadestes townsendi","L48532014","Auto selected 42.27158, -121.40050","2025-06-26 16:08",3,42.271584,-121.400496,TRUE,FALSE,TRUE,"S254416021"
"255","towsol","Townsend's Solitaire","Myadestes townsendi","L48521221","30 Pine Cone Way, Boise US-ID 43.68022, -116.00425","2025-06-26 15:41",1,43.680222,-116.004249,TRUE,FALSE,TRUE,"S254366934"
"256","towsol","Townsend's Solitaire","Myadestes townsendi","L48554790","82332, Savery US-WY (41.1976,-107.1662)","2025-06-26 15:33",1,41.197647,-107.166245,TRUE,FALSE,TRUE,"S254526250"
"257","towsol","Townsend's Solitaire","Myadestes townsendi","L2882299","Yellowstone NP--Calcite Springs overlook","2025-06-26 14:54",1,44.901867,-110.393753,TRUE,FALSE,FALSE,"S254425180"
"258","towsol","Townsend's Solitaire","Myadestes townsendi","L48557111","Gardner, Colorado, US (37.644, -105.485)","2025-06-26 14:53",NA,37.64412,-105.4853999,TRUE,FALSE,TRUE,"S254538305"
"259","towsol","Townsend's Solitaire","Myadestes townsendi","L946363","Sequoia NP--Crescent Meadow","2025-06-26 14:42",2,36.5563263,-118.7479591,TRUE,FALSE,FALSE,"S254397164"
"260","towsol","Townsend's Solitaire","Myadestes townsendi","L48554277","Cove Fire Scar--FR 40N11","2025-06-26 14:38",3,41.23147,-120.9667927,TRUE,FALSE,TRUE,"S254523396"
"261","towsol","Townsend's Solitaire","Myadestes townsendi","L48531132","Chatfield Farms","2025-06-26 14:31",1,39.485854,-105.082314,TRUE,FALSE,TRUE,"S254412096"
"262","towsol","Townsend's Solitaire","Myadestes townsendi","L302460","Medicine Bow NF--Medicine Bow Peak","2025-06-26 14:28",4,41.3606997,-106.3176827,TRUE,FALSE,FALSE,"S254415537"
"263","towsol","Townsend's Solitaire","Myadestes townsendi","L11108117","US40--Pinion Ridge Rest Area","2025-06-26 14:24",1,40.204642,-110.713436,TRUE,FALSE,FALSE,"S254357435"
"264","towsol","Townsend's Solitaire","Myadestes townsendi","L965147","Crater Lake NP--The Watchman","2025-06-26 14:21",1,42.9419415,-122.1710157,TRUE,FALSE,FALSE,"S254410477"
"265","towsol","Townsend's Solitaire","Myadestes townsendi","L6187004","Lassen Volcanic NP--Kohm Yah-Mah-Nee Visitor Center","2025-06-26 13:50",1,40.4377938,-121.5338409,TRUE,FALSE,FALSE,"S254372097"
"266","towsol","Townsend's Solitaire","Myadestes townsendi","L1507573","Bells Canyon--Upper","2025-06-26 13:30",1,40.5620215,-111.7800825,TRUE,FALSE,FALSE,"S254383593"
"267","towsol","Townsend's Solitaire","Myadestes townsendi","L3865145","Yosemite NP--May Lake trail and campground","2025-06-26 13:26",1,37.8440464,-119.4922541,TRUE,FALSE,FALSE,"S254384489"
"268","towsol","Townsend's Solitaire","Myadestes townsendi","L12462788","Loch Leven Lakes Trail","2025-06-26 13:04",3,39.309379,-120.516024,TRUE,FALSE,FALSE,"S254372905"
"269","towsol","Townsend's Solitaire","Myadestes townsendi","L48534253","LVNP—Devil's Kitchen Trail","2025-06-26 12:46",1,40.444278,-121.413202,TRUE,FALSE,TRUE,"S254425375"
"270","towsol","Townsend's Solitaire","Myadestes townsendi","L7901109","Lassen Volcanic NP--Lake Helen","2025-06-26 12:41",1,40.4664927,-121.5105271,TRUE,FALSE,FALSE,"S254372024"
"271","towsol","Townsend's Solitaire","Myadestes townsendi","L3076247","Lassen Volcanic NP--Drakesbad Guest Ranch","2025-06-26 12:04",1,40.4430115,-121.4005136,TRUE,FALSE,FALSE,"S254425226"
"272","towsol","Townsend's Solitaire","Myadestes townsendi","L48528788","Maury Mountain Moss Agate Parking Lot","2025-06-26 12:00",1,44.0778435,-120.3479826,TRUE,FALSE,TRUE,"S254402579"
"273","towsol","Townsend's Solitaire","Myadestes townsendi","L2819393","Palisades Park Area","2025-06-26 11:47",1,47.6554442,-117.4759483,TRUE,FALSE,FALSE,"S254340293"
"274","towsol","Townsend's Solitaire","Myadestes townsendi","L48533642","Lookout Mountain Trail, Prineville US-OR 44.33859, -120.39426","2025-06-26 11:43",1,44.338593,-120.394258,TRUE,FALSE,TRUE,"S254422573"
"275","towsol","Townsend's Solitaire","Myadestes townsendi","L13534077","McClain Cr. Road--upper. Forested, mountainside portion (away from creek)","2025-06-26 11:28",1,46.699129,-114.112446,TRUE,FALSE,TRUE,"S254316717"
"276","towsol","Townsend's Solitaire","Myadestes townsendi","L48520847","Grand Canyon National Park, Grand Canyon US-AZ 36.29299, -112.11788","2025-06-26 11:21",1,36.292989,-112.117876,TRUE,FALSE,TRUE,"S254365077"
"277","towsol","Townsend's Solitaire","Myadestes townsendi","L962017","Hermit Park","2025-06-26 11:04",2,40.3411799,-105.474329,TRUE,FALSE,FALSE,"S254355200"
"278","towsol","Townsend's Solitaire","Myadestes townsendi","L1239025","Grand Teton NP--Jenny Lake Loop Trail","2025-06-26 11:04",1,43.7622611,-110.7438183,TRUE,FALSE,FALSE,"S254360043"
"279","towsol","Townsend's Solitaire","Myadestes townsendi","L3837993","Mineral Point","2025-06-26 11:00",1,48.1811,-116.388263,TRUE,FALSE,FALSE,"S254367265"
"280","towsol","Townsend's Solitaire","Myadestes townsendi","L2393701","Mirror Lake Hwy--Pine Valley CG","2025-06-26 10:59",1,40.5993797,-111.1157063,TRUE,FALSE,FALSE,"S254310188"
"281","towsol","Townsend's Solitaire","Myadestes townsendi","L48511711","Little Weiser River Road above Anderson Snow Park, Cascade, Idaho (44.54, -116.147)","2025-06-26 10:59",1,44.5395366,-116.1472973,TRUE,FALSE,TRUE,"S254325369"
"282","towsol","Townsend's Solitaire","Myadestes townsendi","L2220944","Leadville National Fish Hatchery","2025-06-26 10:46",1,39.2254549,-106.3901344,TRUE,FALSE,FALSE,"S254609281"
"283","towsol","Townsend's Solitaire","Myadestes townsendi","L48523618","Flume Trail, Rapid City US-SD 43.97055, -103.40612","2025-06-26 10:43",2,43.97055,-103.406116,TRUE,FALSE,TRUE,"S254377631"
"284","towsol","Townsend's Solitaire","Myadestes townsendi","L8108381","Mount Rose Trail","2025-06-26 10:28",6,39.3124016,-119.8992555,TRUE,FALSE,FALSE,"S254577975"
"285","towsol","Townsend's Solitaire","Myadestes townsendi","L15802930","Lolo National Forest, Superior US-MT 47.17850, -114.90768","2025-06-26 10:23",1,47.178498,-114.907683,TRUE,FALSE,TRUE,"S254336662"
"286","towsol","Townsend's Solitaire","Myadestes townsendi","L343234","Yosemite NP--Tenaya Lake","2025-06-26 10:02",2,37.83006,-119.46768,TRUE,FALSE,FALSE,"S254427758"
"287","towsol","Townsend's Solitaire","Myadestes townsendi","L11876009","Glass Creek Meadow Trail","2025-06-26 09:59",3,37.748948,-119.024348,TRUE,FALSE,FALSE,"S254375481"
"288","towsol","Townsend's Solitaire","Myadestes townsendi","L2934633","Pinnacle Ridge Trail","2025-06-26 09:40",1,45.435081,-121.6934967,TRUE,FALSE,TRUE,"S254427571"
"289","towsol","Townsend's Solitaire","Myadestes townsendi","L15660901","Lassen Volcanic NP--King's Creek Trailhead","2025-06-26 09:32",2,40.459232,-121.4512267,TRUE,FALSE,FALSE,"S254427872"
"290","towsol","Townsend's Solitaire","Myadestes townsendi","L48729470","Golden, Colorado, US (39.825, -105.35) Private Property","2025-06-26 09:26",5,39.8254222,-105.3504063,TRUE,FALSE,TRUE,"S255273425"
"291","towsol","Townsend's Solitaire","Myadestes townsendi","L559954","Lamb's Canyon","2025-06-26 09:23",1,40.7233235,-111.6625071,TRUE,FALSE,FALSE,"S254306204"
"292","towsol","Townsend's Solitaire","Myadestes townsendi","L7749029","Staunton SP (Park Co)","2025-06-26 09:22",1,39.515879,-105.402151,TRUE,FALSE,FALSE,"S254567666"
"293","towsol","Townsend's Solitaire","Myadestes townsendi","L589679","Bandelier NM--Pueblo Loop Trail","2025-06-26 09:12",1,35.7825972,-106.2743193,TRUE,FALSE,FALSE,"S254308563"
"294","towsol","Townsend's Solitaire","Myadestes townsendi","L48507606","Hoosier trail","2025-06-26 09:03",4,39.36456,-106.07028,TRUE,FALSE,TRUE,"S254309793"
"295","towsol","Townsend's Solitaire","Myadestes townsendi","L935835","Rocky Mountain NP--Trail Ridge Rd--Alpine Visitor Center","2025-06-26 09:00",2,40.4408073,-105.754879,TRUE,FALSE,FALSE,"S254363422"
"296","towsol","Townsend's Solitaire","Myadestes townsendi","L48509672","Bighorn National Forest, Hyattville US-WY 44.17754, -107.26652","2025-06-26 08:52",2,44.177541,-107.266516,TRUE,FALSE,TRUE,"S254348111"
"297","towsol","Townsend's Solitaire","Myadestes townsendi","L15693708","Incline Flume Trail--upper Incline Creek area","2025-06-26 08:50",1,39.2689263,-119.9266715,TRUE,FALSE,FALSE,"S254352484"
"298","towsol","Townsend's Solitaire","Myadestes townsendi","L35056841","Smiley Creek overlook","2025-06-26 08:36",1,47.6123524,-114.926317,TRUE,FALSE,TRUE,"S254298889"
"299","towsol","Townsend's Solitaire","Myadestes townsendi","L1230188","Whiskey Springs","2025-06-26 08:31",1,44.470222,-121.573111,TRUE,FALSE,FALSE,"S254320359"
"300","towsol","Townsend's Solitaire","Myadestes townsendi","L6003657","Hat Creek Campground","2025-06-26 08:30",1,40.6684976,-121.4462936,TRUE,FALSE,FALSE,"S254390838"
"301","towsol","Townsend's Solitaire","Myadestes townsendi","L589632","Grand Lake--East Inlet Trail","2025-06-26 08:29",1,40.2385882,-105.7928467,TRUE,FALSE,FALSE,"S254339926"
"302","towsol","Townsend's Solitaire","Myadestes townsendi","L9445082","Custer SP--Cathedral Spires Tr.","2025-06-26 08:24",4,43.8427005,-103.5350275,TRUE,FALSE,FALSE,"S254304376"
"303","towsol","Townsend's Solitaire","Myadestes townsendi","L48467851","Plug Point area","2025-06-26 08:12",3,39.653429,-120.881283,TRUE,FALSE,TRUE,"S254367246"
"304","towsol","Townsend's Solitaire","Myadestes townsendi","L2982325","Yellowstone NP--Beaver Ponds Trail (WY)","2025-06-26 08:07",1,44.9864963,-110.7089281,TRUE,FALSE,FALSE,"S254427404"
"305","towsol","Townsend's Solitaire","Myadestes townsendi","L25749562","Jumbo Lake Campground, Mesa, Colorado, US (39.054, -108.094)","2025-06-26 07:58",1,39.0542755,-108.0939664,TRUE,FALSE,TRUE,"S254273751"
"306","towsol","Townsend's Solitaire","Myadestes townsendi","L566915","Rocky Mountain NP--Lily Lake area","2025-06-26 07:53",2,40.3073545,-105.540247,TRUE,FALSE,FALSE,"S254291812"
"307","towsol","Townsend's Solitaire","Myadestes townsendi","L48501605","Antimony Road Canyon","2025-06-26 07:49",1,38.188961,-111.883687,TRUE,FALSE,TRUE,"S254286255"
"308","towsol","Townsend's Solitaire","Myadestes townsendi","L9647598","Fresno_TEAK_N13","2025-06-26 07:46",3,36.9761612,-119.0417108,TRUE,FALSE,TRUE,"S255050868"
"309","towsol","Townsend's Solitaire","Myadestes townsendi","L4012502","Fulford Cave area","2025-06-26 07:35",1,39.4923841,-106.6588354,TRUE,FALSE,FALSE,"S254317091"
"310","towsol","Townsend's Solitaire","Myadestes townsendi","L2436140","Mt. Judah Trail","2025-06-26 07:16",1,39.3055627,-120.3143263,TRUE,FALSE,FALSE,"S254315986"
"311","towsol","Townsend's Solitaire","Myadestes townsendi","L475860","Icehouse Canyon","2025-06-26 07:11",1,34.2484193,-117.626152,TRUE,FALSE,FALSE,"S254403674"
"312","towsol","Townsend's Solitaire","Myadestes townsendi","L27578855","boulder creek road/b2000","2025-06-26 07:02",2,47.7435295,-114.0201813,TRUE,FALSE,TRUE,"S254315753"
"313","towsol","Townsend's Solitaire","Myadestes townsendi","L2266238","Stough Reservoir Campground","2025-06-26 07:00",1,41.5622888,-120.2553391,TRUE,FALSE,FALSE,"S254530295"
"314","towsol","Townsend's Solitaire","Myadestes townsendi","L1209085","Square Top Trail & Lakes","2025-06-26 07:00",NA,39.5905059,-105.7383844,TRUE,FALSE,FALSE,"S254535454"
"315","towsol","Townsend's Solitaire","Myadestes townsendi","L1179352","Bryce Canyon NP--North Campground to Bryce Point","2025-06-26 06:32",2,37.6319067,-112.1648955,TRUE,FALSE,FALSE,"S254247563"
"316","towsol","Townsend's Solitaire","Myadestes townsendi","L1659867","Camp Sherman","2025-06-26 06:28",1,44.4599389,-121.6432683,TRUE,FALSE,FALSE,"S254281126"
"317","towsol","Townsend's Solitaire","Myadestes townsendi","L1668100","Santa Rosa Mountains, Santa Rosa Spring","2025-06-26 06:22",2,33.5405586,-116.4664789,TRUE,FALSE,FALSE,"S254415433"
"318","towsol","Townsend's Solitaire","Myadestes townsendi","L16445896","Yearns Reservoir","2025-06-26 06:19",1,39.2550369,-111.5428912,TRUE,FALSE,FALSE,"S254302590"
"319","towsol","Townsend's Solitaire","Myadestes townsendi","L1824886","Wrights Lake--vicinity","2025-06-26 06:16",1,38.8452808,-120.2358606,TRUE,FALSE,FALSE,"S254647788"
"320","towsol","Townsend's Solitaire","Myadestes townsendi","L4787869","Custer SP--Heddy Draw Overlook","2025-06-26 05:45",2,43.7475149,-103.4751272,TRUE,FALSE,FALSE,"S254421997"
"321","towsol","Townsend's Solitaire","Myadestes townsendi","L9647600","Fresno_TEAK_N6","2025-06-26 05:18",1,36.9759377,-119.0544478,TRUE,FALSE,TRUE,"S255050968"
"322","towsol","Townsend's Solitaire","Myadestes townsendi","L48601572","LV14","2025-06-26 05:15",2,40.465943,-121.52024,TRUE,FALSE,TRUE,"S254716823"
"323","towsol","Townsend's Solitaire","Myadestes townsendi","L48516695","Unnamed Road, North Rim, Arizona, US (36.289, -112.219)","2025-06-26 05:12",1,36.2894418,-112.2186101,TRUE,FALSE,TRUE,"S254345017"
"324","towsol","Townsend's Solitaire","Myadestes townsendi","L25728136","Near Jennings Hollow","2025-06-26 05:00",1,40.1906698,-111.5200314,TRUE,FALSE,TRUE,"S254278349"
"325","towsol","Townsend's Solitaire","Myadestes townsendi","L6245875","Custer SP--Center Lake","2025-06-25 19:05",1,43.8010842,-103.4173429,TRUE,FALSE,FALSE,"S254309644"
"326","towsol","Townsend's Solitaire","Myadestes townsendi","L48554244","Campsite at the top of Battle Creek Road","2025-06-25 18:37",1,41.113545,-107.15729,TRUE,FALSE,TRUE,"S254523280"
"327","towsol","Townsend's Solitaire","Myadestes townsendi","L7565505","Sunlight Bridge & overlook","2025-06-25 18:14",1,44.7699375,-109.4248796,TRUE,FALSE,FALSE,"S254155714"
"328","towsol","Townsend's Solitaire","Myadestes townsendi","L48531378","Rd 64 and 8N60, Grizzly Flats US-CA","2025-06-25 17:57",3,38.560681,-120.520427,TRUE,FALSE,TRUE,"S254413199"
"329","towsol","Townsend's Solitaire","Myadestes townsendi","L48467617","Dead Aspen","2025-06-25 17:20",3,38.221467,-107.997348,TRUE,FALSE,TRUE,"S254129548"
"330","towsol","Townsend's Solitaire","Myadestes townsendi","L3456238","Deschutes River Trail--Old Mill (Mill A  and  Loggers Loops)","2025-06-25 17:08",4,44.045064,-121.316421,TRUE,FALSE,FALSE,"S254132811"
"331","towsol","Townsend's Solitaire","Myadestes townsendi","L48535908","North South Road between Middle Fork Cosumnes and Gold Note Ridge","2025-06-25 17:06",1,38.565374,-120.454216,TRUE,FALSE,TRUE,"S254433333"
"332","towsol","Townsend's Solitaire","Myadestes townsendi","L973021","Ellis Rd.","2025-06-25 16:11",1,38.5301396,-120.3038549,TRUE,FALSE,FALSE,"S254428925"
"333","towsol","Townsend's Solitaire","Myadestes townsendi","L48375036","25153 Lower French Creek Rd, Custer (private property)","2025-06-25 16:09",1,43.7591324,-103.5252765,TRUE,FALSE,TRUE,"S254688374"
"334","towsol","Townsend's Solitaire","Myadestes townsendi","L48470472","Lion Mountain Trail","2025-06-25 16:00",1,48.4039643,-114.3811083,TRUE,FALSE,TRUE,"S254142883"
"335","towsol","Townsend's Solitaire","Myadestes townsendi","L2061681","Wizard Falls Fish Hatchery","2025-06-25 15:12",1,44.5224961,-121.6319239,TRUE,FALSE,FALSE,"S254157799"
"336","towsol","Townsend's Solitaire","Myadestes townsendi","L48510981","Bighorn National Forest, Hyattville US-WY 44.41625, -107.40829","2025-06-25 14:48",1,44.416249,-107.408293,TRUE,FALSE,TRUE,"S254322634"
"337","towsol","Townsend's Solitaire","Myadestes townsendi","L48467157","82329, Medicine Bow US-WY (42.3068,-105.7382)","2025-06-25 13:16",1,42.306847,-105.738213,TRUE,FALSE,TRUE,"S254128620"
"338","towsol","Townsend's Solitaire","Myadestes townsendi","L48506368","Meadow/Burn Area","2025-06-25 12:52",1,36.016,-118.344,TRUE,FALSE,TRUE,"S254306442"
"339","towsol","Townsend's Solitaire","Myadestes townsendi","L6250306","North Inlet Trail to Cascade Falls","2025-06-25 12:14",1,40.2645618,-105.7892632,TRUE,FALSE,FALSE,"S254124199"
"340","towsol","Townsend's Solitaire","Myadestes townsendi","L23807743","5121 Pine River Trail, Castle Rock US-CO 39.42469, -104.89023","2025-06-25 12:14",1,39.424686,-104.89023,TRUE,FALSE,TRUE,"S254043620"
"341","towsol","Townsend's Solitaire","Myadestes townsendi","L1626869","Inyo Craters","2025-06-25 11:54",2,37.6916202,-119.0117022,TRUE,FALSE,FALSE,"S254072969"
"342","towsol","Townsend's Solitaire","Myadestes townsendi","L48502530","Bees and Birds","2025-06-25 11:49",1,36.037,-118.27,TRUE,FALSE,TRUE,"S254290338"
"343","towsol","Townsend's Solitaire","Myadestes townsendi","L270121","Angeles NF--Buckhorn Campground","2025-06-25 11:38",1,34.3457038,-117.915262,TRUE,FALSE,FALSE,"S254129221"
"344","towsol","Townsend's Solitaire","Myadestes townsendi","L48450154","364–366 Snow Bank Mountain Rd, Cascade US-ID 44.41888, -116.13196","2025-06-25 11:32",1,44.418878,-116.131956,TRUE,FALSE,TRUE,"S254051187"
"345","towsol","Townsend's Solitaire","Myadestes townsendi","L2473673","Camp Lake","2025-06-25 11:30",1,44.1317717,-121.760788,TRUE,FALSE,FALSE,"S254166520"
"346","towsol","Townsend's Solitaire","Myadestes townsendi","L48444876","Booth Lake Trail, Avon US-CO 39.68586, -106.30273","2025-06-25 11:25",1,39.685859,-106.30273,TRUE,FALSE,TRUE,"S254029345"
"347","towsol","Townsend's Solitaire","Myadestes townsendi","L354335","Big Cottonwood Canyon--Brighton to Twin Lakes Hike","2025-06-25 11:07",1,40.6018575,-111.5858888,TRUE,FALSE,FALSE,"S254088051"
"348","towsol","Townsend's Solitaire","Myadestes townsendi","L48404170","Flat Creek Rd,  (43.5387,-110.5615)","2025-06-25 10:59",3,43.538685,-110.561456,TRUE,FALSE,TRUE,"S254117706"
"349","towsol","Townsend's Solitaire","Myadestes townsendi","L48470117","Forest Service Road 52, Ukiah US-OR 45.02088, -118.66681","2025-06-25 10:43",1,45.020875,-118.666807,TRUE,FALSE,TRUE,"S254141080"
"350","towsol","Townsend's Solitaire","Myadestes townsendi","L1976979","home-Mesa Antero","2025-06-25 10:43",1,38.6788096,-106.108532,TRUE,FALSE,TRUE,"S254021981"
"351","towsol","Townsend's Solitaire","Myadestes townsendi","L594030","Pinecrest Lake","2025-06-25 10:36",2,38.1932002,-119.9935341,TRUE,FALSE,FALSE,"S254391460"
"352","towsol","Townsend's Solitaire","Myadestes townsendi","L48466947","82329, Medicine Bow US-WY (42.3140,-105.7248)","2025-06-25 10:31",2,42.313958,-105.724777,TRUE,FALSE,TRUE,"S254126183"
"353","towsol","Townsend's Solitaire","Myadestes townsendi","L2517380","City of Rocks--General","2025-06-25 10:26",1,42.0723313,-113.7137318,TRUE,FALSE,FALSE,"S254112135"
"354","towsol","Townsend's Solitaire","Myadestes townsendi","L27304848","Navajo Lake Scenic Point","2025-06-25 10:18",1,37.5269494,-112.7612042,TRUE,FALSE,FALSE,"S254273466"
"355","towsol","Townsend's Solitaire","Myadestes townsendi","L950301","Flat Creek Ranch HQ area","2025-06-25 10:12",1,43.5267398,-110.5438328,TRUE,FALSE,TRUE,"S254118493"
"356","towsol","Townsend's Solitaire","Myadestes townsendi","L11617584","Twin Lakes Trail","2025-06-25 10:05",2,37.2695449,-119.121666,TRUE,FALSE,FALSE,"S254162847"
"357","towsol","Townsend's Solitaire","Myadestes townsendi","L779564","Custer SP--Stockade Lake","2025-06-25 10:04",1,43.77299,-103.51701,TRUE,FALSE,FALSE,"S254064125"
"358","towsol","Townsend's Solitaire","Myadestes townsendi","L1547112","Yellowstone NP--Howard Eaton Trail--Mammoth to Golden Gate","2025-06-25 09:59",1,44.9502102,-110.7176909,TRUE,FALSE,FALSE,"S254095602"
"359","towsol","Townsend's Solitaire","Myadestes townsendi","L48447706","Saint Marys Peak Road, Stevensville, Montana, US (46.5, -114.191)","2025-06-25 09:49",1,46.499817,-114.1912719,TRUE,FALSE,TRUE,"S254040967"
"360","towsol","Townsend's Solitaire","Myadestes townsendi","L43569455","Grouse Mountain/Lion Mountain Loop","2025-06-25 09:45",2,48.4058613,-114.3699427,TRUE,FALSE,TRUE,"S254019252"
"361","towsol","Townsend's Solitaire","Myadestes townsendi","L7686469","Water Canyon--Upper--Switchbacks","2025-06-25 09:44",2,39.634225,-110.348479,TRUE,FALSE,FALSE,"S254030964"
"362","towsol","Townsend's Solitaire","Myadestes townsendi","L7396293","Keno Springs Road","2025-06-25 09:43",1,42.270347,-121.379563,TRUE,FALSE,TRUE,"S254150355"
"363","towsol","Townsend's Solitaire","Myadestes townsendi","L48438962","Chugach State Park, Anchorage US-AK 61.07537, -149.64535","2025-06-25 09:39",1,61.075371,-149.645346,TRUE,FALSE,TRUE,"S254103473"
"364","towsol","Townsend's Solitaire","Myadestes townsendi","L32652180","Laramie Range, Pole Mtn District, Headquarters Ridge, Trail 789","2025-06-25 09:14",4,41.237963,-105.388991,TRUE,FALSE,TRUE,"S254960640"
"365","towsol","Townsend's Solitaire","Myadestes townsendi","L48444899","County Road 118, Davis Creek, California, US (41.643, -120.297)","2025-06-25 09:06",1,41.6431885,-120.29739,TRUE,FALSE,TRUE,"S254029443"
"366","towsol","Townsend's Solitaire","Myadestes townsendi","L2927293","Forestdale Rd.","2025-06-25 09:05",1,38.6974512,-119.9655962,TRUE,FALSE,FALSE,"S254342339"
"367","towsol","Townsend's Solitaire","Myadestes townsendi","L2265498","Spearfish--DC Booth Fish Hatchery","2025-06-25 09:00",1,44.4836166,-103.8615489,TRUE,FALSE,FALSE,"S254155428"
"368","towsol","Townsend's Solitaire","Myadestes townsendi","L48458603","115–199 Friendship Dr, Fraser US-CO 39.92986, -105.77532","2025-06-25 08:54",1,39.929859,-105.77532,TRUE,FALSE,TRUE,"S254085910"
"369","towsol","Townsend's Solitaire","Myadestes townsendi","L9691286","Sugar Creek CG","2025-06-25 08:49",2,44.2334565,-119.8052547,TRUE,FALSE,TRUE,"S255364955"
"370","towsol","Townsend's Solitaire","Myadestes townsendi","L758910","Sequoia NF--Troy Meadows and Campground","2025-06-25 08:46",1,36.0641111,-118.2392778,TRUE,FALSE,FALSE,"S254357504"
"371","towsol","Townsend's Solitaire","Myadestes townsendi","L319849","McNenny State Fish Hatchery & GPA","2025-06-25 08:44",2,44.5588735,-104.0110247,TRUE,FALSE,FALSE,"S254001592"
"372","towsol","Townsend's Solitaire","Myadestes townsendi","L48436689","Lizard Trail","2025-06-25 08:42",1,39.1554308,-105.4607091,TRUE,FALSE,TRUE,"S253993947"
"373","towsol","Townsend's Solitaire","Myadestes townsendi","L48470094","Forest Service Road 52, Ukiah US-OR 45.03282, -118.73159","2025-06-25 08:31",1,45.032819,-118.731586,TRUE,FALSE,TRUE,"S254140957"
"374","towsol","Townsend's Solitaire","Myadestes townsendi","L607330","Sunrise Campground","2025-06-25 08:29",1,33.9939237,-109.5514165,TRUE,FALSE,FALSE,"S254037449"
"375","towsol","Townsend's Solitaire","Myadestes townsendi","L4699798","Aspen Hall aspen grove","2025-06-25 08:29",1,44.0838815,-121.3769304,TRUE,FALSE,FALSE,"S254030249"
"376","towsol","Townsend's Solitaire","Myadestes townsendi","L33177535","Snowdon Wildlife Sanctuary","2025-06-25 08:24",2,44.914285,-116.000107,TRUE,FALSE,TRUE,"S254082936"
"377","towsol","Townsend's Solitaire","Myadestes townsendi","L9788374","Budd Lake","2025-06-25 08:16",1,37.841339,-119.397532,TRUE,FALSE,TRUE,"S254157644"
"378","towsol","Townsend's Solitaire","Myadestes townsendi","L339971","Rocky Mountain NP--Endovalley/Fall River","2025-06-25 08:15",1,40.4114602,-105.648394,TRUE,FALSE,FALSE,"S254118111"
"379","towsol","Townsend's Solitaire","Myadestes townsendi","L9463024","Fresno_TEAK_N31","2025-06-25 08:14",2,36.991118,-119.039743,TRUE,FALSE,TRUE,"S255051113"
"380","towsol","Townsend's Solitaire","Myadestes townsendi","L48470429","Roosevelt National Forest - Lyons","2025-06-25 08:06",2,40.155077,-105.473139,TRUE,FALSE,TRUE,"S254142408"
"381","towsol","Townsend's Solitaire","Myadestes townsendi","L48462792","82325, Encampment US-WY (41.1411,-106.8788)","2025-06-25 07:56",3,41.141097,-106.8788,TRUE,FALSE,TRUE,"S254106354"
"382","towsol","Townsend's Solitaire","Myadestes townsendi","L7420843","Fivemile Butte","2025-06-25 07:56",1,45.4102311,-121.469264,TRUE,FALSE,FALSE,"S254088672"
"383","towsol","Townsend's Solitaire","Myadestes townsendi","L388033","Rocky Mountain NP--Trail Ridge Rd--Many Parks Curve area","2025-06-25 07:54",1,40.3871711,-105.6314743,TRUE,FALSE,FALSE,"S253974509"
"384","towsol","Townsend's Solitaire","Myadestes townsendi","L1662636","Black Pine Springs","2025-06-25 07:50",2,44.1965961,-121.6119166,TRUE,FALSE,FALSE,"S254011562"
"385","towsol","Townsend's Solitaire","Myadestes townsendi","L3264281","Glacier NP--Trail of the Cedars Nature Trail","2025-06-25 07:48",1,48.6789473,-113.816514,TRUE,FALSE,FALSE,"S254377230"
"386","towsol","Townsend's Solitaire","Myadestes townsendi","L34268131","Cloud Rest Trail, Coulterville US-CA 37.82572, -119.47016","2025-06-25 07:42",4,37.82572,-119.470159,TRUE,FALSE,TRUE,"S254145163"
"387","towsol","Townsend's Solitaire","Myadestes townsendi","L26111831","108 Highland Rd, Winthrop US-WA 48.56011, -120.33198","2025-06-25 07:35",1,48.560106,-120.331977,TRUE,FALSE,TRUE,"S253986001"
"388","towsol","Townsend's Solitaire","Myadestes townsendi","L905942","Number 2 Canyon Rd.--Upper section","2025-06-25 07:30",1,47.4034616,-120.4426003,TRUE,FALSE,FALSE,"S254073723"
"389","towsol","Townsend's Solitaire","Myadestes townsendi","L515629","Blackbird Island, Leavenworth","2025-06-25 07:26",1,47.5924463,-120.6634426,TRUE,FALSE,FALSE,"S253990511"
"390","towsol","Townsend's Solitaire","Myadestes townsendi","L918282","Sleeping Lady Mountain Resort","2025-06-25 07:20",1,47.5511658,-120.6811774,TRUE,FALSE,FALSE,"S254966297"
"391","towsol","Townsend's Solitaire","Myadestes townsendi","L48451940","South Hills - Albion sector","2025-06-25 07:15",1,42.323002,-113.625148,TRUE,FALSE,TRUE,"S254057851"
"392","towsol","Townsend's Solitaire","Myadestes townsendi","L48464128","7n Rd","2025-06-25 07:11",2,38.445484,-108.318266,TRUE,FALSE,TRUE,"S254112858"
"393","towsol","Townsend's Solitaire","Myadestes townsendi","L48652308","above Lehamite Creek campsite","2025-06-25 06:30",NA,37.7678931,-119.571754,TRUE,FALSE,TRUE,"S254934011"
"394","towsol","Townsend's Solitaire","Myadestes townsendi","L32634655","Cougar Ridge Trail (FR 068)","2025-06-25 06:26",1,36.3096932,-115.6232351,TRUE,FALSE,FALSE,"S254324170"
"395","towsol","Townsend's Solitaire","Myadestes townsendi","L904008","Whitney Preserve","2025-06-25 06:22",1,43.3387879,-103.5549402,TRUE,FALSE,FALSE,"S253961357"
"396","towsol","Townsend's Solitaire","Myadestes townsendi","L48426488","Auto selected 39.12863, -105.05793","2025-06-25 06:17",1,39.128634,-105.057931,TRUE,FALSE,TRUE,"S253947220"
"397","towsol","Townsend's Solitaire","Myadestes townsendi","L48455115","Rainbow lake trail","2025-06-25 06:17",2,38.656596,-107.211919,TRUE,FALSE,TRUE,"S254071095"
"398","towsol","Townsend's Solitaire","Myadestes townsendi","L48442473","Manti-La Sal National Forest, Mount Pleasant US-UT 39.43931, -111.40540","2025-06-25 06:00",1,39.439307,-111.405396,TRUE,FALSE,TRUE,"S254018997"
"399","towsol","Townsend's Solitaire","Myadestes townsendi","L2896798","Yosemite NP--Tamarack Flat Rd.","2025-06-25 05:40",1,37.7643369,-119.7728634,TRUE,FALSE,FALSE,"S255425148"
"400","towsol","Townsend's Solitaire","Myadestes townsendi","L48436676","Hurricane Hill Nature Trail, Port Angeles US-WA (47.9900,-123.5269)","2025-06-25 05:31",1,47.990007,-123.52691,TRUE,FALSE,TRUE,"S253993916"
"401","towsol","Townsend's Solitaire","Myadestes townsendi","L48445196","Shoshone National Forest (44.0285, -109.1179)","2025-06-25 05:28",2,44.028471,-109.117923,TRUE,FALSE,TRUE,"S254030738"
"402","towsol","Townsend's Solitaire","Myadestes townsendi","L48475646","Parking spot pull off","2025-06-25 05:19",2,40.231537,-105.492072,TRUE,FALSE,TRUE,"S254165003"
"403","towsol","Townsend's Solitaire","Myadestes townsendi","L26380208","K-M Scout Ranch","2025-06-25 05:14",1,47.2693994,-109.4676948,TRUE,FALSE,TRUE,"S253956753"
"404","towsol","Townsend's Solitaire","Myadestes townsendi","L16079289","Great Basin NP--Alpine Lakes Trails","2025-06-25 05:13",3,39.0070737,-114.3137622,TRUE,FALSE,FALSE,"S254109778"
"405","towsol","Townsend's Solitaire","Myadestes townsendi","L48601583","Ridge Lakes Trail, Shingletown US-CA 40.44905, -121.53590","2025-06-25 05:11",2,40.449053,-121.535895,TRUE,FALSE,TRUE,"S254716882"
"406","towsol","Townsend's Solitaire","Myadestes townsendi","L48437036","Crescent Dr","2025-06-25 05:03",2,38.823401,-105.316525,TRUE,FALSE,TRUE,"S253995785"
"407","towsol","Townsend's Solitaire","Myadestes townsendi","L48470388","Roosevelt Nation Forest - Allenspark","2025-06-25 05:01",1,40.205091,-105.516247,TRUE,FALSE,TRUE,"S254142257"
"408","towsol","Townsend's Solitaire","Myadestes townsendi","L48457921","Unnamed Road, North Rim, Arizona, US (36.323, -112.125)","2025-06-25 04:59",1,36.3234037,-112.1247336,TRUE,FALSE,TRUE,"S254082948"
"409","towsol","Townsend's Solitaire","Myadestes townsendi","L3822570","Berthoud Pass (Grand Co)","2025-06-25 04:51",1,39.8306863,-105.7636428,TRUE,FALSE,FALSE,"S253952265"
"410","towsol","Townsend's Solitaire","Myadestes townsendi","L48589063","Pct","2025-06-25",1,41.4727484,-123.0625412,TRUE,FALSE,TRUE,"S254666017"
"411","towsol","Townsend's Solitaire","Myadestes townsendi","L48409034","Lewis and Clark NF--Pasture Gulch (Meagher Co.)","2025-06-24 20:55",1,46.5395628,-110.4482167,TRUE,FALSE,TRUE,"S253862763"
"412","towsol","Townsend's Solitaire","Myadestes townsendi","L8194773","Tahoe Rim Trail--North from Spooner Summit (Carson City Co.)","2025-06-24 20:24",2,39.1131183,-119.9007064,TRUE,FALSE,FALSE,"S255013411"
"413","towsol","Townsend's Solitaire","Myadestes townsendi","L48409113","McClain Creek Access Road","2025-06-24 19:28",1,46.6979718,-114.1315582,TRUE,FALSE,TRUE,"S253863329"
"414","towsol","Townsend's Solitaire","Myadestes townsendi","L48409073","82325, Encampment US-WY (41.1856,-106.9034)","2025-06-24 19:25",1,41.185642,-106.903406,TRUE,FALSE,TRUE,"S253862783"
"415","towsol","Townsend's Solitaire","Myadestes townsendi","L48408821","Spur off Bovine Mainline","2025-06-24 19:21",1,46.0543033,-123.4307374,TRUE,FALSE,TRUE,"S253861603"
"416","towsol","Townsend's Solitaire","Myadestes townsendi","L39479011","Aldo Leopold House","2025-06-24 18:44",1,36.6525317,-105.9695654,TRUE,FALSE,FALSE,"S253854171"
"417","towsol","Townsend's Solitaire","Myadestes townsendi","L24512772","1364 Clugston-Onion Creek Rd, Colville US-WA 48.71510, -117.87439","2025-06-24 18:26",1,48.715096,-117.874392,TRUE,FALSE,TRUE,"S253853230"
"418","towsol","Townsend's Solitaire","Myadestes townsendi","L3068583","Medicine Bow NF--Brooklyn Lake","2025-06-24 18:22",1,41.3726221,-106.2476206,TRUE,FALSE,FALSE,"S254097291"
"419","towsol","Townsend's Solitaire","Myadestes townsendi","L48403182","193 Long Creek Rd, Dubois US-WY 43.66449, -109.88829","2025-06-24 18:00",1,43.664494,-109.888294,TRUE,FALSE,TRUE,"S253833909"
"420","towsol","Townsend's Solitaire","Myadestes townsendi","L600602","Spooner Lake SP","2025-06-24 17:58",1,39.1070197,-119.9095917,TRUE,FALSE,FALSE,"S254255846"
"421","towsol","Townsend's Solitaire","Myadestes townsendi","L48408243","Rim Dr, Chiloquin US-OR 42.97991, -122.11465","2025-06-24 16:58",1,42.979911,-122.114653,TRUE,FALSE,TRUE,"S253859456"
"422","towsol","Townsend's Solitaire","Myadestes townsendi","L1845376","Buffalo Springs Campground","2025-06-24 16:47",2,39.0321694,-105.9860623,TRUE,FALSE,FALSE,"S253856009"
"423","towsol","Townsend's Solitaire","Myadestes townsendi","L2216182","Big Cottonwood Canyon--Twin Lakes to Lake Solitude","2025-06-24 16:12",1,40.5992192,-111.6006875,TRUE,FALSE,FALSE,"S253857929"
"424","towsol","Townsend's Solitaire","Myadestes townsendi","L1642907","Custer SP--Harney Peak Trail 9 from Sylvan Lake","2025-06-24 16:10",1,43.8548762,-103.5378718,TRUE,FALSE,FALSE,"S253857435"
"425","towsol","Townsend's Solitaire","Myadestes townsendi","L281349","Colorado River SP--Fruita section","2025-06-24 15:44",1,39.1498388,-108.7425068,TRUE,FALSE,FALSE,"S253833159"
"426","towsol","Townsend's Solitaire","Myadestes townsendi","L48411219","Sheep Mountain Trailhead","2025-06-24 15:03",3,46.9535872,-113.7698758,TRUE,FALSE,TRUE,"S253873744"
"427","towsol","Townsend's Solitaire","Myadestes townsendi","L155127","Calaveras Big Trees SP","2025-06-24 14:15",1,38.27745,-120.30706,TRUE,FALSE,FALSE,"S254391153"
"428","towsol","Townsend's Solitaire","Myadestes townsendi","L285162","Mt. Rushmore National Memorial","2025-06-24 13:50",1,43.8779123,-103.4555054,TRUE,FALSE,FALSE,"S253852503"
"429","towsol","Townsend's Solitaire","Myadestes townsendi","L48388142","Six Mile Trail, Swan Lake, Montana, US (47.947, -113.869)","2025-06-24 13:49",1,47.9469515,-113.8691823,TRUE,FALSE,TRUE,"S253779665"
"430","towsol","Townsend's Solitaire","Myadestes townsendi","L1252736","Lassen Volcanic NP--Southwest Campground","2025-06-24 13:44",1,40.4365444,-121.5322959,TRUE,FALSE,FALSE,"S253854900"
"431","towsol","Townsend's Solitaire","Myadestes townsendi","L48410796","4456–4732 Fir Mountain Rd, Hood River US-OR 45.57902, -121.47443","2025-06-24 13:39",1,45.579018,-121.474427,TRUE,FALSE,TRUE,"S253870706"
"432","towsol","Townsend's Solitaire","Myadestes townsendi","L19971317","Crater Lake NP--Garfield Peak Trail","2025-06-24 13:06",1,42.9099468,-122.1333272,TRUE,FALSE,FALSE,"S253818389"
"433","towsol","Townsend's Solitaire","Myadestes townsendi","L48392440","Colorado Trail—Breckenridge vicinity","2025-06-24 13:00",1,39.542059,-106.034011,TRUE,FALSE,TRUE,"S253792705"
"434","towsol","Townsend's Solitaire","Myadestes townsendi","L12014390","Eightmile Campground","2025-06-24 12:42",1,45.406467,-121.455922,TRUE,FALSE,FALSE,"S254088826"
"435","towsol","Townsend's Solitaire","Myadestes townsendi","L11704704","Custer SP--Little Devil's Tower Trail 4","2025-06-24 12:29",1,43.8475603,-103.5436726,TRUE,FALSE,FALSE,"S253791299"
"436","towsol","Townsend's Solitaire","Myadestes townsendi","L48398061","Auto selected 39.33306, -120.32527","2025-06-24 12:18",1,39.333057,-120.325266,TRUE,FALSE,TRUE,"S253809677"
"437","towsol","Townsend's Solitaire","Myadestes townsendi","L48384276","Casper Ridge","2025-06-24 11:50",1,43.6033638,-110.8537102,TRUE,FALSE,TRUE,"S253764067"
"438","towsol","Townsend's Solitaire","Myadestes townsendi","L746646","Lassen Volcanic NP--Lost Creek Group Campground","2025-06-24 11:11",1,40.5614819,-121.5173936,TRUE,FALSE,FALSE,"S253856473"
"439","towsol","Townsend's Solitaire","Myadestes townsendi","L2267484","Bethel Ridge -- Microwave Tower Rd (FR 324)","2025-06-24 11:00",1,46.716643,-121.112895,TRUE,FALSE,FALSE,"S253787812"
"440","towsol","Townsend's Solitaire","Myadestes townsendi","L6178136","Windy Saddle","2025-06-24 10:39",3,45.349429,-116.512502,TRUE,FALSE,FALSE,"S253824762"
"441","towsol","Townsend's Solitaire","Myadestes townsendi","L48378606","Skipper Trail, Bailey US-CO 39.38345, -105.35660","2025-06-24 10:25",2,39.383448,-105.356602,TRUE,FALSE,TRUE,"S253741765"
"442","towsol","Townsend's Solitaire","Myadestes townsendi","L48377341","166 03S123, Crowley Lake, California, US (37.655, -118.947)","2025-06-24 10:22",2,37.6548777,-118.9472009,TRUE,FALSE,TRUE,"S253745658"
"443","towsol","Townsend's Solitaire","Myadestes townsendi","L5987418","American Fork Canyon--Timpanogos Cave Trail","2025-06-24 10:21",1,40.4401812,-111.7111999,TRUE,FALSE,FALSE,"S253787303"
"444","towsol","Townsend's Solitaire","Myadestes townsendi","L48378928","Lake Tahoe Basin Management Unit, Tahoma US-CA 39.02316, -120.13139","2025-06-24 10:16",1,39.02316,-120.131388,TRUE,FALSE,TRUE,"S253743001"
"445","towsol","Townsend's Solitaire","Myadestes townsendi","L48501753","101–109 Forest Service Road 3715, Lakeview US-OR 42.27852, -120.82897","2025-06-24 10:14",1,42.27852,-120.828972,TRUE,FALSE,TRUE,"S254286741"
"446","towsol","Townsend's Solitaire","Myadestes townsendi","L6466160","Thomas Creek Canyon--Trailhead area","2025-06-24 10:12",1,39.3926601,-119.8387197,TRUE,FALSE,FALSE,"S253756752"
"447","towsol","Townsend's Solitaire","Myadestes townsendi","L1026774","Lundy Canyon","2025-06-24 10:10",1,38.0256812,-119.2441034,TRUE,FALSE,FALSE,"S253765266"
"448","towsol","Townsend's Solitaire","Myadestes townsendi","L15462778","Lassen Volcanic NP--Devastated Area Interpretive Trail","2025-06-24 09:59",1,40.515541,-121.464874,TRUE,FALSE,FALSE,"S253856564"
"449","towsol","Townsend's Solitaire","Myadestes townsendi","L48410256","Grouse Mountain to 25 Mile Creek","2025-06-24 09:51",1,47.9893903,-120.3169133,TRUE,FALSE,TRUE,"S253868186"
"450","towsol","Townsend's Solitaire","Myadestes townsendi","L1031139","Florissant Fossil Beds NM","2025-06-24 09:44",2,38.9113388,-105.2854156,TRUE,FALSE,FALSE,"S253826200"
"451","towsol","Townsend's Solitaire","Myadestes townsendi","L44127917","Mount Margaret Trail","2025-06-24 09:34",1,40.7808387,-105.5382912,TRUE,FALSE,FALSE,"S253795612"
"452","towsol","Townsend's Solitaire","Myadestes townsendi","L3053332","Kings Canyon NP--North Grove Loop","2025-06-24 09:07",1,36.7458652,-118.9777815,TRUE,FALSE,FALSE,"S253940997"
"453","towsol","Townsend's Solitaire","Myadestes townsendi","L2268054","Fourmile Lake","2025-06-24 09:04",1,42.467032,-122.2440147,TRUE,FALSE,FALSE,"S253857732"
"454","towsol","Townsend's Solitaire","Myadestes townsendi","L211246","Lair O' the Bear Park","2025-06-24 08:50",1,39.6674351,-105.2577988,TRUE,FALSE,FALSE,"S253760780"
"455","towsol","Townsend's Solitaire","Myadestes townsendi","L48402047","National Forest Development Road 3010, Philomath, Oregon, US (44.511, -123.55)","2025-06-24 08:48",1,44.5105865,-123.5503377,TRUE,FALSE,TRUE,"S253828155"
"456","towsol","Townsend's Solitaire","Myadestes townsendi","L48405792","Middle Fork Weiser River North of White Licks","2025-06-24 08:46",1,44.690592,-116.223743,TRUE,FALSE,TRUE,"S253848048"
"457","towsol","Townsend's Solitaire","Myadestes townsendi","L35939804","Old County Road NE divide","2025-06-24 08:40",2,47.620418,-114.926312,TRUE,FALSE,TRUE,"S253742164"
"458","towsol","Townsend's Solitaire","Myadestes townsendi","L48397649","Starkey, Oregon, US (45.258, -118.564)","2025-06-24 08:39",1,45.258268,-118.5638342,TRUE,FALSE,TRUE,"S253807542"
"459","towsol","Townsend's Solitaire","Myadestes townsendi","L5851974","Lassen Volcanic NP -- Sulphur Works","2025-06-24 08:23",1,40.4494107,-121.534431,TRUE,FALSE,FALSE,"S253856660"
"460","towsol","Townsend's Solitaire","Myadestes townsendi","L9463029","Fresno_TEAK_N10","2025-06-24 08:15",3,37.013948,-119.049086,TRUE,FALSE,TRUE,"S255051300"
"461","towsol","Townsend's Solitaire","Myadestes townsendi","L48384787","Parallel Trail","2025-06-24 08:11",1,38.313137,-108.213874,TRUE,FALSE,TRUE,"S253766097"
"462","towsol","Townsend's Solitaire","Myadestes townsendi","L48584777","Rock Creek Road, Lowman, Idaho, US (44.062, -115.622)","2025-06-24 08:03",1,44.0623466,-115.6218711,TRUE,FALSE,TRUE,"S254647543"
"463","towsol","Townsend's Solitaire","Myadestes townsendi","L48385183","Reversed Peak Ponds area","2025-06-24 08:00",1,37.7806755,-119.1072364,TRUE,FALSE,TRUE,"S253770162"
"464","towsol","Townsend's Solitaire","Myadestes townsendi","L4708466","Carpenter Valley (Truckee Donner Land Trust Property)","2025-06-24 07:53",2,39.39413,-120.2648211,TRUE,FALSE,FALSE,"S253832821"
"465","towsol","Townsend's Solitaire","Myadestes townsendi","L15278418","CR 103","2025-06-24 07:50",3,40.0019317,-105.5064596,TRUE,FALSE,TRUE,"S254024030"
"466","towsol","Townsend's Solitaire","Myadestes townsendi","L48500125","Forest Service Road 379, Lakeview US-OR 42.16967, -120.83615","2025-06-24 07:49",2,42.169673,-120.836146,TRUE,FALSE,TRUE,"S254280180"
"467","towsol","Townsend's Solitaire","Myadestes townsendi","L15960690","Island Lake Trail (below the lake)","2025-06-24 07:48",2,40.6119816,-115.3752809,TRUE,FALSE,FALSE,"S254422455"
"468","towsol","Townsend's Solitaire","Myadestes townsendi","L7790874","Ridgway SP--below the dam","2025-06-24 07:36",1,38.2445957,-107.7607089,TRUE,FALSE,FALSE,"S253725333"
"469","towsol","Townsend's Solitaire","Myadestes townsendi","L48499888","Forest Service Road 379, Lakeview US-OR 42.14576, -120.84209","2025-06-24 07:29",1,42.145755,-120.84209,TRUE,FALSE,TRUE,"S254279167"
"470","towsol","Townsend's Solitaire","Myadestes townsendi","L48499800","Forest Service Road 379, Lakeview US-OR 42.14049, -120.84332","2025-06-24 07:23",2,42.140486,-120.843318,TRUE,FALSE,TRUE,"S254278820"
"471","towsol","Townsend's Solitaire","Myadestes townsendi","L199372","Kings Canyon NP--Grant Grove","2025-06-24 07:15",1,36.7433115,-118.9679553,TRUE,FALSE,FALSE,"S253875095"
"472","towsol","Townsend's Solitaire","Myadestes townsendi","L742501","Yellowstone NP--Firehole Canyon","2025-06-24 07:11",1,44.6280461,-110.8622646,TRUE,FALSE,FALSE,"S253750773"
"473","towsol","Townsend's Solitaire","Myadestes townsendi","L1601147","Salmon Summit National Scenic Trail","2025-06-24 07:08",1,41.2020355,-123.4272766,TRUE,FALSE,FALSE,"S253861377"
"474","towsol","Townsend's Solitaire","Myadestes townsendi","L48499580","Barnes Valley Rd, Lakeview US-OR 42.11844, -120.83715","2025-06-24 07:00",1,42.118443,-120.837152,TRUE,FALSE,TRUE,"S254277897"
"475","towsol","Townsend's Solitaire","Myadestes townsendi","L48499496","Barnes Valley Rd, Lakeview US-OR 42.11238, -120.84195","2025-06-24 06:51",1,42.112381,-120.841948,TRUE,FALSE,TRUE,"S254277596"
"476","towsol","Townsend's Solitaire","Myadestes townsendi","L48397866","Tenmile Grade, Mariposa US-CA 37.52072, -119.73035","2025-06-24 06:37",2,37.520718,-119.730346,TRUE,FALSE,TRUE,"S253808864"
"477","towsol","Townsend's Solitaire","Myadestes townsendi","L35726574","Sinks Canyon SP--Popo Agie Nature Trail","2025-06-24 06:36",1,42.7411651,-108.8232327,TRUE,FALSE,FALSE,"S253702422"
"478","towsol","Townsend's Solitaire","Myadestes townsendi","L48499122","Barnes Valley Rd, Lakeview US-OR 42.10014, -120.84584","2025-06-24 06:32",1,42.100144,-120.845842,TRUE,FALSE,TRUE,"S254275965"
"479","towsol","Townsend's Solitaire","Myadestes townsendi","L48400995","82325, Encampment US-WY (41.0976,-106.8466)","2025-06-24 06:26",1,41.097587,-106.846628,TRUE,FALSE,TRUE,"S253823162"
"480","towsol","Townsend's Solitaire","Myadestes townsendi","L48405807","89412, Gerlach US-NV 40.88006, -119.60576","2025-06-24 06:26",1,40.880056,-119.60576,TRUE,FALSE,TRUE,"S253848118"
"481","towsol","Townsend's Solitaire","Myadestes townsendi","L2079310","Shoshone NF--Sinks Canyon","2025-06-24 06:13",1,42.7306221,-108.8528824,TRUE,FALSE,FALSE,"S253729449"
"482","towsol","Townsend's Solitaire","Myadestes townsendi","L2304419","Quandary Peak--East Slopes Trail","2025-06-24 05:57",1,39.3921527,-106.0807014,TRUE,FALSE,FALSE,"S253785681"
"483","towsol","Townsend's Solitaire","Myadestes townsendi","L774322","Rainy Pass to Cutthroat Pass (Skagit Co.)","2025-06-24 05:57",2,48.5268419,-120.720048,TRUE,FALSE,FALSE,"S254076419"
"484","towsol","Townsend's Solitaire","Myadestes townsendi","L48498648","Barnes Valley Rd, Bonanza US-OR 42.09998, -120.88141","2025-06-24 05:53",1,42.099982,-120.881407,TRUE,FALSE,TRUE,"S254274266"
"485","towsol","Townsend's Solitaire","Myadestes townsendi","L48468502","Barnes Valley Rd, Bonanza US-OR 42.10428, -120.88780","2025-06-24 05:47",2,42.104276,-120.887801,TRUE,FALSE,TRUE,"S254133586"
"486","towsol","Townsend's Solitaire","Myadestes townsendi","L34404957","Vesper Peak Trail","2025-06-24 05:45",1,48.013091,-121.516431,TRUE,FALSE,TRUE,"S253865766"
"487","towsol","Townsend's Solitaire","Myadestes townsendi","L48468317","Barnes Valley Rd, Bonanza US-OR 42.12658, -120.90933","2025-06-24 05:21",1,42.126581,-120.909328,TRUE,FALSE,TRUE,"S254132741"
"488","towsol","Townsend's Solitaire","Myadestes townsendi","L15371793","Rimrock BBS--Stop 6","2025-06-24 05:08",1,46.6579377,-121.3464041,TRUE,FALSE,TRUE,"S254643557"
"489","towsol","Townsend's Solitaire","Myadestes townsendi","L48399484","LV15","2025-06-24 05:07",4,40.430823,-121.536195,TRUE,FALSE,TRUE,"S253816208"
"490","towsol","Townsend's Solitaire","Myadestes townsendi","L20889748","Glacier Rim, N. Fork Road","2025-06-23 20:18",2,48.4932602,-114.1265452,TRUE,FALSE,FALSE,"S253582168"
"491","towsol","Townsend's Solitaire","Myadestes townsendi","L48401009","Forest Service Road 552 G, Encampment US-WY (41.1054,-106.8481)","2025-06-23 20:10",1,41.105372,-106.848063,TRUE,FALSE,TRUE,"S253823270"
"492","towsol","Townsend's Solitaire","Myadestes townsendi","L1574003","Glacier NP--Beaver Pond Loop Trail","2025-06-23 19:48",1,48.7353764,-113.4377469,TRUE,FALSE,FALSE,"S253597282"
"493","towsol","Townsend's Solitaire","Myadestes townsendi","L1417266","Lower Echo Lake","2025-06-23 19:00",1,38.8346655,-120.0447913,TRUE,FALSE,FALSE,"S253588648"
"494","towsol","Townsend's Solitaire","Myadestes townsendi","L48341221","339w Mount Rushmore Road, Custer, South Dakota, US (43.764, -103.614)","2025-06-23 18:13",1,43.7639233,-103.6139123,TRUE,FALSE,TRUE,"S253567127"
"495","towsol","Townsend's Solitaire","Myadestes townsendi","L48345528","Siah Butte Road, Bend US-OR 43.89137, -121.58808","2025-06-23 18:06",1,43.891373,-121.588081,TRUE,FALSE,TRUE,"S253585916"
"496","towsol","Townsend's Solitaire","Myadestes townsendi","L48597762","Eagle Peak Creek campsite","2025-06-23 18:00",NA,37.7633075,-119.6102505,TRUE,FALSE,TRUE,"S254929942"
"497","towsol","Townsend's Solitaire","Myadestes townsendi","L6816166","Sinks Canyon SP--Fairfield Hill Trail","2025-06-23 17:46",1,42.7376402,-108.8519481,TRUE,FALSE,FALSE,"S253729617"
"498","towsol","Townsend's Solitaire","Myadestes townsendi","L739849","Big Cottonwood Canyon--Silver Lake to Lake Solitude Hike","2025-06-23 15:53",1,40.6100397,-111.5959064,TRUE,FALSE,FALSE,"S253543800"
"499","towsol","Townsend's Solitaire","Myadestes townsendi","L967793","Olympic NP--Hurricane Hill Trail","2025-06-23 15:47",2,47.9814826,-123.5233244,TRUE,FALSE,FALSE,"S253541431"
"500","towsol","Townsend's Solitaire","Myadestes townsendi","L48378680","Top of the World Hwy, caribou wayside Delta Junction US-AK 64.07937, -141.03803","2025-06-23 15:36",1,64.079374,-141.038034,TRUE,FALSE,TRUE,"S253742070"
"501","towsol","Townsend's Solitaire","Myadestes townsendi","L25538995","Fleecer Mtn Rd","2025-06-23 15:30",1,45.8507723,-112.7529507,TRUE,FALSE,TRUE,"S253672245"
"502","towsol","Townsend's Solitaire","Myadestes townsendi","L1615277","Turnbull NWR--Pine Lakes Loop Trail and Winslow Pool","2025-06-23 14:51",1,47.4125974,-117.5383435,TRUE,FALSE,FALSE,"S253585718"
"503","towsol","Townsend's Solitaire","Myadestes townsendi","L388025","Rocky Mountain NP--Bear Lake area","2025-06-23 14:50",1,40.3137959,-105.6468487,TRUE,FALSE,FALSE,"S253823455"
"504","towsol","Townsend's Solitaire","Myadestes townsendi","L22723010","Busch Run, Fairplay","2025-06-23 14:49",2,39.2207367,-106.0272801,TRUE,FALSE,TRUE,"S254381363"
"505","towsol","Townsend's Solitaire","Myadestes townsendi","L24680143","Kings Canyon NP - General Grant Tree Trail","2025-06-23 14:45",2,36.7472117,-118.9734553,TRUE,FALSE,FALSE,"S253589669"
"506","towsol","Townsend's Solitaire","Myadestes townsendi","L48474675","Green Lakes Trail, Sisters US-OR 44.03153, -121.73549","2025-06-23 14:45",2,44.031525,-121.735494,TRUE,FALSE,TRUE,"S254160437"
"507","towsol","Townsend's Solitaire","Myadestes townsendi","L48344540","Swaram Creek","2025-06-23 14:08",1,48.0952975,-120.0694974,TRUE,FALSE,TRUE,"S253581433"
"508","towsol","Townsend's Solitaire","Myadestes townsendi","L6933719","Sisson Southern Trail","2025-06-23 12:58",1,41.3463589,-122.2871876,TRUE,FALSE,TRUE,"S253527764"
"509","towsol","Townsend's Solitaire","Myadestes townsendi","L48364983","Granny Viewpoint","2025-06-23 12:55",1,45.4096109,-116.7409634,TRUE,FALSE,TRUE,"S253681679"
"510","towsol","Townsend's Solitaire","Myadestes townsendi","L48328986","Blue Mountain Crossing","2025-06-23 12:50",1,45.3979271,-118.3155642,TRUE,FALSE,TRUE,"S253513428"
"511","towsol","Townsend's Solitaire","Myadestes townsendi","L554723","Walker Ranch--Meyers Gulch","2025-06-23 12:40",1,39.9579448,-105.3385663,TRUE,FALSE,FALSE,"S253527624"
"512","towsol","Townsend's Solitaire","Myadestes townsendi","L1777266","Olympic NP--Meadow Loop Trail, Hurricane Ridge","2025-06-23 12:32",1,47.9707773,-123.4978502,TRUE,FALSE,FALSE,"S253521479"
"513","towsol","Townsend's Solitaire","Myadestes townsendi","L109288","Aiken Canyon Preserve","2025-06-23 12:30",2,38.6212294,-104.8886847,TRUE,FALSE,FALSE,"S254139976"
"514","towsol","Townsend's Solitaire","Myadestes townsendi","L48511209","Service Road 17, Hyattville US-WY 44.47351, -107.45168","2025-06-23 12:29",1,44.473514,-107.451679,TRUE,FALSE,TRUE,"S254323609"
"515","towsol","Townsend's Solitaire","Myadestes townsendi","L25449321","Torreys Hole boat ramp and picnic area","2025-06-23 11:51",1,44.255869,-114.595175,TRUE,FALSE,TRUE,"S253494218"
"516","towsol","Townsend's Solitaire","Myadestes townsendi","L28780345","Home backyard feeders","2025-06-23 11:41",1,35.10174,-106.510795,TRUE,FALSE,TRUE,"S253482064"
"517","towsol","Townsend's Solitaire","Myadestes townsendi","L26392259","Forsythe Canyon","2025-06-23 11:38",2,39.961081,-105.396061,TRUE,FALSE,TRUE,"S253547279"
"518","towsol","Townsend's Solitaire","Myadestes townsendi","L48364846","BF - 4240 -- Five Mile Overlook to Horse Creek Overlook","2025-06-23 11:35",1,45.5371101,-116.7935545,TRUE,FALSE,TRUE,"S253681101"
"519","towsol","Townsend's Solitaire","Myadestes townsendi","L298785","Golden Gate Canyon SP","2025-06-23 11:35",1,39.8599454,-105.426693,TRUE,FALSE,FALSE,"S253487624"
"520","towsol","Townsend's Solitaire","Myadestes townsendi","L48338002","LAVO09","2025-06-23 11:33",1,40.444253,-121.5385727,TRUE,FALSE,TRUE,"S253551749"
"521","towsol","Townsend's Solitaire","Myadestes townsendi","L48403940","Mormon Peak Road/FSR 612","2025-06-23 11:20",7,46.7427612,-114.1559076,TRUE,FALSE,TRUE,"S253581333"
"522","towsol","Townsend's Solitaire","Myadestes townsendi","L48379902","South Platte Fishing Access","2025-06-23 11:10",1,39.0118292,-105.3652248,TRUE,FALSE,TRUE,"S253748375"
"523","towsol","Townsend's Solitaire","Myadestes townsendi","L1049956","Johnny Park","2025-06-23 11:09",2,40.2502778,-105.4111111,TRUE,FALSE,FALSE,"S253600944"
"524","towsol","Townsend's Solitaire","Myadestes townsendi","L4743407","Marble Cr","2025-06-23 11:00",1,44.7962413,-118.0013394,TRUE,FALSE,TRUE,"S253857141"
"525","towsol","Townsend's Solitaire","Myadestes townsendi","L7487203","South Fork Rock Crk tributary headwaters","2025-06-23 10:46",1,39.880361,-121.00291,TRUE,FALSE,TRUE,"S253538483"
"526","towsol","Townsend's Solitaire","Myadestes townsendi","L4918414","St. Mary Peak Trail","2025-06-23 10:38",1,46.511714,-114.2438436,TRUE,FALSE,FALSE,"S253508090"
"527","towsol","Townsend's Solitaire","Myadestes townsendi","L25339517","Sagehen - Low elevation","2025-06-23 10:35",1,39.445427,-120.235725,TRUE,FALSE,TRUE,"S253573568"
"528","towsol","Townsend's Solitaire","Myadestes townsendi","L813384","Mendocino NF--Monkey Rock area","2025-06-23 10:33",1,39.5480334,-122.9584694,TRUE,FALSE,FALSE,"S253488791"
"529","towsol","Townsend's Solitaire","Myadestes townsendi","L1624782","Logan Valley","2025-06-23 10:31",1,44.1767812,-118.6400503,TRUE,FALSE,FALSE,"S254430723"
"530","towsol","Townsend's Solitaire","Myadestes townsendi","L48675470","Unnamed Road, Oregon, US (43.35, -123.026)","2025-06-23 10:30",1,43.3496888,-123.0263999,TRUE,FALSE,TRUE,"S255019910"
"531","towsol","Townsend's Solitaire","Myadestes townsendi","L24986870","Bassi Falls Trail","2025-06-23 10:24",2,38.883951,-120.355639,TRUE,FALSE,FALSE,"S253476519"
"532","towsol","Townsend's Solitaire","Myadestes townsendi","L48319530","Blue Lake Road, Madeline, California, US (41.154, -120.28)","2025-06-23 10:21",2,41.1537352,-120.2796613,TRUE,FALSE,TRUE,"S253477755"
"533","towsol","Townsend's Solitaire","Myadestes townsendi","L790165","Black Butte Ranch","2025-06-23 10:17",1,44.3714778,-121.6632843,TRUE,FALSE,FALSE,"S253586071"
"534","towsol","Townsend's Solitaire","Myadestes townsendi","L1215170","Stanislaus-Tuolumne Experimental Forest","2025-06-23 10:12",1,38.1804498,-119.9947357,TRUE,FALSE,FALSE,"S254343983"
"535","towsol","Townsend's Solitaire","Myadestes townsendi","L946106","Milligan Canyon Rd.","2025-06-23 10:11",1,45.8858416,-111.6801062,TRUE,FALSE,FALSE,"S253471756"
"536","towsol","Townsend's Solitaire","Myadestes townsendi","L48340016","Bureau of Land Management Road 33-5-13.2, Wolf Creek US-OR 42.69846, -123.24934","2025-06-23 09:59",1,42.698463,-123.249336,TRUE,FALSE,TRUE,"S253561608"
"537","towsol","Townsend's Solitaire","Myadestes townsendi","L3869341","Shevlin Park--northeast end of park (north of NW Shevlin Park Rd)","2025-06-23 09:57",1,44.0845124,-121.3741565,TRUE,FALSE,FALSE,"S253501536"
"538","towsol","Townsend's Solitaire","Myadestes townsendi","L48329483","Deadwood Peak area","2025-06-23 09:39",2,39.673036,-120.875799,TRUE,FALSE,TRUE,"S253515376"
"539","towsol","Townsend's Solitaire","Myadestes townsendi","L48335994","Gaylor Lakes Trail, Groveland US-CA 37.91011, -119.25843","2025-06-23 09:37",2,37.910111,-119.258433,TRUE,FALSE,TRUE,"S253542394"
"540","towsol","Townsend's Solitaire","Myadestes townsendi","L48334680","Big Creek Rd, Baker City US-OR 45.01826, -117.46673","2025-06-23 09:23",1,45.01826,-117.466731,TRUE,FALSE,TRUE,"S253536851"
"541","towsol","Townsend's Solitaire","Myadestes townsendi","L13730012","coal creek ridge","2025-06-23 09:20",1,48.3878825,-120.2595554,TRUE,FALSE,TRUE,"S253506073"
"542","towsol","Townsend's Solitaire","Myadestes townsendi","L4741935","BBS Route Guanella Pass 17-211 Stop 49","2025-06-23 09:18",1,39.4752475,-105.7686719,TRUE,FALSE,TRUE,"S253495022"
"543","towsol","Townsend's Solitaire","Myadestes townsendi","L48327601","Saint Marys Peak Road, Stevensville, Montana, US (46.5, -114.193)","2025-06-23 09:17",2,46.5001043,-114.1928233,TRUE,FALSE,TRUE,"S253508234"
"544","towsol","Townsend's Solitaire","Myadestes townsendi","L684086","Mendocino NF- Hull Mountain area (MEN)","2025-06-23 09:12",1,39.5231799,-122.9410458,TRUE,FALSE,FALSE,"S253488618"
"545","towsol","Townsend's Solitaire","Myadestes townsendi","L48339946","97497, Wolf Creek US-OR 42.69386, -123.26960","2025-06-23 09:11",1,42.693859,-123.269601,TRUE,FALSE,TRUE,"S253561265"
"546","towsol","Townsend's Solitaire","Myadestes townsendi","L3921352","Yosemite NP--Sentinel Dome Trail","2025-06-23 09:08",1,37.7175612,-119.5831025,TRUE,FALSE,FALSE,"S253530277"
"547","towsol","Townsend's Solitaire","Myadestes townsendi","L45501913","Three Lynx Meadow","2025-06-23 09:06",1,45.1253889,-122.0710905,TRUE,FALSE,FALSE,"S253584841"
