"","speciesCode","comName","sciName","locId","locName","obsDt","howMany","lat","lng","obsValid","obsReviewed","locationPrivate","subId"
"1","whiter","White Tern","Gygis alba","L45557504","North Pacific Ocean US-HI (28.3935,-178.3826)","2025-05-20 07:55",4,28.39354,-178.382621,TRUE,FALSE,TRUE,"S240701247"
"2","whiter","White Tern","Gygis alba","L875383","Kuhio Beach Park, Waikiki","2025-05-20 07:28",NA,21.2765281,-157.8286135,TRUE,FALSE,FALSE,"S240750642"
"3","whiter","White Tern","Gygis alba","L45546884","Laukahi Slopes Mini Park","2025-05-20 05:59",5,21.283444,-157.766694,TRUE,FALSE,TRUE,"S240651900"
"4","whiter","White Tern","Gygis alba","L45508161","Imua Pelagic Protocol Start: 27.67070, -176.53219","2025-05-19 17:11",5,27.670702,-176.532191,TRUE,FALSE,TRUE,"S240456627"
"5","whiter","White Tern","Gygis alba","L45505764","Imua Pelagic Protocol Start: 27.61216, -176.38015","2025-05-19 16:09",2,27.612162,-176.380154,TRUE,FALSE,TRUE,"S240444588"
"6","whiter","White Tern","Gygis alba","L45502101","2255 Kalakaua Ave, Honolulu US-HI 21.27725, -157.83031","2025-05-19 15:28",1,21.277252,-157.830312,TRUE,FALSE,TRUE,"S240426104"
"7","whiter","White Tern","Gygis alba","L13312929","Japanese Fishing Shrine","2025-05-19 15:08",1,21.2804135,-157.6785623,TRUE,FALSE,FALSE,"S240448445"
"8","whiter","White Tern","Gygis alba","L45500845","White Sands hotel","2025-05-19 14:44",1,21.280274,-157.825743,TRUE,FALSE,TRUE,"S240419131"
"9","whiter","White Tern","Gygis alba","L45504507","Imua Pelagic Protocol Start: 27.52218, -176.15024","2025-05-19 14:35",1,27.522184,-176.150236,TRUE,FALSE,TRUE,"S240438575"
"10","whiter","White Tern","Gygis alba","L45549277","Ewa Beach","2025-05-19 09:30",3,21.3101805,-158.0068307,TRUE,FALSE,TRUE,"S240665502"
"11","whiter","White Tern","Gygis alba","L870747","Diamond Head Crater Park","2025-05-19 08:39",1,21.2629407,-157.8047848,TRUE,FALSE,FALSE,"S240303620"
"12","whiter","White Tern","Gygis alba","L45540946","Kalākaua Avenue, Honolulu, Hawaii, US (21.278, -157.827)","2025-05-19 06:04",15,21.2776305,-157.8274633,TRUE,FALSE,TRUE,"S240624355"
"13","whiter","White Tern","Gygis alba","L45429407","Imua Pelagic Protocol Start: 26.38469, -173.27250","2025-05-18 19:14",1,26.384695,-173.272505,TRUE,FALSE,TRUE,"S240068030"
"14","whiter","White Tern","Gygis alba","L7309652","Hickam AFB (Restricted Access)--Wetland Trails & Ahua Reef","2025-05-18 17:30",2,21.3171509,-157.9581844,TRUE,FALSE,TRUE,"S240063901"
"15","whiter","White Tern","Gygis alba","L6863928","Joint Base Pearl Harbor-Hickam (Restricted Access)--Baseball fields and tennis courts","2025-05-18 16:36",2,21.3409747,-157.9565227,TRUE,FALSE,TRUE,"S240062467"
"16","whiter","White Tern","Gygis alba","L45420469","Lili'uokalani Botanical Garden","2025-05-18 14:24",1,21.3198833,-157.8559173,TRUE,FALSE,TRUE,"S240020802"
"17","whiter","White Tern","Gygis alba","L45420668","Imua Pelagic Protocol Start: 25.96969, -172.23476","2025-05-18 12:15",2,25.969695,-172.234763,TRUE,FALSE,TRUE,"S240021876"
"18","whiter","White Tern","Gygis alba","L871261","Fort Derussy Beach Park","2025-05-18 09:55",20,21.2801171,-157.8342676,TRUE,FALSE,FALSE,"S239931401"
"19","whiter","White Tern","Gygis alba","L3637121","Laysan Island","2025-05-18 09:02",4,25.7688509,-171.7331314,TRUE,FALSE,FALSE,"S239893006"
"20","whiter","White Tern","Gygis alba","L1114410","Point Panic Beach Park and Kewalo Marine Laboratory","2025-05-18 08:58",4,21.290469,-157.8611799,TRUE,FALSE,FALSE,"S239884498"
"21","whiter","White Tern","Gygis alba","L285760","Kapiolani Park","2025-05-18 08:15",5,21.2666546,-157.8193562,TRUE,FALSE,FALSE,"S239881609"
"22","whiter","White Tern","Gygis alba","L1127546","Ala Moana Park and State Recreation Area","2025-05-18 06:22",6,21.2894543,-157.8464985,TRUE,FALSE,FALSE,"S239827162"
"23","whiter","White Tern","Gygis alba","L37378736","2054 Kalākaua Avenue, Honolulu, Hawaii, US (21.284, -157.831)","2025-05-17 17:17",2,21.2836693,-157.8314523,TRUE,FALSE,TRUE,"S239909926"
"24","whiter","White Tern","Gygis alba","L1105850","Lana'i Lookout","2025-05-17 11:05",1,21.2764006,-157.68557,TRUE,FALSE,FALSE,"S239426981"
"25","whiter","White Tern","Gygis alba","L45289670","Imua Pelagic Protocol Start: 24.72891, -168.81134","2025-05-17 09:27",4,24.728909,-168.811336,TRUE,FALSE,TRUE,"S239379890"
"26","whiter","White Tern","Gygis alba","L45269362","Honolulu, Hawaii, US (21.297, -157.837)","2025-05-17 07:16",10,21.2965937,-157.837013,TRUE,FALSE,TRUE,"S239293020"
"27","whiter","White Tern","Gygis alba","L45210554","Imua Pelagic Protocol Start: 23.8778,-166.4333","2025-05-16 18:06",6,23.877793,-166.433309,TRUE,FALSE,TRUE,"S239006829"
"28","whiter","White Tern","Gygis alba","L928366","Tern Island and the French Frigate Shoals","2025-05-16 16:46",1,23.8695129,-166.2850714,TRUE,FALSE,FALSE,"S238995361"
"29","whiter","White Tern","Gygis alba","L45207697","956 Kaheka Street, Honolulu, Hawaii, US (21.297, -157.84)","2025-05-16 16:23",4,21.2974474,-157.8395645,TRUE,FALSE,TRUE,"S238992989"
"30","whiter","White Tern","Gygis alba","L45205136","Imua Pelagic Protocol Start: 23.61903, -166.19028","2025-05-16 14:16",12,23.619031,-166.190278,TRUE,FALSE,TRUE,"S238980355"
"31","whiter","White Tern","Gygis alba","L45194090","Imua Pelagic Protocol Start: 23.5255,-165.5316","2025-05-16 10:12",2,23.525501,-165.531641,TRUE,FALSE,TRUE,"S238919847"
"32","whiter","White Tern","Gygis alba","L45187554","Imua Pelagic Protocol Start: 23.50295, -165.35914","2025-05-16 09:10",1,23.502955,-165.359138,TRUE,FALSE,TRUE,"S238885618"
"33","whiter","White Tern","Gygis alba","L45176747","2562 Kalakaua Ave, Honolulu US-HI 21.27252, -157.82271","2025-05-16 07:48",3,21.272521,-157.822707,TRUE,FALSE,TRUE,"S238834310"
"34","whiter","White Tern","Gygis alba","L285759","Makapu'u Point and Ka Iwa State Scenic Shoreline","2025-05-16 07:24",10,21.3104352,-157.6545787,TRUE,FALSE,FALSE,"S238856690"
"35","whiter","White Tern","Gygis alba","L1371416","Pearl Harbor--WWII Valor in the Pacific NM","2025-05-16 06:47",2,21.3681354,-157.9388321,TRUE,FALSE,FALSE,"S238923701"
"36","whiter","White Tern","Gygis alba","L20360483","Kaimana Beach","2025-05-16 06:40",9,21.2631702,-157.8206635,TRUE,FALSE,TRUE,"S238831641"
"37","whiter","White Tern","Gygis alba","L45013695","Ala Wai Boat Harbor, Honolulu US-HI 21.28416, -157.83929","2025-05-16 06:32",4,21.284156,-157.839286,TRUE,FALSE,TRUE,"S238818423"
"38","whiter","White Tern","Gygis alba","L45097087","Imua Pelagic Protocol Start: 23.20156, -163.03314","2025-05-15 18:54",14,23.201564,-163.033145,TRUE,FALSE,TRUE,"S238474427"
"39","whiter","White Tern","Gygis alba","L45097092","Imua Pelagic Protocol Start: 23.15583, -162.67613","2025-05-15 16:45",5,23.155833,-162.676129,TRUE,FALSE,TRUE,"S238474445"
"40","whiter","White Tern","Gygis alba","L45090889","444 Kānekapōlei Street, Honolulu, Hawaii, US (21.279, -157.824)","2025-05-15 14:45",2,21.279068,-157.8237185,TRUE,FALSE,TRUE,"S238441007"
"41","whiter","White Tern","Gygis alba","L45083672","North Pacific Ocean US-HI (23.0668,-161.9729)","2025-05-15 12:33",45,23.066802,-161.972863,TRUE,FALSE,TRUE,"S238397716"
"42","whiter","White Tern","Gygis alba","L34880666","Nihoa","2025-05-15 10:00",25,23.0602226,-161.9219851,TRUE,FALSE,FALSE,"S238354696"
"43","whiter","White Tern","Gygis alba","L45165246","Kailua, Hawaii, US (21.396, -157.725)","2025-05-15 09:34",1,21.3961774,-157.7251231,TRUE,FALSE,TRUE,"S238779503"
"44","whiter","White Tern","Gygis alba","L45389922","White Sands Hotel","2025-05-15 09:30",2,21.280095,-157.825421,TRUE,FALSE,TRUE,"S239867859"
"45","whiter","White Tern","Gygis alba","L45069674","Imua Pelagic Protocol Start: 22.90961, -161.64263","2025-05-15 07:31",22,22.909614,-161.642631,TRUE,FALSE,TRUE,"S238319869"
"46","whiter","White Tern","Gygis alba","L4306756","Wiliwilinui Ridge Trail","2025-05-15 06:33",1,21.3152355,-157.7596378,TRUE,FALSE,FALSE,"S238333899"
"47","whiter","White Tern","Gygis alba","L45092776","Liliha Bakery","2025-05-15 05:57",2,21.3240941,-157.8583655,TRUE,FALSE,TRUE,"S238451400"
"48","whiter","White Tern","Gygis alba","L45005680","Imua Pelagic Protocol Start: 21.47996, -158.64079","2025-05-14 10:15",8,21.479958,-158.640791,TRUE,FALSE,TRUE,"S237964603"
"49","whiter","White Tern","Gygis alba","L44995910","Foster Botanical Gardens","2025-05-14 10:00",5,21.3163903,-157.8577537,TRUE,FALSE,TRUE,"S237906988"
"50","whiter","White Tern","Gygis alba","L45005662","Imua Pelagic Start: 21.42156, -158.49436","2025-05-14 09:11",28,21.421563,-158.494363,TRUE,FALSE,TRUE,"S237964516"
"51","whiter","White Tern","Gygis alba","L44993480","Punchbowl Cemetery Lookout Point","2025-05-14 09:00",2,21.3108856,-157.8478289,TRUE,FALSE,TRUE,"S237893075"
"52","whiter","White Tern","Gygis alba","L45005456","Imua Pelagic Protocol Start: 21.36282, -158.35240","2025-05-14 08:12",3,21.362823,-158.352398,TRUE,FALSE,TRUE,"S237963335"
"53","whiter","White Tern","Gygis alba","L44982796","Fort Derussy Park","2025-05-14 07:05",20,21.2786262,-157.833932,TRUE,FALSE,TRUE,"S237839169"
"54","whiter","White Tern","Gygis alba","L44979575","Outrigger","2025-05-14 06:30",NA,21.2786594,-157.8331223,TRUE,FALSE,TRUE,"S237823069"
"55","whiter","White Tern","Gygis alba","L7830812","Makapu’u PointLighthouse Trail (Seawatch)","2025-05-13 16:56",15,21.2997417,-157.652397,TRUE,FALSE,FALSE,"S237624862"
"56","whiter","White Tern","Gygis alba","L1040027","La'ie Point","2025-05-13 15:12",1,21.6484935,-157.9143047,TRUE,FALSE,FALSE,"S237596790"
"57","whiter","White Tern","Gygis alba","L44934962","Pier 2A","2025-05-13 13:34",8,21.299847,-157.866838,TRUE,FALSE,TRUE,"S237561790"
"58","whiter","White Tern","Gygis alba","L41221393","Royal Kūhiō, Honolulu, Hawaii, US (21.281, -157.828)","2025-05-13 10:27",15,21.2805254,-157.8276963,TRUE,FALSE,TRUE,"S237625156"
"59","whiter","White Tern","Gygis alba","L44929369","Driving along the road from Airport","2025-05-13 09:30",1,21.296333,-157.8506957,TRUE,FALSE,TRUE,"S237517735"
"60","whiter","White Tern","Gygis alba","L320833","Manoa Cliffs Trail","2025-05-13 07:30",2,21.3348122,-157.8145112,TRUE,FALSE,FALSE,"S237605571"
"61","whiter","White Tern","Gygis alba","L44943476","2902 Varsity Cir, Honolulu US-HI 21.29064, -157.81681","2025-05-13 07:08",29,21.290639,-157.816814,TRUE,FALSE,TRUE,"S237613859"
"62","whiter","White Tern","Gygis alba","L45084228","209 Kaʻiulani Ave, Honolulu US-HI 21.27730, -157.82402","2025-05-13 05:54",9,21.277297,-157.824024,TRUE,FALSE,TRUE,"S238401052"
"63","whiter","White Tern","Gygis alba","L44886537","2113 Kalakaua Ave, Honolulu US-HI 21.28174, -157.83081","2025-05-13 01:45",6,21.281735,-157.83081,TRUE,FALSE,TRUE,"S237263018"
"64","whiter","White Tern","Gygis alba","L44843696","2933 Kalākaua Avenue, Honolulu, Hawaii, US (21.262, -157.82)","2025-05-12 08:30",5,21.2615441,-157.8204791,TRUE,FALSE,TRUE,"S237009573"
"65","whiter","White Tern","Gygis alba","L44855213","Manoa Falls Trail","2025-05-12 05:36",1,21.332461,-157.800508,TRUE,FALSE,TRUE,"S237074468"
"66","whiter","White Tern","Gygis alba","L44791551","Kapiolani Beach Park","2025-05-11 15:52",3,21.268356,-157.822433,TRUE,FALSE,TRUE,"S236712396"
"67","whiter","White Tern","Gygis alba","L715154","Hanauma Bay Beach Park","2025-05-11 08:31",2,21.2717791,-157.6973248,TRUE,FALSE,FALSE,"S236645002"
