"","speciesCode","comName","sciName","locId","locName","obsDt","howMany","lat","lng","obsValid","obsReviewed","locationPrivate","subId"
"1","verfly","Vermilion Flycatcher","Pyrocephalus rubinus","L13054317","Redlands Sports Park","2025-05-27 15:53",1,34.0790903,-117.1461429,TRUE,FALSE,FALSE,"S243639370"
"2","verfly","Vermilion Flycatcher","Pyrocephalus rubinus","L11910717","San Angelo Nature Trail","2025-05-27 15:41",4,31.3769242,-100.5332816,TRUE,FALSE,FALSE,"S243615735"
"3","verfly","Vermilion Flycatcher","Pyrocephalus rubinus","L266875","Willcox--Lake Cochise and Twin Lakes Golf Course","2025-05-27 14:27",1,32.2298515,-109.8243175,TRUE,FALSE,FALSE,"S243619993"
"4","verfly","Vermilion Flycatcher","Pyrocephalus rubinus","L46115324","1660 N Page Ln, Cornville US-AZ 34.76381, -111.89825","2025-05-27 14:09",1,34.763811,-111.898249,TRUE,FALSE,TRUE,"S243613130"
"5","verfly","Vermilion Flycatcher","Pyrocephalus rubinus","L367734","La Mirada Community Regional Park","2025-05-27 12:50",4,33.9035475,-118.006382,TRUE,FALSE,FALSE,"S243583449"
"6","verfly","Vermilion Flycatcher","Pyrocephalus rubinus","L574897","Uvalde Fish Hatchery (HOTW 027)","2025-05-27 11:51",4,29.1869923,-99.8330212,TRUE,FALSE,FALSE,"S243530120"
"7","verfly","Vermilion Flycatcher","Pyrocephalus rubinus","L26726628","Conoa Ranch Conservation Area","2025-05-27 11:27",2,31.796673,-111.015481,TRUE,FALSE,TRUE,"S243559091"
"8","verfly","Vermilion Flycatcher","Pyrocephalus rubinus","L2064166","Patagonia Lake SP--Birding Trail","2025-05-27 11:17",2,31.496718,-110.848945,TRUE,FALSE,FALSE,"S243611438"
"9","verfly","Vermilion Flycatcher","Pyrocephalus rubinus","L374196","Junction WTP (HOTW 090)","2025-05-27 11:15",1,30.4978483,-99.7418475,TRUE,FALSE,FALSE,"S243523695"
"10","verfly","Vermilion Flycatcher","Pyrocephalus rubinus","L128943","San Pedro RNCA--Charleston Bridge","2025-05-27 10:49",1,31.6257,-110.1735992,TRUE,FALSE,FALSE,"S243638495"
"11","verfly","Vermilion Flycatcher","Pyrocephalus rubinus","L229841","Agua Nueva Park (was Roger Road WRF)","2025-05-27 10:48",2,32.2804902,-111.0272755,TRUE,FALSE,FALSE,"S243591308"
"12","verfly","Vermilion Flycatcher","Pyrocephalus rubinus","L9105796","Tubac Nature Center","2025-05-27 10:30",4,31.6175879,-111.042879,TRUE,FALSE,TRUE,"S243528326"
"13","verfly","Vermilion Flycatcher","Pyrocephalus rubinus","L9391304","Kerr WMA--Check Station area","2025-05-27 10:27",2,30.063393,-99.505582,TRUE,FALSE,FALSE,"S243496357"
"14","verfly","Vermilion Flycatcher","Pyrocephalus rubinus","L8990489","Roadrunner Park","2025-05-27 09:59",2,33.5990144,-112.0056866,TRUE,FALSE,FALSE,"S243525635"
"15","verfly","Vermilion Flycatcher","Pyrocephalus rubinus","L129080","San Pedro RNCA--San Pedro House and trails","2025-05-27 09:49",1,31.5478992,-110.1408997,TRUE,FALSE,FALSE,"S243542831"
"16","verfly","Vermilion Flycatcher","Pyrocephalus rubinus","L268441","Stateline Rd. (Cochise Co.)","2025-05-27 09:44",1,31.8361028,-109.0508306,TRUE,FALSE,FALSE,"S243525604"
"17","verfly","Vermilion Flycatcher","Pyrocephalus rubinus","L129042","Parker Canyon Lake","2025-05-27 09:42",2,31.4253006,-110.4540024,TRUE,FALSE,FALSE,"S243568083"
"18","verfly","Vermilion Flycatcher","Pyrocephalus rubinus","L208918","Sweetwater Wetlands","2025-05-27 09:20",1,32.2790144,-111.0216061,TRUE,FALSE,FALSE,"S243522194"
"19","verfly","Vermilion Flycatcher","Pyrocephalus rubinus","L446946","Mile Square Regional Park, Fountain Valley","2025-05-27 09:18",1,33.7246609,-117.9395199,TRUE,FALSE,FALSE,"S243552739"
"20","verfly","Vermilion Flycatcher","Pyrocephalus rubinus","L352346","Santa Gertrudis Lane (foot access only)","2025-05-27 09:17",3,31.5620883,-111.0473766,TRUE,FALSE,FALSE,"S243534132"
"21","verfly","Vermilion Flycatcher","Pyrocephalus rubinus","L7749123","Four Bar Cottages (private)","2025-05-27 09:16",1,31.876886,-109.0619973,TRUE,FALSE,FALSE,"S243612381"
"22","verfly","Vermilion Flycatcher","Pyrocephalus rubinus","L40131616","Rooney Ranch Shopping Center","2025-05-27 09:14",1,32.403391,-110.953618,TRUE,FALSE,TRUE,"S243547354"
"23","verfly","Vermilion Flycatcher","Pyrocephalus rubinus","L45929440","stakeout Rose-throated Becard, Harshaw Creek Rd (2025)","2025-05-27 09:00",1,31.517403,-110.693194,TRUE,FALSE,FALSE,"S243532121"
"24","verfly","Vermilion Flycatcher","Pyrocephalus rubinus","L420195","Big Morongo Canyon Preserve & Covington Park","2025-05-27 08:55",1,34.0497222,-116.5702639,TRUE,FALSE,FALSE,"S243550737"
"25","verfly","Vermilion Flycatcher","Pyrocephalus rubinus","L24317100","Box Canyon--old dam area","2025-05-27 08:50",2,31.798956,-110.777034,TRUE,FALSE,FALSE,"S243555961"
"26","verfly","Vermilion Flycatcher","Pyrocephalus rubinus","L718194","Mission Bay--De Anza Cove & Point","2025-05-27 08:42",2,32.7967588,-117.215771,TRUE,TRUE,FALSE,"S243502698"
"27","verfly","Vermilion Flycatcher","Pyrocephalus rubinus","L281846","The Lakes at Castle Rock","2025-05-27 08:39",1,32.2491071,-110.7933046,TRUE,FALSE,FALSE,"S243538169"
"28","verfly","Vermilion Flycatcher","Pyrocephalus rubinus","L4121740","Bolsa Chica--Brightwater area","2025-05-27 08:27",1,33.7074915,-118.0453974,TRUE,FALSE,FALSE,"S243506772"
"29","verfly","Vermilion Flycatcher","Pyrocephalus rubinus","L20930290","Katfish Kove","2025-05-27 08:24",4,32.5508113,-107.9220466,TRUE,FALSE,FALSE,"S243568445"
"30","verfly","Vermilion Flycatcher","Pyrocephalus rubinus","L37146806","McClelland Ranch (Private)","2025-05-27 08:07",2,29.7928248,-99.174295,TRUE,FALSE,TRUE,"S243433769"
"31","verfly","Vermilion Flycatcher","Pyrocephalus rubinus","L14182939","Monterey Park","2025-05-27 08:05",8,33.3671527,-111.682347,TRUE,FALSE,FALSE,"S243528793"
"32","verfly","Vermilion Flycatcher","Pyrocephalus rubinus","L234314","Anza Trail--Tubac","2025-05-27 08:04",5,31.6128313,-111.040829,TRUE,FALSE,FALSE,"S243517368"
"33","verfly","Vermilion Flycatcher","Pyrocephalus rubinus","L45546002","Tubac Nature Center","2025-05-27 08:03",7,31.6179434,-111.0434344,TRUE,FALSE,TRUE,"S243517568"
"34","verfly","Vermilion Flycatcher","Pyrocephalus rubinus","L45067578","Tubac Nature Center, road, bridge, loop. Trail","2025-05-27 08:03",6,31.615706,-111.041819,TRUE,FALSE,TRUE,"S243516820"
"35","verfly","Vermilion Flycatcher","Pyrocephalus rubinus","L656678","Middle Concho Park","2025-05-27 07:55",4,31.3789943,-100.5202675,TRUE,FALSE,FALSE,"S243455184"
"36","verfly","Vermilion Flycatcher","Pyrocephalus rubinus","L128938","Catalina SP","2025-05-27 07:50",3,32.4244027,-110.9123905,TRUE,FALSE,FALSE,"S243507151"
"37","verfly","Vermilion Flycatcher","Pyrocephalus rubinus","L45466658","Dobson park","2025-05-27 07:47",1,33.265437,-111.870071,TRUE,FALSE,TRUE,"S243475749"
"38","verfly","Vermilion Flycatcher","Pyrocephalus rubinus","L3451037","Boerne Lake","2025-05-27 07:46",1,29.8240748,-98.7686348,TRUE,FALSE,TRUE,"S243556835"
"39","verfly","Vermilion Flycatcher","Pyrocephalus rubinus","L367821","Kartchner Caverns SP","2025-05-27 07:45",3,31.8360722,-110.3486592,TRUE,FALSE,FALSE,"S243487850"
"40","verfly","Vermilion Flycatcher","Pyrocephalus rubinus","L270303","Watson Lake and Riparian Preserve","2025-05-27 07:38",2,34.5822319,-112.4259328,TRUE,FALSE,FALSE,"S243515287"
"41","verfly","Vermilion Flycatcher","Pyrocephalus rubinus","L5948468","Moon Valley Park","2025-05-27 07:37",1,33.6273485,-112.0809075,TRUE,FALSE,FALSE,"S243555480"
"42","verfly","Vermilion Flycatcher","Pyrocephalus rubinus","L245447","Fort Lowell Park and Pantano Wash","2025-05-27 07:36",7,32.2605631,-110.8727628,TRUE,FALSE,FALSE,"S243478364"
"43","verfly","Vermilion Flycatcher","Pyrocephalus rubinus","L2883481","The Ice House","2025-05-27 07:25",1,31.4920438,-110.9900558,TRUE,FALSE,TRUE,"S243473274"
"44","verfly","Vermilion Flycatcher","Pyrocephalus rubinus","L740762","James Kiehl River Bend Pk","2025-05-27 07:22",2,29.9723717,-98.8338447,TRUE,FALSE,FALSE,"S243592226"
"45","verfly","Vermilion Flycatcher","Pyrocephalus rubinus","L247122","Paton Center for Hummingbirds (Patons' Yard)","2025-05-27 07:20",2,31.5390131,-110.7606337,TRUE,FALSE,FALSE,"S243554139"
"46","verfly","Vermilion Flycatcher","Pyrocephalus rubinus","L23095756","Lower Little Ranches","2025-05-27 07:18",1,29.9922218,-98.060316,TRUE,FALSE,TRUE,"S243432845"
"47","verfly","Vermilion Flycatcher","Pyrocephalus rubinus","L29206850","1825 Monroe Lane, Camp Verde, Arizona, US (34.543, -111.868)","2025-05-27 07:10",2,34.5433098,-111.8684359,TRUE,FALSE,TRUE,"S243462008"
"48","verfly","Vermilion Flycatcher","Pyrocephalus rubinus","L1115897","Canoa Ranch Conservation Park","2025-05-27 06:58",3,31.7948045,-111.0156226,TRUE,FALSE,FALSE,"S243500258"
"49","verfly","Vermilion Flycatcher","Pyrocephalus rubinus","L622087","McCormick Park","2025-05-27 06:55",5,32.2612251,-110.8999872,TRUE,FALSE,FALSE,"S243459328"
"50","verfly","Vermilion Flycatcher","Pyrocephalus rubinus","L30700429","La Posada Campus (Private Access)","2025-05-27 06:55",2,31.859562,-110.973835,TRUE,FALSE,TRUE,"S243473345"
"51","verfly","Vermilion Flycatcher","Pyrocephalus rubinus","L128870","Agua Caliente Park","2025-05-27 06:40",4,32.2806015,-110.7303009,TRUE,FALSE,FALSE,"S243607746"
"52","verfly","Vermilion Flycatcher","Pyrocephalus rubinus","L633028","Scottsdale Ranch Park--Lake Serena","2025-05-27 06:36",3,33.5771656,-111.8582171,TRUE,FALSE,FALSE,"S243481185"
"53","verfly","Vermilion Flycatcher","Pyrocephalus rubinus","L290333","Arthur Pack Regional Park","2025-05-27 06:35",7,32.3733753,-111.0535231,TRUE,FALSE,FALSE,"S243508900"
"54","verfly","Vermilion Flycatcher","Pyrocephalus rubinus","L128958","San Pedro RNCA--Escapule Wash","2025-05-27 06:32",2,31.6100006,-110.1669998,TRUE,FALSE,FALSE,"S243539134"
"55","verfly","Vermilion Flycatcher","Pyrocephalus rubinus","L482942","Pace Bend Park","2025-05-27 06:32",1,30.4417921,-98.0358982,TRUE,FALSE,FALSE,"S243540844"
"56","verfly","Vermilion Flycatcher","Pyrocephalus rubinus","L23435440","Sunrise Country Club (restricted access)","2025-05-27 06:29",1,33.7530363,-116.4144606,TRUE,FALSE,FALSE,"S243444075"
"57","verfly","Vermilion Flycatcher","Pyrocephalus rubinus","L10786942","Williamson/Wood home - Mill Rd.","2025-05-27 06:18",2,31.4095525,-109.8806739,TRUE,FALSE,TRUE,"S243449629"
"58","verfly","Vermilion Flycatcher","Pyrocephalus rubinus","L166979","Boyce Thompson Arboretum","2025-05-27 06:01",6,33.2795082,-111.158756,TRUE,FALSE,FALSE,"S243550227"
"59","verfly","Vermilion Flycatcher","Pyrocephalus rubinus","L211809","Madera Canyon--Proctor Rd.","2025-05-27 06:00",1,31.739938,-110.886147,TRUE,FALSE,FALSE,"S243586194"
"60","verfly","Vermilion Flycatcher","Pyrocephalus rubinus","L250145","Sam Lena Park and KERP","2025-05-27 05:56",5,32.1812,-110.932,TRUE,FALSE,FALSE,"S243548348"
"61","verfly","Vermilion Flycatcher","Pyrocephalus rubinus","L226215","Pahranagat NWR--Middle Marsh","2025-05-27 05:55",NA,37.2489485,-115.1106262,TRUE,FALSE,FALSE,"S243456617"
"62","verfly","Vermilion Flycatcher","Pyrocephalus rubinus","L18462451","Neighborhood","2025-05-27 05:47",1,32.296942,-110.83256,TRUE,FALSE,TRUE,"S243465487"
"63","verfly","Vermilion Flycatcher","Pyrocephalus rubinus","L749795","Grasslands between Proctor Rd and Florida Wash","2025-05-27 05:45",1,31.769332,-110.8873272,TRUE,FALSE,FALSE,"S243548990"
"64","verfly","Vermilion Flycatcher","Pyrocephalus rubinus","L22091545","Anthem—Southeast Parkside","2025-05-27 05:37",5,33.847651,-112.103797,TRUE,FALSE,TRUE,"S243443121"
"65","verfly","Vermilion Flycatcher","Pyrocephalus rubinus","L267156","Christopher Columbus Park (soon to be Danny Lopez Park)","2025-05-27 05:30",5,32.2856814,-111.0346556,TRUE,FALSE,FALSE,"S243522477"
"66","verfly","Vermilion Flycatcher","Pyrocephalus rubinus","L21102052","SGC Study Area (Restricted Access)","2025-05-27 05:24",9,32.1301405,-111.0862931,TRUE,FALSE,TRUE,"S243490354"
"67","verfly","Vermilion Flycatcher","Pyrocephalus rubinus","L744803","Plumtree","2025-05-27 05:21",3,32.2610446,-110.9017322,TRUE,FALSE,TRUE,"S243421375"
"68","verfly","Vermilion Flycatcher","Pyrocephalus rubinus","L12259291","Calle Lottie Tucson","2025-05-27 05:00",2,32.3254475,-110.9561947,TRUE,FALSE,TRUE,"S243611532"
"69","verfly","Vermilion Flycatcher","Pyrocephalus rubinus","L779144","Lake Havasu City--Rotary Park","2025-05-27 05:00",5,34.4639664,-114.3436432,TRUE,FALSE,FALSE,"S243442118"
"70","verfly","Vermilion Flycatcher","Pyrocephalus rubinus","L46132634","Harshaw Creek Road, Patagonia, Arizona, US (31.515, -110.693)","2025-05-27 04:59",3,31.5150715,-110.6928206,TRUE,FALSE,TRUE,"S243420540"
"71","verfly","Vermilion Flycatcher","Pyrocephalus rubinus","L46114524","3337 E Lester St, Tucson US-AZ 32.24428, -110.92136","2025-05-26 19:43",3,32.244277,-110.921364,TRUE,FALSE,TRUE,"S243328353"
"72","verfly","Vermilion Flycatcher","Pyrocephalus rubinus","L15794663","El Gheko","2025-05-26 19:18",2,32.227512,-110.843423,TRUE,FALSE,TRUE,"S243319703"
"73","verfly","Vermilion Flycatcher","Pyrocephalus rubinus","L29226485","Liberty Bell Park","2025-05-26 19:15",5,33.8492588,-112.1000684,TRUE,FALSE,FALSE,"S243624771"
"74","verfly","Vermilion Flycatcher","Pyrocephalus rubinus","L24228142","The Highlands at Dove Mountain, Marana US-AZ 32.45005, -111.07821","2025-05-26 18:41",2,32.450046,-111.078209,TRUE,FALSE,TRUE,"S243322362"
"75","verfly","Vermilion Flycatcher","Pyrocephalus rubinus","L15664989","Camelback Golf Club","2025-05-26 18:19",2,33.576936,-111.962425,TRUE,FALSE,TRUE,"S243322281"
"76","verfly","Vermilion Flycatcher","Pyrocephalus rubinus","L38079911","9405 Eagle Valley Drive, Las Vegas, Nevada, US (36.209, -115.3)","2025-05-26 18:12",2,36.2089429,-115.2995476,TRUE,FALSE,TRUE,"S243316209"
"77","verfly","Vermilion Flycatcher","Pyrocephalus rubinus","L46005342","9661 East Graf Lane, Tucson, Arizona, US (32.172, -110.786)","2025-05-26 18:11",2,32.1722694,-110.7863614,TRUE,FALSE,TRUE,"S243318686"
"78","verfly","Vermilion Flycatcher","Pyrocephalus rubinus","L12371210","Arizona Birding Guides feeders--Visitors Welcome","2025-05-26 18:09",1,31.5432844,-110.7519356,TRUE,FALSE,FALSE,"S243514341"
"79","verfly","Vermilion Flycatcher","Pyrocephalus rubinus","L46108399","Fountain Park, Fountain Hills US-AZ (33.6015,-111.7094)","2025-05-26 17:26",2,33.601541,-111.709444,TRUE,FALSE,TRUE,"S243297809"
"80","verfly","Vermilion Flycatcher","Pyrocephalus rubinus","L896785","Morongo Valley","2025-05-26 17:12",2,34.0446944,-116.5802193,TRUE,FALSE,FALSE,"S243321317"
"81","verfly","Vermilion Flycatcher","Pyrocephalus rubinus","L46108461","957 North Broad Street, Globe, Arizona, US (33.404, -110.792)","2025-05-26 16:52",2,33.4035163,-110.7921858,TRUE,FALSE,TRUE,"S243298295"
"82","verfly","Vermilion Flycatcher","Pyrocephalus rubinus","L299372","Hill Country SNA--(Bandera Co. portion / N. of Bandera Creek rd.)(HOTW 045)","2025-05-26 16:24",1,29.6277682,-99.1819096,TRUE,FALSE,FALSE,"S243246529"
"83","verfly","Vermilion Flycatcher","Pyrocephalus rubinus","L6303208","Primm Forest Preserve","2025-05-26 16:14",1,35.6120577,-115.3844798,TRUE,FALSE,FALSE,"S243281488"
"84","verfly","Vermilion Flycatcher","Pyrocephalus rubinus","L46115736","Campus Farm Neighborhood","2025-05-26 15:30",1,32.274778,-110.952439,TRUE,FALSE,TRUE,"S243334769"
"85","verfly","Vermilion Flycatcher","Pyrocephalus rubinus","L128933","Carlsbad Caverns NP--Rattlesnake Springs","2025-05-26 14:55",3,32.1109359,-104.4660668,TRUE,FALSE,FALSE,"S243297345"
"86","verfly","Vermilion Flycatcher","Pyrocephalus rubinus","L768735","Harshaw Creek Road","2025-05-26 14:39",4,31.506978,-110.6798543,TRUE,FALSE,FALSE,"S243318545"
"87","verfly","Vermilion Flycatcher","Pyrocephalus rubinus","L3634319","Amistad NRA--Spur 406 area (HOTW 010)","2025-05-26 14:18",1,29.5522277,-101.0230652,TRUE,FALSE,FALSE,"S243169491"
"88","verfly","Vermilion Flycatcher","Pyrocephalus rubinus","L26004607","El Rio Preserve","2025-05-26 14:17",2,32.39355,-111.138193,TRUE,FALSE,TRUE,"S243241976"
"89","verfly","Vermilion Flycatcher","Pyrocephalus rubinus","L168765","Whitewater Draw Wildlife Area","2025-05-26 14:16",2,31.5614979,-109.7200191,TRUE,FALSE,FALSE,"S243228230"
"90","verfly","Vermilion Flycatcher","Pyrocephalus rubinus","L283468","South Llano River SP (HOTW 093)","2025-05-26 13:00",1,30.4391651,-99.8128617,TRUE,FALSE,FALSE,"S243327389"
"91","verfly","Vermilion Flycatcher","Pyrocephalus rubinus","L801783","Rancho Jurupa Park","2025-05-26 12:43",1,33.9818016,-117.4175835,TRUE,FALSE,FALSE,"S243329132"
"92","verfly","Vermilion Flycatcher","Pyrocephalus rubinus","L2239777","Pecos Co.--I-10 eastbound rest area near US190","2025-05-26 12:26",1,30.8616737,-102.0823431,TRUE,FALSE,FALSE,"S243469598"
"93","verfly","Vermilion Flycatcher","Pyrocephalus rubinus","L1115335","Balmorhea SP (FWTX 19)","2025-05-26 12:18",1,30.9448014,-103.7864685,TRUE,FALSE,FALSE,"S243144264"
"94","verfly","Vermilion Flycatcher","Pyrocephalus rubinus","L831774","Steele Indian School Park","2025-05-26 12:08",2,33.4991765,-112.0708466,TRUE,FALSE,FALSE,"S243241042"
"95","verfly","Vermilion Flycatcher","Pyrocephalus rubinus","L451252","Ralph B. Clark Regional Park, Buena Park","2025-05-26 12:07",3,33.8942326,-117.9763627,TRUE,FALSE,FALSE,"S243203751"
"96","verfly","Vermilion Flycatcher","Pyrocephalus rubinus","L7420665","Page Springs--South Wildlife Viewing Area","2025-05-26 11:56",1,34.7595237,-111.8898694,TRUE,FALSE,FALSE,"S243207030"
"97","verfly","Vermilion Flycatcher","Pyrocephalus rubinus","L876716","Bosque del Apache NWR--South Loop (formerly Marsh Loop)","2025-05-26 11:52",2,33.7831424,-106.8928528,TRUE,FALSE,FALSE,"S243187904"
"98","verfly","Vermilion Flycatcher","Pyrocephalus rubinus","L1183306","San Pedro RNCA--Kingfisher Pond","2025-05-26 11:47",2,31.5427632,-110.1337928,TRUE,FALSE,FALSE,"S243265036"
"99","verfly","Vermilion Flycatcher","Pyrocephalus rubinus","L129105","Sycamore Canyon (Pajarito Mountains)","2025-05-26 11:47",8,31.4290009,-111.1905975,TRUE,FALSE,FALSE,"S243339083"
"100","verfly","Vermilion Flycatcher","Pyrocephalus rubinus","L1154234","Gage Gardens (FWTX 27), Marathon","2025-05-26 11:42",5,30.2044271,-103.2430744,TRUE,FALSE,FALSE,"S243107303"
"101","verfly","Vermilion Flycatcher","Pyrocephalus rubinus","L46069523","Summer 2025 Climate Watch Survey -- 12/12 (29.32372, -98.77158)","2025-05-26 11:29",1,29.3237798,-98.771423,TRUE,FALSE,TRUE,"S243112004"
"102","verfly","Vermilion Flycatcher","Pyrocephalus rubinus","L46072114","Summer 2025 Climate Watch Survey -- 09/12 (29.32396, -98.7803)","2025-05-26 10:55",1,29.323981,-98.7802692,TRUE,FALSE,TRUE,"S243122687"
"103","verfly","Vermilion Flycatcher","Pyrocephalus rubinus","L1357335","Huntington Central Park--East","2025-05-26 10:53",3,33.7040978,-118.0022383,TRUE,TRUE,FALSE,"S243271582"
"104","verfly","Vermilion Flycatcher","Pyrocephalus rubinus","L785937","Hot Well Dunes BLM Rec Area","2025-05-26 10:48",1,32.520962,-109.4387627,TRUE,FALSE,FALSE,"S243252098"
"105","verfly","Vermilion Flycatcher","Pyrocephalus rubinus","L46073172","Summer 2025 Climate Watch Survey -- 08/12 (29.32213, -98.7803)","2025-05-26 10:44",1,29.3222904,-98.780255,TRUE,FALSE,TRUE,"S243127137"
"106","verfly","Vermilion Flycatcher","Pyrocephalus rubinus","L4092272","Rincon Del Diablo (near Magnolia and Barron)","2025-05-26 10:19",2,29.350534,-100.8931965,TRUE,FALSE,FALSE,"S243200112"
"107","verfly","Vermilion Flycatcher","Pyrocephalus rubinus","L9629914","Arbor Park, Seal Beach","2025-05-26 10:13",5,33.7834865,-118.0499354,TRUE,TRUE,FALSE,"S243126344"
"108","verfly","Vermilion Flycatcher","Pyrocephalus rubinus","L45170076","362 Tegner Creek Rd, Hunt US-TX 30.04917, -99.32847","2025-05-26 09:44",1,30.049169,-99.328471,TRUE,FALSE,TRUE,"S243302931"
"109","verfly","Vermilion Flycatcher","Pyrocephalus rubinus","L280970","Las Palomas Marsh","2025-05-26 09:39",2,33.061299,-107.281537,TRUE,FALSE,FALSE,"S243311400"
"110","verfly","Vermilion Flycatcher","Pyrocephalus rubinus","L716965","Fort Clark Springs (gate check-in required)","2025-05-26 09:36",2,29.3048877,-100.4185581,TRUE,FALSE,FALSE,"S243037077"
"111","verfly","Vermilion Flycatcher","Pyrocephalus rubinus","L14028522","Boulder Creek neighborhood green area, Mesa","2025-05-26 09:35",2,33.358331,-111.665339,TRUE,FALSE,TRUE,"S243068807"
"112","verfly","Vermilion Flycatcher","Pyrocephalus rubinus","L284334","Estrella Mountain Regional Park","2025-05-26 09:32",2,33.3844217,-112.3823583,TRUE,FALSE,FALSE,"S243151631"
"113","verfly","Vermilion Flycatcher","Pyrocephalus rubinus","L953575","Gila River Preserve--Iron Bridge Conservation Area","2025-05-26 09:30",2,32.9400071,-108.6066073,TRUE,FALSE,FALSE,"S243229863"
"114","verfly","Vermilion Flycatcher","Pyrocephalus rubinus","L128986","San Pedro RNCA--Hereford Bridge","2025-05-26 09:24",1,31.4384285,-110.1076526,TRUE,FALSE,FALSE,"S243080291"
"115","verfly","Vermilion Flycatcher","Pyrocephalus rubinus","L2180223","Dell City area (FM1437, etc.)","2025-05-26 09:24",3,31.9462589,-105.1922008,TRUE,FALSE,FALSE,"S243566735"
"116","verfly","Vermilion Flycatcher","Pyrocephalus rubinus","L913627","Green Valley--Desert Meadows Park","2025-05-26 09:21",1,31.8552155,-110.9860539,TRUE,FALSE,FALSE,"S243088748"
"117","verfly","Vermilion Flycatcher","Pyrocephalus rubinus","L572560","Choke Canyon SP--South Shore Unit (Live Oak Co.)","2025-05-26 08:58",1,28.472577,-98.2512474,TRUE,FALSE,FALSE,"S242997516"
"118","verfly","Vermilion Flycatcher","Pyrocephalus rubinus","L40821690","SRP,SRP Vistas, Legends, Desert Meadows and back","2025-05-26 08:55",4,31.837641,-110.991672,TRUE,FALSE,TRUE,"S243132172"
"119","verfly","Vermilion Flycatcher","Pyrocephalus rubinus","L46104884","Meneffee Tank","2025-05-26 08:50",1,31.401165,-110.452555,TRUE,FALSE,TRUE,"S243277971"
"120","verfly","Vermilion Flycatcher","Pyrocephalus rubinus","L2275702","Howard Well","2025-05-26 08:48",2,32.4384382,-109.3467629,TRUE,FALSE,FALSE,"S243253245"
"121","verfly","Vermilion Flycatcher","Pyrocephalus rubinus","L11440280","Houston Creek, Star Valley","2025-05-26 08:45",1,34.2423385,-111.2459559,TRUE,FALSE,TRUE,"S243138980"
"122","verfly","Vermilion Flycatcher","Pyrocephalus rubinus","L227274","Reid Park","2025-05-26 08:30",11,32.2102866,-110.9235907,TRUE,FALSE,FALSE,"S243068991"
"123","verfly","Vermilion Flycatcher","Pyrocephalus rubinus","L789932","Aravaipa Canyon--east (Graham Co.)","2025-05-26 08:28",2,32.8726671,-110.3741455,TRUE,FALSE,FALSE,"S243054977"
"124","verfly","Vermilion Flycatcher","Pyrocephalus rubinus","L1358840","Bosque del Apache NWR--North Loop (formerly Farm Loop)","2025-05-26 08:11",4,33.8151614,-106.8722406,TRUE,FALSE,FALSE,"S243059951"
"125","verfly","Vermilion Flycatcher","Pyrocephalus rubinus","L5278787","US-TX-Medina","2025-05-26 08:08",1,29.828795,-99.236472,TRUE,FALSE,TRUE,"S243007098"
"126","verfly","Vermilion Flycatcher","Pyrocephalus rubinus","L350281","El Rio Open Space Preserve","2025-05-26 08:05",3,32.392141,-111.1384898,TRUE,FALSE,FALSE,"S243060697"
"127","verfly","Vermilion Flycatcher","Pyrocephalus rubinus","L144858","Riparian Preserve at Gilbert Water Ranch","2025-05-26 08:04",1,33.3614502,-111.7339478,TRUE,FALSE,FALSE,"S243126313"
"128","verfly","Vermilion Flycatcher","Pyrocephalus rubinus","L7330592","Johnson Ponds area, Alpine","2025-05-26 08:00",1,30.3660623,-103.6742771,TRUE,FALSE,FALSE,"S242952962"
"129","verfly","Vermilion Flycatcher","Pyrocephalus rubinus","L1799967","Lake Cahuilla Veterans Regional Park","2025-05-26 08:00",2,33.6308835,-116.277214,TRUE,FALSE,FALSE,"S243295992"
"130","verfly","Vermilion Flycatcher","Pyrocephalus rubinus","L3939452","US-AZ-Tempe-Dava Drive","2025-05-26 07:59",1,33.354344,-111.929143,TRUE,FALSE,TRUE,"S243026684"
"131","verfly","Vermilion Flycatcher","Pyrocephalus rubinus","L293455","Boerne City Lake Park","2025-05-26 07:50",3,29.8267792,-98.7707455,TRUE,FALSE,FALSE,"S242953789"
"132","verfly","Vermilion Flycatcher","Pyrocephalus rubinus","L128953","Dudleyville","2025-05-26 07:50",1,32.917,-110.735,TRUE,FALSE,FALSE,"S243206895"
"133","verfly","Vermilion Flycatcher","Pyrocephalus rubinus","L46055356","76943, Ozona US-TX (29.9788,-101.1690)","2025-05-26 07:46",2,29.978812,-101.169003,TRUE,FALSE,TRUE,"S243050343"
"134","verfly","Vermilion Flycatcher","Pyrocephalus rubinus","L44833671","Bosque Creek Preserve","2025-05-26 07:46",2,32.2665019,-110.8802003,TRUE,FALSE,TRUE,"S243052906"
"135","verfly","Vermilion Flycatcher","Pyrocephalus rubinus","L934338","Mangas Springs","2025-05-26 07:45",5,32.8418443,-108.5108471,TRUE,FALSE,FALSE,"S243229921"
"136","verfly","Vermilion Flycatcher","Pyrocephalus rubinus","L393566","Casa de San Pedro B&B--Visitors Welcome","2025-05-26 07:43",1,31.4088134,-110.1067829,TRUE,FALSE,FALSE,"S243545171"
"137","verfly","Vermilion Flycatcher","Pyrocephalus rubinus","L24141264","Gladden Farms walk Moore Rd and Lon Adams","2025-05-26 07:32",2,32.4377407,-111.2016683,TRUE,FALSE,TRUE,"S243487842"
"138","verfly","Vermilion Flycatcher","Pyrocephalus rubinus","L40562946","Parque Del Sol","2025-05-26 07:31",1,31.984316,-110.971143,TRUE,FALSE,TRUE,"S242986562"
"139","verfly","Vermilion Flycatcher","Pyrocephalus rubinus","L23040386","Vulture Hill (private)","2025-05-26 07:16",2,31.541443,-110.758959,TRUE,FALSE,TRUE,"S243032638"
"140","verfly","Vermilion Flycatcher","Pyrocephalus rubinus","L614595","El Dorado Regional Park--Area 3","2025-05-26 07:09",3,33.8235101,-118.0862045,TRUE,FALSE,FALSE,"S243229514"
"141","verfly","Vermilion Flycatcher","Pyrocephalus rubinus","L30039068","Sweetwater Wetlands","2025-05-26 07:09",4,32.278983,-111.0243,TRUE,FALSE,TRUE,"S243091019"
"142","verfly","Vermilion Flycatcher","Pyrocephalus rubinus","L44833423","The Gregory School","2025-05-26 06:57",8,32.2646837,-110.8753826,TRUE,FALSE,TRUE,"S243052616"
"143","verfly","Vermilion Flycatcher","Pyrocephalus rubinus","L11172420","SHARP (Southeast Houghton Area Recharge Project)","2025-05-26 06:56",1,32.1475886,-110.7812904,TRUE,FALSE,FALSE,"S243007000"
"144","verfly","Vermilion Flycatcher","Pyrocephalus rubinus","L46007165","Whittier Narrows Recreation Area, South El Monte US-CA (34.0366,-118.0614)","2025-05-26 06:55",1,34.036635,-118.061436,TRUE,FALSE,TRUE,"S243022422"
"145","verfly","Vermilion Flycatcher","Pyrocephalus rubinus","L28494561","Choke Canyon SP (Calliham Unit)--Rec Center area","2025-05-26 06:52",1,28.4800631,-98.348663,TRUE,FALSE,FALSE,"S242998824"
"146","verfly","Vermilion Flycatcher","Pyrocephalus rubinus","L774996","Rillito River Park--Columbus Weed Patch","2025-05-26 06:47",3,32.2732364,-110.9032059,TRUE,FALSE,FALSE,"S243067372"
"147","verfly","Vermilion Flycatcher","Pyrocephalus rubinus","L756149","Lincoln Park--Atturbury Wash","2025-05-26 06:39",1,32.1740142,-110.8135986,TRUE,FALSE,FALSE,"S243019371"
"148","verfly","Vermilion Flycatcher","Pyrocephalus rubinus","L7148816","Percha Creek Hillsboro US-NM","2025-05-26 06:36",2,32.918993,-107.574939,TRUE,FALSE,TRUE,"S243037442"
"149","verfly","Vermilion Flycatcher","Pyrocephalus rubinus","L38172656","PGA WEST (restricted Access)","2025-05-26 06:30",2,33.64376,-116.272733,TRUE,FALSE,TRUE,"S243148451"
"150","verfly","Vermilion Flycatcher","Pyrocephalus rubinus","L5809821","Haus von Detwiler","2025-05-26 06:07",1,32.6999678,-114.6841248,TRUE,FALSE,TRUE,"S243027533"
"151","verfly","Vermilion Flycatcher","Pyrocephalus rubinus","L41567954","Arizona Western College","2025-05-26 06:06",1,32.684379,-114.497032,TRUE,FALSE,TRUE,"S242966193"
"152","verfly","Vermilion Flycatcher","Pyrocephalus rubinus","L4130933","Patagonia Lake--Sonoita Creek","2025-05-26 06:05",1,31.5003727,-110.8425182,TRUE,FALSE,FALSE,"S243101288"
"153","verfly","Vermilion Flycatcher","Pyrocephalus rubinus","L17491396","Anza Trail east of Green Valley Country Club Estates","2025-05-26 05:58",6,31.8824926,-110.9775103,TRUE,FALSE,TRUE,"S243005980"
"154","verfly","Vermilion Flycatcher","Pyrocephalus rubinus","L999878","Northsight Park","2025-05-26 05:58",2,33.6122247,-111.8988848,TRUE,FALSE,FALSE,"S243041121"
"155","verfly","Vermilion Flycatcher","Pyrocephalus rubinus","L972911","Santa Cruz River--Crossroads at Silverbell District Park","2025-05-26 05:53",5,32.348157,-111.0942,TRUE,FALSE,FALSE,"S243029746"
"156","verfly","Vermilion Flycatcher","Pyrocephalus rubinus","L2891001","Ajo Community Golf Course","2025-05-26 05:52",9,32.4499385,-112.850318,TRUE,FALSE,FALSE,"S243011007"
"157","verfly","Vermilion Flycatcher","Pyrocephalus rubinus","L834429","Kiwanis Park","2025-05-26 05:50",3,33.3739933,-111.939311,TRUE,FALSE,FALSE,"S243167623"
"158","verfly","Vermilion Flycatcher","Pyrocephalus rubinus","L9579230","Clemens Home","2025-05-26 05:41",2,31.480015,-110.2874,TRUE,FALSE,TRUE,"S242994075"
"159","verfly","Vermilion Flycatcher","Pyrocephalus rubinus","L109497","Butterbredt Spring","2025-05-26 05:34",1,35.3817725,-118.113327,TRUE,FALSE,FALSE,"S243108781"
"160","verfly","Vermilion Flycatcher","Pyrocephalus rubinus","L33624840","Jackrabbit Basin, Phoenix","2025-05-25 19:28",1,33.633898,-111.955123,TRUE,FALSE,TRUE,"S242794358"
"161","verfly","Vermilion Flycatcher","Pyrocephalus rubinus","L17523978","Victoria Park (Palm Springs)","2025-05-25 19:10",3,33.8530518,-116.5399754,TRUE,FALSE,FALSE,"S243524023"
"162","verfly","Vermilion Flycatcher","Pyrocephalus rubinus","L46007628","La Ranchita AirBnb","2025-05-25 19:06",1,32.203652,-110.982752,TRUE,FALSE,TRUE,"S242801901"
"163","verfly","Vermilion Flycatcher","Pyrocephalus rubinus","L272736","Kennedy Park","2025-05-25 18:45",2,32.1805717,-111.0074136,TRUE,FALSE,FALSE,"S242795661"
"164","verfly","Vermilion Flycatcher","Pyrocephalus rubinus","L3531642","California Gulch/Warsaw Canyon confluence","2025-05-25 18:24",2,31.4030216,-111.2421539,TRUE,FALSE,FALSE,"S242828706"
"165","verfly","Vermilion Flycatcher","Pyrocephalus rubinus","L382781","Legg Lake","2025-05-25 18:15",1,34.031892,-118.060112,TRUE,FALSE,FALSE,"S242796826"
"166","verfly","Vermilion Flycatcher","Pyrocephalus rubinus","L128897","Big Bend NP--Cottonwood Campground (FWTX 40)","2025-05-25 18:12",4,29.1366997,-103.5220032,TRUE,FALSE,FALSE,"S242789553"
"167","verfly","Vermilion Flycatcher","Pyrocephalus rubinus","L387263","Scottsdale Community College","2025-05-25 17:05",1,33.5120588,-111.8850231,TRUE,FALSE,FALSE,"S242809505"
"168","verfly","Vermilion Flycatcher","Pyrocephalus rubinus","L568478","Kickapoo Cavern SP (Kinney Co.)","2025-05-25 17:00",1,29.61154,-100.4533,TRUE,FALSE,FALSE,"S243267077"
"169","verfly","Vermilion Flycatcher","Pyrocephalus rubinus","L2898459","Greaterville Road--between Hwy 83 and Box Canyon Rd","2025-05-25 16:40",2,31.7767701,-110.7229618,TRUE,FALSE,FALSE,"S242755116"
"170","verfly","Vermilion Flycatcher","Pyrocephalus rubinus","L470208","Sunbeam Lake County Park","2025-05-25 15:50",1,32.7818446,-115.6841469,TRUE,FALSE,FALSE,"S242751956"
"171","verfly","Vermilion Flycatcher","Pyrocephalus rubinus","L127945","Bosque del Apache NWR","2025-05-25 15:37",5,33.802,-106.88,TRUE,FALSE,FALSE,"S242797402"
"172","verfly","Vermilion Flycatcher","Pyrocephalus rubinus","L433357","Rio Bend RV Park and Golf Course","2025-05-25 15:14",3,32.7671044,-115.6936741,TRUE,FALSE,FALSE,"S242721285"
"173","verfly","Vermilion Flycatcher","Pyrocephalus rubinus","L517989","Bracketville Rest Stop (HOTW 017)","2025-05-25 15:01",4,29.2806906,-100.3235757,TRUE,FALSE,FALSE,"S242657505"
"174","verfly","Vermilion Flycatcher","Pyrocephalus rubinus","L26387427","2046 East Longspur Place, Green Valley, Arizona, US (31.893, -110.943) Kane Kasa","2025-05-25 14:43",1,31.892616,-110.9433894,TRUE,FALSE,TRUE,"S242703939"
"175","verfly","Vermilion Flycatcher","Pyrocephalus rubinus","L10121847","Yard/Feeders","2025-05-25 14:38",1,32.2622359,-110.9561849,TRUE,FALSE,TRUE,"S243353924"
"176","verfly","Vermilion Flycatcher","Pyrocephalus rubinus","L837847","Hayden & Osborne Golf Course Pond","2025-05-25 13:55",1,33.4860775,-111.911754,TRUE,FALSE,FALSE,"S242683102"
"177","verfly","Vermilion Flycatcher","Pyrocephalus rubinus","L722732","Lometa Regional Park","2025-05-25 13:38",4,31.2048732,-98.3904648,TRUE,FALSE,FALSE,"S243220676"
"178","verfly","Vermilion Flycatcher","Pyrocephalus rubinus","L169112","Hassayampa River Preserve","2025-05-25 13:35",2,33.9333419,-112.6946297,TRUE,FALSE,FALSE,"S242717191"
"179","verfly","Vermilion Flycatcher","Pyrocephalus rubinus","L9251078","South Llano River SP--Acorn Blind","2025-05-25 13:10",1,30.4486098,-99.7991337,TRUE,FALSE,FALSE,"S242595942"
"180","verfly","Vermilion Flycatcher","Pyrocephalus rubinus","L610073","Whittier Narrows--Nature Center","2025-05-25 13:03",1,34.034666,-118.0435038,TRUE,FALSE,FALSE,"S242685484"
"181","verfly","Vermilion Flycatcher","Pyrocephalus rubinus","L129054","Pena Blanca Lake","2025-05-25 13:00",1,31.401,-111.087,TRUE,FALSE,FALSE,"S242805883"
"182","verfly","Vermilion Flycatcher","Pyrocephalus rubinus","L847245","Bosque del Apache NWR--Visitor Center (do not use for whole refuge)","2025-05-25 12:32",1,33.805018,-106.8907768,TRUE,FALSE,FALSE,"S242804128"
"183","verfly","Vermilion Flycatcher","Pyrocephalus rubinus","L6754402","Don Knabe Community Regional Park","2025-05-25 12:06",1,33.8501738,-118.0605412,TRUE,FALSE,FALSE,"S242644986"
"184","verfly","Vermilion Flycatcher","Pyrocephalus rubinus","L45505637","Sanders Rd, Marana AZ","2025-05-25 11:40",1,32.4329399,-111.2339755,TRUE,FALSE,TRUE,"S242631776"
"185","verfly","Vermilion Flycatcher","Pyrocephalus rubinus","L854962","Sahuarita Lake","2025-05-25 10:53",2,31.972424,-110.9673214,TRUE,FALSE,FALSE,"S242585505"
"186","verfly","Vermilion Flycatcher","Pyrocephalus rubinus","L19555544","Almartin Street Neighborhood","2025-05-25 10:38",1,32.2567875,-110.924359,TRUE,FALSE,TRUE,"S242597781"
"187","verfly","Vermilion Flycatcher","Pyrocephalus rubinus","L45943070","Texas Highway 16, Hebbronville, Texas, US (27.088, -98.956)","2025-05-25 10:37",1,27.0884705,-98.9555333,TRUE,FALSE,TRUE,"S242520005"
"188","verfly","Vermilion Flycatcher","Pyrocephalus rubinus","L160563","Mitchell Lake Audubon Center (HOTE 103)","2025-05-25 10:30",3,29.3105956,-98.4996938,TRUE,FALSE,FALSE,"S242743585"
"189","verfly","Vermilion Flycatcher","Pyrocephalus rubinus","L485738","Evergreen Cemetery (IMP Co.)","2025-05-25 10:28",2,32.7909003,-115.5192876,TRUE,FALSE,FALSE,"S242631581"
"190","verfly","Vermilion Flycatcher","Pyrocephalus rubinus","L3156434","Bosque del Apache NWR--Flight Deck","2025-05-25 10:14",3,33.8049577,-106.8843985,TRUE,FALSE,FALSE,"S243178718"
"191","verfly","Vermilion Flycatcher","Pyrocephalus rubinus","L3177894","West San Gabriel River Parkway Nature Trail","2025-05-25 10:04",2,33.8374021,-118.0950344,TRUE,FALSE,FALSE,"S242647035"
"192","verfly","Vermilion Flycatcher","Pyrocephalus rubinus","L129052","Patagonia-Sonoita Creek Preserve","2025-05-25 10:04",1,31.528,-110.775,TRUE,FALSE,FALSE,"S242612117"
"193","verfly","Vermilion Flycatcher","Pyrocephalus rubinus","L46083523","St. Philip’s Plaza, Tucson, AZ","2025-05-25 10:00",1,32.285226,-110.943054,TRUE,FALSE,TRUE,"S243172285"
"194","verfly","Vermilion Flycatcher","Pyrocephalus rubinus","L3787321","Bosque del Apache NWR--Main 2-Way Road (East-West)","2025-05-25 09:54",1,33.7991685,-106.8844113,TRUE,FALSE,FALSE,"S242551035"
"195","verfly","Vermilion Flycatcher","Pyrocephalus rubinus","L340405","Box Canyon","2025-05-25 09:51",1,31.7974086,-110.7868486,TRUE,FALSE,FALSE,"S242594732"
"196","verfly","Vermilion Flycatcher","Pyrocephalus rubinus","L7664384","William Peak Park, Buena Park","2025-05-25 09:50",3,33.8492293,-118.0077446,TRUE,FALSE,FALSE,"S242599860"
"197","verfly","Vermilion Flycatcher","Pyrocephalus rubinus","L765027","Las Cienegas NCA--Empire Gulch","2025-05-25 09:48",2,31.7878465,-110.6365728,TRUE,FALSE,FALSE,"S242687897"
"198","verfly","Vermilion Flycatcher","Pyrocephalus rubinus","L18726082","Vista Canyon Park","2025-05-25 09:38",2,33.3000089,-112.0194405,TRUE,FALSE,FALSE,"S242564606"
"199","verfly","Vermilion Flycatcher","Pyrocephalus rubinus","L3089086","Montecito Memorial Park","2025-05-25 09:36",1,34.04957,-117.27951,TRUE,FALSE,FALSE,"S242888099"
"200","verfly","Vermilion Flycatcher","Pyrocephalus rubinus","L6353876","Rockin' River Ranch State Park","2025-05-25 09:31",NA,34.503349,-111.831179,TRUE,FALSE,FALSE,"S242566894"
"201","verfly","Vermilion Flycatcher","Pyrocephalus rubinus","L3223529","San Angelo--Spring Creek Park","2025-05-25 09:25",1,31.371852,-100.512521,TRUE,FALSE,FALSE,"S242468783"
"202","verfly","Vermilion Flycatcher","Pyrocephalus rubinus","L278209","Washington Ranch (request permission in advance, 575-785-2228)","2025-05-25 09:24",3,32.1163919,-104.4559488,TRUE,FALSE,FALSE,"S242532789"
"203","verfly","Vermilion Flycatcher","Pyrocephalus rubinus","L1318471","Bosque del Apache NWR--Dabbler (formerly Marsh) Deck","2025-05-25 09:16",2,33.7903683,-106.892193,TRUE,FALSE,FALSE,"S242555037"
"204","verfly","Vermilion Flycatcher","Pyrocephalus rubinus","L6326750","Veterans Memorial Park, Sierra Vista","2025-05-25 09:15",4,31.5563405,-110.2682304,TRUE,FALSE,TRUE,"S242981012"
"205","verfly","Vermilion Flycatcher","Pyrocephalus rubinus","L8647218","Sunrise Pointe, Fairways, Abrego, 7th fairway","2025-05-25 08:56",3,31.828259,-110.998434,TRUE,FALSE,TRUE,"S242587445"
"206","verfly","Vermilion Flycatcher","Pyrocephalus rubinus","L860704","Joshua Springs Park","2025-05-25 08:52",3,29.8846717,-98.8185453,TRUE,FALSE,FALSE,"S242607368"
"207","verfly","Vermilion Flycatcher","Pyrocephalus rubinus","L45985761","Second And Three, Patagonia, Arizona, US (31.545, -110.753)","2025-05-25 08:31",1,31.5450865,-110.7525687,TRUE,FALSE,TRUE,"S242695969"
"208","verfly","Vermilion Flycatcher","Pyrocephalus rubinus","L828984","Toquerville -- Ash Creek @ West Field Rd","2025-05-25 08:29",2,37.2461302,-113.2877326,TRUE,FALSE,FALSE,"S242569751"
"209","verfly","Vermilion Flycatcher","Pyrocephalus rubinus","L2605557","Santa Cruz River--Congress St. to Silverlake Rd.","2025-05-25 08:22",2,32.2105498,-110.9848738,TRUE,FALSE,FALSE,"S242490703"
"210","verfly","Vermilion Flycatcher","Pyrocephalus rubinus","L45874475","Magnolia Park","2025-05-25 08:20",1,29.350473,-100.893651,TRUE,FALSE,TRUE,"S242437551"
"211","verfly","Vermilion Flycatcher","Pyrocephalus rubinus","L2481565","Riverside Marsh","2025-05-25 08:12",1,37.0847515,-113.5714567,TRUE,FALSE,FALSE,"S242475699"
"212","verfly","Vermilion Flycatcher","Pyrocephalus rubinus","L13845602","Yard","2025-05-25 08:10",1,31.513816,-111.004532,TRUE,FALSE,TRUE,"S242519927"
"213","verfly","Vermilion Flycatcher","Pyrocephalus rubinus","L5417939","River Ranch WMA (NMDGF permit required)","2025-05-25 07:57",7,32.5872032,-107.922062,TRUE,FALSE,FALSE,"S242609930"
"214","verfly","Vermilion Flycatcher","Pyrocephalus rubinus","L675214","Borrego Springs--Resort and Country Club","2025-05-25 07:55",1,33.2427076,-116.3570166,TRUE,FALSE,FALSE,"S242483981"
"215","verfly","Vermilion Flycatcher","Pyrocephalus rubinus","L17528052","Joseph D. Grant County Park - Southwest trails (Hotel, Snell, etc.)","2025-05-25 07:51",1,37.3327855,-121.7124229,TRUE,TRUE,FALSE,"S242648927"
"216","verfly","Vermilion Flycatcher","Pyrocephalus rubinus","L21089833","Redrock Private Montoya","2025-05-25 07:44",17,32.710508,-108.705383,TRUE,FALSE,TRUE,"S242785021"
"217","verfly","Vermilion Flycatcher","Pyrocephalus rubinus","L33595730","Box Canyon","2025-05-25 07:30",2,31.7992757,-110.8022257,TRUE,FALSE,TRUE,"S242601856"
"218","verfly","Vermilion Flycatcher","Pyrocephalus rubinus","L46067671","Chino Valley - Caliche Dr.","2025-05-25 07:20",2,34.7429267,-112.4722935,TRUE,FALSE,TRUE,"S243105758"
"219","verfly","Vermilion Flycatcher","Pyrocephalus rubinus","L464949","Earvin Magic Johnson Park","2025-05-25 07:20",2,33.9207496,-118.2603121,TRUE,FALSE,FALSE,"S242756708"
"220","verfly","Vermilion Flycatcher","Pyrocephalus rubinus","L20919914","Chesnutt Park","2025-05-25 07:16",1,33.503686,-111.898427,TRUE,FALSE,FALSE,"S242454314"
"221","verfly","Vermilion Flycatcher","Pyrocephalus rubinus","L1040130","West Box Canyon Rd--desert scrub/mesquite grasslands","2025-05-25 07:12",1,31.7916584,-110.8193064,TRUE,FALSE,FALSE,"S242657614"
"222","verfly","Vermilion Flycatcher","Pyrocephalus rubinus","L1173933","hwy 16 ( private ranch)","2025-05-25 07:10",1,29.7357624,-99.1550446,TRUE,FALSE,TRUE,"S243519746"
"223","verfly","Vermilion Flycatcher","Pyrocephalus rubinus","L6718077","3 Canyons Ranch (west of Deer Ridge Trail)","2025-05-25 07:03",3,31.4089416,-110.2331257,TRUE,FALSE,TRUE,"S242552506"
"224","verfly","Vermilion Flycatcher","Pyrocephalus rubinus","L1556719","Shields BBS 83439 Stop 12","2025-05-25 07:01",1,31.6228955,-99.3583563,TRUE,FALSE,TRUE,"S243157274"
"225","verfly","Vermilion Flycatcher","Pyrocephalus rubinus","L2693778","Palm Springs--The Wellness Park/Ruth Hardy Park","2025-05-25 07:00",10,33.8357914,-116.5393424,TRUE,FALSE,FALSE,"S242787770"
"226","verfly","Vermilion Flycatcher","Pyrocephalus rubinus","L25830782","Mitchell Park","2025-05-25 07:00",1,33.42009,-111.949098,TRUE,FALSE,FALSE,"S242438697"
"227","verfly","Vermilion Flycatcher","Pyrocephalus rubinus","L45938450","West Wetlands Park, Yuma US-AZ 32.72975, -114.63483","2025-05-25 06:58",2,32.729748,-114.634828,TRUE,FALSE,TRUE,"S242500243"
"228","verfly","Vermilion Flycatcher","Pyrocephalus rubinus","L3939315","Medina County US90 Rest Area","2025-05-25 06:57",1,29.313986,-99.385256,TRUE,FALSE,FALSE,"S242359118"
"229","verfly","Vermilion Flycatcher","Pyrocephalus rubinus","L604741","Lajitas (FWTX 37)","2025-05-25 06:40",2,29.2619728,-103.7770593,TRUE,FALSE,FALSE,"S242712685"
"230","verfly","Vermilion Flycatcher","Pyrocephalus rubinus","L11687425","Upper Verde River Wildlife Area","2025-05-25 06:38",1,34.8681514,-112.4028826,TRUE,FALSE,FALSE,"S242545106"
"231","verfly","Vermilion Flycatcher","Pyrocephalus rubinus","L800002","Anthem--Southeast Parkside","2025-05-25 06:37",5,33.8466096,-112.1118844,TRUE,FALSE,TRUE,"S243306746"
"232","verfly","Vermilion Flycatcher","Pyrocephalus rubinus","L28140590","E Calle Alta Vista Yard","2025-05-25 06:35",1,32.2570328,-110.9405462,TRUE,FALSE,TRUE,"S242436380"
"233","verfly","Vermilion Flycatcher","Pyrocephalus rubinus","L40537481","Rancho Sahuarita Abode","2025-05-25 06:33",1,31.985107,-110.971445,TRUE,FALSE,TRUE,"S242420583"
"234","verfly","Vermilion Flycatcher","Pyrocephalus rubinus","L40668030","PGA West (restricted access)","2025-05-25 06:30",1,33.63904,-116.26317,TRUE,FALSE,TRUE,"S242509624"
"235","verfly","Vermilion Flycatcher","Pyrocephalus rubinus","L129095","Sierra Vista EOP","2025-05-25 06:30",1,31.5627101,-110.2027562,TRUE,FALSE,FALSE,"S242578057"
"236","verfly","Vermilion Flycatcher","Pyrocephalus rubinus","L40328636","Thompson Backyard","2025-05-25 06:15",1,32.3750543,-111.0710533,TRUE,FALSE,TRUE,"S242432910"
"237","verfly","Vermilion Flycatcher","Pyrocephalus rubinus","L275689","Patagonia Town Park","2025-05-25 05:45",1,31.5400292,-110.7542655,TRUE,FALSE,FALSE,"S243594126"
"238","verfly","Vermilion Flycatcher","Pyrocephalus rubinus","L3602679","Crystalaire Country Club (private property)","2025-05-25 05:40",1,34.4711394,-117.8460073,TRUE,FALSE,FALSE,"S242728318"
"239","verfly","Vermilion Flycatcher","Pyrocephalus rubinus","L43916891","8200–8202 E Box Canyon Rd, Sonoita US-AZ 31.78123, -110.74151","2025-05-25 05:24",1,31.781231,-110.741512,TRUE,FALSE,TRUE,"S242373596"
"240","verfly","Vermilion Flycatcher","Pyrocephalus rubinus","L1058649","Patagonia--Animal Tracks Trail & Nature Preserve","2025-05-25 05:15",1,31.544345,-110.7563388,TRUE,FALSE,FALSE,"S243593020"
"241","verfly","Vermilion Flycatcher","Pyrocephalus rubinus","L15559321","Villas West","2025-05-25 05:02",1,31.8657175,-110.9982275,TRUE,FALSE,TRUE,"S242378371"
"242","verfly","Vermilion Flycatcher","Pyrocephalus rubinus","L15275731","Game Department Road","2025-05-24 19:04",3,32.7289105,-108.6963043,TRUE,FALSE,TRUE,"S242256951"
"243","verfly","Vermilion Flycatcher","Pyrocephalus rubinus","L20499982","La Reserve","2025-05-24 18:41",1,32.3993947,-110.9446924,TRUE,FALSE,TRUE,"S242255870"
"244","verfly","Vermilion Flycatcher","Pyrocephalus rubinus","L45884492","Comfort Inn","2025-05-24 18:15",1,31.9620272,-110.3485105,TRUE,FALSE,TRUE,"S242242923"
"245","verfly","Vermilion Flycatcher","Pyrocephalus rubinus","L42403093","Agua Caliente Park, Tucson US-AZ 32.28148, -110.73027","2025-05-24 18:05",1,32.281485,-110.730269,TRUE,FALSE,TRUE,"S242251655"
"246","verfly","Vermilion Flycatcher","Pyrocephalus rubinus","L2340469","Carr Canyon Rd--lower paved section","2025-05-24 18:02",3,31.4504765,-110.267639,TRUE,FALSE,FALSE,"S242273346"
"247","verfly","Vermilion Flycatcher","Pyrocephalus rubinus","L354093","Catwalk National Recreation Trail","2025-05-24 17:39",1,33.3736887,-108.8403511,TRUE,FALSE,FALSE,"S242559466"
"248","verfly","Vermilion Flycatcher","Pyrocephalus rubinus","L45891384","6878 S Thorneydale Ln, Hereford US-AZ (31.4439,-110.2457)","2025-05-24 17:02",3,31.443917,-110.245717,TRUE,FALSE,TRUE,"S242274135"
"249","verfly","Vermilion Flycatcher","Pyrocephalus rubinus","L45893558","Ruby Road, Nogales, Arizona, US (31.458, -111.247)","2025-05-24 16:38",4,31.4575844,-111.2474464,TRUE,FALSE,TRUE,"S242284235"
"250","verfly","Vermilion Flycatcher","Pyrocephalus rubinus","L24781096","1186 S Toquerville Blvd, Toquerville US-UT 37.22835, -113.28269","2025-05-24 16:27",2,37.228346,-113.282685,TRUE,FALSE,TRUE,"S242175519"
"251","verfly","Vermilion Flycatcher","Pyrocephalus rubinus","L1052368","Big Bend NP--Daniels Ranch Rd.","2025-05-24 16:15",2,29.1839794,-102.9645274,TRUE,FALSE,FALSE,"S242229003"
"252","verfly","Vermilion Flycatcher","Pyrocephalus rubinus","L45815850","Tucson Medical Center","2025-05-24 15:59",1,32.2528573,-110.879642,TRUE,FALSE,TRUE,"S242191053"
"253","verfly","Vermilion Flycatcher","Pyrocephalus rubinus","L5547006","Gila Bird Area--Pancho Canyon","2025-05-24 15:50",3,32.8475906,-108.592566,TRUE,FALSE,FALSE,"S242558153"
"254","verfly","Vermilion Flycatcher","Pyrocephalus rubinus","L45866570","McCulloch CR112","2025-05-24 15:26",2,31.025623,-99.464025,TRUE,FALSE,TRUE,"S242159144"
"255","verfly","Vermilion Flycatcher","Pyrocephalus rubinus","L45990697","Waterman and 7thSt., San Bern.","2025-05-24 14:35",1,34.1121072,-117.2816028,TRUE,FALSE,TRUE,"S242719681"
"256","verfly","Vermilion Flycatcher","Pyrocephalus rubinus","L865058","Paradise Memorial Gardens","2025-05-24 13:48",2,33.5841106,-111.8805599,TRUE,FALSE,FALSE,"S242670896"
"257","verfly","Vermilion Flycatcher","Pyrocephalus rubinus","L45932033","Autumn Sage winery","2025-05-24 13:22",1,31.661107,-110.589181,TRUE,FALSE,TRUE,"S242471709"
"258","verfly","Vermilion Flycatcher","Pyrocephalus rubinus","L1497396","Palo Verde Ecological Reserve","2025-05-24 13:15",3,33.6997237,-114.4989152,TRUE,FALSE,FALSE,"S242260982"
"259","verfly","Vermilion Flycatcher","Pyrocephalus rubinus","L23558258","273 camino Panama","2025-05-24 13:12",2,31.489506,-110.991979,TRUE,FALSE,TRUE,"S242245817"
"260","verfly","Vermilion Flycatcher","Pyrocephalus rubinus","L798275","Gila River--Virden Bridge NM-92","2025-05-24 12:50",2,32.6559969,-108.9560509,TRUE,FALSE,FALSE,"S242129777"
"261","verfly","Vermilion Flycatcher","Pyrocephalus rubinus","L259855","Estero Llano Grande SP WBC (LTC 054)","2025-05-24 12:35",1,26.1268335,-97.9578167,TRUE,FALSE,FALSE,"S242228564"
"262","verfly","Vermilion Flycatcher","Pyrocephalus rubinus","L45852508","Cottonwood Campground Rd, Terlingua US-TX 29.13703, -103.52347","2025-05-24 12:28",1,29.137032,-103.52347,TRUE,FALSE,TRUE,"S242102987"
"263","verfly","Vermilion Flycatcher","Pyrocephalus rubinus","L2603803","Sierra Blanca Public Park","2025-05-24 12:26",1,31.1784547,-105.3573874,TRUE,FALSE,FALSE,"S242135186"
"264","verfly","Vermilion Flycatcher","Pyrocephalus rubinus","L1327826","Quail Creek Veterans Municipal Park","2025-05-24 12:25",2,31.8966516,-110.9654436,TRUE,FALSE,FALSE,"S242225527"
"265","verfly","Vermilion Flycatcher","Pyrocephalus rubinus","L9344826","RR 189 Val Verde Co.","2025-05-24 12:10",1,30.2710966,-100.964993,TRUE,FALSE,TRUE,"S242187551"
"266","verfly","Vermilion Flycatcher","Pyrocephalus rubinus","L2850381","Box Canyon Rd--little dam","2025-05-24 11:08",2,31.7983343,-110.7779494,TRUE,FALSE,TRUE,"S242184889"
"267","verfly","Vermilion Flycatcher","Pyrocephalus rubinus","L281844","Montosa Canyon--km 1 (culvert area)","2025-05-24 10:59",1,31.6714585,-110.941082,TRUE,FALSE,FALSE,"S242105402"
"268","verfly","Vermilion Flycatcher","Pyrocephalus rubinus","L459816","Santa Fe Dam Rec. Area","2025-05-24 10:53",2,34.1113782,-117.9507637,TRUE,FALSE,FALSE,"S242105011"
"269","verfly","Vermilion Flycatcher","Pyrocephalus rubinus","L894451","Llano River Biological Research Station","2025-05-24 10:46",2,30.4723856,-99.7834969,TRUE,FALSE,FALSE,"S242002780"
"270","verfly","Vermilion Flycatcher","Pyrocephalus rubinus","L128878","Buenos Aires NWR--Arivaca Cienega","2025-05-24 10:24",1,31.5735272,-111.3242853,TRUE,FALSE,FALSE,"S242048360"
"271","verfly","Vermilion Flycatcher","Pyrocephalus rubinus","L31058430","551 N Grange St, Bertram US-TX 30.74812, -98.05174","2025-05-24 10:15",1,30.748124,-98.051736,TRUE,FALSE,TRUE,"S241980835"
"272","verfly","Vermilion Flycatcher","Pyrocephalus rubinus","L11008757","Menard, Texas, US (31.042, -99.707)","2025-05-24 09:58",1,31.0417024,-99.7066399,TRUE,FALSE,TRUE,"S242019489"
"273","verfly","Vermilion Flycatcher","Pyrocephalus rubinus","L45884179","CR-232, Orange Grove","2025-05-24 09:49",1,27.997032,-98.075271,TRUE,FALSE,TRUE,"S242241845"
"274","verfly","Vermilion Flycatcher","Pyrocephalus rubinus","L1040943","Del Rio Springs","2025-05-24 09:40",3,34.8194406,-112.4473,TRUE,FALSE,FALSE,"S242038245"
"275","verfly","Vermilion Flycatcher","Pyrocephalus rubinus","L336009","National Butterfly Center--General & area North of Levee","2025-05-24 09:28",1,26.1796025,-98.3664483,TRUE,FALSE,FALSE,"S241981594"
"276","verfly","Vermilion Flycatcher","Pyrocephalus rubinus","L29061594","2 of 12","2025-05-24 09:05",2,29.8274466,-98.77135,TRUE,FALSE,TRUE,"S241926881"
"277","verfly","Vermilion Flycatcher","Pyrocephalus rubinus","L45876148","Coronado National Forest, Nogales US-AZ (31.4612,-111.2244)","2025-05-24 09:01",1,31.461243,-111.224417,TRUE,FALSE,TRUE,"S242071274"
"278","verfly","Vermilion Flycatcher","Pyrocephalus rubinus","L1008164","Love Creek Preserve (limited access by permission-TNC)","2025-05-24 09:00",1,29.7744493,-99.410525,TRUE,FALSE,FALSE,"S242215780"
"279","verfly","Vermilion Flycatcher","Pyrocephalus rubinus","L1145420","Christoval Hummer House B&B","2025-05-24 09:00",2,31.1669847,-100.4904413,TRUE,FALSE,FALSE,"S242058391"
"280","verfly","Vermilion Flycatcher","Pyrocephalus rubinus","L17501329","2 of 12","2025-05-24 08:56",1,29.827033,-98.775371,TRUE,FALSE,TRUE,"S241921371"
"281","verfly","Vermilion Flycatcher","Pyrocephalus rubinus","L8147608","Ridgecrest--Leroy Jackson Park","2025-05-24 08:41",2,35.6305011,-117.6662158,TRUE,FALSE,FALSE,"S242038822"
"282","verfly","Vermilion Flycatcher","Pyrocephalus rubinus","L9582558","PBAJ-Private","2025-05-24 08:36",1,29.780655,-99.286079,TRUE,FALSE,TRUE,"S241995137"
"283","verfly","Vermilion Flycatcher","Pyrocephalus rubinus","L17008044","635 S Kellond Pl, Tucson US-AZ (32.2129,-110.8496)","2025-05-24 08:35",1,32.212871,-110.849603,TRUE,FALSE,TRUE,"S241983604"
"284","verfly","Vermilion Flycatcher","Pyrocephalus rubinus","L45822119","S Madera Canyon Rd, Green Valley pulloff","2025-05-24 08:22",1,31.764145,-110.887478,TRUE,FALSE,TRUE,"S241980397"
"285","verfly","Vermilion Flycatcher","Pyrocephalus rubinus","L2439998","Desert Breeze Park","2025-05-24 08:14",3,33.312903,-111.9197041,TRUE,FALSE,FALSE,"S242137125"
"286","verfly","Vermilion Flycatcher","Pyrocephalus rubinus","L581690","Luckie Park","2025-05-24 08:08",7,34.1489624,-116.0377264,TRUE,TRUE,FALSE,"S241995767"
"287","verfly","Vermilion Flycatcher","Pyrocephalus rubinus","L25521349","Tank near turn off to Sycamore Canyon","2025-05-24 08:04",1,31.800609,-110.768327,TRUE,FALSE,TRUE,"S242009114"
"288","verfly","Vermilion Flycatcher","Pyrocephalus rubinus","L31911665","Research Ranch Rd, Elgin US-AZ 31.59515, -110.49369","2025-05-24 08:03",1,31.595153,-110.493686,TRUE,FALSE,TRUE,"S241965070"
"289","verfly","Vermilion Flycatcher","Pyrocephalus rubinus","L109451","Huntington Central Park","2025-05-24 08:01",2,33.7010644,-118.006382,TRUE,FALSE,FALSE,"S242052812"
"290","verfly","Vermilion Flycatcher","Pyrocephalus rubinus","L732299","Hansen Dam","2025-05-24 07:58",1,34.2670624,-118.385067,TRUE,FALSE,FALSE,"S242064344"
"291","verfly","Vermilion Flycatcher","Pyrocephalus rubinus","L190925","Salt River--Coon Bluff Recreation Area","2025-05-24 07:54",4,33.5471399,-111.6454576,TRUE,FALSE,FALSE,"S242056241"
"292","verfly","Vermilion Flycatcher","Pyrocephalus rubinus","L17500163","7 of 12","2025-05-24 07:51",1,29.888198,-98.819669,TRUE,FALSE,TRUE,"S241884708"
"293","verfly","Vermilion Flycatcher","Pyrocephalus rubinus","L15092145","Huntington Central Park--East","2025-05-24 07:50",6,33.704098,-118.002238,TRUE,TRUE,TRUE,"S242258635"
"294","verfly","Vermilion Flycatcher","Pyrocephalus rubinus","L45835886","Private Property north of 1431-CR 343 intersection","2025-05-24 07:40",1,30.5675512,-98.1724371,TRUE,FALSE,TRUE,"S242040548"
"295","verfly","Vermilion Flycatcher","Pyrocephalus rubinus","L38881457","Mystic shores Rec Area","2025-05-24 07:40",2,29.915282,-98.305168,TRUE,FALSE,TRUE,"S242022235"
"296","verfly","Vermilion Flycatcher","Pyrocephalus rubinus","L17501015","5 of 12","2025-05-24 07:37",1,29.887549,-98.814795,TRUE,FALSE,TRUE,"S241874373"
"297","verfly","Vermilion Flycatcher","Pyrocephalus rubinus","L269204","Huachuca Canyon","2025-05-24 07:31",NA,31.5313995,-110.3805093,TRUE,FALSE,FALSE,"S242173365"
"298","verfly","Vermilion Flycatcher","Pyrocephalus rubinus","L6515666","Hershey Ranch (private)","2025-05-24 07:30",1,30.201001,-98.6408329,TRUE,FALSE,FALSE,"S242601526"
"299","verfly","Vermilion Flycatcher","Pyrocephalus rubinus","L45798484","SH-166, Fort Davis US-TX 30.53516, -104.15727","2025-05-24 07:30",1,30.535162,-104.157274,TRUE,FALSE,TRUE,"S241868081"
"300","verfly","Vermilion Flycatcher","Pyrocephalus rubinus","L370788","Quail Creek Country Club","2025-05-24 07:28",2,31.8886356,-110.9454346,TRUE,FALSE,FALSE,"S242126381"
"301","verfly","Vermilion Flycatcher","Pyrocephalus rubinus","L19025032","Coon Bluff","2025-05-24 07:20",7,33.547207,-111.6463816,TRUE,FALSE,TRUE,"S243030167"
"302","verfly","Vermilion Flycatcher","Pyrocephalus rubinus","L10846888","Scottsdale--Mountain View Park","2025-05-24 07:19",2,33.5709717,-111.8966129,TRUE,FALSE,FALSE,"S242020987"
"303","verfly","Vermilion Flycatcher","Pyrocephalus rubinus","L38013029","3381 North Fork River Court, Tucson, Arizona, US (32.268, -111.052)","2025-05-24 07:15",2,32.268494,-111.0519264,TRUE,FALSE,TRUE,"S241973688"
"304","verfly","Vermilion Flycatcher","Pyrocephalus rubinus","L2805298","US-AZ-Tucson-Hidden Valley HOA","2025-05-24 07:11",2,32.2950776,-110.8203042,TRUE,FALSE,TRUE,"S241997974"
"305","verfly","Vermilion Flycatcher","Pyrocephalus rubinus","L129077","San Bernardino NWR","2025-05-24 07:10",3,31.3558004,-109.261533,TRUE,FALSE,FALSE,"S242100725"
"306","verfly","Vermilion Flycatcher","Pyrocephalus rubinus","L2954201","Las Cienegas NCA--Cottonwood Tanks","2025-05-24 07:09",3,31.761537,-110.6195044,TRUE,FALSE,FALSE,"S242030531"
"307","verfly","Vermilion Flycatcher","Pyrocephalus rubinus","L45819575","Dove Mountain","2025-05-24 07:03",1,32.471647,-111.09511,TRUE,FALSE,TRUE,"S241969359"
"308","verfly","Vermilion Flycatcher","Pyrocephalus rubinus","L4561883","Montesino Ranch","2025-05-24 07:02",1,29.9837934,-98.0519271,TRUE,FALSE,TRUE,"S242006923"
"309","verfly","Vermilion Flycatcher","Pyrocephalus rubinus","L717998","Balcones Canyonlands NWR--Doeskin Ranch","2025-05-24 07:00",1,30.6190048,-98.0728912,TRUE,FALSE,FALSE,"S241988514"
"310","verfly","Vermilion Flycatcher","Pyrocephalus rubinus","L815817","Frank G. Bonelli RP/Puddingstone Reservoir and vicinity","2025-05-24 06:52",2,34.0870104,-117.8050125,TRUE,FALSE,FALSE,"S242086919"
"311","verfly","Vermilion Flycatcher","Pyrocephalus rubinus","L15290326","6530 N Calle Lottie, Tucson US-AZ 32.32574, -110.95568","2025-05-24 06:50",2,32.325742,-110.955681,TRUE,FALSE,TRUE,"S242087053"
"312","verfly","Vermilion Flycatcher","Pyrocephalus rubinus","L45893494","Ruby Road, Nogales, Arizona, US (31.467, -111.213)","2025-05-24 06:43",1,31.4674822,-111.2126752,TRUE,FALSE,TRUE,"S242283969"
"313","verfly","Vermilion Flycatcher","Pyrocephalus rubinus","L463371","Gila Lower Box Canyon","2025-05-24 06:39",5,32.632942,-108.8611221,TRUE,FALSE,FALSE,"S241924518"
"314","verfly","Vermilion Flycatcher","Pyrocephalus rubinus","L45947008","5890 US-377, Rocksprings US-TX 30.00708, -100.29626","2025-05-24 06:36",1,30.007077,-100.296261,TRUE,FALSE,TRUE,"S242536560"
"315","verfly","Vermilion Flycatcher","Pyrocephalus rubinus","L250958","Lakeside Park","2025-05-24 06:35",10,32.1861206,-110.8162263,TRUE,FALSE,FALSE,"S241982697"
"316","verfly","Vermilion Flycatcher","Pyrocephalus rubinus","L17349225","Voyager RV Resort pond (view from road)","2025-05-24 06:31",2,32.0901235,-110.8296376,TRUE,FALSE,FALSE,"S241970051"
"317","verfly","Vermilion Flycatcher","Pyrocephalus rubinus","L45821924","16600 N Lago del Oro Pkwy, Tucson US-AZ 32.50648, -110.88628","2025-05-24 06:28",1,32.506479,-110.886278,TRUE,FALSE,TRUE,"S241979623"
"318","verfly","Vermilion Flycatcher","Pyrocephalus rubinus","L43736683","W Calle Paraiso","2025-05-24 06:26",NA,32.216744,-111.0234077,TRUE,FALSE,TRUE,"S241943234"
"319","verfly","Vermilion Flycatcher","Pyrocephalus rubinus","L45893468","Ruby Road, Nogales, Arizona, US (31.48, -111.277)","2025-05-24 06:22",1,31.4799332,-111.2770103,TRUE,FALSE,TRUE,"S242283828"
"320","verfly","Vermilion Flycatcher","Pyrocephalus rubinus","L39226925","CBJB Home","2025-05-24 06:20",2,31.4270693,-110.2484136,TRUE,FALSE,TRUE,"S241911239"
"321","verfly","Vermilion Flycatcher","Pyrocephalus rubinus","L29474178","5000 E Via Estancia Miraval, Tucson US-AZ 32.50775, -110.88476","2025-05-24 06:13",1,32.507755,-110.884758,TRUE,FALSE,TRUE,"S241951270"
"322","verfly","Vermilion Flycatcher","Pyrocephalus rubinus","L45816918","Duval Co.: County Roads between Realitos and Ramirez","2025-05-24 06:03",4,27.413144,-98.522418,TRUE,FALSE,TRUE,"S241957195"
"323","verfly","Vermilion Flycatcher","Pyrocephalus rubinus","L40262994","Ditch Road, Arizona, US (33.05, -109.958)Home","2025-05-24 06:00",NA,33.0500304,-109.9583806,TRUE,FALSE,TRUE,"S241912808"
"324","verfly","Vermilion Flycatcher","Pyrocephalus rubinus","L875490","Hillsboro (town)","2025-05-24 05:55",1,32.9207363,-107.5675249,TRUE,FALSE,FALSE,"S241951320"
"325","verfly","Vermilion Flycatcher","Pyrocephalus rubinus","L46073525","W Camp Wood Rd, Prescott US-AZ 34.79034, -112.96266","2025-05-24 05:36",1,34.79034,-112.962661,TRUE,FALSE,TRUE,"S243128697"
"326","verfly","Vermilion Flycatcher","Pyrocephalus rubinus","L13310214","Tucson, Arizona, US (32.236, -110.849)","2025-05-24 05:30",2,32.2355128,-110.8494133,TRUE,FALSE,TRUE,"S241896075"
"327","verfly","Vermilion Flycatcher","Pyrocephalus rubinus","L5044127","Green Valley yard","2025-05-24 04:56",1,31.8196182,-111.0124657,TRUE,FALSE,TRUE,"S242177116"
"328","verfly","Vermilion Flycatcher","Pyrocephalus rubinus","L45769241","Hansen Damn Ranger Station","2025-05-23 17:31",1,34.269168,-118.396613,TRUE,FALSE,TRUE,"S241737146"
"329","verfly","Vermilion Flycatcher","Pyrocephalus rubinus","L2108079","Edwards Co.--CR353 / Pulliam Creek","2025-05-23 17:24",2,29.7202593,-100.0765228,TRUE,FALSE,FALSE,"S241715846"
"330","verfly","Vermilion Flycatcher","Pyrocephalus rubinus","L652607","Texas Canyon Rest Area","2025-05-23 17:18",1,32.0601277,-110.0772732,TRUE,FALSE,FALSE,"S241734020"
"331","verfly","Vermilion Flycatcher","Pyrocephalus rubinus","L18133374","Fort Lowell Rd LDS church","2025-05-23 17:12",1,32.264846,-110.912435,TRUE,FALSE,TRUE,"S241728679"
"332","verfly","Vermilion Flycatcher","Pyrocephalus rubinus","L44194134","1528 E Allen Rd, Tucson US-AZ 32.27564, -110.94910","2025-05-23 17:09",1,32.275639,-110.949097,TRUE,FALSE,TRUE,"S241731053"
"333","verfly","Vermilion Flycatcher","Pyrocephalus rubinus","L45759337","61–167 Harshaw Creek Rd, Patagonia US-AZ 31.51508, -110.69285","2025-05-23 17:04",1,31.515078,-110.692853,TRUE,FALSE,TRUE,"S241742742"
"334","verfly","Vermilion Flycatcher","Pyrocephalus rubinus","L40082790","Verde Ranch","2025-05-23 16:59",2,33.7421633,-111.6633892,TRUE,FALSE,TRUE,"S242235786"
"335","verfly","Vermilion Flycatcher","Pyrocephalus rubinus","L853551","Morris K. Udall Park","2025-05-23 16:24",4,32.2477242,-110.8366013,TRUE,FALSE,FALSE,"S241719573"
"336","verfly","Vermilion Flycatcher","Pyrocephalus rubinus","L823940","Calabasas Park","2025-05-23 14:54",1,31.4300089,-110.9190524,TRUE,FALSE,FALSE,"S241698071"
"337","verfly","Vermilion Flycatcher","Pyrocephalus rubinus","L45759086","Tempe Sports Complex, Tempe","2025-05-23 14:26",1,33.341464,-111.95142,TRUE,FALSE,TRUE,"S241689420"
"338","verfly","Vermilion Flycatcher","Pyrocephalus rubinus","L6475158","Farm Roads 2185 & 2809 pecan orchards","2025-05-23 14:18",1,31.1135083,-104.7096732,TRUE,FALSE,TRUE,"S241665958"
"339","verfly","Vermilion Flycatcher","Pyrocephalus rubinus","L18175768","Bar K Park Lago Vista (limited access)","2025-05-23 14:05",3,30.4665526,-97.9966934,TRUE,FALSE,FALSE,"S241675308"
"340","verfly","Vermilion Flycatcher","Pyrocephalus rubinus","L662856","Grafton","2025-05-23 13:27",2,37.1674814,-113.081975,TRUE,FALSE,FALSE,"S241655670"
"341","verfly","Vermilion Flycatcher","Pyrocephalus rubinus","L3857013","Reagan North County Park","2025-05-23 13:13",2,31.2024659,-101.4553452,TRUE,FALSE,FALSE,"S241627346"
"342","verfly","Vermilion Flycatcher","Pyrocephalus rubinus","L129089","Scotia Canyon--upper","2025-05-23 12:34",1,31.45,-110.4,TRUE,FALSE,FALSE,"S242149698"
"343","verfly","Vermilion Flycatcher","Pyrocephalus rubinus","L1273092","Ayala Park","2025-05-23 12:11",1,33.9965039,-117.6807296,TRUE,FALSE,FALSE,"S241646138"
"344","verfly","Vermilion Flycatcher","Pyrocephalus rubinus","L13739882","San Pedro Riparian National Conservation Area, Hereford US-AZ 31.41482, -110.10585","2025-05-23 11:40",5,31.414824,-110.105846,TRUE,FALSE,TRUE,"S241630272"
"345","verfly","Vermilion Flycatcher","Pyrocephalus rubinus","L30946305","Boomer Road","2025-05-23 11:06",1,35.0950339,-106.0588791,TRUE,TRUE,TRUE,"S241610195"
"346","verfly","Vermilion Flycatcher","Pyrocephalus rubinus","L5142106","Griffith Park (Claremont)","2025-05-23 10:40",1,34.1169527,-117.7392359,TRUE,FALSE,FALSE,"S241641193"
"347","verfly","Vermilion Flycatcher","Pyrocephalus rubinus","L17513797","7547 Pimlico Ln, Fair Oaks Ranch US-TX 29.71998, -98.63164, LEGO, Grid 20883, Site 10/12","2025-05-23 10:39",1,29.719982,-98.631642,TRUE,FALSE,TRUE,"S241565208"
"348","verfly","Vermilion Flycatcher","Pyrocephalus rubinus","L770231","Spirit Tree Inn","2025-05-23 10:32",4,31.5222174,-110.7036267,TRUE,FALSE,FALSE,"S242183829"
"349","verfly","Vermilion Flycatcher","Pyrocephalus rubinus","L28032877","2939 East Huber Street, Mesa, Arizona, US (33.44, -111.768)","2025-05-23 10:07",1,33.4403144,-111.7677094,TRUE,FALSE,TRUE,"S241643492"
"350","verfly","Vermilion Flycatcher","Pyrocephalus rubinus","L961707","Rohr Park","2025-05-23 09:57",2,32.6651739,-117.0327925,TRUE,FALSE,FALSE,"S241628694"
"351","verfly","Vermilion Flycatcher","Pyrocephalus rubinus","L152149","Bette Davis Picnic Area","2025-05-23 09:45",1,34.1576843,-118.2978616,TRUE,FALSE,FALSE,"S242121296"
"352","verfly","Vermilion Flycatcher","Pyrocephalus rubinus","L1282897","Big Bend NP--Rio Grande Village Nature Trail","2025-05-23 09:26",1,29.1782435,-102.9531759,TRUE,FALSE,FALSE,"S241587068"
"353","verfly","Vermilion Flycatcher","Pyrocephalus rubinus","L972033","Pinery Canyon Rd. (grasslands section only)","2025-05-23 09:24",1,31.9888595,-109.3770504,TRUE,FALSE,FALSE,"S241724272"
"354","verfly","Vermilion Flycatcher","Pyrocephalus rubinus","L2029427","Santa Cruz River--El Camino Del Cerro","2025-05-23 09:21",1,32.294242,-111.038222,TRUE,FALSE,FALSE,"S241627837"
"355","verfly","Vermilion Flycatcher","Pyrocephalus rubinus","L21976076","Soldier's Creek Park","2025-05-23 08:26",2,31.5618989,-110.3065109,TRUE,FALSE,FALSE,"S241578032"
"356","verfly","Vermilion Flycatcher","Pyrocephalus rubinus","L506275","San Diego River mudflats (including Robb Field & north side)","2025-05-23 08:25",1,32.7568803,-117.2401432,TRUE,FALSE,FALSE,"S241579086"
"357","verfly","Vermilion Flycatcher","Pyrocephalus rubinus","L29583863","Tempe Sports Complex, Tempe US-AZ 33.34147, -111.95136","2025-05-23 08:25",8,33.341465,-111.951362,TRUE,FALSE,TRUE,"S241586238"
"358","verfly","Vermilion Flycatcher","Pyrocephalus rubinus","L334455","Gila River Preserve--Gila River Farm","2025-05-23 08:16",1,33.0156539,-108.5531616,TRUE,FALSE,FALSE,"S241692434"
"359","verfly","Vermilion Flycatcher","Pyrocephalus rubinus","L384807","Prado Regional Park","2025-05-23 08:12",2,33.9463861,-117.6506138,TRUE,FALSE,FALSE,"S241593819"
"360","verfly","Vermilion Flycatcher","Pyrocephalus rubinus","L3717605","2410 E Adams St","2025-05-23 08:10",1,32.240544,-110.9362829,TRUE,FALSE,TRUE,"S242637307"
"361","verfly","Vermilion Flycatcher","Pyrocephalus rubinus","L40945283","Shoshone Park","2025-05-23 08:08",1,33.5433586,-111.9034424,TRUE,FALSE,FALSE,"S241632835"
"362","verfly","Vermilion Flycatcher","Pyrocephalus rubinus","L45734006","Las Cienegas National Conservation Area, Sonoita US-AZ 31.73959, -110.58212","2025-05-23 07:50",2,31.739586,-110.582125,TRUE,FALSE,TRUE,"S241579071"
"363","verfly","Vermilion Flycatcher","Pyrocephalus rubinus","L474140","Anza Trail--Rio Rico (Guy Tobin Trailhead)","2025-05-23 07:47",1,31.4679656,-110.9918475,TRUE,FALSE,FALSE,"S241563172"
"364","verfly","Vermilion Flycatcher","Pyrocephalus rubinus","L387148","Mojave Narrows Regional Park","2025-05-23 07:42",2,34.5129928,-117.2708559,TRUE,FALSE,FALSE,"S242031569"
"365","verfly","Vermilion Flycatcher","Pyrocephalus rubinus","L266622","Red Rock SP","2025-05-23 07:35",2,34.8117069,-111.8288603,TRUE,FALSE,FALSE,"S241614551"
"366","verfly","Vermilion Flycatcher","Pyrocephalus rubinus","L7698893","Rancho Santa Cruz","2025-05-23 07:24",6,31.5437758,-111.0414027,TRUE,FALSE,FALSE,"S241652438"
"367","verfly","Vermilion Flycatcher","Pyrocephalus rubinus","L2882805","Black Gap WMA--FM2627","2025-05-23 07:15",1,29.4523039,-102.8255081,TRUE,FALSE,FALSE,"S241512737"
"368","verfly","Vermilion Flycatcher","Pyrocephalus rubinus","L507911","King Ranch--Norias Division (Kenedy Co.)","2025-05-23 07:15",4,26.7876524,-97.7707243,TRUE,FALSE,FALSE,"S241569238"
"369","verfly","Vermilion Flycatcher","Pyrocephalus rubinus","L18610878","840 North Solar Drive, Vail, Arizona, US (31.979, -110.715)","2025-05-23 07:11",1,31.9791248,-110.7146146,TRUE,FALSE,TRUE,"S241554820"
"370","verfly","Vermilion Flycatcher","Pyrocephalus rubinus","L45744143","Moon Valley Park, Phoenix US-AZ 33.62854, -112.08040","2025-05-23 06:56",2,33.628544,-112.080401,TRUE,FALSE,TRUE,"S241623071"
"371","verfly","Vermilion Flycatcher","Pyrocephalus rubinus","L1037685","Tanque Verde Wash--Tanque Verde Loop Rd.","2025-05-23 06:55",7,32.2412452,-110.7554054,TRUE,FALSE,FALSE,"S241556934"
"372","verfly","Vermilion Flycatcher","Pyrocephalus rubinus","L758087","Miller Canyon--lower (below Beatty's)","2025-05-23 06:54",1,31.4228039,-110.2644539,TRUE,FALSE,FALSE,"S241551288"
"373","verfly","Vermilion Flycatcher","Pyrocephalus rubinus","L21936264","Carly's Mom's House","2025-05-23 06:48",1,32.1779132,-110.7821888,TRUE,FALSE,TRUE,"S241551034"
"374","verfly","Vermilion Flycatcher","Pyrocephalus rubinus","L2848671","La Cebadilla IBA (TV wash and cienega)","2025-05-23 06:43",1,32.2459111,-110.6875873,TRUE,FALSE,TRUE,"S241553372"
"375","verfly","Vermilion Flycatcher","Pyrocephalus rubinus","L897691","Silverlake Park","2025-05-23 06:42",11,32.1959373,-110.949957,TRUE,FALSE,FALSE,"S241570896"
"376","verfly","Vermilion Flycatcher","Pyrocephalus rubinus","L375967","Madera Canyon--Pima Co.","2025-05-23 06:30",2,31.7310142,-110.881319,TRUE,FALSE,FALSE,"S241677552"
"377","verfly","Vermilion Flycatcher","Pyrocephalus rubinus","L17512069","Canoa Hills Trails Park","2025-05-23 06:24",1,31.8215076,-111.0156773,TRUE,FALSE,FALSE,"S241532604"
"378","verfly","Vermilion Flycatcher","Pyrocephalus rubinus","L2438871","Sahuarita--North Santa Cruz Park","2025-05-23 06:20",3,31.9873804,-110.9630556,TRUE,FALSE,FALSE,"S241690418"
"379","verfly","Vermilion Flycatcher","Pyrocephalus rubinus","L1151548","Naranja Town Park","2025-05-23 06:16",1,32.4124291,-110.9840584,TRUE,FALSE,FALSE,"S241540147"
"380","verfly","Vermilion Flycatcher","Pyrocephalus rubinus","L35172208","PGA West (restricted access)","2025-05-23 06:00",1,33.6321045,-116.2693189,TRUE,FALSE,TRUE,"S241617177"
"381","verfly","Vermilion Flycatcher","Pyrocephalus rubinus","L45692572","26560 S Old Sonoita Hwy, Sonoita US-AZ 31.77466, -110.69999","2025-05-23 05:53",2,31.774662,-110.699989,TRUE,FALSE,TRUE,"S241517149"
"382","verfly","Vermilion Flycatcher","Pyrocephalus rubinus","L15894771","Gila River: start is 0.7 miles W of SW corner of tailings pile","2025-05-23 05:00",2,33.0065837,-110.8314175,TRUE,FALSE,TRUE,"S242083479"
"383","verfly","Vermilion Flycatcher","Pyrocephalus rubinus","L4553933","Big Sandy River at S-curves","2025-05-23 04:52",2,34.604175,-113.567681,TRUE,FALSE,TRUE,"S241637303"
"384","verfly","Vermilion Flycatcher","Pyrocephalus rubinus","L45691847","Virgin","2025-05-22 20:31",1,37.198357,-113.191612,TRUE,FALSE,TRUE,"S241398659"
"385","verfly","Vermilion Flycatcher","Pyrocephalus rubinus","L45697077","Auto selected 32.11862, -111.11292","2025-05-22 19:12",1,32.118619,-111.112917,TRUE,FALSE,TRUE,"S241394309"
"386","verfly","Vermilion Flycatcher","Pyrocephalus rubinus","L43884487","East Thimble View Way, Tucson, Arizona, US (Private Gated Access)","2025-05-22 19:00",1,32.326043,-110.8350001,TRUE,FALSE,TRUE,"S241591725"
"387","verfly","Vermilion Flycatcher","Pyrocephalus rubinus","L4432317","Palm Desert--Ironwood Park","2025-05-22 18:14",2,33.7007609,-116.3860863,TRUE,FALSE,FALSE,"S241389817"
"388","verfly","Vermilion Flycatcher","Pyrocephalus rubinus","L7409563","Kickapoo Cavern SP--Entrance area  (Edwards Co.)","2025-05-22 17:58",1,29.6299005,-100.4212189,TRUE,FALSE,FALSE,"S241400683"
"389","verfly","Vermilion Flycatcher","Pyrocephalus rubinus","L45698561","4194–4286 RM-674, Brackettville US-TX 29.38118, -100.41432","2025-05-22 17:01",1,29.381184,-100.414315,TRUE,FALSE,TRUE,"S241401035"
"390","verfly","Vermilion Flycatcher","Pyrocephalus rubinus","L12610173","Fort Cavazos--Cantonment (Coryell Co.)(Limited access)","2025-05-22 16:42",2,31.1497375,-97.7846876,TRUE,FALSE,FALSE,"S241336023"
"391","verfly","Vermilion Flycatcher","Pyrocephalus rubinus","L45757365","2548 E Medina Rd, Tucson US-AZ 32.13022, -110.93319","2025-05-22 16:41",6,32.130218,-110.933187,TRUE,FALSE,TRUE,"S241681594"
"392","verfly","Vermilion Flycatcher","Pyrocephalus rubinus","L1546530","Brown Canyon Ranch (opened 2011)","2025-05-22 15:32",1,31.4740051,-110.2977887,TRUE,FALSE,FALSE,"S242034222"
"393","verfly","Vermilion Flycatcher","Pyrocephalus rubinus","L19808077","5701 East Glenn Street, Tucson Arizona, US (32.259, -110.87) 136","2025-05-22 15:15",1,32.258968,-110.8698603,TRUE,FALSE,TRUE,"S241359116"
"394","verfly","Vermilion Flycatcher","Pyrocephalus rubinus","L8034096","Mesa Tierra number three subdivision water retention basin","2025-05-22 14:10",2,33.3818613,-111.7858774,TRUE,FALSE,TRUE,"S242163039"
"395","verfly","Vermilion Flycatcher","Pyrocephalus rubinus","L36115993","Arizona Christian University","2025-05-22 13:20",4,33.6222406,-112.1818782,TRUE,FALSE,TRUE,"S241335098"
"396","verfly","Vermilion Flycatcher","Pyrocephalus rubinus","L129004","Kino Springs","2025-05-22 12:51",1,31.3769,-110.8543,TRUE,FALSE,FALSE,"S241316089"
"397","verfly","Vermilion Flycatcher","Pyrocephalus rubinus","L1742914","Devil's River SNA—Del Norte Unit—River Access N. of Dolan Falls","2025-05-22 12:08",1,29.8961309,-100.9958791,TRUE,FALSE,FALSE,"S241539803"
"398","verfly","Vermilion Flycatcher","Pyrocephalus rubinus","L45681125","E Empire Ranch Rd, Sonoita US-AZ 31.77129, -110.65412","2025-05-22 12:04",1,31.771289,-110.654119,TRUE,FALSE,TRUE,"S241315560"
"399","verfly","Vermilion Flycatcher","Pyrocephalus rubinus","L7415154","Besh Ba Gowah Archaeological Park and Museum","2025-05-22 11:35",2,33.3811249,-110.7735372,TRUE,FALSE,FALSE,"S241384597"
"400","verfly","Vermilion Flycatcher","Pyrocephalus rubinus","L42084268","Tim’s Honey Hole","2025-05-22 11:05",1,30.676323,-101.797547,TRUE,FALSE,TRUE,"S241243112"
"401","verfly","Vermilion Flycatcher","Pyrocephalus rubinus","L1583240","Huachuca Canyon--lower picnic area","2025-05-22 10:32",3,31.5411676,-110.3741764,TRUE,FALSE,FALSE,"S241283007"
"402","verfly","Vermilion Flycatcher","Pyrocephalus rubinus","L1462617","Catalina Foothills High School/Sky Club Wash","2025-05-22 10:21",2,32.3068431,-110.9014834,TRUE,FALSE,TRUE,"S241267915"
"403","verfly","Vermilion Flycatcher","Pyrocephalus rubinus","L4650092","Pecos Co.--I-10 westbound rest area near US190","2025-05-22 10:15",1,30.855983,-102.0699241,TRUE,FALSE,FALSE,"S241229512"
"404","verfly","Vermilion Flycatcher","Pyrocephalus rubinus","L1004595","Box Bar Recreation Site","2025-05-22 10:04",1,33.743719,-111.6602969,TRUE,FALSE,FALSE,"S241721446"
"405","verfly","Vermilion Flycatcher","Pyrocephalus rubinus","L1627416","Rancho Vistoso--Wildlife Ridge Park","2025-05-22 09:32",1,32.4288477,-110.9701076,TRUE,FALSE,FALSE,"S241262298"
"406","verfly","Vermilion Flycatcher","Pyrocephalus rubinus","L45287853","Sweetwater Wetlands Park, Tucson US-AZ 32.27950, -111.02218","2025-05-22 09:28",3,32.279504,-111.022177,TRUE,FALSE,TRUE,"S241592374"
"407","verfly","Vermilion Flycatcher","Pyrocephalus rubinus","L12780578","Rancho Vistoso--Sunset Park","2025-05-22 09:17",1,32.4448693,-110.9772549,TRUE,FALSE,FALSE,"S241248596"
"408","verfly","Vermilion Flycatcher","Pyrocephalus rubinus","L5605766","Point Venture Park","2025-05-22 09:15",1,30.3803309,-98.0098625,TRUE,FALSE,FALSE,"S241274070"
"409","verfly","Vermilion Flycatcher","Pyrocephalus rubinus","L3867376","TX118 rest area, 7 mi. SE of Fort Davis","2025-05-22 09:12",1,30.5276479,-103.8233033,TRUE,FALSE,FALSE,"S241234669"
"410","verfly","Vermilion Flycatcher","Pyrocephalus rubinus","L2714898","The Jail Trail","2025-05-22 09:00",1,34.7496668,-112.0269971,TRUE,FALSE,FALSE,"S241251932"
"411","verfly","Vermilion Flycatcher","Pyrocephalus rubinus","L42311661","Bonsall Community Park","2025-05-22 08:44",5,33.292371,-117.217674,TRUE,FALSE,TRUE,"S241311366"
"412","verfly","Vermilion Flycatcher","Pyrocephalus rubinus","L45664874","El Sauz BBS Route","2025-05-22 08:22",1,26.573871,-98.871442,TRUE,FALSE,TRUE,"S241240681"
"413","verfly","Vermilion Flycatcher","Pyrocephalus rubinus","L45667314","Tumacácori National Historical Park, Carmen US-AZ (31.5694,-111.0489)","2025-05-22 08:12",5,31.569389,-111.04889,TRUE,FALSE,TRUE,"S241251881"
"414","verfly","Vermilion Flycatcher","Pyrocephalus rubinus","L45661596","Ingram City Park, Ingram US-TX (30.0727,-99.2352)","2025-05-22 08:08",1,30.07272,-99.235224,TRUE,FALSE,TRUE,"S241225481"
"415","verfly","Vermilion Flycatcher","Pyrocephalus rubinus","L746272","Randolph GC/Hardesty Building","2025-05-22 08:08",2,32.2085164,-110.9111881,TRUE,FALSE,FALSE,"S241258163"
"416","verfly","Vermilion Flycatcher","Pyrocephalus rubinus","L45680429","Down Under Tank","2025-05-22 08:02",1,31.519114,-110.597219,TRUE,FALSE,TRUE,"S241312369"
"417","verfly","Vermilion Flycatcher","Pyrocephalus rubinus","L45687057","Deer Lease","2025-05-22 08:00",1,30.2893934,-99.7504419,TRUE,FALSE,TRUE,"S241344854"
"418","verfly","Vermilion Flycatcher","Pyrocephalus rubinus","L43194594","Conrad Ranch","2025-05-22 07:58",4,33.939207,-106.845989,TRUE,FALSE,TRUE,"S241234276"
"419","verfly","Vermilion Flycatcher","Pyrocephalus rubinus","L762169","Himmel Park","2025-05-22 07:54",6,32.2334226,-110.9327316,TRUE,FALSE,FALSE,"S241252108"
"420","verfly","Vermilion Flycatcher","Pyrocephalus rubinus","L455649","Glen Helen Regional Park","2025-05-22 07:47",1,34.204704,-117.4057388,TRUE,FALSE,FALSE,"S241253817"
"421","verfly","Vermilion Flycatcher","Pyrocephalus rubinus","L605440","El Dorado Regional Park--Area 2","2025-05-22 07:43",2,33.8162368,-118.0860329,TRUE,FALSE,FALSE,"S241238279"
"422","verfly","Vermilion Flycatcher","Pyrocephalus rubinus","L939835","Brackett Field Airport and Surrounding Area","2025-05-22 07:40",1,34.0914718,-117.7843353,TRUE,FALSE,FALSE,"S241253923"
"423","verfly","Vermilion Flycatcher","Pyrocephalus rubinus","L6175589","Market House","2025-05-22 07:37",1,31.603425,-111.046801,TRUE,FALSE,TRUE,"S241973181"
"424","verfly","Vermilion Flycatcher","Pyrocephalus rubinus","L32379214","House of Payne","2025-05-22 07:36",1,32.261308,-111.017658,TRUE,FALSE,TRUE,"S241240867"
"425","verfly","Vermilion Flycatcher","Pyrocephalus rubinus","L28585100","Nick's Bird Hole","2025-05-22 07:29",NA,32.2751092,-111.0520077,TRUE,FALSE,TRUE,"S241222534"
"426","verfly","Vermilion Flycatcher","Pyrocephalus rubinus","L898742","Bosque del Apache NWR--Seasonal Tour Road (closed Oct. 1 - Mar. 31)","2025-05-22 07:20",3,33.8071442,-106.8775535,TRUE,FALSE,FALSE,"S241226013"
"427","verfly","Vermilion Flycatcher","Pyrocephalus rubinus","L3883499","Bonsall--old golf course","2025-05-22 07:07",6,33.2841676,-117.221959,TRUE,FALSE,FALSE,"S241296901"
"428","verfly","Vermilion Flycatcher","Pyrocephalus rubinus","L9604728","Miller Canyon Rd--paved/residential portion","2025-05-22 07:03",1,31.4278999,-110.2460731,TRUE,FALSE,FALSE,"S241292338"
"429","verfly","Vermilion Flycatcher","Pyrocephalus rubinus","L20328972","Prescott Preserve (includes former Mesquite and Bel Air Greens golf courses)","2025-05-22 07:01",3,33.8112785,-116.5199619,TRUE,FALSE,FALSE,"S241271165"
"430","verfly","Vermilion Flycatcher","Pyrocephalus rubinus","L7328745","Ft Huachuca Post Cemetery","2025-05-22 06:28",5,31.548048,-110.377364,TRUE,FALSE,FALSE,"S241246095"
"431","verfly","Vermilion Flycatcher","Pyrocephalus rubinus","L2456219","Oro Valley Marketplace--Big Wash Trail","2025-05-22 06:10",1,32.4234611,-110.9414998,TRUE,FALSE,FALSE,"S242737500"
"432","verfly","Vermilion Flycatcher","Pyrocephalus rubinus","L2893818","Carr House Info Center (only, not all of Carr Canyon)","2025-05-22 05:45",1,31.4409275,-110.2862529,TRUE,FALSE,FALSE,"S241372824"
"433","verfly","Vermilion Flycatcher","Pyrocephalus rubinus","L40359306","Del Lago Golf Club, Vail US-AZ 32.05464, -110.69509","2025-05-22 05:29",1,32.054643,-110.695088,TRUE,FALSE,TRUE,"S241233053"
"434","verfly","Vermilion Flycatcher","Pyrocephalus rubinus","L45685043","Big Sandy River at Madril Wash","2025-05-22 04:48",2,34.439984,-113.610012,TRUE,FALSE,TRUE,"S241342908"
"435","verfly","Vermilion Flycatcher","Pyrocephalus rubinus","L20329824","Oro Valley Home (private)","2025-05-22 04:23",1,32.4330004,-110.9912966,TRUE,FALSE,TRUE,"S241360259"
"436","verfly","Vermilion Flycatcher","Pyrocephalus rubinus","L128907","Big Bend NP--Rio Grande Village (FWTX 44)","2025-05-21 19:16",1,29.1809226,-102.9557133,TRUE,FALSE,FALSE,"S241098256"
"437","verfly","Vermilion Flycatcher","Pyrocephalus rubinus","L44063080","6200 North Club House Lane, Tucson, Arizona, US (32.321, -110.845)","2025-05-21 18:26",3,32.3210895,-110.8452217,TRUE,FALSE,TRUE,"S241233226"
"438","verfly","Vermilion Flycatcher","Pyrocephalus rubinus","L302348","Dead Horse Ranch SP","2025-05-21 17:58",1,34.751972,-112.0131749,TRUE,FALSE,FALSE,"S241094331"
"439","verfly","Vermilion Flycatcher","Pyrocephalus rubinus","L24868187","Linn, Texas, US (26.503, -98.191)","2025-05-21 17:16",3,26.5027,-98.1908974,TRUE,FALSE,TRUE,"S242952024"
"440","verfly","Vermilion Flycatcher","Pyrocephalus rubinus","L27825190","257 East Los Rincones, Green Valley, Arizona, US (31.875, -110.986)","2025-05-21 17:09",3,31.8749323,-110.9858159,TRUE,FALSE,TRUE,"S241088530"
"441","verfly","Vermilion Flycatcher","Pyrocephalus rubinus","L34227266","Aviano Community Park, Phoenix US-AZ 33.69125, -111.99120","2025-05-21 15:52",1,33.691251,-111.991201,TRUE,FALSE,TRUE,"S241062462"
"442","verfly","Vermilion Flycatcher","Pyrocephalus rubinus","L9326189","Saguaro NP--East--Cactus Forest North Trailhead","2025-05-21 15:46",2,32.1995255,-110.7217595,TRUE,FALSE,FALSE,"S241080466"
"443","verfly","Vermilion Flycatcher","Pyrocephalus rubinus","L45632279","La Costa Golf, Carlsbad US-CA 33.10328, -117.26158","2025-05-21 15:45",1,33.103283,-117.261576,TRUE,FALSE,TRUE,"S241077508"
"444","verfly","Vermilion Flycatcher","Pyrocephalus rubinus","L488586","Brown Ranch (Tom Green Co.)","2025-05-21 15:05",2,31.1634594,-100.4960632,TRUE,FALSE,FALSE,"S241040977"
"445","verfly","Vermilion Flycatcher","Pyrocephalus rubinus","L30280388","EAC Gila Pueblo Campus","2025-05-21 14:13",2,33.365087,-110.7676363,TRUE,FALSE,TRUE,"S241033333"
"446","verfly","Vermilion Flycatcher","Pyrocephalus rubinus","L7605038","Veterans Memorial Park, Sierra Vista","2025-05-21 13:58",3,31.5568043,-110.2681768,TRUE,FALSE,FALSE,"S241035960"
"447","verfly","Vermilion Flycatcher","Pyrocephalus rubinus","L2501522","Lisa Frank Ave. (historical Burrowing Owls stakeout, 2012-2017)","2025-05-21 12:30",1,32.1278334,-110.92233,TRUE,FALSE,FALSE,"S241009966"
"448","verfly","Vermilion Flycatcher","Pyrocephalus rubinus","L3680568","Jeff Davis County Park","2025-05-21 11:34",2,30.5779415,-103.9098716,TRUE,FALSE,FALSE,"S240964148"
"449","verfly","Vermilion Flycatcher","Pyrocephalus rubinus","L357869","Lady Bird Johnson Wildflower Ctr (HOTE 047)","2025-05-21 11:14",1,30.1853476,-97.8745151,TRUE,FALSE,FALSE,"S241177999"
"450","verfly","Vermilion Flycatcher","Pyrocephalus rubinus","L575216","Lyndon B. Johnson Ranch (Gillespie Co.)","2025-05-21 10:28",1,30.2412728,-98.6250401,TRUE,FALSE,FALSE,"S241005537"
"451","verfly","Vermilion Flycatcher","Pyrocephalus rubinus","L17408337","Overlook Park Bathrooms","2025-05-21 09:56",1,29.860256,-98.197961,TRUE,FALSE,TRUE,"S240920916"
"452","verfly","Vermilion Flycatcher","Pyrocephalus rubinus","L9171048","168 Bluff Trails Rd, Ingram US-TX (30.1138,-99.2960)","2025-05-21 09:43",1,30.113809,-99.296011,TRUE,FALSE,TRUE,"S240916533"
"453","verfly","Vermilion Flycatcher","Pyrocephalus rubinus","L1025550","TX118 at Musquiz Creek","2025-05-21 09:36",1,30.53569,-103.80343,TRUE,FALSE,FALSE,"S241345213"
"454","verfly","Vermilion Flycatcher","Pyrocephalus rubinus","L7087460","TX118 at windmill/rock water tank 2.5 mi. NNW of Ranch Road 1837","2025-05-21 09:04",1,30.5134589,-103.7573797,TRUE,FALSE,FALSE,"S241344870"
"455","verfly","Vermilion Flycatcher","Pyrocephalus rubinus","L30524072","Sweetwater Wetlands, Tucson US-AZ (32.2792,-111.0235)","2025-05-21 08:48",6,32.27922,-111.023486,TRUE,FALSE,TRUE,"S240966180"
"456","verfly","Vermilion Flycatcher","Pyrocephalus rubinus","L5219326","Anza Trail--Tubac kiosk area","2025-05-21 08:48",2,31.6047365,-111.0429811,TRUE,FALSE,FALSE,"S241035587"
"457","verfly","Vermilion Flycatcher","Pyrocephalus rubinus","L16502725","Sereno Park","2025-05-21 08:13",3,33.605173,-111.958175,TRUE,FALSE,FALSE,"S240961254"
"458","verfly","Vermilion Flycatcher","Pyrocephalus rubinus","L4485832","US-TX-Comfort-242 US Highway 87 - 30.0137x-98.9080","2025-05-21 08:06",3,30.013703,-98.907975,TRUE,FALSE,TRUE,"S240961744"
"459","verfly","Vermilion Flycatcher","Pyrocephalus rubinus","L723603","Heart of the Hills Fisheries Ctr. (HOTW 069)","2025-05-21 08:03",2,30.1574845,-99.34811,TRUE,FALSE,FALSE,"S240931091"
"460","verfly","Vermilion Flycatcher","Pyrocephalus rubinus","L348318","St. David--Holy Trinity Monastery","2025-05-21 08:03",2,31.876683,-110.2126819,TRUE,FALSE,FALSE,"S240965356"
"461","verfly","Vermilion Flycatcher","Pyrocephalus rubinus","L3601258","Isabella Lee Natural Preserve","2025-05-21 08:00",1,32.2426592,-110.7814242,TRUE,FALSE,FALSE,"S241229620"
"462","verfly","Vermilion Flycatcher","Pyrocephalus rubinus","L45600686","Bill Evans Road, Silver City, New Mexico, US (32.823, -108.6)","2025-05-21 07:52",1,32.8231551,-108.599826,TRUE,FALSE,TRUE,"S240923084"
"463","verfly","Vermilion Flycatcher","Pyrocephalus rubinus","L45200706","Calvada Eye Park","2025-05-21 07:40",2,36.1914967,-115.9764748,TRUE,FALSE,TRUE,"S241050696"
"464","verfly","Vermilion Flycatcher","Pyrocephalus rubinus","L1333848","Murrieta Hot Springs, Pond Park","2025-05-21 07:30",1,33.5568209,-117.1637591,TRUE,FALSE,FALSE,"S240981273"
"465","verfly","Vermilion Flycatcher","Pyrocephalus rubinus","L17146351","Scottsdale--Cactus Park","2025-05-21 07:27",2,33.598453,-111.924472,TRUE,FALSE,FALSE,"S240960282"
"466","verfly","Vermilion Flycatcher","Pyrocephalus rubinus","L838090","Seneca/Ridgeway area","2025-05-21 07:13",1,32.2475404,-110.8653452,TRUE,FALSE,FALSE,"S240915152"
"467","verfly","Vermilion Flycatcher","Pyrocephalus rubinus","L10039791","Washington Fields - Hela Seegmiller Historic Farm","2025-05-21 07:10",3,37.0641112,-113.5242413,TRUE,FALSE,FALSE,"S241075686"
"468","verfly","Vermilion Flycatcher","Pyrocephalus rubinus","L828438","McCormick Ranch--Lake Playa","2025-05-21 07:05",2,33.5396598,-111.9148171,TRUE,FALSE,FALSE,"S240905101"
"469","verfly","Vermilion Flycatcher","Pyrocephalus rubinus","L26297156","Cielo Azul","2025-05-21 06:40",1,30.372775,-103.739375,TRUE,FALSE,TRUE,"S241094767"
"470","verfly","Vermilion Flycatcher","Pyrocephalus rubinus","L857409","cave creek park 85029","2025-05-21 06:27",1,33.6028961,-112.1108437,TRUE,FALSE,TRUE,"S240964220"
"471","verfly","Vermilion Flycatcher","Pyrocephalus rubinus","L38677317","Alamo Wash - Rillito to Ft Lowell Rd.","2025-05-21 06:09",4,32.2642833,-110.8883003,TRUE,FALSE,TRUE,"S240939250"
"472","verfly","Vermilion Flycatcher","Pyrocephalus rubinus","L25829564","3750 N Country Club Rd, Tucson US-AZ (32.2758,-110.9265)","2025-05-21 06:08",2,32.275795,-110.92655,TRUE,FALSE,TRUE,"S240889973"
"473","verfly","Vermilion Flycatcher","Pyrocephalus rubinus","L357429","Scottsdale--Chaparral Park","2025-05-21 06:07",1,33.5110032,-111.906631,TRUE,FALSE,FALSE,"S240924562"
"474","verfly","Vermilion Flycatcher","Pyrocephalus rubinus","L1062940","Gila Bird Area","2025-05-21 05:54",6,32.812775,-108.60154,TRUE,FALSE,FALSE,"S240921981"
"475","verfly","Vermilion Flycatcher","Pyrocephalus rubinus","L11618145","Big Sandy River at Signal","2025-05-21 05:02",3,34.469968,-113.623983,TRUE,FALSE,FALSE,"S241334654"
"476","verfly","Vermilion Flycatcher","Pyrocephalus rubinus","L44791765","Priscilla Ln, Patagonia US-AZ (31.5633,-110.7510)","2025-05-21 04:45",1,31.563321,-110.751048,TRUE,FALSE,TRUE,"S240904033"
"477","verfly","Vermilion Flycatcher","Pyrocephalus rubinus","L2040651","Seneca/Margaret","2025-05-20 19:38",1,32.2468168,-110.9289336,TRUE,FALSE,TRUE,"S240785767"
"478","verfly","Vermilion Flycatcher","Pyrocephalus rubinus","L30862232","Brooks Crossing Park","2025-05-20 18:15",2,33.32859,-111.86688,TRUE,FALSE,FALSE,"S243186710"
"479","verfly","Vermilion Flycatcher","Pyrocephalus rubinus","L45620702","worldmark","2025-05-20 18:00",1,30.5577031,-98.2818254,TRUE,FALSE,TRUE,"S241020052"
"480","verfly","Vermilion Flycatcher","Pyrocephalus rubinus","L17387430","Flowering Cactus Ct, Tucson US-AZ (32.2070,-111.0344)","2025-05-20 17:47",1,32.206967,-111.034409,TRUE,FALSE,TRUE,"S240768968"
"481","verfly","Vermilion Flycatcher","Pyrocephalus rubinus","L9310338","Tempe Women's Club Park","2025-05-20 17:46",1,33.443123,-111.931006,TRUE,FALSE,FALSE,"S240777673"
"482","verfly","Vermilion Flycatcher","Pyrocephalus rubinus","L45563318","Blaha Oaks Road","2025-05-20 15:53",1,30.3425936,-99.0872906,TRUE,FALSE,TRUE,"S240732084"
"483","verfly","Vermilion Flycatcher","Pyrocephalus rubinus","L45564591","Friedrich Wilderness Park, San Antonio US-TX 29.64098, -98.62560","2025-05-20 15:31",1,29.640979,-98.625599,TRUE,FALSE,TRUE,"S240739054"
"484","verfly","Vermilion Flycatcher","Pyrocephalus rubinus","L17749639","El Centro, Evergreen Cemetery","2025-05-20 15:20",2,32.7905978,-115.5194115,TRUE,FALSE,TRUE,"S240769997"
"485","verfly","Vermilion Flycatcher","Pyrocephalus rubinus","L42095334","South Llano River SP--Buck Lake Trail","2025-05-20 14:42",NA,30.450742,-99.8052945,TRUE,FALSE,FALSE,"S240715518"
"486","verfly","Vermilion Flycatcher","Pyrocephalus rubinus","L4580695","Cedar Hill Cemetery","2025-05-20 13:51",6,30.6928402,-101.2059045,TRUE,FALSE,FALSE,"S240681160"
"487","verfly","Vermilion Flycatcher","Pyrocephalus rubinus","L423815","Whitewater Preserve","2025-05-20 13:20",1,33.9887687,-116.6559255,TRUE,TRUE,FALSE,"S240719846"
"488","verfly","Vermilion Flycatcher","Pyrocephalus rubinus","L45492842","17403 East Darleen Drive, Leander, Texas, US (30.477, -97.914)","2025-05-20 13:06",1,30.4769562,-97.9136554,TRUE,FALSE,TRUE,"S240657152"
"489","verfly","Vermilion Flycatcher","Pyrocephalus rubinus","L32045881","2681 N Old Fairbank Rd, Sierra Vista US-AZ 31.72285, -110.18872","2025-05-20 12:24",3,31.72285,-110.18872,TRUE,FALSE,TRUE,"S240708363"
"490","verfly","Vermilion Flycatcher","Pyrocephalus rubinus","L45552852","79158 Buff Bay Court, Bermuda Dunes, California, US (33.732, -116.285)","2025-05-20 12:12",1,33.7320043,-116.2853352,TRUE,FALSE,TRUE,"S240679270"
"491","verfly","Vermilion Flycatcher","Pyrocephalus rubinus","L1757515","Dragoon Mt. Ranch, E Kingbird Trail (private)","2025-05-20 11:50",1,31.9252252,-110.0585951,TRUE,FALSE,TRUE,"S240916151"
"492","verfly","Vermilion Flycatcher","Pyrocephalus rubinus","L23713050","Wrens Nest","2025-05-20 11:14",2,32.251983,-110.816445,TRUE,FALSE,TRUE,"S240781233"
"493","verfly","Vermilion Flycatcher","Pyrocephalus rubinus","L30609584","Agua Caliente Park, Tucson US-AZ (32.2814,-110.7301)","2025-05-20 10:38",8,32.281431,-110.730127,TRUE,FALSE,TRUE,"S240672847"
"494","verfly","Vermilion Flycatcher","Pyrocephalus rubinus","L1987142","Riverside, University of California campus","2025-05-20 10:21",1,33.9733094,-117.3281586,TRUE,FALSE,FALSE,"S240789040"
"495","verfly","Vermilion Flycatcher","Pyrocephalus rubinus","L17264691","Anza Trail--north of Desert Meadows Park","2025-05-20 10:21",4,31.8592836,-110.9851899,TRUE,FALSE,FALSE,"S240691329"
"496","verfly","Vermilion Flycatcher","Pyrocephalus rubinus","L270969","Catalina Regional Park--pond","2025-05-20 10:10",3,32.4635648,-110.9018976,TRUE,FALSE,FALSE,"S240736307"
"497","verfly","Vermilion Flycatcher","Pyrocephalus rubinus","L36140998","L E Ramey Golf Course","2025-05-20 10:06",2,27.4782194,-97.8368253,TRUE,TRUE,FALSE,"S240661761"
"498","verfly","Vermilion Flycatcher","Pyrocephalus rubinus","L32226202","Big Bend NP--Maverick Entrance Station","2025-05-20 09:53",1,29.2947305,-103.4931945,TRUE,FALSE,FALSE,"S240724547"
"499","verfly","Vermilion Flycatcher","Pyrocephalus rubinus","L39671928","Bushong Mountain Park","2025-05-20 09:46",1,29.7269262,-99.7646528,TRUE,FALSE,FALSE,"S240613421"
"500","verfly","Vermilion Flycatcher","Pyrocephalus rubinus","L1560009","Alvarez Road","2025-05-20 09:24",1,31.9785573,-106.6728126,TRUE,FALSE,FALSE,"S240660192"
"501","verfly","Vermilion Flycatcher","Pyrocephalus rubinus","L11456434","Benton Park","2025-05-20 09:20",2,37.819246,-118.479112,TRUE,TRUE,FALSE,"S240787656"
"502","verfly","Vermilion Flycatcher","Pyrocephalus rubinus","L472951","Paloma Ranch","2025-05-20 09:15",2,32.9189081,-112.8944135,TRUE,FALSE,FALSE,"S240712276"
"503","verfly","Vermilion Flycatcher","Pyrocephalus rubinus","L3157840","Liberty Hill Cemetery","2025-05-20 09:15",2,30.6769956,-97.9484904,TRUE,FALSE,FALSE,"S240696621"
"504","verfly","Vermilion Flycatcher","Pyrocephalus rubinus","L4073128","Patagonia Lake dam/spillway area","2025-05-20 09:07",2,31.4891873,-110.8682724,TRUE,FALSE,FALSE,"S240644417"
"505","verfly","Vermilion Flycatcher","Pyrocephalus rubinus","L39846788","150–198 N Third St, Willcox US-AZ 32.25650, -109.82271willcox cemetery","2025-05-20 08:22",2,32.256505,-109.822709,TRUE,FALSE,TRUE,"S240629482"
"506","verfly","Vermilion Flycatcher","Pyrocephalus rubinus","L427206","Lake Colorado City SP (PHP 018)","2025-05-20 08:22",1,32.3263971,-100.9328556,TRUE,FALSE,FALSE,"S240561162"
"507","verfly","Vermilion Flycatcher","Pyrocephalus rubinus","L15878119","Wallace Road","2025-05-20 08:22",2,31.9217987,-106.6423792,TRUE,FALSE,FALSE,"S240643130"
"508","verfly","Vermilion Flycatcher","Pyrocephalus rubinus","L128969","Fort Peña Colorado Pk (The Post)(FWTX 28)","2025-05-20 08:19",2,30.152997,-103.2874735,TRUE,FALSE,FALSE,"S240569336"
"509","verfly","Vermilion Flycatcher","Pyrocephalus rubinus","L44257507","88045, Lordsburg US-NM 32.43561, -108.96862","2025-05-20 08:15",1,32.435611,-108.968621,TRUE,FALSE,TRUE,"S240575722"
"510","verfly","Vermilion Flycatcher","Pyrocephalus rubinus","L45551794","E Empire Ranch Rd, Sonoita US-AZ 31.76964, -110.67669","2025-05-20 08:12",1,31.769639,-110.676689,TRUE,FALSE,TRUE,"S240674587"
"511","verfly","Vermilion Flycatcher","Pyrocephalus rubinus","L16701528","Verde River--Access south of Box Bar & Rio Verde Ranch","2025-05-20 08:11",1,33.7333402,-111.6622371,TRUE,FALSE,FALSE,"S240767765"
"512","verfly","Vermilion Flycatcher","Pyrocephalus rubinus","L13340139","Page Springs Road (private residence)","2025-05-20 08:06",1,34.7559267,-111.8946896,TRUE,FALSE,TRUE,"S240794672"
"513","verfly","Vermilion Flycatcher","Pyrocephalus rubinus","L45537467","76825, Brady US-TX 31.21542, -99.41448","2025-05-20 08:04",1,31.215417,-99.41448,TRUE,FALSE,TRUE,"S240607317"
"514","verfly","Vermilion Flycatcher","Pyrocephalus rubinus","L45544949","Auto selected 34.75554, -111.89473","2025-05-20 08:04",1,34.755543,-111.894734,TRUE,FALSE,TRUE,"S240666079"
"515","verfly","Vermilion Flycatcher","Pyrocephalus rubinus","L14663392","1205 E Camino Diestro, Oro Valley US-AZ 32.39069, -110.95377","2025-05-20 07:56",3,32.39069,-110.953773,TRUE,FALSE,TRUE,"S240604835"
"516","verfly","Vermilion Flycatcher","Pyrocephalus rubinus","L45545473","Big Sandy North","2025-05-20 07:53",1,34.624012,-113.567893,TRUE,FALSE,TRUE,"S240647479"
"517","verfly","Vermilion Flycatcher","Pyrocephalus rubinus","L13131067","MillerSmyle Ranch","2025-05-20 07:49",7,29.6439347,-99.0829772,TRUE,FALSE,TRUE,"S240587833"
"518","verfly","Vermilion Flycatcher","Pyrocephalus rubinus","L1894989","Tubac Golf Resort","2025-05-20 07:43",7,31.6256785,-111.0445304,TRUE,FALSE,FALSE,"S240721746"
"519","verfly","Vermilion Flycatcher","Pyrocephalus rubinus","L865856","Villa Serena Park","2025-05-20 07:39",1,32.2450292,-110.8647108,TRUE,FALSE,FALSE,"S240581673"
"520","verfly","Vermilion Flycatcher","Pyrocephalus rubinus","L1400591","Rio Vista Natural Resource Park","2025-05-20 07:33",3,32.2800719,-110.9326502,TRUE,FALSE,FALSE,"S240599245"
"521","verfly","Vermilion Flycatcher","Pyrocephalus rubinus","L1967722","McCormick Ranch--Comanche Park","2025-05-20 07:27",4,33.5488,-111.8985,TRUE,FALSE,FALSE,"S240657278"
"522","verfly","Vermilion Flycatcher","Pyrocephalus rubinus","L271618","Percha Dam SP","2025-05-20 07:26",1,32.8668999,-107.3059559,TRUE,FALSE,FALSE,"S240605327"
"523","verfly","Vermilion Flycatcher","Pyrocephalus rubinus","L6852390","La Posada (Private residential area)","2025-05-20 07:20",4,31.8591886,-110.9760332,TRUE,FALSE,TRUE,"S240619660"
"524","verfly","Vermilion Flycatcher","Pyrocephalus rubinus","L246114","Cibolo Nature Ctr. (HOTE 078)","2025-05-20 07:18",3,29.7812891,-98.7096262,TRUE,FALSE,FALSE,"S240585070"
"525","verfly","Vermilion Flycatcher","Pyrocephalus rubinus","L11074701","Private Ranch","2025-05-20 07:18",3,31.184213,-100.734324,TRUE,FALSE,TRUE,"S240562767"
"526","verfly","Vermilion Flycatcher","Pyrocephalus rubinus","L689527","Sabino Dam and downstream riparian","2025-05-20 07:09",1,32.3131068,-110.8113941,TRUE,FALSE,FALSE,"S242262143"
"527","verfly","Vermilion Flycatcher","Pyrocephalus rubinus","L31719054","home Juniper Drive, Limpia Crossing","2025-05-20 07:00",1,30.620399,-103.985709,TRUE,FALSE,TRUE,"S241069040"
"528","verfly","Vermilion Flycatcher","Pyrocephalus rubinus","L25806456","Zuni Park","2025-05-20 06:56",3,33.543078,-111.897712,TRUE,FALSE,FALSE,"S240656445"
"529","verfly","Vermilion Flycatcher","Pyrocephalus rubinus","L15137571","Sweetwater Wetlands Park, Tucson US-AZ 32.27971, -111.02124","2025-05-20 06:55",6,32.27971,-111.021235,TRUE,FALSE,TRUE,"S240633801"
"530","verfly","Vermilion Flycatcher","Pyrocephalus rubinus","L208502","Tonaquint Nature Center","2025-05-20 06:55",1,37.0802517,-113.5999095,TRUE,FALSE,FALSE,"S240675197"
"531","verfly","Vermilion Flycatcher","Pyrocephalus rubinus","L1236326","Devil's River--Baker's Crossing","2025-05-20 06:52",2,29.9662647,-101.1494493,TRUE,FALSE,FALSE,"S240656761"
"532","verfly","Vermilion Flycatcher","Pyrocephalus rubinus","L1827042","Jake's House","2025-05-20 06:40",1,32.2307875,-110.9184127,TRUE,FALSE,TRUE,"S240610449"
"533","verfly","Vermilion Flycatcher","Pyrocephalus rubinus","L29062345","PGA WEST (restricted access)","2025-05-20 06:30",1,33.643476,-116.272733,TRUE,FALSE,TRUE,"S240709825"
"534","verfly","Vermilion Flycatcher","Pyrocephalus rubinus","L33129145","Power Ranch Home 4223 South Soboba Street, Gilbert, Arizona, US (33.274, -111.708)","2025-05-20 06:19",2,33.2739879,-111.7081914,TRUE,FALSE,TRUE,"S240559889"
"535","verfly","Vermilion Flycatcher","Pyrocephalus rubinus","L8397180","West Puesta Del Sol, Whetstone","2025-05-20 06:00",1,31.6837898,-110.3886416,TRUE,FALSE,TRUE,"S240595505"
"536","verfly","Vermilion Flycatcher","Pyrocephalus rubinus","L269692","Lake Findley (Lake Alice)","2025-05-20 06:00",1,27.7888887,-98.0641977,TRUE,FALSE,FALSE,"S240637368"
"537","verfly","Vermilion Flycatcher","Pyrocephalus rubinus","L109462","Lake Henshaw","2025-05-20 05:51",1,33.2316107,-116.7475494,TRUE,TRUE,FALSE,"S240737289"
"538","verfly","Vermilion Flycatcher","Pyrocephalus rubinus","L1100233","Agua Caliente County Park","2025-05-20 05:23",1,32.9503072,-116.3034582,TRUE,FALSE,FALSE,"S240729936"
"539","verfly","Vermilion Flycatcher","Pyrocephalus rubinus","L45535680","861 E Ramsey Canyon Rd, Hereford US-AZ 31.46396, -110.29154","2025-05-20 05:19",1,31.463956,-110.291538,TRUE,FALSE,TRUE,"S240598558"
"540","verfly","Vermilion Flycatcher","Pyrocephalus rubinus","L629205","University of Arizona","2025-05-19 19:01",4,32.2321157,-110.9511852,TRUE,FALSE,FALSE,"S240433493"
"541","verfly","Vermilion Flycatcher","Pyrocephalus rubinus","L32099275","7132 S Thorneydale Ln, Hereford US-AZ 31.43898, -110.24550","2025-05-19 18:20",1,31.438981,-110.245496,TRUE,FALSE,TRUE,"S240432549"
"542","verfly","Vermilion Flycatcher","Pyrocephalus rubinus","L45308312","Thimble View Pass, Tucson, Arizona, US (32.326, -110.835)","2025-05-19 18:15",13,32.3260754,-110.8351338,TRUE,FALSE,TRUE,"S240431764"
"543","verfly","Vermilion Flycatcher","Pyrocephalus rubinus","L4540580","Steam Pump Ranch","2025-05-19 17:09",5,32.4050156,-110.9499085,TRUE,FALSE,FALSE,"S240443118"
"544","verfly","Vermilion Flycatcher","Pyrocephalus rubinus","L971852","Big Bear Lake--Von's Marsh","2025-05-19 16:32",1,34.2541659,-116.890111,TRUE,TRUE,FALSE,"S240442481"
"545","verfly","Vermilion Flycatcher","Pyrocephalus rubinus","L7898020","Southern Nevada Veterans Memorial Cemetery","2025-05-19 15:34",2,35.94557,-114.846965,TRUE,FALSE,FALSE,"S240391045"
"546","verfly","Vermilion Flycatcher","Pyrocephalus rubinus","L45507030","Goli’s House","2025-05-19 15:27",1,32.21756,-110.883169,TRUE,FALSE,TRUE,"S240450680"
"547","verfly","Vermilion Flycatcher","Pyrocephalus rubinus","L45484093","Cañada Verde","2025-05-19 15:00",1,33.9412131,-118.0223218,TRUE,FALSE,TRUE,"S240379588"
"548","verfly","Vermilion Flycatcher","Pyrocephalus rubinus","L42095285","South Llano River SP--Picnic Area","2025-05-19 14:19",2,30.4488298,-99.8096555,TRUE,FALSE,FALSE,"S240325096"
"549","verfly","Vermilion Flycatcher","Pyrocephalus rubinus","L24672743","Academy Village","2025-05-19 12:15",1,32.1139654,-110.6985767,TRUE,FALSE,TRUE,"S240406352"
"550","verfly","Vermilion Flycatcher","Pyrocephalus rubinus","L30609729","Patagonia Lake State Park, Nogales US-AZ (31.4968,-110.8495)","2025-05-19 11:40",4,31.496813,-110.849512,TRUE,FALSE,TRUE,"S240446617"
"551","verfly","Vermilion Flycatcher","Pyrocephalus rubinus","L332231","Rynerson Park","2025-05-19 11:40",2,33.845473,-118.0972018,TRUE,FALSE,TRUE,"S240789376"
