"","speciesCode","comName","sciName","locId","locName","obsDt","howMany","lat","lng","obsValid","obsReviewed","locationPrivate","subId"
"1","rocpta1","Rock Ptarmigan","Lagopus muta","L46902603","Top-of-the-World Hwy--west","2025-06-05 09:05",1,64.0761736,-141.0408014,TRUE,FALSE,TRUE,"S247110756"
"2","rocpta1","Rock Ptarmigan","Lagopus muta","L1217734","Toolik Field Station","2025-06-05 06:45",2,68.627808,-149.593389,TRUE,FALSE,FALSE,"S246999334"
"3","rocpta1","Rock Ptarmigan","Lagopus muta","L25652613","Pump Station 4 Pond","2025-06-04 19:49",2,68.4246992,-149.3500254,TRUE,FALSE,TRUE,"S246851006"
"4","rocpta1","Rock Ptarmigan","Lagopus muta","L7708149","Nome-Teller Hwy.--Tombstone Ridge","2025-06-04 16:52",1,64.9332393,-166.2056733,TRUE,FALSE,FALSE,"S246848263"
"5","rocpta1","Rock Ptarmigan","Lagopus muta","L11458258","Nome-Teller Hwy.--37 Mile Ridge","2025-06-04 14:45",2,64.8468224,-166.0983662,TRUE,FALSE,FALSE,"S246847319"
"6","rocpta1","Rock Ptarmigan","Lagopus muta","L46870623","Beam Rd, Salmon Lake to Pilgrim River, Nome US-AK 64.91968, -164.98746","2025-06-04 12:53",2,64.919679,-164.987464,TRUE,FALSE,TRUE,"S246964016"
"7","rocpta1","Rock Ptarmigan","Lagopus muta","L1187160","Kougarok Rd.--Coffee Dome (mm 72)","2025-06-04 12:30",1,65.2765291,-164.7896854,TRUE,FALSE,FALSE,"S246829520"
"8","rocpta1","Rock Ptarmigan","Lagopus muta","L46870343","Beam Rd, Kougarok Rd to Salmon Lake, Nome US-AK 64.48831, -165.33332","2025-06-04 11:18",2,64.488311,-165.333317,TRUE,FALSE,TRUE,"S246962715"
"9","rocpta1","Rock Ptarmigan","Lagopus muta","L1233804","Denali NP&P--Kantishna","2025-06-04 08:53",1,63.5254263,-150.959444,TRUE,FALSE,FALSE,"S246672873"
"10","rocpta1","Rock Ptarmigan","Lagopus muta","L294954","Kougarok Rd. (please use a more specific location)","2025-06-04 07:30",3,64.7875103,-165.2113724,TRUE,FALSE,FALSE,"S246828862"
"11","rocpta1","Rock Ptarmigan","Lagopus muta","L16199128","Bear Mountain","2025-06-04",2,57.0406495,-135.175593,TRUE,FALSE,TRUE,"S246847741"
"12","rocpta1","Rock Ptarmigan","Lagopus muta","L2898833","Nome-Council Rd.--Solomon to East Fork Solomon River","2025-06-03 15:10",1,64.6488961,-164.3354073,TRUE,FALSE,FALSE,"S246507804"
"13","rocpta1","Rock Ptarmigan","Lagopus muta","L560915","Deadhorse (town)","2025-06-03 13:37",2,70.2002364,-148.4568787,TRUE,FALSE,FALSE,"S246469337"
"14","rocpta1","Rock Ptarmigan","Lagopus muta","L2132457","Nome-Council Rd.--Skookum Pass","2025-06-03 10:34",1,64.7240575,-164.0580576,TRUE,FALSE,FALSE,"S246838405"
"15","rocpta1","Rock Ptarmigan","Lagopus muta","L46782098","Beam Rd, Nome US-AK 64.99123, -164.71627","2025-06-03 10:31",1,64.991228,-164.716267,TRUE,FALSE,TRUE,"S246522105"
"16","rocpta1","Rock Ptarmigan","Lagopus muta","L2942287","Nome-Teller Hwy.--34 Mile Ridge","2025-06-03 10:19",2,64.8219296,-166.0375786,TRUE,FALSE,FALSE,"S246514491"
"17","rocpta1","Rock Ptarmigan","Lagopus muta","L2972353","Nome-Teller Hwy.--Cripple River","2025-06-03 09:57",1,64.6776565,-165.746119,TRUE,FALSE,FALSE,"S246953701"
"18","rocpta1","Rock Ptarmigan","Lagopus muta","L25311156","Imnavait Creek Research Area","2025-06-03 09:54",2,68.617825,-149.3041372,TRUE,FALSE,TRUE,"S246477424"
"19","rocpta1","Rock Ptarmigan","Lagopus muta","L9600622","Toolik Lake Public Access","2025-06-02 19:59",1,68.6319721,-149.585038,TRUE,FALSE,FALSE,"S246172511"
"20","rocpta1","Rock Ptarmigan","Lagopus muta","L46708230","Dalton Highway, Anchorage, Alaska, US (68.625, -149.561)","2025-06-02 17:22",1,68.6253108,-149.5613074,TRUE,FALSE,TRUE,"S246155621"
"21","rocpta1","Rock Ptarmigan","Lagopus muta","L2972377","Nome-Teller Hwy.--Right Fork Bluestone River","2025-06-02 17:19",7,65.0916623,-166.2379128,TRUE,FALSE,FALSE,"S246184807"
"22","rocpta1","Rock Ptarmigan","Lagopus muta","L2898838","Nome-Council Rd.--East Fork Solomon River","2025-06-02 15:21",4,64.6923069,-164.2767835,TRUE,FALSE,FALSE,"S246183462"
"23","rocpta1","Rock Ptarmigan","Lagopus muta","L46712797","Nome-Council Rd, Nome US-AK 64.69895, -164.15955","2025-06-02 15:07",1,64.698945,-164.159552,TRUE,FALSE,TRUE,"S246178405"
"24","rocpta1","Rock Ptarmigan","Lagopus muta","L2898570","Woolley Lagoon Rd. (restricted access)","2025-06-02 11:19",1,64.8688637,-166.2746829,TRUE,FALSE,FALSE,"S246172436"
"25","rocpta1","Rock Ptarmigan","Lagopus muta","L46709792","Dalton Highway, Alaska, US (68.59, -149.525)","2025-06-02 11:03",1,68.5904011,-149.5248499,TRUE,FALSE,TRUE,"S246163205"
"26","rocpta1","Rock Ptarmigan","Lagopus muta","L2972371","Nome-Teller Hwy.--Tisuk River","2025-06-02 09:42",1,64.9700644,-166.2010002,TRUE,FALSE,FALSE,"S246172173"
"27","rocpta1","Rock Ptarmigan","Lagopus muta","L46730022","Kuzitrin Rd.","2025-06-02 09:38",1,64.9938155,-164.7112278,TRUE,FALSE,TRUE,"S246269357"
"28","rocpta1","Rock Ptarmigan","Lagopus muta","L11731288","Dalton Hwy.--Ice Cut","2025-06-02 09:08",30,69.0157696,-148.8205913,TRUE,FALSE,FALSE,"S246508376"
"29","rocpta1","Rock Ptarmigan","Lagopus muta","L2968948","Nome-Teller Hwy.--House Rock","2025-06-02 07:43",1,64.62636,-165.69707,TRUE,FALSE,FALSE,"S246171782"
"30","rocpta1","Rock Ptarmigan","Lagopus muta","L46709671","Dalton Highway, Alaska, US (68.195, -149.416)","2025-06-01 20:20",1,68.1954721,-149.4159743,TRUE,FALSE,TRUE,"S246162621"
"31","rocpta1","Rock Ptarmigan","Lagopus muta","L7669152","Dalton Hwy.--Chandalar Shelf","2025-06-01 17:03",2,68.0732438,-149.5916862,TRUE,FALSE,FALSE,"S246162139"
"32","rocpta1","Rock Ptarmigan","Lagopus muta","L46709500","Dalton Highway, Fairbanks, Alaska, US (67.996, -149.756)","2025-06-01 15:39",2,67.9959161,-149.7556319,TRUE,FALSE,TRUE,"S246161948"
"33","rocpta1","Rock Ptarmigan","Lagopus muta","L20629849","Nome-Teller Hwy.--Crete Creek","2025-06-01 11:53",3,64.8781873,-166.1485969,TRUE,FALSE,FALSE,"S245891101"
"34","rocpta1","Rock Ptarmigan","Lagopus muta","L46632957","Bob Blodgett Hwy, Nome US-AK 64.84581, -166.10200","2025-06-01 11:42",3,64.845806,-166.102004,TRUE,FALSE,TRUE,"S245777109"
"35","rocpta1","Rock Ptarmigan","Lagopus muta","L9600626","Arctic NWR--Atigun Gorge","2025-06-01 10:47",30,68.4588295,-149.3329938,TRUE,FALSE,FALSE,"S245847777"
"36","rocpta1","Rock Ptarmigan","Lagopus muta","L1186957","Kougarok Rd.--Salmon Lake","2025-06-01 10:05",4,64.9038908,-165.0094986,TRUE,FALSE,FALSE,"S246004052"
"37","rocpta1","Rock Ptarmigan","Lagopus muta","L46635301","Dalton Highway, Anchorage, Alaska, US (68.63, -149.559)","2025-06-01 09:38",3,68.6301358,-149.5588307,TRUE,FALSE,TRUE,"S245789450"
"38","rocpta1","Rock Ptarmigan","Lagopus muta","L46530227","Beam Rd, Nome US-AK 64.99199, -164.71456","2025-05-31 18:16",1,64.991994,-164.714559,TRUE,FALSE,TRUE,"S245302483"
"39","rocpta1","Rock Ptarmigan","Lagopus muta","L46518446","Nome-Council Rd, Nome US-AK 64.70391, -164.07162","2025-05-31 13:08",3,64.703914,-164.07162,TRUE,FALSE,TRUE,"S245245331"
"40","rocpta1","Rock Ptarmigan","Lagopus muta","L46784497","Adak Island--Frank's Blue Building Feeder (51.951, -176.587)","2025-05-31 11:54",1,51.950625,-176.586736,TRUE,FALSE,TRUE,"S246530272"
"41","rocpta1","Rock Ptarmigan","Lagopus muta","L32913565","Beam Road, Nome, Alaska, US (64.951, -164.82)","2025-05-31 10:04",1,64.9508173,-164.820473,TRUE,FALSE,TRUE,"S245301190"
"42","rocpta1","Rock Ptarmigan","Lagopus muta","L292104","Nome-Teller Hwy. (please use a more specific location)","2025-05-31 09:30",NA,64.6344688,-165.7150269,TRUE,FALSE,FALSE,"S245300501"
"43","rocpta1","Rock Ptarmigan","Lagopus muta","L268250","Adak Island","2025-05-31 07:54",20,51.8941856,-176.6443634,TRUE,FALSE,FALSE,"S245188150"
"44","rocpta1","Rock Ptarmigan","Lagopus muta","L46480018","Auto selected 51.90522, -176.64585","2025-05-30 20:30",2,51.905218,-176.645845,TRUE,FALSE,TRUE,"S245082264"
"45","rocpta1","Rock Ptarmigan","Lagopus muta","L16017003","Adak Island--Haven Lake","2025-05-30 20:19",1,51.9107268,-176.6454323,TRUE,FALSE,FALSE,"S244812258"
"46","rocpta1","Rock Ptarmigan","Lagopus muta","L46518320","Bob Blodgett Hwy, Nome US-AK 64.61935, -165.69431","2025-05-30 20:13",1,64.619346,-165.694313,TRUE,FALSE,TRUE,"S245244783"
"47","rocpta1","Rock Ptarmigan","Lagopus muta","L1173859","Adak Island--USCG LORAN Station","2025-05-30 17:33",5,51.9909587,-176.613121,TRUE,FALSE,FALSE,"S244817978"
"48","rocpta1","Rock Ptarmigan","Lagopus muta","L46422309","Nome-Council Rd, Nome US-AK 64.69774, -164.17315","2025-05-30 15:44",1,64.697739,-164.17315,TRUE,FALSE,TRUE,"S244819031"
"49","rocpta1","Rock Ptarmigan","Lagopus muta","L911846","Adak Island--Clam Lagoon","2025-05-30 15:13",20,51.9333115,-176.5749264,TRUE,FALSE,FALSE,"S245078225"
"50","rocpta1","Rock Ptarmigan","Lagopus muta","L3969398","Adak Island--Lake Andrew","2025-05-30 12:02",5,51.9453759,-176.6313171,TRUE,FALSE,FALSE,"S244753827"
"51","rocpta1","Rock Ptarmigan","Lagopus muta","L755300","Kougarok Rd.--Nome River","2025-05-30 12:00",1,64.6469307,-165.2924824,TRUE,FALSE,FALSE,"S244826652"
"52","rocpta1","Rock Ptarmigan","Lagopus muta","L46423227","Beam Rd, Nome US-AK 64.89023, -165.23589","2025-05-30 07:57",1,64.890234,-165.235893,TRUE,FALSE,TRUE,"S244824250"
"53","rocpta1","Rock Ptarmigan","Lagopus muta","L46415477","Toolik Research Station","2025-05-30 06:50",5,68.627523,-149.592168,TRUE,FALSE,TRUE,"S244785705"
"54","rocpta1","Rock Ptarmigan","Lagopus muta","L1314128","Adak Island--Contractor Camp Marsh","2025-05-29 21:02",3,51.8956157,-176.6355228,TRUE,FALSE,FALSE,"S244434862"
"55","rocpta1","Rock Ptarmigan","Lagopus muta","L46335267","Bob Blodgett Hwy, Nome US-AK 64.84957, -166.10784","2025-05-29 17:23",1,64.849569,-166.107839,TRUE,FALSE,TRUE,"S244422668"
"56","rocpta1","Rock Ptarmigan","Lagopus muta","L16017133","Adak Island--Candlestick Bridge","2025-05-29 17:12",2,51.9156291,-176.5706144,TRUE,FALSE,FALSE,"S244419187"
"57","rocpta1","Rock Ptarmigan","Lagopus muta","L46678055","Sable Pass area","2025-05-29 15:45",NA,63.5540733,-149.6558999,TRUE,FALSE,TRUE,"S246006187"
"58","rocpta1","Rock Ptarmigan","Lagopus muta","L783618","Adak Island--Clam Lagoon (mud flats)","2025-05-29 15:36",8,51.9225142,-176.5812778,TRUE,FALSE,FALSE,"S244425811"
"59","rocpta1","Rock Ptarmigan","Lagopus muta","L46335557","Bob Blodgett Hwy, Nome US-AK 65.03907, -166.16459","2025-05-29 13:17",1,65.039068,-166.164586,TRUE,FALSE,TRUE,"S244421239"
"60","rocpta1","Rock Ptarmigan","Lagopus muta","L46415947","Pinnell Mountain Trail, Fairbanks US-AK (65.4009,-145.9811)","2025-05-29 13:00",4,65.400873,-145.98114,TRUE,FALSE,TRUE,"S244783032"
"61","rocpta1","Rock Ptarmigan","Lagopus muta","L46335442","Bob Blodgett Hwy, Nome US-AK 64.88558, -166.15856","2025-05-29 12:43",1,64.885584,-166.158562,TRUE,FALSE,TRUE,"S244421063"
"62","rocpta1","Rock Ptarmigan","Lagopus muta","L46335306","Bob Blodgett Hwy, Nome US-AK 64.85203, -166.11130","2025-05-29 11:58",1,64.85203,-166.111298,TRUE,FALSE,TRUE,"S244419599"
"63","rocpta1","Rock Ptarmigan","Lagopus muta","L1171697","Adak Island--Smew Ponds","2025-05-29 11:36",8,51.8844319,-176.6476464,TRUE,FALSE,FALSE,"S244587792"
"64","rocpta1","Rock Ptarmigan","Lagopus muta","L32475903","Adak Island—Adak High School","2025-05-29 11:01",2,51.865018,-176.660227,TRUE,FALSE,TRUE,"S244303820"
"65","rocpta1","Rock Ptarmigan","Lagopus muta","L46261076","Auto selected 51.95030, -176.58672","2025-05-29 10:57",2,51.950296,-176.586718,TRUE,FALSE,TRUE,"S244308146"
"66","rocpta1","Rock Ptarmigan","Lagopus muta","L46310508","Hillside Blvd, Adak US-AK 51.91098, -176.59079","2025-05-29 10:36",1,51.910981,-176.590786,TRUE,FALSE,TRUE,"S244287815"
"67","rocpta1","Rock Ptarmigan","Lagopus muta","L1173995","Adak Island--Adak National Forest","2025-05-29 10:22",2,51.9032173,-176.6219348,TRUE,FALSE,FALSE,"S244284876"
"68","rocpta1","Rock Ptarmigan","Lagopus muta","L1171700","Adak Island--South Sweeper Creek","2025-05-29 10:15",1,51.859664,-176.6545773,TRUE,FALSE,FALSE,"S244289028"
"69","rocpta1","Rock Ptarmigan","Lagopus muta","L46303570","Hillside Blvd, Adak US-AK 51.86504, -176.66012","2025-05-29 09:04",4,51.865043,-176.660123,TRUE,FALSE,TRUE,"S244255521"
"70","rocpta1","Rock Ptarmigan","Lagopus muta","L32476654","Adak Island—Seal Drive","2025-05-29 08:19",1,51.872918,-176.633442,TRUE,FALSE,TRUE,"S244254720"
"71","rocpta1","Rock Ptarmigan","Lagopus muta","L20716802","Pinnell Mountain Trail - Twelvemile Summit to North Fork shelter","2025-05-29 06:25",3,65.4444705,-145.9044747,TRUE,FALSE,TRUE,"S244356724"
"72","rocpta1","Rock Ptarmigan","Lagopus muta","L46681172","Crater Ck","2025-05-29",30,64.9524912,-164.8987517,TRUE,FALSE,TRUE,"S246023521"
"73","rocpta1","Rock Ptarmigan","Lagopus muta","L2898401","Nome-Teller Hwy.--Snake River","2025-05-28 22:04",1,64.5643458,-165.5115759,TRUE,FALSE,FALSE,"S244214806"
"74","rocpta1","Rock Ptarmigan","Lagopus muta","L46257854","Hillside Blvd, Adak US-AK 51.89973, -176.62175","2025-05-28 19:48",2,51.89973,-176.621746,TRUE,FALSE,TRUE,"S244041437"
"75","rocpta1","Rock Ptarmigan","Lagopus muta","L46261052","Auto selected 51.95204, -176.58387","2025-05-28 17:37",3,51.952037,-176.583865,TRUE,FALSE,TRUE,"S244058157"
"76","rocpta1","Rock Ptarmigan","Lagopus muta","L32420309","Nome-Teller road:  from MP 34 to MP 40 (turnoff to Woolley)","2025-05-28 14:21",3,64.809521,-166.029476,TRUE,FALSE,TRUE,"S244050949"
"77","rocpta1","Rock Ptarmigan","Lagopus muta","L32420252","Nome-Teller Road:  from Sinuk River bridge to MP 34 quarry road","2025-05-28 12:04",1,64.718221,-165.92042,TRUE,FALSE,TRUE,"S244051790"
"78","rocpta1","Rock Ptarmigan","Lagopus muta","L46223779","Nome-Taylor Highway, Nome, Alaska, US (64.754, -165.226)","2025-05-27 21:15",3,64.7540248,-165.2256736,TRUE,FALSE,TRUE,"S243871339"
"79","rocpta1","Rock Ptarmigan","Lagopus muta","L46222937","Nome-Taylor Highway, Nome, Alaska, US (64.684, -165.302)","2025-05-27 19:30",1,64.6843763,-165.3024669,TRUE,FALSE,TRUE,"S243867398"
"80","rocpta1","Rock Ptarmigan","Lagopus muta","L1207764","Dalton Hwy.--Atigun Pass (bottom; mm 244.8)","2025-05-27 16:33",2,68.131244,-149.4402409,TRUE,FALSE,FALSE,"S245789300"
"81","rocpta1","Rock Ptarmigan","Lagopus muta","L46193125","Nome - Council Rd. - MP 46-MP 62","2025-05-27 15:05",3,64.691907,-164.280869,TRUE,FALSE,TRUE,"S243717448"
