"","speciesCode","comName","sciName","locId","locName","obsDt","howMany","lat","lng","obsValid","obsReviewed","locationPrivate","subId"
"1","virwar","Virginia's Warbler","Leiothlypis virginiae","L46403986","13883–13897 Grizzly Dr, Littleton US-CO (39.5472,-105.1531)","2025-05-30 16:10",1,39.547233,-105.153051,TRUE,FALSE,TRUE,"S244730105"
"2","virwar","Virginia's Warbler","Leiothlypis virginiae","L338058","Cibola NF--Capulin Spring (Bernalillo and Sandoval Co.)","2025-05-30 15:43",2,35.2167001,-106.4153279,TRUE,FALSE,FALSE,"S244747359"
"3","virwar","Virginia's Warbler","Leiothlypis virginiae","L804733","Roxborough Park Rd--W Titan Rd to Roxborough SP","2025-05-30 15:23",1,39.481653,-105.0542736,TRUE,FALSE,FALSE,"S244715564"
"4","virwar","Virginia's Warbler","Leiothlypis virginiae","L751460","Eldorado Canyon SP--Inner Canyon","2025-05-30 14:40",3,39.9308904,-105.2941853,TRUE,FALSE,FALSE,"S244725481"
"5","virwar","Virginia's Warbler","Leiothlypis virginiae","L219408","Cibola NF--Cienega Canyon Picnic Area","2025-05-30 14:13",1,35.167564,-106.3801861,TRUE,FALSE,FALSE,"S244747458"
"6","virwar","Virginia's Warbler","Leiothlypis virginiae","L46396131","154–198 Sandia Crest Rd, Sandia Park US-NM 35.16967, -106.37275","2025-05-30 13:31",2,35.169666,-106.372753,TRUE,FALSE,TRUE,"S244692208"
"7","virwar","Virginia's Warbler","Leiothlypis virginiae","L522498","Old Saint Vrain Rd","2025-05-30 13:12",1,40.20936,-105.2803516,TRUE,FALSE,FALSE,"S244690141"
"8","virwar","Virginia's Warbler","Leiothlypis virginiae","L998078","Skunk Canyon Trails","2025-05-30 12:56",1,39.985871,-105.2770865,TRUE,FALSE,FALSE,"S244700121"
"9","virwar","Virginia's Warbler","Leiothlypis virginiae","L46410053","Greyrock Meadows Trail, Bellvue US-CO (40.7104,-105.3017)","2025-05-30 12:14",2,40.710427,-105.301665,TRUE,FALSE,TRUE,"S244759249"
"10","virwar","Virginia's Warbler","Leiothlypis virginiae","L7495427","Mt. Lindo","2025-05-30 12:12",3,39.6097483,-105.2112708,TRUE,FALSE,FALSE,"S244689480"
"11","virwar","Virginia's Warbler","Leiothlypis virginiae","L46383799","9761 South Turkey Creek Road, Morrison, Colorado, US (39.541, -105.248)","2025-05-30 11:28",1,39.54057,-105.2475271,TRUE,FALSE,TRUE,"S244646427"
"12","virwar","Virginia's Warbler","Leiothlypis virginiae","L2283584","Curecanti NRA--Hermits Rest Picnic Area","2025-05-30 11:28",1,38.4635405,-107.5188407,TRUE,FALSE,FALSE,"S244726344"
"13","virwar","Virginia's Warbler","Leiothlypis virginiae","L46387530","Columbine Trail, Salida US-CO 38.46335, -105.96166","2025-05-30 11:25",1,38.463345,-105.961662,TRUE,FALSE,TRUE,"S244659332"
"14","virwar","Virginia's Warbler","Leiothlypis virginiae","L886140","Turkey Creek Park","2025-05-30 11:21",1,39.5938217,-105.2201137,TRUE,FALSE,FALSE,"S244642159"
"15","virwar","Virginia's Warbler","Leiothlypis virginiae","L962017","Hermit Park","2025-05-30 11:13",1,40.3411799,-105.474329,TRUE,FALSE,FALSE,"S244719677"
"16","virwar","Virginia's Warbler","Leiothlypis virginiae","L4616012","Bear Creek Canyon Park","2025-05-30 11:11",1,38.8208972,-104.8912114,TRUE,FALSE,FALSE,"S244665574"
"17","virwar","Virginia's Warbler","Leiothlypis virginiae","L1235636","Douglas Pass Area","2025-05-30 11:05",1,39.5976201,-108.8050747,TRUE,FALSE,FALSE,"S244698436"
"18","virwar","Virginia's Warbler","Leiothlypis virginiae","L46393943","Red Creek Trail Durango, Colorado, US (37.347, -107.739)","2025-05-30 11:03",1,37.3469341,-107.7388729,TRUE,FALSE,TRUE,"S244681687"
"19","virwar","Virginia's Warbler","Leiothlypis virginiae","L235311","Ouray (town)","2025-05-30 10:58",1,38.02167,-107.67086,TRUE,FALSE,FALSE,"S244746502"
"20","virwar","Virginia's Warbler","Leiothlypis virginiae","L23176373","Lands End Road--Wild Rose PG","2025-05-30 10:47",1,39.0124192,-108.2333065,TRUE,FALSE,FALSE,"S244642978"
"21","virwar","Virginia's Warbler","Leiothlypis virginiae","L1157195","Slate Canyon","2025-05-30 10:43",1,40.2248604,-111.6234112,TRUE,FALSE,FALSE,"S244664037"
"22","virwar","Virginia's Warbler","Leiothlypis virginiae","L13487264","Cibola NF--Capulin Snowplay Site and The Log (Sandoval Co.)","2025-05-30 10:35",1,35.2183353,-106.4158435,TRUE,FALSE,FALSE,"S244718962"
"23","virwar","Virginia's Warbler","Leiothlypis virginiae","L4667455","La Cueva (Glorieta)","2025-05-30 10:30",2,35.5893672,-105.7292032,TRUE,FALSE,TRUE,"S244658832"
"24","virwar","Virginia's Warbler","Leiothlypis virginiae","L4524852","Mt. Lemmon--Aspen Vista Point","2025-05-30 10:24",1,32.431425,-110.745374,TRUE,FALSE,FALSE,"S244704277"
"25","virwar","Virginia's Warbler","Leiothlypis virginiae","L3816478","Canyon Rim Trail","2025-05-30 10:10",1,40.8870435,-109.5523167,TRUE,FALSE,FALSE,"S244682553"
"26","virwar","Virginia's Warbler","Leiothlypis virginiae","L46383772","Cottonwood Road R, Dolores, Colorado, US (37.658, -108.315)","2025-05-30 09:56",1,37.6580583,-108.3153817,TRUE,FALSE,TRUE,"S244646295"
"27","virwar","Virginia's Warbler","Leiothlypis virginiae","L1623894","Black Canyon of the Gunnison NP--Upland Trail","2025-05-30 09:50",NA,38.55205,-107.6902907,TRUE,FALSE,FALSE,"S244624988"
"28","virwar","Virginia's Warbler","Leiothlypis virginiae","L1025201","Eldorado Mountain Open Space--Goshawk Ridge Trail","2025-05-30 09:44",3,39.9205326,-105.2768326,TRUE,FALSE,FALSE,"S244711816"
"29","virwar","Virginia's Warbler","Leiothlypis virginiae","L208278","Lytle Ranch Preserve","2025-05-30 09:27",2,37.1434192,-114.0232372,TRUE,FALSE,FALSE,"S244649196"
"30","virwar","Virginia's Warbler","Leiothlypis virginiae","L18995078","Hermosa Trail, N of Lower Hermosa Campground","2025-05-30 09:27",5,37.4611419,-107.8554733,TRUE,FALSE,TRUE,"S244635199"
"31","virwar","Virginia's Warbler","Leiothlypis virginiae","L264794","Kendrick Peak","2025-05-30 09:10",2,35.4080079,-111.8509303,TRUE,FALSE,FALSE,"S244695183"
"32","virwar","Virginia's Warbler","Leiothlypis virginiae","L3084031","Upper Los Alamos Canyon","2025-05-30 09:05",1,35.879071,-106.3344222,TRUE,FALSE,FALSE,"S244600037"
"33","virwar","Virginia's Warbler","Leiothlypis virginiae","L5884815","Castlewood Canyon Rd--Lake Gulch Rd to Castlewood Canyon SP","2025-05-30 09:03",1,39.317732,-104.7572351,TRUE,FALSE,FALSE,"S244622775"
"34","virwar","Virginia's Warbler","Leiothlypis virginiae","L3754339","Grey Rock Trail","2025-05-30 09:00",2,40.6946702,-105.2833748,TRUE,FALSE,FALSE,"S244738485"
"35","virwar","Virginia's Warbler","Leiothlypis virginiae","L15939059","Rose Canyon Lake, Tucson US-AZ (32.3888,-110.7102)","2025-05-30 08:47",1,32.388795,-110.710247,TRUE,FALSE,TRUE,"S244703671"
"36","virwar","Virginia's Warbler","Leiothlypis virginiae","L264842","Miller Canyon--Beatty's Guest Ranch","2025-05-30 08:45",2,31.4156019,-110.2765277,TRUE,FALSE,FALSE,"S244726097"
"37","virwar","Virginia's Warbler","Leiothlypis virginiae","L10764560","Pueblo Canyon WTP Outfall/Wetland (Los Alamos Co.)","2025-05-30 08:36",1,35.881418,-106.2483659,TRUE,FALSE,FALSE,"S244576361"
"38","virwar","Virginia's Warbler","Leiothlypis virginiae","L36868091","Sims Mesa Interpretive Trail, Montrose US-CO 38.30563, -107.96309","2025-05-30 08:14",1,38.305632,-107.963094,TRUE,FALSE,TRUE,"S244627597"
"39","virwar","Virginia's Warbler","Leiothlypis virginiae","L335643","Yellowjacket Canyon/G Road area","2025-05-30 08:01",1,37.3623124,-108.9531434,TRUE,FALSE,FALSE,"S244619827"
"40","virwar","Virginia's Warbler","Leiothlypis virginiae","L748275","Cibola NF--Doc Long Picnic Ground & Bill Spring Trail","2025-05-30 08:00",5,35.1774762,-106.3796389,TRUE,FALSE,FALSE,"S244564379"
"41","virwar","Virginia's Warbler","Leiothlypis virginiae","L11683903","Young Gulch Trail","2025-05-30 07:51",3,40.6776199,-105.348945,TRUE,FALSE,FALSE,"S244685430"
"42","virwar","Virginia's Warbler","Leiothlypis virginiae","L46403178","Snake Creek Rd, Baker US-NV 38.91930, -114.19676","2025-05-30 07:45",3,38.919298,-114.196761,TRUE,FALSE,TRUE,"S244726086"
"43","virwar","Virginia's Warbler","Leiothlypis virginiae","L32818765","Asphalt Road, Prescott US-AZ 34.43953, -112.40226","2025-05-30 07:31",5,34.439526,-112.402261,TRUE,FALSE,TRUE,"S244702595"
"44","virwar","Virginia's Warbler","Leiothlypis virginiae","L716626","Rio Grande Valley SP--Pueblo Montano Bosque Trails","2025-05-30 07:23",1,35.1422405,-106.6843696,TRUE,FALSE,FALSE,"S244724203"
"45","virwar","Virginia's Warbler","Leiothlypis virginiae","L798569","Rock Canyon","2025-05-30 07:17",1,40.2638741,-111.6266727,TRUE,FALSE,FALSE,"S244549549"
"46","virwar","Virginia's Warbler","Leiothlypis virginiae","L46374666","Navajo/Peekaboo Combination Loop","2025-05-30 07:09",1,37.617996,-112.158867,TRUE,FALSE,TRUE,"S244606219"
"47","virwar","Virginia's Warbler","Leiothlypis virginiae","L365236","Mesa Trail Complex","2025-05-30 06:59",1,39.9403107,-105.2607393,TRUE,FALSE,FALSE,"S244599567"
"48","virwar","Virginia's Warbler","Leiothlypis virginiae","L46032785","4 Friar Tuck, Mayhill, New Mexico, US (32.943, -105.623)","2025-05-30 06:57",1,32.9428411,-105.6232267,TRUE,FALSE,TRUE,"S244526079"
"49","virwar","Virginia's Warbler","Leiothlypis virginiae","L27597175","Ken Caryl Foothills Open Space","2025-05-30 06:49",7,39.576258,-105.184804,TRUE,FALSE,TRUE,"S244607399"
"50","virwar","Virginia's Warbler","Leiothlypis virginiae","L129031","Miller Canyon Trail","2025-05-30 06:47",2,31.40806,-110.28619,TRUE,FALSE,FALSE,"S244622654"
"51","virwar","Virginia's Warbler","Leiothlypis virginiae","L38543127","Southern (Woodpecker) Crossing","2025-05-30 06:46",2,34.9931615,-106.3478689,TRUE,FALSE,TRUE,"S244534483"
"52","virwar","Virginia's Warbler","Leiothlypis virginiae","L11528061","East Sopris Creek Rd--Snowmass Creek Rd to Bear Ridge Rd","2025-05-30 06:36",1,39.317311,-107.020974,TRUE,FALSE,FALSE,"S244532059"
"53","virwar","Virginia's Warbler","Leiothlypis virginiae","L1372055","Zion NP--Hop Valley Trailhead","2025-05-30 06:36",3,37.3399833,-113.1129,TRUE,FALSE,FALSE,"S244591572"
"54","virwar","Virginia's Warbler","Leiothlypis virginiae","L12883422","1B La Cueva Creek Rd, Glorieta US-NM 35.58640, -105.73508","2025-05-30 06:24",2,35.586398,-105.735084,TRUE,FALSE,TRUE,"S244529215"
"55","virwar","Virginia's Warbler","Leiothlypis virginiae","L1212326","Groom Creek Loop Trail #307","2025-05-30 06:20",15,34.4644607,-112.4407473,TRUE,FALSE,FALSE,"S244618078"
"56","virwar","Virginia's Warbler","Leiothlypis virginiae","L2271195","Staunton SP (Jefferson Co)","2025-05-30 06:17",1,39.5174412,-105.3884554,TRUE,FALSE,FALSE,"S244646914"
"57","virwar","Virginia's Warbler","Leiothlypis virginiae","L46332094","300–398 W Los Ranchitos Dr, Durango US-CO (37.3541,-107.6928)","2025-05-29 20:10",1,37.354081,-107.692772,TRUE,FALSE,TRUE,"S244402655"
"58","virwar","Virginia's Warbler","Leiothlypis virginiae","L9611402","Boggy Draw","2025-05-29 19:26",1,37.5663698,-108.4554547,TRUE,FALSE,FALSE,"S244619715"
"59","virwar","Virginia's Warbler","Leiothlypis virginiae","L585741","Spring Mountains NRA--Fletcher Canyon","2025-05-29 18:26",1,36.2660753,-115.6122851,TRUE,FALSE,FALSE,"S244694999"
"60","virwar","Virginia's Warbler","Leiothlypis virginiae","L46002057","West Wiemer Springs Road","2025-05-29 17:31",1,34.992684,-111.50665,TRUE,FALSE,TRUE,"S244673968"
"61","virwar","Virginia's Warbler","Leiothlypis virginiae","L32716921","Fremont Indian SP","2025-05-29 17:28",2,38.577534,-112.33469,TRUE,FALSE,FALSE,"S244407195"
"62","virwar","Virginia's Warbler","Leiothlypis virginiae","L10207441","Eldorado Mountain Open Space--Fowler Trail","2025-05-29 17:27",2,39.930477,-105.2744985,TRUE,FALSE,FALSE,"S244394371"
"63","virwar","Virginia's Warbler","Leiothlypis virginiae","L627277","Chautauqua Park","2025-05-29 17:14",1,39.9934954,-105.2834845,TRUE,FALSE,FALSE,"S244412371"
"64","virwar","Virginia's Warbler","Leiothlypis virginiae","L34500355","Lion's Lair Spur Trail, Boulder US-CO 40.03433, -105.31526","2025-05-29 16:39",NA,40.034326,-105.315255,TRUE,FALSE,TRUE,"S244406618"
"65","virwar","Virginia's Warbler","Leiothlypis virginiae","L46324679","E Colcord Rd, Payson US-AZ 34.25375, -110.88731","2025-05-29 16:20",1,34.253751,-110.887314,TRUE,FALSE,TRUE,"S244363722"
"66","virwar","Virginia's Warbler","Leiothlypis virginiae","L3761315","Fisher Mesa Trailhead","2025-05-29 16:00",7,38.617602,-109.229737,TRUE,FALSE,TRUE,"S244372205"
"67","virwar","Virginia's Warbler","Leiothlypis virginiae","L27285788","Kyhv Peak Rd, Springville US-UT 40.30500, -111.61897","2025-05-29 15:47",2,40.305,-111.618974,TRUE,FALSE,TRUE,"S244355042"
"68","virwar","Virginia's Warbler","Leiothlypis virginiae","L720601","Slide Rock SP","2025-05-29 14:30",1,34.9439604,-111.7531872,TRUE,FALSE,FALSE,"S244329789"
"69","virwar","Virginia's Warbler","Leiothlypis virginiae","L129099","Cave Creek Canyon--South Fork","2025-05-29 14:27",1,31.8688764,-109.1883919,TRUE,FALSE,FALSE,"S244387126"
"70","virwar","Virginia's Warbler","Leiothlypis virginiae","L1035433","Road between Onion Saddle and Barfoot Jct","2025-05-29 12:53",2,31.923027,-109.2616081,TRUE,FALSE,FALSE,"S244431232"
"71","virwar","Virginia's Warbler","Leiothlypis virginiae","L753821","Oak Creek Canyon--West Fork","2025-05-29 12:51",1,34.988,-111.7477,TRUE,FALSE,FALSE,"S244322436"
"72","virwar","Virginia's Warbler","Leiothlypis virginiae","L46321412","1346–1398 Old South Saint Vrain Rd, Lyons US-CO 40.20631, -105.29299","2025-05-29 12:45",1,40.206312,-105.292993,TRUE,FALSE,TRUE,"S244345771"
"73","virwar","Virginia's Warbler","Leiothlypis virginiae","L46310816","Draper, Utah, US (40.507, -111.823)","2025-05-29 12:44",NA,40.5071301,-111.8225489,TRUE,FALSE,TRUE,"S244289151"
"74","virwar","Virginia's Warbler","Leiothlypis virginiae","L3347228","Corrales Bosque--Dixon Rd. Access","2025-05-29 12:42",1,35.2265012,-106.5988129,TRUE,FALSE,FALSE,"S244307998"
"75","virwar","Virginia's Warbler","Leiothlypis virginiae","L4385704","Castlewood Canyon SP--West Side Area","2025-05-29 12:32",1,39.3531357,-104.7655713,TRUE,FALSE,FALSE,"S244272031"
"76","virwar","Virginia's Warbler","Leiothlypis virginiae","L129068","Mt. Lemmon--Rose Canyon and Lake","2025-05-29 12:00",1,32.3926274,-110.7024693,TRUE,FALSE,FALSE,"S244337325"
"77","virwar","Virginia's Warbler","Leiothlypis virginiae","L4692255","Old La Veta Pass Rd (Costilla Co)","2025-05-29 11:10",2,37.593464,-105.204438,TRUE,FALSE,FALSE,"S244256839"
"78","virwar","Virginia's Warbler","Leiothlypis virginiae","L9715065","Black Canyon of the Gunnison NP--Gunnison Trail & River Camp","2025-05-29 11:05",2,38.5583948,-107.689776,TRUE,FALSE,FALSE,"S244684385"
"79","virwar","Virginia's Warbler","Leiothlypis virginiae","L11485033","Fishers Peak SP--Moore's Canyon","2025-05-29 10:51",2,37.11049,-104.517949,TRUE,FALSE,FALSE,"S244256836"
"80","virwar","Virginia's Warbler","Leiothlypis virginiae","L274916","Cibola NF--Balsam Glade","2025-05-29 10:48",1,35.2138011,-106.4079608,TRUE,FALSE,FALSE,"S244636993"
"81","virwar","Virginia's Warbler","Leiothlypis virginiae","L46295773","SR-44, Manila US-UT 40.90263, -109.70141","2025-05-29 10:31",1,40.902625,-109.701409,TRUE,FALSE,TRUE,"S244221428"
"82","virwar","Virginia's Warbler","Leiothlypis virginiae","L13028971","8066 Bannock Dr, Larkspur US-CO","2025-05-29 10:30",1,39.24512,-104.982973,TRUE,FALSE,TRUE,"S244242923"
"83","virwar","Virginia's Warbler","Leiothlypis virginiae","L46321206","Fletcher Canyon Trail, Las Vegas US-NV 36.27369, -115.62718","2025-05-29 10:07",1,36.273687,-115.627179,TRUE,FALSE,TRUE,"S244344868"
"84","virwar","Virginia's Warbler","Leiothlypis virginiae","L301174","Mt. Lemmon--Mt Bigelow Rd","2025-05-29 09:54",4,32.4170301,-110.7250857,TRUE,FALSE,FALSE,"S244330985"
"85","virwar","Virginia's Warbler","Leiothlypis virginiae","L46322841","Kelley's Pocket on FS Rd 237","2025-05-29 09:46",1,35.0607906,-111.7204891,TRUE,FALSE,TRUE,"S244353336"
"86","virwar","Virginia's Warbler","Leiothlypis virginiae","L46321179","Fletcher Canyon Trail, Las Vegas US-NV 36.27291, -115.62466","2025-05-29 09:42",1,36.272908,-115.624665,TRUE,FALSE,TRUE,"S244344612"
"87","virwar","Virginia's Warbler","Leiothlypis virginiae","L7477669","Lake Nighthorse","2025-05-29 09:39",2,37.2273214,-107.9166842,TRUE,FALSE,FALSE,"S244370697"
"88","virwar","Virginia's Warbler","Leiothlypis virginiae","L263624","Green's Peak","2025-05-29 09:34",1,34.1100646,-109.5748435,TRUE,FALSE,FALSE,"S244250905"
"89","virwar","Virginia's Warbler","Leiothlypis virginiae","L38181100","7263 Silverhorn Dr, Evergreen US-CO 39.58627, -105.28777","2025-05-29 09:30",1,39.586275,-105.287767,TRUE,FALSE,TRUE,"S244206439"
"90","virwar","Virginia's Warbler","Leiothlypis virginiae","L46320943","Fletcher Canyon Trail, Las Vegas US-NV 36.26675, -115.61298","2025-05-29 09:30",1,36.266746,-115.612976,TRUE,FALSE,TRUE,"S244344439"
"91","virwar","Virginia's Warbler","Leiothlypis virginiae","L128889","Mt. Lemmon--Bear Wallow","2025-05-29 09:29",2,32.4210014,-110.731102,TRUE,FALSE,FALSE,"S244330031"
"92","virwar","Virginia's Warbler","Leiothlypis virginiae","L2231639","Wolverine Canyon--Upper","2025-05-29 09:00",2,43.2913844,-111.9201279,TRUE,FALSE,FALSE,"S244338658"
"93","virwar","Virginia's Warbler","Leiothlypis virginiae","L190028","Ojito de San Antonio Open Space","2025-05-29 08:38",2,35.1034101,-106.3819456,TRUE,FALSE,FALSE,"S244218348"
"94","virwar","Virginia's Warbler","Leiothlypis virginiae","L506735","American Fork Canyon--Granite Flat CG","2025-05-29 08:29",2,40.4905978,-111.6554475,TRUE,FALSE,FALSE,"S244223757"
"95","virwar","Virginia's Warbler","Leiothlypis virginiae","L46287098","New Mexico 112, Los Ojos, New Mexico, US (36.677, -106.613)","2025-05-29 08:26",3,36.6772661,-106.6130807,TRUE,FALSE,TRUE,"S244181088"
"96","virwar","Virginia's Warbler","Leiothlypis virginiae","L639354","CO-Routt Skyline Trail","2025-05-29 08:23",2,40.4772477,-106.7942333,TRUE,FALSE,TRUE,"S244292758"
"97","virwar","Virginia's Warbler","Leiothlypis virginiae","L19170431","East Park--Mesa Trail","2025-05-29 08:17",1,35.8834578,-106.2825936,TRUE,FALSE,FALSE,"S244190911"
"98","virwar","Virginia's Warbler","Leiothlypis virginiae","L13487275","Cibola NF--Capulin Spring Picnic Site (Bernalillo Co.)","2025-05-29 08:10",2,35.2158349,-106.4159027,TRUE,FALSE,FALSE,"S244223352"
"99","virwar","Virginia's Warbler","Leiothlypis virginiae","L6944240","Ranch Road","2025-05-29 08:05",1,35.0427633,-108.2370245,TRUE,FALSE,TRUE,"S244313201"
"100","virwar","Virginia's Warbler","Leiothlypis virginiae","L35726721","Sinks Canyon SP--Rise of the Popo Agie","2025-05-29 08:03",1,42.7526121,-108.8055538,TRUE,FALSE,FALSE,"S244248753"
"101","virwar","Virginia's Warbler","Leiothlypis virginiae","L951782","Yellow Fork Canyon -- Lower","2025-05-29 08:01",2,40.4687118,-112.0973069,TRUE,FALSE,FALSE,"S244228364"
"102","virwar","Virginia's Warbler","Leiothlypis virginiae","L1164525","Bandelier NM (Sandoval Co.)","2025-05-29 07:59",1,35.78231,-106.2701941,TRUE,FALSE,FALSE,"S244230695"
"103","virwar","Virginia's Warbler","Leiothlypis virginiae","L2858722","La Cueva Home","2025-05-29 07:55",1,35.5863642,-105.7350236,TRUE,FALSE,TRUE,"S244175712"
"104","virwar","Virginia's Warbler","Leiothlypis virginiae","L46283722","Cajun pine","2025-05-29 07:53",1,34.9924633,-106.3515724,TRUE,FALSE,TRUE,"S244168277"
"105","virwar","Virginia's Warbler","Leiothlypis virginiae","L14882667","Flagstaff, Arizona, US (35.229, -111.6)","2025-05-29 07:51",2,35.2286887,-111.5996666,TRUE,FALSE,TRUE,"S244324223"
"106","virwar","Virginia's Warbler","Leiothlypis virginiae","L1117941","Rio Fernando Wetlands (Fred Baca Park and adjacent Rio Fernando Park)","2025-05-29 07:50",1,36.3991437,-105.5896854,TRUE,FALSE,FALSE,"S244386732"
"107","virwar","Virginia's Warbler","Leiothlypis virginiae","L1175561","Red Rock Canyon Open Space","2025-05-29 07:46",2,38.8473432,-104.8811263,TRUE,FALSE,FALSE,"S244253854"
"108","virwar","Virginia's Warbler","Leiothlypis virginiae","L354093","Catwalk National Recreation Trail","2025-05-29 07:45",1,33.3736887,-108.8403511,TRUE,FALSE,FALSE,"S244388105"
"109","virwar","Virginia's Warbler","Leiothlypis virginiae","L3354672","Confluence of Pueblo and Acid Canyons","2025-05-29 07:19",4,35.8889067,-106.3039041,TRUE,FALSE,FALSE,"S244259485"
"110","virwar","Virginia's Warbler","Leiothlypis virginiae","L13168690","Home","2025-05-29 07:10",1,36.3325504,-105.6099821,TRUE,FALSE,TRUE,"S244359276"
"111","virwar","Virginia's Warbler","Leiothlypis virginiae","L559954","Lamb's Canyon","2025-05-29 07:06",1,40.7233235,-111.6625071,TRUE,FALSE,FALSE,"S244159141"
"112","virwar","Virginia's Warbler","Leiothlypis virginiae","L191057","Rocky Mountain NP--Cow Creek","2025-05-29 07:03",1,40.42682,-105.524994,TRUE,FALSE,FALSE,"S244244967"
"113","virwar","Virginia's Warbler","Leiothlypis virginiae","L46324771","84512, Bluff US-UT (37.1818,-109.8528)","2025-05-29 07:00",1,37.18182,-109.852801,TRUE,FALSE,TRUE,"S244364245"
"114","virwar","Virginia's Warbler","Leiothlypis virginiae","L1819813","Mesa Verde NP--Far View House","2025-05-29 06:45",1,37.2596619,-108.4941744,TRUE,FALSE,FALSE,"S244359027"
"115","virwar","Virginia's Warbler","Leiothlypis virginiae","L1550416","Juan Tomas Open Space","2025-05-29 06:42",7,35.0006738,-106.3108726,TRUE,FALSE,FALSE,"S244599135"
"116","virwar","Virginia's Warbler","Leiothlypis virginiae","L46299816","Rampart Range Rd, Colorado Springs US-CO 38.89449, -104.90887","2025-05-29 06:37",4,38.894492,-104.908868,TRUE,FALSE,TRUE,"S244239040"
"117","virwar","Virginia's Warbler","Leiothlypis virginiae","L2673862","San Vicente Cienega Trail","2025-05-29 06:36",1,32.7629823,-108.2704689,TRUE,FALSE,FALSE,"S244287756"
"118","virwar","Virginia's Warbler","Leiothlypis virginiae","L1583240","Huachuca Canyon--lower picnic area","2025-05-29 06:35",1,31.5411676,-110.3741764,TRUE,FALSE,FALSE,"S244169443"
"119","virwar","Virginia's Warbler","Leiothlypis virginiae","L30854959","Zion NP--West Rim Trail--Lower","2025-05-29 06:34",1,37.280596,-112.951369,TRUE,FALSE,FALSE,"S244417071"
"120","virwar","Virginia's Warbler","Leiothlypis virginiae","L3154811","Slate Creek Divide (Maricopa Co.)","2025-05-29 06:19",7,34.000011,-111.470356,TRUE,TRUE,FALSE,"S244312330"
"121","virwar","Virginia's Warbler","Leiothlypis virginiae","L40641825","Chihuahuan Desert IBA -- South","2025-05-29 06:17",1,32.3437347,-108.9863531,TRUE,FALSE,TRUE,"S244314813"
"122","virwar","Virginia's Warbler","Leiothlypis virginiae","L46291042","9863–9899 N Willow Loop, Tucson US-AZ 32.38945, -110.70630","2025-05-29 06:09",1,32.389445,-110.706297,TRUE,FALSE,TRUE,"S244198461"
"123","virwar","Virginia's Warbler","Leiothlypis virginiae","L246739","Furnace Creek Ranch--The Ranch at Death Valley","2025-05-29 05:32",1,36.4588031,-116.8723547,TRUE,FALSE,FALSE,"S244317587"
"124","virwar","Virginia's Warbler","Leiothlypis virginiae","L46253482","S Rose Canyon Rd, Herriman US-UT 40.46534, -112.08476","2025-05-28 18:48",1,40.46534,-112.084759,TRUE,FALSE,TRUE,"S244020209"
"125","virwar","Virginia's Warbler","Leiothlypis virginiae","L25547245","Cibola NF--Tajique Campground","2025-05-28 18:45",1,34.7659417,-106.3278294,TRUE,FALSE,FALSE,"S244027364"
"126","virwar","Virginia's Warbler","Leiothlypis virginiae","L46254578","Twin Buttes Trail","2025-05-28 18:40",3,37.268676,-107.914006,TRUE,FALSE,TRUE,"S244025486"
"127","virwar","Virginia's Warbler","Leiothlypis virginiae","L1588063","NMSU--Campus","2025-05-28 18:34",1,32.2827167,-106.7469445,TRUE,FALSE,FALSE,"S244021962"
"128","virwar","Virginia's Warbler","Leiothlypis virginiae","L3672517","Mt. Ord--FR 1688","2025-05-28 18:09",1,33.9211769,-111.4143384,TRUE,FALSE,FALSE,"S244045998"
"129","virwar","Virginia's Warbler","Leiothlypis virginiae","L13077106","Grand Canyon NP--Bright Angel Trailhead","2025-05-28 15:54",2,36.0572872,-112.1435988,TRUE,FALSE,FALSE,"S244002456"
"130","virwar","Virginia's Warbler","Leiothlypis virginiae","L27298912","Armijo Trail, Cedar Crest US-NM 35.16477, -106.37310","2025-05-28 15:26",4,35.164772,-106.373097,TRUE,FALSE,TRUE,"S243985094"
"131","virwar","Virginia's Warbler","Leiothlypis virginiae","L127970","Mt. Lemmon--upper","2025-05-28 14:06",1,32.4404984,-110.7902985,TRUE,FALSE,FALSE,"S244718040"
"132","virwar","Virginia's Warbler","Leiothlypis virginiae","L9798690","Spring Mountains NRA--Visitor Gateway","2025-05-28 12:55",3,36.2707205,-115.58851,TRUE,FALSE,FALSE,"S244032749"
"133","virwar","Virginia's Warbler","Leiothlypis virginiae","L46224003","11603 SH-141, Whitewater US-CO 38.85469, -108.53170","2025-05-28 11:03",2,38.854693,-108.531703,TRUE,FALSE,TRUE,"S243872383"
"134","virwar","Virginia's Warbler","Leiothlypis virginiae","L46245070","Mt. Cutler and Muscoco Trails","2025-05-28 10:45",9,38.7917374,-104.8869232,TRUE,FALSE,TRUE,"S243980316"
"135","virwar","Virginia's Warbler","Leiothlypis virginiae","L46233866","Gulches, hillsides, and open sage SE of Eagle, Colorado, US (39.613, -106.786)","2025-05-28 10:44",1,39.6131071,-106.7861877,TRUE,FALSE,TRUE,"S243919445"
"136","virwar","Virginia's Warbler","Leiothlypis virginiae","L28363926","Colorado NM--Highand View Overlook","2025-05-28 10:35",1,39.062249,-108.7300587,TRUE,FALSE,FALSE,"S243898774"
"137","virwar","Virginia's Warbler","Leiothlypis virginiae","L1576861","Mt. Lemmon--Aspen Trail","2025-05-28 10:33",8,32.4230052,-110.7647227,TRUE,FALSE,TRUE,"S243907440"
"138","virwar","Virginia's Warbler","Leiothlypis virginiae","L1101934","Hermosa Creek area--Lower Hermosa Campground to Hermosa (town)","2025-05-28 10:29",3,37.4315913,-107.8473759,TRUE,FALSE,FALSE,"S243945872"
"139","virwar","Virginia's Warbler","Leiothlypis virginiae","L15834458","Colorado NM--Upper Ute Canyon Overlook","2025-05-28 10:20",1,39.0430063,-108.7152532,TRUE,FALSE,FALSE,"S243897144"
"140","virwar","Virginia's Warbler","Leiothlypis virginiae","L46245025","Creekside Trail","2025-05-28 10:20",2,38.7917392,-104.8836877,TRUE,FALSE,TRUE,"S243975137"
"141","virwar","Virginia's Warbler","Leiothlypis virginiae","L3029761","Mud Spring Campground","2025-05-28 10:12",2,38.9049969,-108.7387866,TRUE,FALSE,FALSE,"S243878504"
"142","virwar","Virginia's Warbler","Leiothlypis virginiae","L140001","Big Ditch Park","2025-05-28 09:57",1,32.7725894,-108.2752419,TRUE,FALSE,FALSE,"S243892649"
"143","virwar","Virginia's Warbler","Leiothlypis virginiae","L363693","Deer Creek Canyon Park","2025-05-28 09:55",1,39.5355568,-105.1626778,TRUE,FALSE,FALSE,"S243941420"
"144","virwar","Virginia's Warbler","Leiothlypis virginiae","L5880494","Colorado Trail--Durango Trailhead to Junction Creek Bridge at 2.6 miles","2025-05-28 09:45",1,37.3313775,-107.9029424,TRUE,FALSE,FALSE,"S244245800"
"145","virwar","Virginia's Warbler","Leiothlypis virginiae","L948409","Great Sand Dunes NP--Montville Trail","2025-05-28 09:44",1,37.7329825,-105.5045629,TRUE,FALSE,FALSE,"S243851110"
"146","virwar","Virginia's Warbler","Leiothlypis virginiae","L46244035","Marshall Peak Traverse","2025-05-28 09:41",1,32.4249328,-110.7689399,TRUE,FALSE,TRUE,"S243970282"
"147","virwar","Virginia's Warbler","Leiothlypis virginiae","L20320698","Manti-La Sal National Forest, Moab US-UT 38.54734, -109.29079  Bottom of Miners Basin Rd","2025-05-28 09:40",8,38.547341,-109.290787,TRUE,FALSE,TRUE,"S243927673"
"148","virwar","Virginia's Warbler","Leiothlypis virginiae","L109291","Box Canyon Falls Park","2025-05-28 09:40",2,38.0178885,-107.6781124,TRUE,FALSE,FALSE,"S243864579"
"149","virwar","Virginia's Warbler","Leiothlypis virginiae","L46243913","Marshall Peak NW 8296","2025-05-28 09:34",2,32.4262478,-110.7704742,TRUE,FALSE,TRUE,"S243969454"
"150","virwar","Virginia's Warbler","Leiothlypis virginiae","L109237","Roxborough SP","2025-05-28 09:30",1,39.4295306,-105.0694388,TRUE,FALSE,FALSE,"S243893103"
"151","virwar","Virginia's Warbler","Leiothlypis virginiae","L5068827","Storm King Fire Memorial Trail","2025-05-28 09:30",4,39.5770818,-107.4263334,TRUE,FALSE,FALSE,"S244022162"
"152","virwar","Virginia's Warbler","Leiothlypis virginiae","L25208306","Maabe Flats to MM 2","2025-05-28 09:29",2,38.917494,-108.739443,TRUE,FALSE,TRUE,"S243850629"
"153","virwar","Virginia's Warbler","Leiothlypis virginiae","L46233609","North Carnero Creek Trail","2025-05-28 09:29",1,37.9319972,-106.389857,TRUE,FALSE,TRUE,"S243918181"
"154","virwar","Virginia's Warbler","Leiothlypis virginiae","L46215462","Dry Canyon","2025-05-28 09:28",1,40.349389,-111.678704,TRUE,FALSE,TRUE,"S243837519"
"155","virwar","Virginia's Warbler","Leiothlypis virginiae","L46225718","Horsetooth Falls Trail, Loveland US-CO 40.52576, -105.18081","2025-05-28 09:21",1,40.525763,-105.180814,TRUE,FALSE,TRUE,"S243880112"
"156","virwar","Virginia's Warbler","Leiothlypis virginiae","L2736013","Green Mountain West Ridge Trail","2025-05-28 09:17",1,39.9821679,-105.3019595,TRUE,FALSE,FALSE,"S243880671"
"157","virwar","Virginia's Warbler","Leiothlypis virginiae","L1211296","Upper Water Canyon","2025-05-28 09:08",8,35.8377417,-106.360103,TRUE,FALSE,FALSE,"S243861056"
"158","virwar","Virginia's Warbler","Leiothlypis virginiae","L436785","Horsetooth Mountain Open Space","2025-05-28 09:06",1,40.5250217,-105.176754,TRUE,FALSE,FALSE,"S243987178"
"159","virwar","Virginia's Warbler","Leiothlypis virginiae","L26198144","S 16 1/2 Rd Overlook, Glade Park US-CO 38.93774, -108.74064","2025-05-28 08:56",1,38.937738,-108.740642,TRUE,FALSE,TRUE,"S243830611"
"160","virwar","Virginia's Warbler","Leiothlypis virginiae","L503396","Price Canyon--Recreation Area Rd.","2025-05-28 08:48",5,39.7615172,-110.9174001,TRUE,FALSE,FALSE,"S243882997"
"161","virwar","Virginia's Warbler","Leiothlypis virginiae","L46313946","81230, Gunnison US-CO 38.42107, -107.25293","2025-05-28 08:43",2,38.421068,-107.252927,TRUE,FALSE,TRUE,"S244304512"
"162","virwar","Virginia's Warbler","Leiothlypis virginiae","L4094976","stakeout Sulphur-bellied Flycatcher, Bear Canyon pullout","2025-05-28 08:34",2,32.36573,-110.709329,TRUE,FALSE,FALSE,"S243963382"
"163","virwar","Virginia's Warbler","Leiothlypis virginiae","L266622","Red Rock SP","2025-05-28 08:23",1,34.8117069,-111.8288603,TRUE,FALSE,FALSE,"S243877614"
"164","virwar","Virginia's Warbler","Leiothlypis virginiae","L753061","Mt. Lemmon--Summerhaven","2025-05-28 08:17",1,32.4427119,-110.7598686,TRUE,FALSE,FALSE,"S243939346"
"165","virwar","Virginia's Warbler","Leiothlypis virginiae","L2111985","Avalanche Creek","2025-05-28 08:17",2,39.2537905,-107.2311974,TRUE,FALSE,FALSE,"S243867890"
"166","virwar","Virginia's Warbler","Leiothlypis virginiae","L267654","Mt. Lemmon--Marshall Gulch","2025-05-28 08:17",4,32.4280212,-110.7556783,TRUE,FALSE,FALSE,"S243932904"
"167","virwar","Virginia's Warbler","Leiothlypis virginiae","L1777822","Deer Creek Canyon Park--Meadowlark Trail","2025-05-28 08:15",1,39.5436808,-105.1574403,TRUE,FALSE,FALSE,"S243937297"
"168","virwar","Virginia's Warbler","Leiothlypis virginiae","L3062977","Carlito Springs Open Space","2025-05-28 08:06",1,35.0865192,-106.3981408,TRUE,FALSE,FALSE,"S244228169"
"169","virwar","Virginia's Warbler","Leiothlypis virginiae","L9554853","Indian Creek Campground","2025-05-28 08:00",1,34.4793803,-112.4984253,TRUE,FALSE,FALSE,"S243915069"
"170","virwar","Virginia's Warbler","Leiothlypis virginiae","L43854704","PZ-187","2025-05-28 07:54",1,42.075924,-113.052658,TRUE,FALSE,TRUE,"S243873524"
"171","virwar","Virginia's Warbler","Leiothlypis virginiae","L45386734","Kelly Pocket","2025-05-28 07:44",2,35.06068,-111.719788,TRUE,FALSE,TRUE,"S243921554"
"172","virwar","Virginia's Warbler","Leiothlypis virginiae","L3083156","Mt. Lemmon--Mint Spring Trail #20","2025-05-28 07:32",6,32.4316423,-110.7619393,TRUE,FALSE,TRUE,"S243844337"
"173","virwar","Virginia's Warbler","Leiothlypis virginiae","L6330471","Two Guns Walnut","2025-05-28 07:32",1,35.1157201,-111.0959709,TRUE,FALSE,TRUE,"S243819423"
"174","virwar","Virginia's Warbler","Leiothlypis virginiae","L2774373","Jeffco Open Space -- Tiny Town Draw & Saddle areas","2025-05-28 07:26",3,39.603444,-105.221651,TRUE,FALSE,TRUE,"S243882754"
"175","virwar","Virginia's Warbler","Leiothlypis virginiae","L11673940","Redstone CG","2025-05-28 07:26",1,39.1981931,-107.2309942,TRUE,FALSE,FALSE,"S243868095"
"176","virwar","Virginia's Warbler","Leiothlypis virginiae","L1258571","Mt. Lemmon--Carter Canyon Rd.","2025-05-28 07:04",2,32.4391149,-110.7621861,TRUE,FALSE,TRUE,"S243814012"
"177","virwar","Virginia's Warbler","Leiothlypis virginiae","L3156434","Bosque del Apache NWR--Flight Deck","2025-05-28 06:56",1,33.8049577,-106.8843985,TRUE,FALSE,FALSE,"S243805992"
"178","virwar","Virginia's Warbler","Leiothlypis virginiae","L2948522","Cibola NF--Tree Spring Trailhead","2025-05-28 06:55",1,35.1938953,-106.40468,TRUE,FALSE,FALSE,"S244037109"
"179","virwar","Virginia's Warbler","Leiothlypis virginiae","L44766146","Bradshaw Mountains: Upper Knapp Gulch","2025-05-28 06:50",8,34.4375745,-112.3991389,TRUE,FALSE,TRUE,"S243867144"
"180","virwar","Virginia's Warbler","Leiothlypis virginiae","L31814355","Spanish Peaks SWA--Dochter Tract Trail","2025-05-28 06:48",2,37.2482,-104.804247,TRUE,FALSE,FALSE,"S243967562"
"181","virwar","Virginia's Warbler","Leiothlypis virginiae","L1342739","Zion NP--Angel's Landing Trail","2025-05-28 06:48",2,37.2646665,-112.9505291,TRUE,FALSE,FALSE,"S243932002"
"182","virwar","Virginia's Warbler","Leiothlypis virginiae","L691579","Rio de Flag--Picture Canyon","2025-05-28 05:53",2,35.2289344,-111.5534592,TRUE,FALSE,FALSE,"S243810312"
"183","virwar","Virginia's Warbler","Leiothlypis virginiae","L46221676","9 Mile Survey","2025-05-28 05:46",NA,39.7998025,-110.3864828,TRUE,FALSE,TRUE,"S243867132"
"184","virwar","Virginia's Warbler","Leiothlypis virginiae","L549738","Kendall Camp Trail","2025-05-28 05:40",NA,34.433447,-112.446872,TRUE,FALSE,FALSE,"S243882720"
"185","virwar","Virginia's Warbler","Leiothlypis virginiae","L19928532","cave springs breeding bird route","2025-05-28 05:18",3,39.0114114,-114.217948,TRUE,FALSE,TRUE,"S243960025"
"186","virwar","Virginia's Warbler","Leiothlypis virginiae","L12135428","Spring Mountains NRA--Cathedral Rock Trail","2025-05-28 04:33",1,36.2547424,-115.6474461,TRUE,FALSE,FALSE,"S243864569"
"187","virwar","Virginia's Warbler","Leiothlypis virginiae","L46228311","Kaibab NF--Pine Canyon","2025-05-28 04:30",6,35.0508695,-112.170534,TRUE,FALSE,TRUE,"S243891734"
"188","virwar","Virginia's Warbler","Leiothlypis virginiae","L46229184","Granite Flat Campground Rd, Alpine US-UT 40.48964, -111.65284","2025-05-27 20:14",2,40.489637,-111.652838,TRUE,FALSE,TRUE,"S243895690"
"189","virwar","Virginia's Warbler","Leiothlypis virginiae","L46220759","Parley Canyon","2025-05-27 19:00",2,39.81768,-110.37493,TRUE,FALSE,TRUE,"S243860321"
"190","virwar","Virginia's Warbler","Leiothlypis virginiae","L46242654","East Wolf Creek Road, Prescott, Arizona, US (34.457, -112.47)","2025-05-27 18:50",2,34.4565891,-112.4698746,TRUE,FALSE,TRUE,"S243962581"
"191","virwar","Virginia's Warbler","Leiothlypis virginiae","L46243348","11701 S Downing Pass, Bowie US-AZ 31.93092, -109.26632","2025-05-27 16:36",1,31.930917,-109.266318,TRUE,FALSE,TRUE,"S243966366"
"192","virwar","Virginia's Warbler","Leiothlypis virginiae","L1542525","Mesa Verde NP--Geologic Overlook","2025-05-27 15:40",1,37.2776726,-108.4834509,TRUE,FALSE,FALSE,"S243672800"
"193","virwar","Virginia's Warbler","Leiothlypis virginiae","L3443613","National Center for Atmospheric Research Mesa","2025-05-27 15:34",3,39.9775147,-105.276854,TRUE,FALSE,FALSE,"S243680322"
"194","virwar","Virginia's Warbler","Leiothlypis virginiae","L1542522","Mesa Verde NP--Park Point","2025-05-27 15:00",2,37.280678,-108.4614334,TRUE,FALSE,FALSE,"S243666629"
"195","virwar","Virginia's Warbler","Leiothlypis virginiae","L9087325","Black Canyon of the Gunnison NP--South Rim Visitor Center","2025-05-27 14:43",1,38.5547293,-107.6860183,TRUE,FALSE,FALSE,"S243610432"
"196","virwar","Virginia's Warbler","Leiothlypis virginiae","L141795","Billy Creek SWA (Ouray Co)","2025-05-27 14:04",1,38.2881012,-107.7322998,TRUE,FALSE,FALSE,"S243615351"
"197","virwar","Virginia's Warbler","Leiothlypis virginiae","L589670","Gila Cliff Dwellings NM","2025-05-27 13:36",1,33.2276494,-108.2663369,TRUE,FALSE,FALSE,"S244379867"
"198","virwar","Virginia's Warbler","Leiothlypis virginiae","L33438217","Zion NP--Lava Point (NO Blue Springs Reservoir birds), Washington, US-UT","2025-05-27 13:27",1,37.3840334,-113.0290111,TRUE,FALSE,TRUE,"S243618322"
"199","virwar","Virginia's Warbler","Leiothlypis virginiae","L4530030","Mingus Mountain--Butterfly Spring","2025-05-27 13:12",6,34.7064731,-112.1391678,TRUE,FALSE,FALSE,"S243632548"
"200","virwar","Virginia's Warbler","Leiothlypis virginiae","L31845351","Forrest Valley Ct.","2025-05-27 12:20",1,36.2591718,-115.6502706,TRUE,FALSE,TRUE,"S243610039"
"201","virwar","Virginia's Warbler","Leiothlypis virginiae","L46216398","Plum Creek Trail - Castle Rock","2025-05-27 12:02",1,39.3690153,-104.8616942,TRUE,FALSE,TRUE,"S243840209"
"202","virwar","Virginia's Warbler","Leiothlypis virginiae","L168656","Desert NWR--Corn Creek (Field Station)","2025-05-27 11:51",1,36.438797,-115.359566,TRUE,FALSE,FALSE,"S243890768"
"203","virwar","Virginia's Warbler","Leiothlypis virginiae","L689299","Matheson Wetlands Preserve--Main Pond & Boardwalk","2025-05-27 11:49",1,38.5778294,-109.5750618,TRUE,FALSE,FALSE,"S243533810"
"204","virwar","Virginia's Warbler","Leiothlypis virginiae","L12175736","Durango West 2","2025-05-27 11:47",3,37.2666934,-107.9908011,TRUE,FALSE,TRUE,"S243562447"
"205","virwar","Virginia's Warbler","Leiothlypis virginiae","L7389108","Lory SP--Well Gulch Nature Trail","2025-05-27 11:33",3,40.5778286,-105.182274,TRUE,FALSE,FALSE,"S243629397"
"206","virwar","Virginia's Warbler","Leiothlypis virginiae","L46167140","Cross Fissures View Trail, Black Canyon of the Gunnison National Park","2025-05-27 11:29",1,38.5708588,-107.7034423,TRUE,FALSE,TRUE,"S243584391"
"207","virwar","Virginia's Warbler","Leiothlypis virginiae","L5950627","Mingus Mountain--Mingus Lake (aka Elk Well)","2025-05-27 11:24",2,34.6970875,-112.1290451,TRUE,FALSE,FALSE,"S243631230"
"208","virwar","Virginia's Warbler","Leiothlypis virginiae","L46188244","Bright Angel Trail, Grand Canyon US-AZ 36.05923, -112.14286","2025-05-27 11:04",2,36.059229,-112.142864,TRUE,FALSE,TRUE,"S243695332"
"209","virwar","Virginia's Warbler","Leiothlypis virginiae","L46232320","GRASSHOPPER CANYON","2025-05-27 10:37",1,35.574007,-105.8141158,TRUE,FALSE,TRUE,"S243912157"
"210","virwar","Virginia's Warbler","Leiothlypis virginiae","L46167014","Otowi Mesa","2025-05-27 10:30",1,35.890467,-106.245929,TRUE,FALSE,TRUE,"S243583761"
"211","virwar","Virginia's Warbler","Leiothlypis virginiae","L1239740","Rist Canyon Rd--miles 0 to 3 ","2025-05-27 10:29",4,40.6264611,-105.2239609,TRUE,FALSE,FALSE,"S243561862"
"212","virwar","Virginia's Warbler","Leiothlypis virginiae","L332319","Gregory Canyon","2025-05-27 10:28",2,39.9974935,-105.2927718,TRUE,FALSE,FALSE,"S243567445"
"213","virwar","Virginia's Warbler","Leiothlypis virginiae","L46171748","81301, Durango US-CO 37.31214, -107.75107","2025-05-27 10:08",4,37.312139,-107.751066,TRUE,FALSE,TRUE,"S243607066"
"214","virwar","Virginia's Warbler","Leiothlypis virginiae","L5716623","Carr Canyon Road--BETWEEN Reef Townsite and Ramsey Vista CGs","2025-05-27 10:05",1,31.4283152,-110.2991402,TRUE,FALSE,FALSE,"S243661399"
"215","virwar","Virginia's Warbler","Leiothlypis virginiae","L17475490","10583–10587 S Willow Canyon Rd, Grantsville US-UT 40.50922, -112.53679","2025-05-27 10:03",3,40.509218,-112.536786,TRUE,FALSE,TRUE,"S243496049"
"216","virwar","Virginia's Warbler","Leiothlypis virginiae","L2883702","Kinney Creek Trail","2025-05-27 09:53",2,42.7608537,-112.3951793,TRUE,FALSE,FALSE,"S243775174"
"217","virwar","Virginia's Warbler","Leiothlypis virginiae","L7195824","Lower Juniper Hill, Morrison US-CO (39.6060,-105.1890)","2025-05-27 09:33",2,39.606016,-105.188967,TRUE,FALSE,TRUE,"S243487177"
"218","virwar","Virginia's Warbler","Leiothlypis virginiae","L357457","Corrales Bosque--Romero Rd. Entrance","2025-05-27 09:30",1,35.256019,-106.5954924,TRUE,FALSE,FALSE,"S243523705"
"219","virwar","Virginia's Warbler","Leiothlypis virginiae","L8507677","CW USA-NM-02263 PYNU 6","2025-05-27 09:14",1,35.54442,-105.75796,TRUE,FALSE,TRUE,"S243685625"
"220","virwar","Virginia's Warbler","Leiothlypis virginiae","L11369899","Aspen Creek Trail","2025-05-27 09:00",2,34.5000478,-112.5285895,TRUE,FALSE,TRUE,"S243530107"
"221","virwar","Virginia's Warbler","Leiothlypis virginiae","L4676461","FSR 476 off of HY 518","2025-05-27 08:58",3,36.2490402,-105.5950928,TRUE,FALSE,TRUE,"S243621771"
"222","virwar","Virginia's Warbler","Leiothlypis virginiae","L6077184","Spires of Broadmoor","2025-05-27 08:57",2,38.750083,-104.84269,TRUE,FALSE,TRUE,"S243612557"
"223","virwar","Virginia's Warbler","Leiothlypis virginiae","L1238676","Bethlehem Cemetery","2025-05-27 08:52",1,38.8634033,-107.6219416,TRUE,FALSE,FALSE,"S243502586"
"224","virwar","Virginia's Warbler","Leiothlypis virginiae","L46180824","917–937 NM-15, Silver City US-NM 32.90139, -108.23936","2025-05-27 08:48",1,32.901394,-108.239363,TRUE,FALSE,TRUE,"S243657287"
"225","virwar","Virginia's Warbler","Leiothlypis virginiae","L8507460","CW USA-NM-02263 PYNU 2","2025-05-27 08:40",1,35.5373809,-105.7479031,TRUE,FALSE,TRUE,"S243684388"
"226","virwar","Virginia's Warbler","Leiothlypis virginiae","L46363035","Unnamed Road, Draper, Utah, US (40.487, -111.808) Jacob's Ladder Connector","2025-05-27 08:38",2,40.4869953,-111.8083971,TRUE,FALSE,TRUE,"S244553392"
"227","virwar","Virginia's Warbler","Leiothlypis virginiae","L753059","Mt. Lemmon--Incinerator Ridge","2025-05-27 08:30",2,32.4111248,-110.7064819,TRUE,FALSE,FALSE,"S243690895"
"228","virwar","Virginia's Warbler","Leiothlypis virginiae","L9715133","Black Canyon of the Gunnison NP--Pulpit Rock Overlook","2025-05-27 08:28",4,38.5651801,-107.7006483,TRUE,FALSE,FALSE,"S243582812"
"229","virwar","Virginia's Warbler","Leiothlypis virginiae","L32631292","Simms Mesa Interpretive Trail, Dave Wood Road, Montrose, Colorado, US (38.306, -107.963)","2025-05-27 08:15",1,38.3056826,-107.9630578,TRUE,FALSE,TRUE,"S243562073"
"230","virwar","Virginia's Warbler","Leiothlypis virginiae","L6599819","Shavano Valley Rd","2025-05-27 08:11",1,38.4552019,-107.9880953,TRUE,FALSE,FALSE,"S243462058"
"231","virwar","Virginia's Warbler","Leiothlypis virginiae","L3191730","Lower Maestas Rd. Talpa","2025-05-27 08:08",1,36.3387633,-105.5904901,TRUE,FALSE,TRUE,"S243457167"
"232","virwar","Virginia's Warbler","Leiothlypis virginiae","L948404","Great Sand Dunes NP--Visitor Center area","2025-05-27 08:00",1,37.732677,-105.5121991,TRUE,FALSE,FALSE,"S243663948"
"233","virwar","Virginia's Warbler","Leiothlypis virginiae","L11002329","Booger Red Hill Rd","2025-05-27 07:52",3,38.72252,-105.281474,TRUE,FALSE,FALSE,"S243497660"
"234","virwar","Virginia's Warbler","Leiothlypis virginiae","L570078","Rock Cliffs SP","2025-05-27 07:47",3,40.6031358,-111.3440323,TRUE,FALSE,FALSE,"S243492143"
"235","virwar","Virginia's Warbler","Leiothlypis virginiae","L353655","City Creek Canyon--Above Bonneville Blvd","2025-05-27 07:14",1,40.8046493,-111.8645096,TRUE,FALSE,FALSE,"S243500837"
"236","virwar","Virginia's Warbler","Leiothlypis virginiae","L24481287","Windstar Ranch Loop Trail","2025-05-27 07:12",3,39.302401,-106.9733,TRUE,FALSE,TRUE,"S243545727"
"237","virwar","Virginia's Warbler","Leiothlypis virginiae","L128887","Mt. Lemmon--Bear Canyon (General Hitchcock Campground)","2025-05-27 07:00",1,32.3771019,-110.6850967,TRUE,FALSE,FALSE,"S243610462"
"238","virwar","Virginia's Warbler","Leiothlypis virginiae","L46167257","Duncan Spring Trail, Cedar City US-UT 37.55545, -113.37034","2025-05-27 06:51",5,37.555455,-113.37034,TRUE,FALSE,TRUE,"S243584964"
"239","virwar","Virginia's Warbler","Leiothlypis virginiae","L46102259","National Forest Road 167, New Mexico, US (36.646, -106.032)","2025-05-27 06:48",1,36.6463461,-106.0319141,TRUE,FALSE,TRUE,"S244588938"
"240","virwar","Virginia's Warbler","Leiothlypis virginiae","L571230","South Fork Canyon--Big Springs Park","2025-05-27 06:45",1,40.334,-111.52496,TRUE,FALSE,FALSE,"S243514595"
"241","virwar","Virginia's Warbler","Leiothlypis virginiae","L46002534","735 South 3rd Street, Williams, Arizona, US (35.243, -112.186)","2025-05-27 06:31",1,35.2432071,-112.1864873,TRUE,FALSE,TRUE,"S243446725"
"242","virwar","Virginia's Warbler","Leiothlypis virginiae","L3807304","Coconino NF--Sandy's Canyon Trail","2025-05-27 06:25",3,35.1269096,-111.5986973,TRUE,FALSE,FALSE,"S243580611"
"243","virwar","Virginia's Warbler","Leiothlypis virginiae","L144858","Riparian Preserve at Gilbert Water Ranch","2025-05-27 05:36",1,33.3614502,-111.7339478,TRUE,FALSE,FALSE,"S243462145"
"244","virwar","Virginia's Warbler","Leiothlypis virginiae","L45946757","Coconino NF--Mormon Mountain","2025-05-27 04:36",3,34.9880423,-111.5021718,TRUE,FALSE,TRUE,"S243509840"
"245","virwar","Virginia's Warbler","Leiothlypis virginiae","L46164614","Strut Zone","2025-05-26 20:00",NA,40.9527632,-111.6166391,TRUE,FALSE,TRUE,"S243576213"
"246","virwar","Virginia's Warbler","Leiothlypis virginiae","L26584087","Little Pole","2025-05-26 18:45",2,40.5104029,-111.3257393,TRUE,FALSE,TRUE,"S243523442"
"247","virwar","Virginia's Warbler","Leiothlypis virginiae","L2361953","Stratton Open Space","2025-05-26 18:39",5,38.7985137,-104.8655319,TRUE,FALSE,FALSE,"S243311853"
"248","virwar","Virginia's Warbler","Leiothlypis virginiae","L13708098","San Juan National Forest, Durango US-CO 37.35575, -107.69171","2025-05-26 18:32",1,37.355753,-107.691713,TRUE,FALSE,TRUE,"S243307294"
"249","virwar","Virginia's Warbler","Leiothlypis virginiae","L5923783","Oak Creek Canyon--Encinoso Picnic Area","2025-05-26 17:21",3,34.9250323,-111.7358279,TRUE,FALSE,FALSE,"S243356320"
"250","virwar","Virginia's Warbler","Leiothlypis virginiae","L1967524","Cerise Regional Park","2025-05-26 16:16",1,38.4710625,-107.8826094,TRUE,FALSE,FALSE,"S243262413"
"251","virwar","Virginia's Warbler","Leiothlypis virginiae","L46147041","S Entrance Rd, Grand Canyon US-AZ 36.00016, -112.12163","2025-05-26 16:03",1,36.000157,-112.121626,TRUE,FALSE,TRUE,"S243494437"
"252","virwar","Virginia's Warbler","Leiothlypis virginiae","L156897","Miller's Rest Stop","2025-05-26 15:57",1,38.141056,-117.453415,TRUE,FALSE,FALSE,"S243325953"
"253","virwar","Virginia's Warbler","Leiothlypis virginiae","L911042","City of Rocks--Parking Lot Rock Trail Head","2025-05-26 15:26",1,42.08329,-113.72367,TRUE,FALSE,FALSE,"S243232487"
"254","virwar","Virginia's Warbler","Leiothlypis virginiae","L245619","Spring Park Reservoir","2025-05-26 15:00",1,39.4391366,-107.0886062,TRUE,FALSE,FALSE,"S243341114"
"255","virwar","Virginia's Warbler","Leiothlypis virginiae","L46095300","88045, Lordsburg US-NM 31.87108, -109.03468","2025-05-26 14:20",1,31.871078,-109.034678,TRUE,FALSE,TRUE,"S243226671"
"256","virwar","Virginia's Warbler","Leiothlypis virginiae","L2354355","Bryce Canyon NP--Queen's Garden Trail","2025-05-26 14:08",1,37.6204658,-112.1583617,TRUE,FALSE,FALSE,"S243468251"
"257","virwar","Virginia's Warbler","Leiothlypis virginiae","L6125506","Garden of the Gods--Cabin Canyon Trail","2025-05-26 13:01",2,38.8681148,-104.8921824,TRUE,FALSE,FALSE,"S243221923"
"258","virwar","Virginia's Warbler","Leiothlypis virginiae","L271623","Pine Valley Recreation Area & Reservoir","2025-05-26 12:43",4,37.3782058,-113.472805,TRUE,FALSE,FALSE,"S243863510"
"259","virwar","Virginia's Warbler","Leiothlypis virginiae","L4383311","Cibola NF--Palomas Peak Trail","2025-05-26 12:38",1,35.2262222,-106.4093056,TRUE,FALSE,FALSE,"S243187805"
"260","virwar","Virginia's Warbler","Leiothlypis virginiae","L4774032","Animas Overlook","2025-05-26 11:55",1,37.3625888,-107.8822996,TRUE,FALSE,FALSE,"S243158333"
"261","virwar","Virginia's Warbler","Leiothlypis virginiae","L2806339","High Grade Rd","2025-05-26 11:55",4,39.508279,-105.1884592,TRUE,FALSE,FALSE,"S243335580"
"262","virwar","Virginia's Warbler","Leiothlypis virginiae","L46077538","Lower Karr Canyon road","2025-05-26 11:39",1,32.932329,-105.818514,TRUE,FALSE,TRUE,"S243146486"
"263","virwar","Virginia's Warbler","Leiothlypis virginiae","L15555609","Killyon Canyon","2025-05-26 11:32",3,40.8068489,-111.7025959,TRUE,FALSE,FALSE,"S243233544"
"264","virwar","Virginia's Warbler","Leiothlypis virginiae","L46222121","Canal Trail, Washington US-UT 37.37776, -113.46134","2025-05-26 11:31",3,37.377764,-113.461344,TRUE,FALSE,TRUE,"S243863657"
"265","virwar","Virginia's Warbler","Leiothlypis virginiae","L18916300","Hermosa Trail north of Lower Hermosa Campground","2025-05-26 11:20",3,37.467279,-107.856076,TRUE,FALSE,TRUE,"S243197189"
"266","virwar","Virginia's Warbler","Leiothlypis virginiae","L46285873","Garvey Canyon - upper","2025-05-26 11:15",8,39.377225,-108.684446,TRUE,FALSE,TRUE,"S244175871"
"267","virwar","Virginia's Warbler","Leiothlypis virginiae","L5898018","Sandia Canyon Wetlands (no public access)","2025-05-26 11:08",1,35.8748927,-106.3132918,TRUE,FALSE,TRUE,"S243124854"
"268","virwar","Virginia's Warbler","Leiothlypis virginiae","L4469524","Glade Park area","2025-05-26 10:50",2,38.9947728,-108.7418175,TRUE,FALSE,FALSE,"S243168660"
"269","virwar","Virginia's Warbler","Leiothlypis virginiae","L3797135","Pumphouse Wash/Kelly Canyon","2025-05-26 10:50",1,35.059395,-111.7155075,TRUE,FALSE,TRUE,"S243580053"
"270","virwar","Virginia's Warbler","Leiothlypis virginiae","L1070526","Wilson Meadow","2025-05-26 10:23",4,35.3407545,-111.7345726,TRUE,FALSE,FALSE,"S243162013"
"271","virwar","Virginia's Warbler","Leiothlypis virginiae","L45409011","Harding Springs Trail, Sedona US-AZ (35.0030,-111.7331)","2025-05-26 10:21",2,35.002976,-111.733129,TRUE,FALSE,TRUE,"S243150574"
"272","virwar","Virginia's Warbler","Leiothlypis virginiae","L46070700","Laguna Peak","2025-05-26 10:18",2,36.339712,-106.748424,TRUE,FALSE,TRUE,"S243116875"
"273","virwar","Virginia's Warbler","Leiothlypis virginiae","L46094792","Sixmile Canyon trail","2025-05-26 10:12",3,33.9803864,-107.0947364,TRUE,FALSE,TRUE,"S243224102"
"274","virwar","Virginia's Warbler","Leiothlypis virginiae","L46085331","Seymour Canyon/Oakley Trail loop","2025-05-26 10:06",3,40.7243537,-111.2345414,TRUE,FALSE,TRUE,"S243180135"
"275","virwar","Virginia's Warbler","Leiothlypis virginiae","L46072888","BLM Road 1103, Cuba, New Mexico, US (35.527, -107.336)","2025-05-26 09:53",1,35.5272405,-107.3359596,TRUE,FALSE,TRUE,"S243125932"
"276","virwar","Virginia's Warbler","Leiothlypis virginiae","L793543","Matthews-Reeser Bird Sanctuary","2025-05-26 09:53",1,40.3782272,-105.5091911,TRUE,FALSE,FALSE,"S243248898"
"277","virwar","Virginia's Warbler","Leiothlypis virginiae","L759124","Mount Olympus Trail","2025-05-26 09:53",1,40.6527346,-111.7872894,TRUE,FALSE,FALSE,"S243118242"
"278","virwar","Virginia's Warbler","Leiothlypis virginiae","L46184641","La Luz Trail (trailhead to Tram at crest)","2025-05-26 09:52",5,35.2080405,-106.4573948,TRUE,FALSE,TRUE,"S243676116"
"279","virwar","Virginia's Warbler","Leiothlypis virginiae","L3815656","Mogollon Rim Visitor Center","2025-05-26 09:44",2,34.3017908,-110.8961034,TRUE,FALSE,FALSE,"S243095310"
"280","virwar","Virginia's Warbler","Leiothlypis virginiae","L940454","Diamond Fork Canyon -- Diamond Fork CG","2025-05-26 09:44",1,40.0759041,-111.4174819,TRUE,FALSE,FALSE,"S243137860"
"281","virwar","Virginia's Warbler","Leiothlypis virginiae","L575126","Pueblo Mountain Park","2025-05-26 09:39",3,38.0463506,-105.0026894,TRUE,FALSE,FALSE,"S243096581"
"282","virwar","Virginia's Warbler","Leiothlypis virginiae","L363582","Bear Creek Nature Center","2025-05-26 09:37",1,38.8294281,-104.8790073,TRUE,FALSE,FALSE,"S243047158"
"283","virwar","Virginia's Warbler","Leiothlypis virginiae","L266621","Page Springs Fish Hatchery--Bubbling Ponds Preserve","2025-05-26 09:24",1,34.7669646,-111.8950832,TRUE,FALSE,FALSE,"S243107827"
"284","virwar","Virginia's Warbler","Leiothlypis virginiae","L5899417","Y Mountain Trail","2025-05-26 09:23",2,40.2455165,-111.6230571,TRUE,FALSE,FALSE,"S243330152"
"285","virwar","Virginia's Warbler","Leiothlypis virginiae","L589679","Bandelier NM--Pueblo Loop Trail","2025-05-26 09:21",1,35.7825972,-106.2743193,TRUE,FALSE,FALSE,"S243112804"
"286","virwar","Virginia's Warbler","Leiothlypis virginiae","L27463568","Bonneville Shoreline Trail, Provo US-UT 40.31785, -111.62691","2025-05-26 09:16",4,40.31785,-111.626906,TRUE,FALSE,TRUE,"S243115132"
"287","virwar","Virginia's Warbler","Leiothlypis virginiae","L3586899","Lower Water Canyon","2025-05-26 09:15",1,35.8019267,-106.2365445,TRUE,FALSE,FALSE,"S243134283"
"288","virwar","Virginia's Warbler","Leiothlypis virginiae","L4048402","Gonzales Canyon","2025-05-26 09:08",3,35.900152,-106.2789718,TRUE,FALSE,FALSE,"S243065109"
"289","virwar","Virginia's Warbler","Leiothlypis virginiae","L166979","Boyce Thompson Arboretum","2025-05-26 09:06",1,33.2795082,-111.158756,TRUE,TRUE,FALSE,"S243856339"
"290","virwar","Virginia's Warbler","Leiothlypis virginiae","L15197663","Little Red Creek","2025-05-26 09:01",2,42.6942306,-106.3987255,TRUE,FALSE,FALSE,"S243154219"
"291","virwar","Virginia's Warbler","Leiothlypis virginiae","L46070819","Santa Fe National Forest, Chama US-NM 36.36880, -106.79409","2025-05-26 08:59",1,36.368796,-106.794086,TRUE,FALSE,TRUE,"S243117366"
"292","virwar","Virginia's Warbler","Leiothlypis virginiae","L14946828","Upper Red Canyon Trail","2025-05-26 08:56",1,39.302407,-106.896284,TRUE,FALSE,TRUE,"S243043139"
"293","virwar","Virginia's Warbler","Leiothlypis virginiae","L9410450","Mt Graham BBS Route Point 42","2025-05-26 08:54",1,32.7134689,-109.9392162,TRUE,FALSE,TRUE,"S244034682"
"294","virwar","Virginia's Warbler","Leiothlypis virginiae","L46050633","427–525 N County Road 45E, Livermore US-CO 40.96327, -105.37589","2025-05-26 08:54",1,40.963269,-105.375892,TRUE,FALSE,TRUE,"S243028029"
"295","virwar","Virginia's Warbler","Leiothlypis virginiae","L3816538","Red Canyon Lodge (& General Area)","2025-05-26 08:53",1,40.8734643,-109.5407081,TRUE,FALSE,FALSE,"S243011488"
"296","virwar","Virginia's Warbler","Leiothlypis virginiae","L2256896","Deer Trap Mesa","2025-05-26 08:47",1,35.9065712,-106.2777901,TRUE,FALSE,TRUE,"S243033308"
"297","virwar","Virginia's Warbler","Leiothlypis virginiae","L9410444","Mt Graham BBS Route Point 40","2025-05-26 08:42",2,32.7085094,-109.9360722,TRUE,FALSE,TRUE,"S244034633"
"298","virwar","Virginia's Warbler","Leiothlypis virginiae","L46064828","Mayhem Gulch","2025-05-26 08:39",4,39.7372717,-105.3711561,TRUE,FALSE,TRUE,"S243092445"
"299","virwar","Virginia's Warbler","Leiothlypis virginiae","L23173930","Phillip And Dorcas Jensen Memorial Park","2025-05-26 08:34",3,40.0491423,-107.9156318,TRUE,FALSE,FALSE,"S243056586"
"300","virwar","Virginia's Warbler","Leiothlypis virginiae","L9410440","Mt Graham BBS Route Point 38","2025-05-26 08:29",2,32.6991162,-109.9242565,TRUE,FALSE,TRUE,"S244034581"
"301","virwar","Virginia's Warbler","Leiothlypis virginiae","L11831178","Del Rio-Alamo Drain Loop","2025-05-26 08:27",1,32.233756,-106.794291,TRUE,FALSE,TRUE,"S243211668"
"302","virwar","Virginia's Warbler","Leiothlypis virginiae","L1623564","Heil Ranch--Picture Rock Trail","2025-05-26 08:25",5,40.2113936,-105.2730808,TRUE,FALSE,FALSE,"S243078192"
"303","virwar","Virginia's Warbler","Leiothlypis virginiae","L46053728","Red canyon trail lower portion","2025-05-26 08:21",1,39.296669,-106.905381,TRUE,FALSE,TRUE,"S243042845"
"304","virwar","Virginia's Warbler","Leiothlypis virginiae","L456475","Lory SP","2025-05-26 08:12",4,40.564245,-105.1747048,TRUE,FALSE,FALSE,"S243271231"
"305","virwar","Virginia's Warbler","Leiothlypis virginiae","L9410432","Mt Graham BBS Route Point 35","2025-05-26 08:09",1,32.6967387,-109.9087588,TRUE,FALSE,TRUE,"S244034493"
"306","virwar","Virginia's Warbler","Leiothlypis virginiae","L2915650","Jeremy Ranch Road -- Morgan County","2025-05-26 07:55",2,40.8371907,-111.5848732,TRUE,FALSE,FALSE,"S243335315"
"307","virwar","Virginia's Warbler","Leiothlypis virginiae","L20937260","3910 East El Paso Drive, Flagstaff, Arizona, US (35.231, -111.587)","2025-05-26 07:48",2,35.2305103,-111.5874591,TRUE,FALSE,TRUE,"S243174746"
"308","virwar","Virginia's Warbler","Leiothlypis virginiae","L46097706","Crystal Creek Trail, Curecanti National Recreation Area","2025-05-26 07:42",5,38.492828,-107.561397,TRUE,FALSE,TRUE,"S243238999"
"309","virwar","Virginia's Warbler","Leiothlypis virginiae","L131388","Garden of the Gods","2025-05-26 07:30",2,38.8774633,-104.8781876,TRUE,FALSE,FALSE,"S243064422"
"310","virwar","Virginia's Warbler","Leiothlypis virginiae","L129062","Ramsey Canyon Preserve (formerly Mile Hi Ranch)","2025-05-26 07:11",1,31.4473746,-110.307608,TRUE,FALSE,FALSE,"S243112566"
"311","virwar","Virginia's Warbler","Leiothlypis virginiae","L32242225","3269–3283 Hualapai Mountain Rd, Kingman US-AZ 35.11138, -113.90250","2025-05-26 07:08",4,35.111384,-113.902503,TRUE,FALSE,TRUE,"S242993727"
"312","virwar","Virginia's Warbler","Leiothlypis virginiae","L190705","Kays Creek Trail","2025-05-26 06:57",1,41.09755,-111.93015,TRUE,FALSE,FALSE,"S243063275"
"313","virwar","Virginia's Warbler","Leiothlypis virginiae","L4558235","Lowell Observatory","2025-05-26 06:41",1,35.2024105,-111.6647387,TRUE,FALSE,FALSE,"S243199537"
"314","virwar","Virginia's Warbler","Leiothlypis virginiae","L22822153","Puma Gulch Rd, Loveland US-CO 40.54525, -105.24387","2025-05-26 06:40",1,40.545251,-105.243874,TRUE,FALSE,TRUE,"S242937390"
"315","virwar","Virginia's Warbler","Leiothlypis virginiae","L11547620","84629, Fairview US-UT 39.95610, -111.26801","2025-05-26 06:37",2,39.956098,-111.26801,TRUE,FALSE,TRUE,"S243055310"
"316","virwar","Virginia's Warbler","Leiothlypis virginiae","L5001486","Upper Hunter Canyon Trail","2025-05-26 06:27",1,31.4024435,-110.2696245,TRUE,FALSE,FALSE,"S243132797"
"317","virwar","Virginia's Warbler","Leiothlypis virginiae","L9410388","Mt Graham BBS Route Point 19","2025-05-26 06:25",1,32.6470244,-109.857538,TRUE,FALSE,TRUE,"S244034009"
"318","virwar","Virginia's Warbler","Leiothlypis virginiae","L9410387","Mt Graham BBS Route Point 18","2025-05-26 06:19",1,32.6438582,-109.8527642,TRUE,FALSE,TRUE,"S244033972"
"319","virwar","Virginia's Warbler","Leiothlypis virginiae","L9410379","Mt Graham BBS Route Point 15","2025-05-26 06:02",1,32.6326653,-109.8424332,TRUE,FALSE,TRUE,"S244033756"
"320","virwar","Virginia's Warbler","Leiothlypis virginiae","L46163240","Lone Cabin Road","2025-05-26 06:00",2,38.8448362,-107.5593661,TRUE,FALSE,TRUE,"S243569318"
"321","virwar","Virginia's Warbler","Leiothlypis virginiae","L45823525","6934–7064 S Transcendent Ln, Prescott US-AZ 34.44907, -112.40679","2025-05-26 05:43",1,34.449073,-112.406786,TRUE,FALSE,TRUE,"S242948109"
"322","virwar","Virginia's Warbler","Leiothlypis virginiae","L46080264","Carr Peak Trail","2025-05-26 05:33",3,31.415756,-110.304193,TRUE,FALSE,TRUE,"S243158257"
"323","virwar","Virginia's Warbler","Leiothlypis virginiae","L761433","Kolob Creek Waterfall","2025-05-25 19:56",1,37.4058067,-113.0389953,TRUE,FALSE,FALSE,"S242787268"
"324","virwar","Virginia's Warbler","Leiothlypis virginiae","L352952","Devil's Canyon CG","2025-05-25 18:44",3,37.7387361,-109.4066839,TRUE,FALSE,FALSE,"S242793747"
"325","virwar","Virginia's Warbler","Leiothlypis virginiae","L11627753","84629, Fairview US-UT 39.95611, -111.26800","2025-05-25 18:38",2,39.956106,-111.268004,TRUE,FALSE,TRUE,"S243055538"
"326","virwar","Virginia's Warbler","Leiothlypis virginiae","L1014915","Grand Canyon NP--Mather CG","2025-05-25 18:01",2,36.0495847,-112.1210146,TRUE,FALSE,FALSE,"S242782078"
"327","virwar","Virginia's Warbler","Leiothlypis virginiae","L11419103","San Isabel National Forest","2025-05-25 15:50",2,38.2809047,-105.221883,TRUE,FALSE,TRUE,"S242713949"
"328","virwar","Virginia's Warbler","Leiothlypis virginiae","L10682672","Jerome State Historic Park","2025-05-25 15:33",1,34.753393,-112.1108582,TRUE,FALSE,FALSE,"S242734376"
"329","virwar","Virginia's Warbler","Leiothlypis virginiae","L46110590","Santa Fe NF--Holy Ghost Trail","2025-05-25 15:29",1,35.7770418,-105.7034594,TRUE,FALSE,TRUE,"S243226817"
"330","virwar","Virginia's Warbler","Leiothlypis virginiae","L5072391","CR 84 area (private property)","2025-05-25 14:47",11,38.3203376,-105.1887274,TRUE,FALSE,TRUE,"S242713118"
"331","virwar","Virginia's Warbler","Leiothlypis virginiae","L619970","Cibola NF--Sandia Crest Rd.","2025-05-25 14:24",4,35.1912058,-106.3978672,TRUE,FALSE,FALSE,"S242664081"
"332","virwar","Virginia's Warbler","Leiothlypis virginiae","L3633294","Schoolhouse Gulch","2025-05-25 14:04",1,34.505328,-112.477678,TRUE,FALSE,FALSE,"S242733009"
"333","virwar","Virginia's Warbler","Leiothlypis virginiae","L34295704","Little Falls Trail","2025-05-25 13:58",1,36.2569808,-115.6512241,TRUE,FALSE,FALSE,"S242790299"
"334","virwar","Virginia's Warbler","Leiothlypis virginiae","L45994010","Point Imperial Road, North Rim, Arizona, US (36.276, -111.99)","2025-05-25 13:33",1,36.2762899,-111.9903563,TRUE,FALSE,TRUE,"S242735441"
"335","virwar","Virginia's Warbler","Leiothlypis virginiae","L2354360","Bryce Canyon NP--Swamp Canyon Loop Trail","2025-05-25 13:18",4,37.5910858,-112.199893,TRUE,FALSE,FALSE,"S242778142"
"336","virwar","Virginia's Warbler","Leiothlypis virginiae","L46075561","Monks Hollow Trail, Diamond Fork Canyon, UT","2025-05-25 13:09",3,40.067982,-111.386422,TRUE,FALSE,TRUE,"S243137534"
"337","virwar","Virginia's Warbler","Leiothlypis virginiae","L46007345","16187 West Platte River Road, Littleton, Colorado, US (39.41, -105.184)","2025-05-25 12:58",3,39.4102209,-105.1840748,TRUE,FALSE,TRUE,"S242800619"
"338","virwar","Virginia's Warbler","Leiothlypis virginiae","L3089449","Spring Mountains NRA--Deer Creek Picnic Area","2025-05-25 12:15",1,36.3145986,-115.6210833,TRUE,FALSE,FALSE,"S242795368"
"339","virwar","Virginia's Warbler","Leiothlypis virginiae","L19929126","Santa Fe NF - Borrego Mesa North","2025-05-25 12:00",12,35.9895773,-105.7850618,TRUE,FALSE,TRUE,"S242789010"
"340","virwar","Virginia's Warbler","Leiothlypis virginiae","L571253","Sundance","2025-05-25 11:54",4,40.38439,-111.58582,TRUE,FALSE,FALSE,"S242731460"
"341","virwar","Virginia's Warbler","Leiothlypis virginiae","L2287746","Boulder Mountain Park--Bear Canyon Trail","2025-05-25 11:50",4,39.9735354,-105.2739894,TRUE,FALSE,FALSE,"S243233570"
"342","virwar","Virginia's Warbler","Leiothlypis virginiae","L212742","White Ranch Park--Lower Trails","2025-05-25 11:40",2,39.8021042,-105.2534191,TRUE,FALSE,FALSE,"S242639948"
"343","virwar","Virginia's Warbler","Leiothlypis virginiae","L109288","Aiken Canyon Preserve","2025-05-25 11:24",4,38.6212294,-104.8886847,TRUE,FALSE,FALSE,"S242660419"
"344","virwar","Virginia's Warbler","Leiothlypis virginiae","L33476374","84414, North Ogden US-UT 41.30188, -111.94418","2025-05-25 11:02",NA,41.301878,-111.944181,TRUE,FALSE,TRUE,"S242624696"
"345","virwar","Virginia's Warbler","Leiothlypis virginiae","L129069","Rustler Park","2025-05-25 11:01",1,31.9030991,-109.2776031,TRUE,FALSE,FALSE,"S242764195"
"346","virwar","Virginia's Warbler","Leiothlypis virginiae","L3634673","Kohl's Ranch","2025-05-25 10:52",1,34.3244945,-111.0927415,TRUE,FALSE,FALSE,"S243032108"
"347","virwar","Virginia's Warbler","Leiothlypis virginiae","L45958699","narrows s willow","2025-05-25 10:52",2,40.492075,-112.586456,TRUE,FALSE,TRUE,"S242584837"
"348","virwar","Virginia's Warbler","Leiothlypis virginiae","L28802840","El Rito","2025-05-25 10:34",1,36.8116418,-105.56761,TRUE,FALSE,TRUE,"S242565572"
"349","virwar","Virginia's Warbler","Leiothlypis virginiae","L26884293","Sweetwater Lake & CG","2025-05-25 10:30",1,39.7978457,-107.1619435,TRUE,FALSE,FALSE,"S242657283"
"350","virwar","Virginia's Warbler","Leiothlypis virginiae","L5827646","NM - Los Alamos:  Pueblo Canyon Water Treatment Plant","2025-05-25 10:30",1,35.880733,-106.247364,TRUE,FALSE,TRUE,"S242550228"
"351","virwar","Virginia's Warbler","Leiothlypis virginiae","L2503102","US-NM-LAL-LANL-Sandia Canyon Wetlands (no public access)","2025-05-25 10:28",1,35.8747809,-106.3126776,TRUE,FALSE,TRUE,"S242542465"
"352","virwar","Virginia's Warbler","Leiothlypis virginiae","L1070692","Acid Canyon","2025-05-25 10:25",1,35.8859296,-106.3091719,TRUE,FALSE,FALSE,"S242554899"
"353","virwar","Virginia's Warbler","Leiothlypis virginiae","L4605171","Castle Rocks SP--Equestrian Trail Head","2025-05-25 10:20",5,42.0773067,-113.6521315,TRUE,FALSE,FALSE,"S242599254"
"354","virwar","Virginia's Warbler","Leiothlypis virginiae","L2333426","Gateway Natural Area","2025-05-25 09:43",1,40.7004667,-105.2438858,TRUE,FALSE,FALSE,"S242554609"
"355","virwar","Virginia's Warbler","Leiothlypis virginiae","L15683592","Wardsworth Trail","2025-05-25 09:41",2,40.196525,-111.385409,TRUE,FALSE,FALSE,"S242616073"
"356","virwar","Virginia's Warbler","Leiothlypis virginiae","L32177436","La veta cabin","2025-05-25 09:38",2,37.5695377,-105.1193437,TRUE,FALSE,TRUE,"S242799722"
"357","virwar","Virginia's Warbler","Leiothlypis virginiae","L155701","Cibola NF--Hondo Canyon","2025-05-25 09:37",1,35.0899254,-106.3927603,TRUE,FALSE,FALSE,"S242519173"
"358","virwar","Virginia's Warbler","Leiothlypis virginiae","L46051596","Rim Lakes Vista Trail, Forest Lakes US-AZ 34.31074, -110.94050","2025-05-25 09:35",1,34.310736,-110.940504,TRUE,FALSE,TRUE,"S243032535"
"359","virwar","Virginia's Warbler","Leiothlypis virginiae","L45879349","410 JL Ranch Heights Road, Colorado Springs, Colorado, US (38.733, -104.834)","2025-05-25 09:33",1,38.7331402,-104.8344329,TRUE,FALSE,TRUE,"S242579405"
"360","virwar","Virginia's Warbler","Leiothlypis virginiae","L1512125","Echo Canyon","2025-05-25 09:10",1,40.9838514,-111.4237438,TRUE,FALSE,FALSE,"S242685137"
"361","virwar","Virginia's Warbler","Leiothlypis virginiae","L799323","Cibola NF--Mars Court Wild Turkey Trail","2025-05-25 09:02",2,34.9857063,-106.3574409,TRUE,FALSE,FALSE,"S242564950"
"362","virwar","Virginia's Warbler","Leiothlypis virginiae","L26171248","Chelsea Cove's Grey House","2025-05-25 08:56",1,40.85551,-111.864202,TRUE,FALSE,TRUE,"S242504351"
"363","virwar","Virginia's Warbler","Leiothlypis virginiae","L486907","Pine Creek Canyon (access via the Bearfoot Trail; no access from Camp Lo Mia)","2025-05-25 08:48",1,34.423046,-111.439455,TRUE,FALSE,FALSE,"S242707283"
"364","virwar","Virginia's Warbler","Leiothlypis virginiae","L46092269","Prescott National Forest, Prescott US-AZ 34.97421, -112.92226","2025-05-25 08:41",1,34.974206,-112.922259,TRUE,FALSE,TRUE,"S243212164"
"365","virwar","Virginia's Warbler","Leiothlypis virginiae","L46159881","88321, Encino US-NM 34.45775, -105.73399","2025-05-25 08:14",1,34.457748,-105.733991,TRUE,FALSE,TRUE,"S243551003"
"366","virwar","Virginia's Warbler","Leiothlypis virginiae","L876859","Reynolds Ranch County Park","2025-05-25 08:10",4,39.4663152,-105.2362776,TRUE,FALSE,FALSE,"S242799902"
"367","virwar","Virginia's Warbler","Leiothlypis virginiae","L7420665","Page Springs--South Wildlife Viewing Area","2025-05-25 08:09",1,34.7595237,-111.8898694,TRUE,FALSE,FALSE,"S242618839"
"368","virwar","Virginia's Warbler","Leiothlypis virginiae","L2322568","Stewart Falls","2025-05-25 08:03",1,40.3862425,-111.6041272,TRUE,FALSE,FALSE,"S242798188"
"369","virwar","Virginia's Warbler","Leiothlypis virginiae","L25402477","Sims Mesa_Dave Wood InterpretiveTrail, Montrose US-CO 38.30553, -107.96311","2025-05-25 07:55",3,38.305531,-107.963105,TRUE,FALSE,TRUE,"S242887000"
"370","virwar","Virginia's Warbler","Leiothlypis virginiae","L46054476","Vigil-Abeyta Mesa South","2025-05-25 07:50",1,36.996608,-106.863,TRUE,FALSE,TRUE,"S243046307"
"371","virwar","Virginia's Warbler","Leiothlypis virginiae","L127945","Bosque del Apache NWR","2025-05-25 07:46",1,33.802,-106.88,TRUE,FALSE,FALSE,"S243120378"
"372","virwar","Virginia's Warbler","Leiothlypis virginiae","L14791043","3710 East El Paso Drive, Flagstaff, Arizona, US (35.227, -111.59)","2025-05-25 07:42",4,35.2274938,-111.5895571,TRUE,FALSE,TRUE,"S242646942"
"373","virwar","Virginia's Warbler","Leiothlypis virginiae","L931254","Bandelier NM--Apache Springs Trail","2025-05-25 07:36",10,35.83083,-106.3792435,TRUE,FALSE,FALSE,"S242547473"
"374","virwar","Virginia's Warbler","Leiothlypis virginiae","L12642942","Pine--Portals 3 to the Bearfoot Bridge","2025-05-25 07:22",2,34.411089,-111.45243,TRUE,FALSE,TRUE,"S243118076"
"375","virwar","Virginia's Warbler","Leiothlypis virginiae","L11488614","Cerro Lane","2025-05-25 07:10",1,36.561478,-105.627211,TRUE,FALSE,TRUE,"S242422413"
"376","virwar","Virginia's Warbler","Leiothlypis virginiae","L1032655","No Name","2025-05-25 07:01",3,39.5604086,-107.2934139,TRUE,FALSE,FALSE,"S242460120"
"377","virwar","Virginia's Warbler","Leiothlypis virginiae","L998436","Mesa Verde NP--Morefield Campground","2025-05-25 07:00",1,37.2989439,-108.4187508,TRUE,FALSE,FALSE,"S242543188"
"378","virwar","Virginia's Warbler","Leiothlypis virginiae","L45972569","12784–12798 Forest Service Road 372, Camp Verde US-AZ 34.58192, -112.06044","2025-05-25 06:51",1,34.581921,-112.06044,TRUE,FALSE,TRUE,"S242640172"
"379","virwar","Virginia's Warbler","Leiothlypis virginiae","L45947541","Bear Creek Road","2025-05-25 06:45",1,38.4571376,-105.9643136,TRUE,FALSE,TRUE,"S242550397"
"380","virwar","Virginia's Warbler","Leiothlypis virginiae","L155700","Cienega Canyon","2025-05-25 06:43",1,35.1690374,-106.3828897,TRUE,FALSE,TRUE,"S242563930"
"381","virwar","Virginia's Warbler","Leiothlypis virginiae","L748283","Gila NF--Cherry Creek Campground","2025-05-25 06:43",1,32.9142967,-108.2246983,TRUE,FALSE,FALSE,"S242561289"
"382","virwar","Virginia's Warbler","Leiothlypis virginiae","L34111441","SR-24, Torrey US-UT 38.28449, -111.11758","2025-05-25 06:38",1,38.284486,-111.117582,TRUE,FALSE,TRUE,"S242528937"
"383","virwar","Virginia's Warbler","Leiothlypis virginiae","L889611","Grand Mesa--Mesa Lakes area","2025-05-25 06:30",1,39.0486918,-108.0912909,TRUE,FALSE,FALSE,"S242807904"
"384","virwar","Virginia's Warbler","Leiothlypis virginiae","L129066","Rio Bosque Park (FWTX 11)","2025-05-25 06:22",2,31.6408997,-106.3099976,TRUE,FALSE,FALSE,"S242909644"
"385","virwar","Virginia's Warbler","Leiothlypis virginiae","L128939","Cave Creek Canyon","2025-05-25 06:18",1,31.8935,-109.166851,TRUE,FALSE,FALSE,"S242745104"
"386","virwar","Virginia's Warbler","Leiothlypis virginiae","L45966469","FS 95 Road, Prescott NF (34.825, -112.867)","2025-05-25 05:58",1,34.8248583,-112.8670084,TRUE,FALSE,TRUE,"S242615559"
"387","virwar","Virginia's Warbler","Leiothlypis virginiae","L9579230","Clemens Home","2025-05-25 05:53",1,31.480015,-110.2874,TRUE,FALSE,TRUE,"S242487825"
"388","virwar","Virginia's Warbler","Leiothlypis virginiae","L4967947","Rendija Road from Dinosaur Park to pumping station and back. ","2025-05-25 05:47",2,35.903771,-106.290781,TRUE,FALSE,TRUE,"S242421899"
"389","virwar","Virginia's Warbler","Leiothlypis virginiae","L480168","Veterans Oasis Park","2025-05-25 05:44",1,33.2347837,-111.7695838,TRUE,FALSE,FALSE,"S242423205"
"390","virwar","Virginia's Warbler","Leiothlypis virginiae","L45977476","Meeker, Colorado, US (40.033, -108.232)","2025-05-25 05:43",3,40.0333773,-108.2323292,TRUE,FALSE,TRUE,"S242660242"
"391","virwar","Virginia's Warbler","Leiothlypis virginiae","L45960675","Kingston Campground","2025-05-25 05:17",1,39.22513,-117.140685,TRUE,FALSE,TRUE,"S242592745"
"392","virwar","Virginia's Warbler","Leiothlypis virginiae","L46006031","Coconino National Forest, Mormon Lake US-AZ 34.97717, -111.53802","2025-05-25 04:41",4,34.977171,-111.538017,TRUE,FALSE,TRUE,"S242794520"
"393","virwar","Virginia's Warbler","Leiothlypis virginiae","L456902","Mt. Graham--Riggs Lake","2025-05-25 04:38",2,32.7080834,-109.964819,TRUE,FALSE,FALSE,"S243331893"
"394","virwar","Virginia's Warbler","Leiothlypis virginiae","L31974336","Mt. Charleston--Rainbow Canyon Sub-Division","2025-05-24 19:00",1,36.2563095,-115.6375271,TRUE,FALSE,FALSE,"S242584785"
"395","virwar","Virginia's Warbler","Leiothlypis virginiae","L554724","Eldorado Mountain Open Space","2025-05-24 18:41",1,39.9256011,-105.2762747,TRUE,FALSE,FALSE,"S242260714"
"396","virwar","Virginia's Warbler","Leiothlypis virginiae","L1048015","395 Animas Creek Road 1","2025-05-24 18:15",1,32.9760601,-107.37665,TRUE,FALSE,TRUE,"S242229793"
"397","virwar","Virginia's Warbler","Leiothlypis virginiae","L13447193","North Crest Trail #130","2025-05-24 17:45",1,35.21951,-106.451094,TRUE,FALSE,FALSE,"S242207244"
"398","virwar","Virginia's Warbler","Leiothlypis virginiae","L7524636","North Ogden Divide TH","2025-05-24 16:30",2,41.320223,-111.899184,TRUE,FALSE,FALSE,"S242561533"
"399","virwar","Virginia's Warbler","Leiothlypis virginiae","L3741257","Santa Fe NF--Borrego Trail","2025-05-24 16:02",2,35.7501377,-105.8339649,TRUE,FALSE,FALSE,"S242249050"
"400","virwar","Virginia's Warbler","Leiothlypis virginiae","L45872266","Elsinore Mountain Rd, Joseph US-UT 38.72310, -112.22493","2025-05-24 15:43",2,38.723099,-112.22493,TRUE,FALSE,TRUE,"S242185438"
"401","virwar","Virginia's Warbler","Leiothlypis virginiae","L208918","Sweetwater Wetlands","2025-05-24 15:39",1,32.2790144,-111.0216061,TRUE,TRUE,FALSE,"S242216672"
"402","virwar","Virginia's Warbler","Leiothlypis virginiae","L45890677","Brian's Place","2025-05-24 15:20",1,39.7867291,-105.3523378,TRUE,FALSE,TRUE,"S242270761"
"403","virwar","Virginia's Warbler","Leiothlypis virginiae","L3029422","Ouray Perimeter Trail","2025-05-24 15:19",3,38.0209831,-107.6663053,TRUE,FALSE,FALSE,"S242173851"
"404","virwar","Virginia's Warbler","Leiothlypis virginiae","L4867932","Thomas Trail--Green Mountain Falls to Crystal Falls","2025-05-24 15:19",1,38.9318515,-105.0230098,TRUE,FALSE,FALSE,"S242687184"
"405","virwar","Virginia's Warbler","Leiothlypis virginiae","L45868552","Pole Canyon Rd, Nephi US-UT 39.76984, -111.67521","2025-05-24 15:10",2,39.769844,-111.675214,TRUE,FALSE,TRUE,"S242168129"
"406","virwar","Virginia's Warbler","Leiothlypis virginiae","L45860053","Mount Herman Road, Colorado Springs, Colorado, US (39.069, -104.921)","2025-05-24 14:35",1,39.0689396,-104.9209809,TRUE,FALSE,TRUE,"S242132781"
"407","virwar","Virginia's Warbler","Leiothlypis virginiae","L2885004","Mt.  Lindo","2025-05-24 14:31",2,39.60912,-105.22334,TRUE,FALSE,TRUE,"S242250895"
"408","virwar","Virginia's Warbler","Leiothlypis virginiae","L20003401","McCormick Spring","2025-05-24 14:25",2,34.14797,-109.773671,TRUE,FALSE,FALSE,"S242165706"
"409","virwar","Virginia's Warbler","Leiothlypis virginiae","L45874077","FS Rd 240","2025-05-24 14:15",1,34.941168,-111.508982,TRUE,FALSE,TRUE,"S242194111"
"410","virwar","Virginia's Warbler","Leiothlypis virginiae","L11454386","Logan Dry Canyon, Logan US-UT 41.73085, -111.78900","2025-05-24 14:13",1,41.730855,-111.789,TRUE,FALSE,TRUE,"S242126489"
"411","virwar","Virginia's Warbler","Leiothlypis virginiae","L2259437","Perrins Peak SWA","2025-05-24 13:44",2,37.3079218,-107.9509735,TRUE,FALSE,FALSE,"S242165665"
"412","virwar","Virginia's Warbler","Leiothlypis virginiae","L1660345","Mt. Lemmon--Inspiration Rock Picnic Area","2025-05-24 13:17",1,32.4343387,-110.7526013,TRUE,FALSE,FALSE,"S243522068"
"413","virwar","Virginia's Warbler","Leiothlypis virginiae","L11107717","Cibola NF--Oak Flat Picnic Area","2025-05-24 13:01",1,34.9972881,-106.3217165,TRUE,FALSE,FALSE,"S242133519"
"414","virwar","Virginia's Warbler","Leiothlypis virginiae","L1466614","Anne U. White Trail","2025-05-24 12:58",1,40.0591986,-105.3197727,TRUE,FALSE,FALSE,"S242156750"
"415","virwar","Virginia's Warbler","Leiothlypis virginiae","L33918816","2000 Usfs 743, Bayfield, Colorado, US (37.256, -107.465)","2025-05-24 12:49",1,37.2559858,-107.4653092,TRUE,FALSE,TRUE,"S242593218"
"416","virwar","Virginia's Warbler","Leiothlypis virginiae","L45888347","Santa Fe NF - Dome Wilderness South","2025-05-24 12:30",4,35.7170054,-106.3813233,TRUE,FALSE,TRUE,"S242260617"
"417","virwar","Virginia's Warbler","Leiothlypis virginiae","L45860323","5388 Horse Gulch Road, Durango, Colorado, US (37.29, -107.797)","2025-05-24 12:30",1,37.2898654,-107.7971083,TRUE,FALSE,TRUE,"S242133786"
"418","virwar","Virginia's Warbler","Leiothlypis virginiae","L2365664","Mesa Verde NP--Spruce Canyon & Pictograph Loop Trails","2025-05-24 12:23",4,37.1808358,-108.4894368,TRUE,FALSE,FALSE,"S242118367"
"419","virwar","Virginia's Warbler","Leiothlypis virginiae","L3952615","Black Canyon of the Gunnison NP--North Rim","2025-05-24 12:22",1,38.586068,-107.696981,TRUE,FALSE,FALSE,"S242184462"
"420","virwar","Virginia's Warbler","Leiothlypis virginiae","L325223","Rocky Mountain NP--Upper Beaver Meadows","2025-05-24 12:16",1,40.3730498,-105.6140614,TRUE,FALSE,FALSE,"S242075241"
"421","virwar","Virginia's Warbler","Leiothlypis virginiae","L45855594","Unnamed Road, Durango, Colorado, US (37.176, -107.886)","2025-05-24 12:11",1,37.1764674,-107.8855212,TRUE,FALSE,TRUE,"S242127917"
"422","virwar","Virginia's Warbler","Leiothlypis virginiae","L45863360","Unnamed Road, Durango, Colorado, US (37.176, -107.885)","2025-05-24 12:02",1,37.176309,-107.8850679,TRUE,FALSE,TRUE,"S242145960"
"423","virwar","Virginia's Warbler","Leiothlypis virginiae","L45855987","81303, Durango US-CO 37.17642, -107.88452","2025-05-24 12:02",1,37.176417,-107.884523,TRUE,FALSE,TRUE,"S242116711"
"424","virwar","Virginia's Warbler","Leiothlypis virginiae","L45861278","Indian Creek Trail, Littleton US-CO 39.43779, -105.10398","2025-05-24 11:59",1,39.437795,-105.103982,TRUE,FALSE,TRUE,"S242137683"
"425","virwar","Virginia's Warbler","Leiothlypis virginiae","L46127896","28342 County Road 103, Colorado, US (39.753, -108.522)","2025-05-24 11:51",4,39.7534233,-108.5221536,TRUE,FALSE,TRUE,"S243390418"
"426","virwar","Virginia's Warbler","Leiothlypis virginiae","L45856483","Lost Canyon Trail, Ken Caryl, Littleton, Colorado, US (39.583, -105.182)","2025-05-24 11:30",2,39.5830082,-105.1823588,TRUE,FALSE,TRUE,"S242118689"
"427","virwar","Virginia's Warbler","Leiothlypis virginiae","L45840155","6683 U.S. 160, Hesperus, Colorado, US (37.329, -108.119)","2025-05-24 11:05",1,37.3289152,-108.1188113,TRUE,FALSE,TRUE,"S242054635"
"428","virwar","Virginia's Warbler","Leiothlypis virginiae","L45850053","22270 County Road 126, Pine, Colorado, US (39.315, -105.254)","2025-05-24 10:59",2,39.314618,-105.253711,TRUE,FALSE,TRUE,"S242093720"
"429","virwar","Virginia's Warbler","Leiothlypis virginiae","L317828","Perea Nature Trail","2025-05-24 10:49",1,35.547277,-106.78359,TRUE,FALSE,FALSE,"S242727014"
"430","virwar","Virginia's Warbler","Leiothlypis virginiae","L346650","Walnut Canyon NM","2025-05-24 10:28",1,35.1717762,-111.5094022,TRUE,FALSE,FALSE,"S242443331"
"431","virwar","Virginia's Warbler","Leiothlypis virginiae","L2643575","Pine Ridge","2025-05-24 10:25",1,40.5636989,-109.7205877,TRUE,FALSE,TRUE,"S242095990"
"432","virwar","Virginia's Warbler","Leiothlypis virginiae","L1244678","Mica Mine Trail","2025-05-24 10:17",2,38.9846742,-108.6247122,TRUE,FALSE,FALSE,"S242077067"
"433","virwar","Virginia's Warbler","Leiothlypis virginiae","L45842444","Coconino National Forest, Sedona US-AZ 35.05991, -111.71419","2025-05-24 10:12",1,35.059915,-111.714185,TRUE,FALSE,TRUE,"S242064035"
"434","virwar","Virginia's Warbler","Leiothlypis virginiae","L45835413","4325–5463 E Sopris Creek Rd, Snowmass US-CO 39.31924, -107.02488","2025-05-24 09:56",1,39.319241,-107.024879,TRUE,FALSE,TRUE,"S242035660"
"435","virwar","Virginia's Warbler","Leiothlypis virginiae","L45833583","Buffalo Bill’s Trail","2025-05-24 09:53",1,39.732678,-105.239695,TRUE,FALSE,TRUE,"S242028096"
"436","virwar","Virginia's Warbler","Leiothlypis virginiae","L46163294","Cold Water Trail","2025-05-24 09:53",1,34.801048,-112.80276,TRUE,FALSE,TRUE,"S243568808"
"437","virwar","Virginia's Warbler","Leiothlypis virginiae","L45834748","Boulder Mountain Park, Boulder US-CO 39.99694, -105.29257","2025-05-24 09:52",2,39.996939,-105.292568,TRUE,FALSE,TRUE,"S242032958"
"438","virwar","Virginia's Warbler","Leiothlypis virginiae","L45845076","16094–16118 Transfer Rd, Montrose US-CO 38.44493, -108.16469","2025-05-24 09:50",1,38.444933,-108.164687,TRUE,FALSE,TRUE,"S242074262"
"439","virwar","Virginia's Warbler","Leiothlypis virginiae","L1580676","Button Rock Trail","2025-05-24 09:48",5,40.2286956,-105.3436122,TRUE,FALSE,FALSE,"S242085897"
"440","virwar","Virginia's Warbler","Leiothlypis virginiae","L7566236","Forest Lake Park and Reservoir","2025-05-24 09:40",1,39.0606818,-104.8825035,TRUE,FALSE,FALSE,"S244384936"
"441","virwar","Virginia's Warbler","Leiothlypis virginiae","L1249312","Starsmore Discovery Center","2025-05-24 09:31",2,38.7908249,-104.8653656,TRUE,FALSE,FALSE,"S241999796"
"442","virwar","Virginia's Warbler","Leiothlypis virginiae","L45861141","Trail 19","2025-05-24 09:27",7,39.441152,-105.086385,TRUE,FALSE,TRUE,"S242137031"
"443","virwar","Virginia's Warbler","Leiothlypis virginiae","L19704302","Mesa Trail, Boulder, Colorado, US (39.958, -105.28)","2025-05-24 09:27",4,39.9576256,-105.2795769,TRUE,FALSE,TRUE,"S242043408"
"444","virwar","Virginia's Warbler","Leiothlypis virginiae","L45935461","939–963 NM-15, Silver City US-NM 32.90942, -108.22971","2025-05-24 09:24",2,32.909416,-108.229715,TRUE,FALSE,TRUE,"S242487347"
"445","virwar","Virginia's Warbler","Leiothlypis virginiae","L18847789","Mt. Lemmon--Butterfly Trail","2025-05-24 09:20",6,32.429357,-110.739172,TRUE,FALSE,FALSE,"S242071268"
"446","virwar","Virginia's Warbler","Leiothlypis virginiae","L41781570","BLSW Lookout Vista-Hilltop West of Bigelow Summit(32.409, -110.727)","2025-05-24 09:12",1,32.4086693,-110.7272479,TRUE,FALSE,TRUE,"S242170622"
"447","virwar","Virginia's Warbler","Leiothlypis virginiae","L4788640","Roubideau Special Management Area--Old Transfer Bike Trail #251","2025-05-24 08:54",4,38.434665,-108.168687,TRUE,FALSE,FALSE,"S242074005"
"448","virwar","Virginia's Warbler","Leiothlypis virginiae","L31657253","Roosevelt Nature Park","2025-05-24 08:48",1,40.305917,-109.995765,TRUE,FALSE,FALSE,"S242010965"
"449","virwar","Virginia's Warbler","Leiothlypis virginiae","L32275092","Big Plum Creek Upper Reservoir","2025-05-24 08:48",1,44.0139615,-104.2595419,TRUE,TRUE,FALSE,"S242099397"
"450","virwar","Virginia's Warbler","Leiothlypis virginiae","L2723027","Bandelier NM--Ponderosa Trail","2025-05-24 08:30",4,35.8265821,-106.3588786,TRUE,FALSE,FALSE,"S242045306"
"451","virwar","Virginia's Warbler","Leiothlypis virginiae","L845398","Rio Grande Valley SP--Tingley Beach Bosque Trails","2025-05-24 08:29",2,35.0807861,-106.6717958,TRUE,FALSE,FALSE,"S242172248"
"452","virwar","Virginia's Warbler","Leiothlypis virginiae","L4774385","Roubideau Special Management Area--Old Transfer Trail #110","2025-05-24 08:22",1,38.403314,-108.179618,TRUE,FALSE,FALSE,"S242073815"
"453","virwar","Virginia's Warbler","Leiothlypis virginiae","L45949453","Fishlake National Forest, Holden US-UT 39.21603, -112.22345","2025-05-24 08:02",3,39.21603,-112.223454,TRUE,FALSE,TRUE,"S242546969"
"454","virwar","Virginia's Warbler","Leiothlypis virginiae","L45841093","Vigil-Abeyta Mesa North","2025-05-24 08:01",1,37.01289,-106.872835,TRUE,FALSE,TRUE,"S242058584"
"455","virwar","Virginia's Warbler","Leiothlypis virginiae","L12966061","Smelter Canyon","2025-05-24 07:47",2,37.2544761,-107.8817811,TRUE,FALSE,TRUE,"S241950318"
"456","virwar","Virginia's Warbler","Leiothlypis virginiae","L25338181","Corduroy Canyon","2025-05-24 07:29",1,39.9637886,-106.5023416,TRUE,FALSE,FALSE,"S242016970"
"457","virwar","Virginia's Warbler","Leiothlypis virginiae","L29206850","1825 Monroe Lane, Camp Verde, Arizona, US (34.543, -111.868)","2025-05-24 07:14",1,34.5433098,-111.8684359,TRUE,FALSE,TRUE,"S241957242"
"458","virwar","Virginia's Warbler","Leiothlypis virginiae","L247122","Paton Center for Hummingbirds (Patons' Yard)","2025-05-24 07:10",1,31.5390131,-110.7606337,TRUE,TRUE,FALSE,"S242121013"
"459","virwar","Virginia's Warbler","Leiothlypis virginiae","L128892","Big Bend NP--Boot Spring","2025-05-24 07:03",3,29.2413998,-103.2970963,TRUE,FALSE,FALSE,"S244021334"
"460","virwar","Virginia's Warbler","Leiothlypis virginiae","L45803477","1716–1936 CR-125, Hesperus US-CO 37.25193, -107.99823","2025-05-24 07:03",1,37.251926,-107.998235,TRUE,FALSE,TRUE,"S241893878"
"461","virwar","Virginia's Warbler","Leiothlypis virginiae","L266623","Oak Creek Canyon--Cave Springs CG","2025-05-24 07:01",6,34.9987102,-111.7397091,TRUE,FALSE,FALSE,"S242041884"
"462","virwar","Virginia's Warbler","Leiothlypis virginiae","L169112","Hassayampa River Preserve","2025-05-24 06:57",1,33.9333419,-112.6946297,TRUE,FALSE,FALSE,"S242149764"
"463","virwar","Virginia's Warbler","Leiothlypis virginiae","L157134","Turtle Bay Park and New Mexico Tech campus","2025-05-24 06:52",1,34.06761,-106.90894,TRUE,FALSE,FALSE,"S242088957"
"464","virwar","Virginia's Warbler","Leiothlypis virginiae","L3878093","Radium area","2025-05-24 06:47",1,39.9538542,-106.5584643,TRUE,FALSE,FALSE,"S242017518"
"465","virwar","Virginia's Warbler","Leiothlypis virginiae","L45915740","Rim Lakes Vista Trail, Forest Lakes US-AZ 34.31076, -110.94047","2025-05-24 06:44",1,34.310757,-110.940472,TRUE,FALSE,TRUE,"S242388773"
"466","virwar","Virginia's Warbler","Leiothlypis virginiae","L463371","Gila Lower Box Canyon","2025-05-24 06:39",2,32.632942,-108.8611221,TRUE,FALSE,FALSE,"S241924518"
"467","virwar","Virginia's Warbler","Leiothlypis virginiae","L6550657","Twin Arrows PJ Oasis","2025-05-24 06:38",1,35.1722049,-111.2522421,TRUE,FALSE,FALSE,"S241937325"
"468","virwar","Virginia's Warbler","Leiothlypis virginiae","L2329640","Cibola NF--Upper Water Canyon","2025-05-24 06:37",1,34.0079355,-107.1397448,TRUE,FALSE,FALSE,"S242552169"
"469","virwar","Virginia's Warbler","Leiothlypis virginiae","L14245182","Eastside Bosque North of NM-346","2025-05-24 06:35",2,34.551054,-106.762403,TRUE,FALSE,FALSE,"S242070280"
"470","virwar","Virginia's Warbler","Leiothlypis virginiae","L211809","Madera Canyon--Proctor Rd.","2025-05-24 06:32",1,31.739938,-110.886147,TRUE,TRUE,FALSE,"S242250006"
"471","virwar","Virginia's Warbler","Leiothlypis virginiae","L7443321","Slate Creek Divide--FR-201A (Maricopa Co.)","2025-05-24 06:07",6,34.00007,-111.454095,TRUE,TRUE,FALSE,"S242093938"
"472","virwar","Virginia's Warbler","Leiothlypis virginiae","L2126198","US-NM-LAL-Rendija Canyon","2025-05-24 06:03",4,35.909491,-106.2830257,TRUE,FALSE,TRUE,"S241902736"
"473","virwar","Virginia's Warbler","Leiothlypis virginiae","L129088","Scheelite Canyon","2025-05-24 05:33",1,31.4596004,-110.3525009,TRUE,FALSE,FALSE,"S242112528"
"474","virwar","Virginia's Warbler","Leiothlypis virginiae","L749724","Madera Canyon--Amphitheater","2025-05-24 05:10",1,31.7221396,-110.8797151,TRUE,FALSE,FALSE,"S244227465"
"475","virwar","Virginia's Warbler","Leiothlypis virginiae","L46006188","Tonto National Forest, Young US-AZ 34.19410, -110.88448","2025-05-24 04:53",3,34.194098,-110.884482,TRUE,FALSE,TRUE,"S242795272"
"476","virwar","Virginia's Warbler","Leiothlypis virginiae","L33282861","Backyard","2025-05-23 19:54",1,37.301998,-107.878137,TRUE,FALSE,TRUE,"S241749290"
"477","virwar","Virginia's Warbler","Leiothlypis virginiae","L2802007","Routt Co. Rd. 80--First Hill","2025-05-23 19:07",1,40.5426387,-107.2196665,TRUE,FALSE,FALSE,"S242802439"
"478","virwar","Virginia's Warbler","Leiothlypis virginiae","L10810457","Zion NP--South Fork of Taylor Canyon","2025-05-23 15:34",4,37.4535713,-113.1802165,TRUE,FALSE,FALSE,"S241973570"
"479","virwar","Virginia's Warbler","Leiothlypis virginiae","L45755071","N County Road 45E, Livermore CO","2025-05-23 14:30",1,40.959991,-105.366611,TRUE,FALSE,TRUE,"S241671235"
"480","virwar","Virginia's Warbler","Leiothlypis virginiae","L768735","Harshaw Creek Road","2025-05-23 14:00",1,31.506978,-110.6798543,TRUE,FALSE,FALSE,"S241719672"
"481","virwar","Virginia's Warbler","Leiothlypis virginiae","L45770263","Seaman Reservoir, Bellvue US-CO (40.7082,-105.2328)","2025-05-23 13:54",NA,40.708243,-105.23284,TRUE,FALSE,TRUE,"S241742238"
"482","virwar","Virginia's Warbler","Leiothlypis virginiae","L226242","Mount Falcon Park--Upper Trails","2025-05-23 13:30",2,39.6335555,-105.2281245,TRUE,FALSE,FALSE,"S241696245"
"483","virwar","Virginia's Warbler","Leiothlypis virginiae","L45773165","Bandelier National Monument Pueblo Loop Trail","2025-05-23 13:30",1,35.7807563,-106.2729109,TRUE,FALSE,TRUE,"S241757143"
"484","virwar","Virginia's Warbler","Leiothlypis virginiae","L1546926","Big Cottonwood Canyon--Lake Blanche/Mill B South Hike","2025-05-23 13:15",1,40.623453,-111.7114525,TRUE,FALSE,FALSE,"S243242255"
"485","virwar","Virginia's Warbler","Leiothlypis virginiae","L7526289","Forsyth Trail","2025-05-23 13:05",1,37.3766371,-113.5072231,TRUE,FALSE,FALSE,"S241679669"
"486","virwar","Virginia's Warbler","Leiothlypis virginiae","L1773249","Greenhill Cemetery","2025-05-23 12:56",1,41.315111,-105.5740428,TRUE,FALSE,FALSE,"S241697715"
"487","virwar","Virginia's Warbler","Leiothlypis virginiae","L2305088","Yampa River Botanic & Emerald Parks","2025-05-23 12:51",1,40.4707642,-106.8293166,TRUE,FALSE,FALSE,"S241655870"
"488","virwar","Virginia's Warbler","Leiothlypis virginiae","L45768413","N Fork County Rd, Kanab US-UT 37.30970, -112.85652","2025-05-23 12:40",2,37.309697,-112.856523,TRUE,FALSE,TRUE,"S241733302"
"489","virwar","Virginia's Warbler","Leiothlypis virginiae","L12279440","Upper Cheesman Canyon Trail","2025-05-23 12:36",2,39.2224012,-105.2764946,TRUE,FALSE,FALSE,"S241748394"
"490","virwar","Virginia's Warbler","Leiothlypis virginiae","L233489","Powderhorn Ski Area","2025-05-23 12:15",3,39.0737609,-108.1446719,TRUE,FALSE,FALSE,"S241674539"
"491","virwar","Virginia's Warbler","Leiothlypis virginiae","L1397793","Bandelier NM--Burnt Mesa Trail","2025-05-23 12:10",2,35.8269985,-106.3288004,TRUE,FALSE,FALSE,"S243673857"
"492","virwar","Virginia's Warbler","Leiothlypis virginiae","L1145419","Corrales Bosque--La Entrada/East Ella","2025-05-23 11:56",1,35.2204294,-106.606689,TRUE,FALSE,FALSE,"S241649831"
"493","virwar","Virginia's Warbler","Leiothlypis virginiae","L45749393","Ruins Rd, Mancos US-CO (37.2964,-108.4408)","2025-05-23 11:24",2,37.296445,-108.440812,TRUE,FALSE,TRUE,"S241751570"
"494","virwar","Virginia's Warbler","Leiothlypis virginiae","L19578560","Clark's Canyon Rd.","2025-05-23 11:00",7,40.970398,-111.2642443,TRUE,FALSE,TRUE,"S242257042"
"495","virwar","Virginia's Warbler","Leiothlypis virginiae","L504323","East Tintic Mountains--Dividend Rd.","2025-05-23 10:51",2,39.9556503,-112.0613515,TRUE,FALSE,FALSE,"S241659839"
"496","virwar","Virginia's Warbler","Leiothlypis virginiae","L36122033","421 Colorado 105, Palmer Lake, Colorado, US (39.113, -104.899)","2025-05-23 10:46",1,39.1133263,-104.899119,TRUE,FALSE,TRUE,"S241613500"
"497","virwar","Virginia's Warbler","Leiothlypis virginiae","L31228015","Mt. Lemmon--Bigelow Trailhead","2025-05-23 10:41",3,32.4097979,-110.7132959,TRUE,FALSE,FALSE,"S241656783"
"498","virwar","Virginia's Warbler","Leiothlypis virginiae","L34268917","Mt. Bigelow Overlook, Tucson US-AZ 32.41770, -110.72411","2025-05-23 10:40",1,32.417701,-110.724113,TRUE,FALSE,TRUE,"S241638539"
"499","virwar","Virginia's Warbler","Leiothlypis virginiae","L4692895","Moab--Lions Park","2025-05-23 10:33",1,38.6031381,-109.5753461,TRUE,FALSE,FALSE,"S241600864"
"500","virwar","Virginia's Warbler","Leiothlypis virginiae","L7613016","Cibola NF--Oso Pass","2025-05-23 10:07",3,35.117713,-106.443225,TRUE,FALSE,FALSE,"S241714990"
"501","virwar","Virginia's Warbler","Leiothlypis virginiae","L11919549","Olde Stage Rd--Red Hill Rd to Lefthand Canyon Dr","2025-05-23 09:52",1,40.0968168,-105.3026609,TRUE,FALSE,FALSE,"S241582960"
"502","virwar","Virginia's Warbler","Leiothlypis virginiae","L45754279","Rim Rd, Forest Lakes US-AZ 34.31762, -110.94654","2025-05-23 09:51",1,34.317625,-110.946541,TRUE,FALSE,TRUE,"S241667913"
"503","virwar","Virginia's Warbler","Leiothlypis virginiae","L2517380","City of Rocks--General","2025-05-23 09:34",2,42.0723313,-113.7137318,TRUE,FALSE,FALSE,"S241666133"
"504","virwar","Virginia's Warbler","Leiothlypis virginiae","L46175188","Bird ravine and ridge, CNF","2025-05-23 09:30",2,36.601944,-105.623055,TRUE,FALSE,TRUE,"S243628198"
"505","virwar","Virginia's Warbler","Leiothlypis virginiae","L46375421","Carpenter Basin route","2025-05-23 09:20",4,38.353997,-109.330567,TRUE,FALSE,TRUE,"S244609626"
"506","virwar","Virginia's Warbler","Leiothlypis virginiae","L4125875","Bryce Canyon Lodge--Rim Trail","2025-05-23 09:13",1,37.6668844,-112.1393223,TRUE,FALSE,FALSE,"S242050428"
"507","virwar","Virginia's Warbler","Leiothlypis virginiae","L35643289","Fish Creek Ranch","2025-05-23 09:00",1,38.2409897,-111.3873901,TRUE,FALSE,TRUE,"S244721854"
"508","virwar","Virginia's Warbler","Leiothlypis virginiae","L45760814","Upper Dog Run Loop, Colorado Springs US-CO 38.85115, -104.88281","2025-05-23 08:59",1,38.851148,-104.882811,TRUE,FALSE,TRUE,"S241697177"
"509","virwar","Virginia's Warbler","Leiothlypis virginiae","L18208225","Pack Creek Picnic Area","2025-05-23 08:57",2,38.4341988,-109.3392795,TRUE,FALSE,FALSE,"S241662361"
"510","virwar","Virginia's Warbler","Leiothlypis virginiae","L573071","Guadalupe Mts. NP--Devil's Hall Trail","2025-05-23 08:38",1,31.9069987,-104.8484516,TRUE,FALSE,FALSE,"S242799152"
"511","virwar","Virginia's Warbler","Leiothlypis virginiae","L11352750","Mt. Lemmon--Mt. Lemmon Trail to Meadow Trail","2025-05-23 08:34",4,32.44057,-110.786,TRUE,FALSE,TRUE,"S241647650"
"512","virwar","Virginia's Warbler","Leiothlypis virginiae","L12395330","Gila NF--Little Cherry Creek Road and Trail","2025-05-23 08:16",2,32.8993275,-108.228703,TRUE,FALSE,FALSE,"S241589581"
"513","virwar","Virginia's Warbler","Leiothlypis virginiae","L15059554","Smelter Canyon","2025-05-23 08:10",2,37.255129,-107.8792415,TRUE,FALSE,TRUE,"S241542677"
"514","virwar","Virginia's Warbler","Leiothlypis virginiae","L5950560","Mingus Mountain--Summit Parking Area","2025-05-23 07:51",3,34.7075837,-112.1492797,TRUE,FALSE,FALSE,"S241659027"
"515","virwar","Virginia's Warbler","Leiothlypis virginiae","L45737076","Very Steep Trail, Nogales US-AZ 31.70630, -110.87647","2025-05-23 07:46",1,31.706304,-110.876474,TRUE,FALSE,TRUE,"S241592591"
"516","virwar","Virginia's Warbler","Leiothlypis virginiae","L1812385","Durand Open Space & adjacent bosque trails","2025-05-23 07:43",2,35.0034604,-106.6897988,TRUE,FALSE,FALSE,"S241550159"
"517","virwar","Virginia's Warbler","Leiothlypis virginiae","L11601550","Deer Creek Canyon Park, Littleton US-CO 39.54307, -105.15177","2025-05-23 07:37",5,39.543074,-105.151774,TRUE,FALSE,TRUE,"S241558785"
"518","virwar","Virginia's Warbler","Leiothlypis virginiae","L129052","Patagonia-Sonoita Creek Preserve","2025-05-23 07:34",1,31.528,-110.775,TRUE,FALSE,FALSE,"S241638028"
"519","virwar","Virginia's Warbler","Leiothlypis virginiae","L5900309","Black Peak-Signal Peak Ridge","2025-05-23 07:25",5,32.918815,-108.164585,TRUE,FALSE,TRUE,"S242258925"
"520","virwar","Virginia's Warbler","Leiothlypis virginiae","L843781","Cibola NF--Sulphur Canyon Picnic Area","2025-05-23 07:06",2,35.172335,-106.3765812,TRUE,FALSE,FALSE,"S242271494"
"521","virwar","Virginia's Warbler","Leiothlypis virginiae","L15319690","Adelaide Campground","2025-05-23 07:05",4,38.7540314,-112.3656483,TRUE,FALSE,FALSE,"S241638248"
"522","virwar","Virginia's Warbler","Leiothlypis virginiae","L3849812","Zion NP--Wildcat & Northgate Peaks Trail","2025-05-23 06:23",1,37.339849,-113.075684,TRUE,FALSE,FALSE,"S241651001"
"523","virwar","Virginia's Warbler","Leiothlypis virginiae","L41398482","Zia Reservoir","2025-05-23 06:19",2,35.5286156,-106.7578337,TRUE,FALSE,FALSE,"S241530458"
"524","virwar","Virginia's Warbler","Leiothlypis virginiae","L212245","Dixon Reservoir","2025-05-23 05:53",2,40.5543129,-105.1434097,TRUE,FALSE,FALSE,"S241610796"
"525","virwar","Virginia's Warbler","Leiothlypis virginiae","L45725063","Navajo Point East Rim Drive, Grand Canyon Village, Arizona, US (36.038, -111.837)","2025-05-23 05:46",1,36.0382844,-111.8371403,TRUE,FALSE,TRUE,"S241537152"
"526","virwar","Virginia's Warbler","Leiothlypis virginiae","L4706219","Fisher Point Overlook","2025-05-22 19:00",1,38.6161574,-109.2234993,TRUE,FALSE,FALSE,"S241396978"
"527","virwar","Virginia's Warbler","Leiothlypis virginiae","L244396","Grand Canyon NP--North Rim","2025-05-22 18:29",2,36.2086492,-112.0593856,TRUE,FALSE,FALSE,"S241935386"
"528","virwar","Virginia's Warbler","Leiothlypis virginiae","L1310328","Apple Valley Rd.","2025-05-22 16:30",1,40.2328222,-105.290308,TRUE,FALSE,FALSE,"S241348822"
"529","virwar","Virginia's Warbler","Leiothlypis virginiae","L45687156","Mesa Verde NP--Montezuma Valley Overlook","2025-05-22 16:16",1,37.296844,-108.441553,TRUE,FALSE,TRUE,"S241344025"
"530","virwar","Virginia's Warbler","Leiothlypis virginiae","L15222910","Box Camp Trail--upper 2 miles","2025-05-22 16:15",3,32.4107418,-110.7462096,TRUE,FALSE,FALSE,"S241588723"
"531","virwar","Virginia's Warbler","Leiothlypis virginiae","L1221118","C.C. Cragin (Blue Ridge) Reservoir","2025-05-22 15:42",2,34.5555579,-111.1990643,TRUE,FALSE,FALSE,"S241358422"
"532","virwar","Virginia's Warbler","Leiothlypis virginiae","L30899851","Karen's, Colorado, US (38.257, -105.139)","2025-05-22 15:08",1,38.2568367,-105.1390298,TRUE,FALSE,TRUE,"S241328785"
"533","virwar","Virginia's Warbler","Leiothlypis virginiae","L45758154","Dixie National Forest, Pine Valley US-UT 37.42118, -113.46082","2025-05-22 14:04",1,37.421178,-113.460817,TRUE,FALSE,TRUE,"S241685232"
"534","virwar","Virginia's Warbler","Leiothlypis virginiae","L45682107","Blacksmith Fork River Trail, Hyrum US-UT 41.62405, -111.79455","2025-05-22 14:01",1,41.624052,-111.794554,TRUE,FALSE,TRUE,"S241320040"
"535","virwar","Virginia's Warbler","Leiothlypis virginiae","L14419010","San Juan National Forest, Durango US-CO 37.35607, -107.69095","2025-05-22 14:00",1,37.356071,-107.690949,TRUE,FALSE,TRUE,"S241312442"
"536","virwar","Virginia's Warbler","Leiothlypis virginiae","L15826824","Yeoman Park","2025-05-22 14:00",1,39.503725,-106.6785068,TRUE,FALSE,FALSE,"S241396946"
"537","virwar","Virginia's Warbler","Leiothlypis virginiae","L5987418","American Fork Canyon--Timpanogos Cave Trail","2025-05-22 13:53",2,40.4401812,-111.7111999,TRUE,FALSE,FALSE,"S241310820"
"538","virwar","Virginia's Warbler","Leiothlypis virginiae","L45683711","Blowhard Trail, Cedar City US-UT 37.61618, -112.93057","2025-05-22 13:41",4,37.616176,-112.930572,TRUE,FALSE,TRUE,"S241327561"
"539","virwar","Virginia's Warbler","Leiothlypis virginiae","L462889","Parley's Gulch and Tanner Park","2025-05-22 13:02",1,40.7114194,-111.8110779,TRUE,FALSE,FALSE,"S241311022"
"540","virwar","Virginia's Warbler","Leiothlypis virginiae","L821556","Glen Canyon NRA--Lonely Dell Ranch","2025-05-22 12:25",1,36.8684632,-111.5954518,TRUE,FALSE,FALSE,"S241303240"
"541","virwar","Virginia's Warbler","Leiothlypis virginiae","L45688945","Gayno Reservoir (Private)","2025-05-22 12:16",1,39.709551,-105.371885,TRUE,FALSE,TRUE,"S241353214"
"542","virwar","Virginia's Warbler","Leiothlypis virginiae","L11804098","Bike Path along Salt Creek","2025-05-22 12:15",1,39.6037573,-106.7588293,TRUE,FALSE,FALSE,"S241397631"
"543","virwar","Virginia's Warbler","Leiothlypis virginiae","L772504","Hualapai Mountain Park","2025-05-22 11:45",2,35.0963162,-113.8858223,TRUE,FALSE,FALSE,"S241306910"
"544","virwar","Virginia's Warbler","Leiothlypis virginiae","L392186","Natural Bridges NM","2025-05-22 11:04",1,37.5933534,-110.0101811,TRUE,FALSE,FALSE,"S241310689"
"545","virwar","Virginia's Warbler","Leiothlypis virginiae","L427635","Beaver Canyon--Lower (up to S curve)","2025-05-22 11:00",1,38.2522011,-112.5340748,TRUE,FALSE,FALSE,"S241385040"
"546","virwar","Virginia's Warbler","Leiothlypis virginiae","L45675392","1703 Cottonwood Pass Rd, Gypsum US-CO 39.60846, -106.96968","2025-05-22 10:58",2,39.608458,-106.969683,TRUE,FALSE,TRUE,"S241289065"
"547","virwar","Virginia's Warbler","Leiothlypis virginiae","L23944576","Bear Canyon between 7 Cataracts and the stakeout Sulphur-bellied Flycatcher pullout","2025-05-22 10:26",1,32.361665,-110.716125,TRUE,FALSE,TRUE,"S241272986"
"548","virwar","Virginia's Warbler","Leiothlypis virginiae","L299269","Flaming Gorge NRA","2025-05-22 10:01",1,40.9278471,-109.5547458,TRUE,FALSE,FALSE,"S241392965"
"549","virwar","Virginia's Warbler","Leiothlypis virginiae","L26566658","Smu In Taos","2025-05-22 09:43",1,36.2710362,-105.5772701,TRUE,FALSE,TRUE,"S241302260"
