"","speciesCode","comName","sciName","locId","locName","obsDt","howMany","lat","lng","obsValid","obsReviewed","locationPrivate","subId"
"1","winwre3","Winter Wren","Troglodytes hiemalis","L12545959","W8261 Nancy Lake Road, Minong, Wisconsin, US (46.099, -91.968)","2025-05-22 17:26",1,46.0992676,-91.9675819,TRUE,FALSE,TRUE,"S241356993"
"2","winwre3","Winter Wren","Troglodytes hiemalis","L32526474","Henry Mueller Family Conservancy","2025-05-22 17:08",1,43.697685,-87.714244,TRUE,FALSE,FALSE,"S241353878"
"3","winwre3","Winter Wren","Troglodytes hiemalis","L5825957","Porcupine Mountains Wilderness SP--Summit Peak","2025-05-22 15:47",1,46.7477777,-89.7718648,TRUE,FALSE,FALSE,"S241320072"
"4","winwre3","Winter Wren","Troglodytes hiemalis","L45691546","Sand Lake","2025-05-22 15:36",1,47.4864117,-93.5032117,TRUE,FALSE,TRUE,"S241366236"
"5","winwre3","Winter Wren","Troglodytes hiemalis","L5272264","Clark Island","2025-05-22 13:46",1,43.9868246,-69.1827106,TRUE,FALSE,FALSE,"S241295526"
"6","winwre3","Winter Wren","Troglodytes hiemalis","L246862","Hartwick Pines SP","2025-05-22 13:28",1,44.7403668,-84.6631783,TRUE,FALSE,FALSE,"S241322690"
"7","winwre3","Winter Wren","Troglodytes hiemalis","L45670361","Park Loop Road, Mount Desert, Maine, US (44.309, -68.222)","2025-05-22 13:15",1,44.3093044,-68.2221831,TRUE,FALSE,TRUE,"S241265879"
"8","winwre3","Winter Wren","Troglodytes hiemalis","L19621847","Hartwick Pines SP--Old Growth Trail","2025-05-22 12:51",1,44.740482,-84.658613,TRUE,FALSE,FALSE,"S241269964"
"9","winwre3","Winter Wren","Troglodytes hiemalis","L248862","Wilderness SP","2025-05-22 12:48",1,45.7449463,-84.8994684,TRUE,FALSE,FALSE,"S241266831"
"10","winwre3","Winter Wren","Troglodytes hiemalis","L5885782","Cedar Hedge Lake Public Access Site","2025-05-22 12:17",1,44.666674,-85.7897155,TRUE,FALSE,TRUE,"S241291777"
"11","winwre3","Winter Wren","Troglodytes hiemalis","L12195248","Ripton - General Location For Entire Town","2025-05-22 11:47",2,43.9745409,-73.0379964,TRUE,FALSE,TRUE,"S241331757"
"12","winwre3","Winter Wren","Troglodytes hiemalis","L24675044","Big Marsh Creek (beaver dam pond)","2025-05-22 11:23",1,45.054308,-84.98078,TRUE,FALSE,TRUE,"S241260960"
"13","winwre3","Winter Wren","Troglodytes hiemalis","L1182595","Freedom, Moulton Rd.","2025-05-22 11:00",1,43.8253203,-71.037721,TRUE,FALSE,TRUE,"S241298958"
"14","winwre3","Winter Wren","Troglodytes hiemalis","L3122711","Petobego Pond","2025-05-22 10:29",2,44.8568727,-85.4429913,TRUE,FALSE,FALSE,"S241284692"
"15","winwre3","Winter Wren","Troglodytes hiemalis","L1182588","Freedom, Scarboro Rd.","2025-05-22 10:28",1,43.8150209,-71.0257959,TRUE,FALSE,TRUE,"S241297964"
"16","winwre3","Winter Wren","Troglodytes hiemalis","L45691622","Slim Lake Loop, Ely US-MN 48.01610, -91.98963","2025-05-22 10:05",1,48.016098,-91.989631,TRUE,FALSE,TRUE,"S241366544"
"17","winwre3","Winter Wren","Troglodytes hiemalis","L28826442","Fibron Karst Preserve","2025-05-22 09:55",1,46.205954,-85.1773462,TRUE,FALSE,FALSE,"S241229154"
"18","winwre3","Winter Wren","Troglodytes hiemalis","L2840444","Timberdoodle","2025-05-22 09:39",1,47.9715366,-91.9367695,TRUE,FALSE,TRUE,"S241242219"
"19","winwre3","Winter Wren","Troglodytes hiemalis","L303126","Northwood Park Loop","2025-05-22 09:10",1,43.6478166,-72.9509691,TRUE,FALSE,FALSE,"S241217074"
"20","winwre3","Winter Wren","Troglodytes hiemalis","L14121443","Federal Harbor","2025-05-22 09:05",1,44.85779,-67.06673,TRUE,FALSE,TRUE,"S241341814"
"21","winwre3","Winter Wren","Troglodytes hiemalis","L511992","Pisgah NF--NC Arboretum","2025-05-22 09:00",1,35.4978798,-82.6082611,TRUE,FALSE,FALSE,"S241306135"
"22","winwre3","Winter Wren","Troglodytes hiemalis","L1206487","Point Beach SF--Campground","2025-05-22 08:59",1,44.2212762,-87.5118542,TRUE,FALSE,FALSE,"S241218966"
"23","winwre3","Winter Wren","Troglodytes hiemalis","L207476","Moose Bog, Wenlock WMA","2025-05-22 08:56",1,44.7640085,-71.7394073,TRUE,FALSE,FALSE,"S241200187"
"24","winwre3","Winter Wren","Troglodytes hiemalis","L11498359","Camp Pet-O-Se-Ga","2025-05-22 08:53",1,45.3904036,-84.7411108,TRUE,FALSE,FALSE,"S241192995"
"25","winwre3","Winter Wren","Troglodytes hiemalis","L16103442","Voyageurs NP--Ash River Visitor Center","2025-05-22 08:38",1,48.4357781,-92.849666,TRUE,FALSE,FALSE,"S241227448"
"26","winwre3","Winter Wren","Troglodytes hiemalis","L7232759","584 Post Rd, Bowdoinham US-ME (44.0452,-69.9050)","2025-05-22 08:35",1,44.045229,-69.904962,TRUE,FALSE,TRUE,"S241331390"
"27","winwre3","Winter Wren","Troglodytes hiemalis","L45655026","23516–23568 Northwestern Rd, Newberry US-MI 46.56541, -85.34591","2025-05-22 08:32",1,46.565409,-85.345912,TRUE,FALSE,TRUE,"S241192483"
"28","winwre3","Winter Wren","Troglodytes hiemalis","L25799291","Rodgers Lot Town Forest","2025-05-22 08:31",1,44.436548,-72.134698,TRUE,FALSE,FALSE,"S241214554"
"29","winwre3","Winter Wren","Troglodytes hiemalis","L21846944","Orchard to Orchard Trail System","2025-05-22 08:30",1,44.698871,-73.012108,TRUE,FALSE,TRUE,"S241196877"
"30","winwre3","Winter Wren","Troglodytes hiemalis","L2598618","University of Michigan Biological Station--Reese's Swamp","2025-05-22 08:05",1,45.5392819,-84.6774888,TRUE,FALSE,FALSE,"S241354641"
"31","winwre3","Winter Wren","Troglodytes hiemalis","L282687","Birds of Vermont Museum","2025-05-22 08:05",1,44.3516074,-73.0065417,TRUE,FALSE,FALSE,"S241312354"
"32","winwre3","Winter Wren","Troglodytes hiemalis","L45656803","Saint Marys Road, Van Buren, Maine, US (47.135, -67.995)","2025-05-22 08:01",2,47.1351457,-67.9947708,TRUE,FALSE,TRUE,"S241201875"
"33","winwre3","Winter Wren","Troglodytes hiemalis","L4596246","Balsam Ridge Tree Farm(Private)","2025-05-22 08:00",2,43.6951804,-72.0323238,TRUE,FALSE,TRUE,"S241182558"
"34","winwre3","Winter Wren","Troglodytes hiemalis","L45654037","Croker Rd.","2025-05-22 07:44",1,45.977925,-89.282333,TRUE,FALSE,TRUE,"S241187122"
"35","winwre3","Winter Wren","Troglodytes hiemalis","L15008977","65 Luther Rd, Saratoga Springs US-NY 42.99031, -73.72105","2025-05-22 07:37",1,42.990309,-73.721053,TRUE,FALSE,TRUE,"S241164075"
"36","winwre3","Winter Wren","Troglodytes hiemalis","L45671204","Stub lake trail","2025-05-22 07:33",1,47.9498175,-91.7169737,TRUE,FALSE,TRUE,"S241273470"
"37","winwre3","Winter Wren","Troglodytes hiemalis","L24955044","Forest Road 3141","2025-05-22 07:32",1,46.2443667,-84.9557516,TRUE,FALSE,FALSE,"S241174566"
"38","winwre3","Winter Wren","Troglodytes hiemalis","L1327553","Rifle River Trail yard","2025-05-22 07:30",1,44.2554843,-84.0673725,TRUE,FALSE,TRUE,"S241322743"
"39","winwre3","Winter Wren","Troglodytes hiemalis","L45658907","Sunken Lake, Dennysville US-ME 44.78991, -67.26188","2025-05-22 07:29",2,44.789914,-67.261876,TRUE,FALSE,TRUE,"S241212441"
"40","winwre3","Winter Wren","Troglodytes hiemalis","L385151","Peshekee Grade","2025-05-22 07:25",3,46.542198,-88.0017864,TRUE,FALSE,FALSE,"S241174007"
"41","winwre3","Winter Wren","Troglodytes hiemalis","L392543","Bayfield Fish Hatchery/Pikes Creek","2025-05-22 07:15",1,46.7866616,-90.8639717,TRUE,FALSE,FALSE,"S241241298"
"42","winwre3","Winter Wren","Troglodytes hiemalis","L357148","Gordon Bubolz Nature Preserve ","2025-05-22 07:14",1,44.3127944,-88.4588242,TRUE,FALSE,FALSE,"S241201272"
"43","winwre3","Winter Wren","Troglodytes hiemalis","L2954026","Norwich: Kendall Station Road","2025-05-22 06:51",1,43.7571673,-72.2271629,TRUE,FALSE,TRUE,"S241265143"
"44","winwre3","Winter Wren","Troglodytes hiemalis","L6581556","Ralph A. MacMullan Conference Center","2025-05-22 06:36",1,44.5131453,-84.7501731,TRUE,FALSE,FALSE,"S241142193"
"45","winwre3","Winter Wren","Troglodytes hiemalis","L165276","Green Mountain Audubon Nature Center","2025-05-22 06:22",2,44.3469916,-72.9963831,TRUE,FALSE,FALSE,"S241168469"
"46","winwre3","Winter Wren","Troglodytes hiemalis","L26958067","Cloquet Forestry Center","2025-05-22 06:15",1,46.705172,-92.525079,TRUE,FALSE,FALSE,"S241177401"
"47","winwre3","Winter Wren","Troglodytes hiemalis","L39272969","6224 NY-30, Lake Clear US-NY (44.3624,-74.2464)","2025-05-22 06:11",1,44.362376,-74.24644,TRUE,FALSE,TRUE,"S241144840"
"48","winwre3","Winter Wren","Troglodytes hiemalis","L3307014","Gill, North Cross Road","2025-05-22 06:10",1,42.6588961,-72.487042,TRUE,FALSE,TRUE,"S241219062"
"49","winwre3","Winter Wren","Troglodytes hiemalis","L45646098","Bartlesville Road—Patten","2025-05-22 06:09",1,46.024302,-68.500099,TRUE,FALSE,TRUE,"S241140301"
"50","winwre3","Winter Wren","Troglodytes hiemalis","L20068913","Acadia NP--Cadillac North Ridge Trail","2025-05-22 06:01",1,44.3775634,-68.2286766,TRUE,FALSE,FALSE,"S241216874"
"51","winwre3","Winter Wren","Troglodytes hiemalis","L44371960","Peavey Brook Owlsboro Road—Mt Chase","2025-05-22 05:53",1,46.064619,-68.513055,TRUE,FALSE,TRUE,"S241136175"
"52","winwre3","Winter Wren","Troglodytes hiemalis","L2833530","Country Club Lane, Lake Placid","2025-05-22 05:23",1,44.2446877,-73.9440608,TRUE,FALSE,TRUE,"S241132905"
"53","winwre3","Winter Wren","Troglodytes hiemalis","L16674202","1286 Lost Nation Rd, Craftsbury Common US-VT 44.69013, -72.35958","2025-05-21 21:37",1,44.690129,-72.35958,TRUE,FALSE,TRUE,"S241086548"
"54","winwre3","Winter Wren","Troglodytes hiemalis","L19984484","Cambridge Crossing","2025-05-21 18:56",1,42.3717426,-71.0742675,TRUE,FALSE,FALSE,"S241054202"
"55","winwre3","Winter Wren","Troglodytes hiemalis","L751984","Indian Brook Reservoir - Essex (50 acres)","2025-05-21 17:36",1,44.5351436,-73.0979788,TRUE,FALSE,FALSE,"S241047137"
"56","winwre3","Winter Wren","Troglodytes hiemalis","L339898","Cutler Coast Public Reserved Land","2025-05-21 15:03",1,44.6984761,-67.1579003,TRUE,FALSE,FALSE,"S241025791"
"57","winwre3","Winter Wren","Troglodytes hiemalis","L23373351","Home","2025-05-21 14:56",1,44.648627,-74.919442,TRUE,FALSE,TRUE,"S241009991"
"58","winwre3","Winter Wren","Troglodytes hiemalis","L738995","Belvidere Bog and Wetlands","2025-05-21 14:25",4,44.7664806,-72.6144791,TRUE,FALSE,FALSE,"S241170312"
"59","winwre3","Winter Wren","Troglodytes hiemalis","L32227356","Glacier pond","2025-05-21 14:15",1,47.9575054,-91.5682227,TRUE,FALSE,TRUE,"S241050266"
"60","winwre3","Winter Wren","Troglodytes hiemalis","L4069506","Allenberg Bog Audubon Preserve","2025-05-21 14:13",2,42.2557312,-78.8910589,TRUE,FALSE,FALSE,"S241025780"
"61","winwre3","Winter Wren","Troglodytes hiemalis","L327546","Quoddy Head SP","2025-05-21 13:13",1,44.813908,-66.9525743,TRUE,FALSE,FALSE,"S240987383"
"62","winwre3","Winter Wren","Troglodytes hiemalis","L752174","Silver Lake - Leicester (101 acres)","2025-05-21 12:55",1,43.8920564,-73.0523222,TRUE,FALSE,FALSE,"S241028414"
"63","winwre3","Winter Wren","Troglodytes hiemalis","L1797474","Moose Lake SP","2025-05-21 12:43",1,46.4355426,-92.7360592,TRUE,FALSE,FALSE,"S241094329"
"64","winwre3","Winter Wren","Troglodytes hiemalis","L14371609","Lily Lake","2025-05-21 12:24",1,44.83054,-67.10092,TRUE,FALSE,TRUE,"S241053494"
"65","winwre3","Winter Wren","Troglodytes hiemalis","L7356502","Fletcher, Black Mt., Vermont. (44.662, -72.905)","2025-05-21 11:54",1,44.6616616,-72.9045484,TRUE,FALSE,TRUE,"S241051276"
"66","winwre3","Winter Wren","Troglodytes hiemalis","L25911239","Eagle Mountain Wilderness Preserve","2025-05-21 11:49",1,44.390886,-73.573557,TRUE,FALSE,FALSE,"S241047883"
"67","winwre3","Winter Wren","Troglodytes hiemalis","L1075253","Hamilton Lake Nature Area","2025-05-21 11:40",1,46.3332989,-85.5276042,TRUE,FALSE,FALSE,"S240961466"
"68","winwre3","Winter Wren","Troglodytes hiemalis","L45611462","Dubuque State Forest","2025-05-21 11:18",1,42.562915,-72.902712,TRUE,FALSE,TRUE,"S240973795"
"69","winwre3","Winter Wren","Troglodytes hiemalis","L11554935","Boyce Hill Town Forest","2025-05-21 11:09",1,44.2520638,-72.8488222,TRUE,FALSE,FALSE,"S240961940"
"70","winwre3","Winter Wren","Troglodytes hiemalis","L3694104","Birge Nature Preserve--Woodland Trail and Northern Wetlands","2025-05-21 11:08",1,46.0064712,-84.473995,TRUE,FALSE,FALSE,"S240925570"
"71","winwre3","Winter Wren","Troglodytes hiemalis","L7425957","US-WI-Baileys Harbor-3025-3077 County Road EE - 45.0690x-87.1686","2025-05-21 11:00",1,45.068963,-87.168571,TRUE,FALSE,TRUE,"S240945478"
"72","winwre3","Winter Wren","Troglodytes hiemalis","L1499998","Whistle Stop Rail Trail--West Farmington","2025-05-21 10:51",1,44.660147,-70.1565049,TRUE,FALSE,FALSE,"S240984097"
"73","winwre3","Winter Wren","Troglodytes hiemalis","L4738005","Slim Lake Canoe Access","2025-05-21 10:43",1,47.9956944,-91.9612956,TRUE,FALSE,FALSE,"S241366589"
"74","winwre3","Winter Wren","Troglodytes hiemalis","L45603323","Kittredge Brook Forest Preserve (MCHT)","2025-05-21 10:36",2,44.385068,-68.300123,TRUE,FALSE,TRUE,"S240935948"
"75","winwre3","Winter Wren","Troglodytes hiemalis","L3497668","Karl Curtis home","2025-05-21 10:25",1,42.9687962,-75.9878826,TRUE,FALSE,TRUE,"S241049763"
"76","winwre3","Winter Wren","Troglodytes hiemalis","L32711046","Frye Mountain State Game Management Area","2025-05-21 10:04",NA,44.4784584,-69.2307098,TRUE,FALSE,FALSE,"S241057047"
"77","winwre3","Winter Wren","Troglodytes hiemalis","L9529090","75 Ebenecook Road, Southport, Maine, US (43.831, -69.676)","2025-05-21 10:02",1,43.8310588,-69.6760081,TRUE,FALSE,TRUE,"S241066405"
"78","winwre3","Winter Wren","Troglodytes hiemalis","L1194459","Big Bog State Recreation Area","2025-05-21 10:02",1,48.2857058,-94.5655145,TRUE,FALSE,FALSE,"S241102308"
"79","winwre3","Winter Wren","Troglodytes hiemalis","L3742481","Cobb Town Forest","2025-05-21 09:59",1,43.9193805,-72.3682308,TRUE,FALSE,FALSE,"S240976822"
"80","winwre3","Winter Wren","Troglodytes hiemalis","L212478","Paul Smith's College--Visitor Interpretive Center","2025-05-21 09:57",2,44.4486136,-74.2594002,TRUE,FALSE,FALSE,"S240978441"
"81","winwre3","Winter Wren","Troglodytes hiemalis","L1570209","Birdsacre Sanctuary, Ellsworth","2025-05-21 09:50",1,44.5279065,-68.4035336,TRUE,FALSE,FALSE,"S241043129"
"82","winwre3","Winter Wren","Troglodytes hiemalis","L45609576","Canton, North Carolina, US (35.307, -82.937)","2025-05-21 09:47",1,35.3073421,-82.9374596,TRUE,FALSE,TRUE,"S240965114"
"83","winwre3","Winter Wren","Troglodytes hiemalis","L340561","Great Wass Island Preserve (TNC)","2025-05-21 09:42",1,44.4810829,-67.5946712,TRUE,FALSE,FALSE,"S240928219"
"84","winwre3","Winter Wren","Troglodytes hiemalis","L8468838","Ship Harbor Trail, Southwest Harbor","2025-05-21 09:37",1,44.2316475,-68.3256054,TRUE,FALSE,TRUE,"S240924356"
"85","winwre3","Winter Wren","Troglodytes hiemalis","L26207334","Upper Cold River Road, Shrewsbury, Vermont, US (43.562, -72.911)","2025-05-21 09:33",2,43.5623447,-72.9107367,TRUE,FALSE,TRUE,"S240913063"
"86","winwre3","Winter Wren","Troglodytes hiemalis","L19741201","Burnt Coat Harbor Lighthouse","2025-05-21 09:32",2,44.1344565,-68.4475406,TRUE,FALSE,FALSE,"S240912868"
"87","winwre3","Winter Wren","Troglodytes hiemalis","L11497468","Red Mill Snowmoblie road","2025-05-21 09:30",1,42.9028695,-73.0183023,TRUE,FALSE,TRUE,"S241163863"
"88","winwre3","Winter Wren","Troglodytes hiemalis","L9271758","Moosehorn NWR, Edmunds Division--Beaver Marsh","2025-05-21 09:27",2,44.84911,-67.207185,TRUE,FALSE,FALSE,"S240905160"
"89","winwre3","Winter Wren","Troglodytes hiemalis","L951052","East Inlet--Dam, Pittsburg","2025-05-21 09:26",2,45.1798589,-71.1620522,TRUE,FALSE,FALSE,"S240912220"
"90","winwre3","Winter Wren","Troglodytes hiemalis","L45609008","Blue Ridge Pkwy, Cullowhee US-NC 35.30390, -82.94246","2025-05-21 09:25",1,35.303902,-82.94246,TRUE,FALSE,TRUE,"S240962714"
"91","winwre3","Winter Wren","Troglodytes hiemalis","L11241982","Wardsboro Road","2025-05-21 09:18",1,43.6779893,-73.5995859,TRUE,FALSE,TRUE,"S241000124"
"92","winwre3","Winter Wren","Troglodytes hiemalis","L506435","Toft Point SNA","2025-05-21 09:12",1,45.0711959,-87.0953514,TRUE,FALSE,FALSE,"S240909459"
"93","winwre3","Winter Wren","Troglodytes hiemalis","L1807808","Cheboygan SP","2025-05-21 09:10",2,45.6477885,-84.41921,TRUE,FALSE,FALSE,"S240907178"
"94","winwre3","Winter Wren","Troglodytes hiemalis","L1153434","Pondicherry Wildlife Refuge--Mud Pond, Jefferson","2025-05-21 09:00",1,44.391905,-71.5181637,TRUE,FALSE,FALSE,"S240910192"
"95","winwre3","Winter Wren","Troglodytes hiemalis","L1457027","Shelburne Pond, Pond Road wetlands (UVM Natural Area)","2025-05-21 08:59",1,44.3764908,-73.1481275,TRUE,FALSE,FALSE,"S240926459"
"96","winwre3","Winter Wren","Troglodytes hiemalis","L150998","Berlin Pond IBA - Berlin (293 acres)","2025-05-21 08:48",1,44.1899195,-72.5875116,TRUE,FALSE,FALSE,"S240925451"
"97","winwre3","Winter Wren","Troglodytes hiemalis","L165280","Hubbard Park","2025-05-21 08:26",1,44.2676,-72.5779,TRUE,FALSE,FALSE,"S240879388"
"98","winwre3","Winter Wren","Troglodytes hiemalis","L2823480","North Wind Farm","2025-05-21 08:19",1,44.2744282,-69.3747783,TRUE,FALSE,TRUE,"S240896239"
"99","winwre3","Winter Wren","Troglodytes hiemalis","L2907070","Moosehorn Pond, New Salem","2025-05-21 08:10",1,42.5238625,-72.335186,TRUE,FALSE,TRUE,"S241190646"
"100","winwre3","Winter Wren","Troglodytes hiemalis","L11752783","Paradox upper lake","2025-05-21 08:09",1,43.891716,-73.665706,TRUE,FALSE,TRUE,"S240890751"
"101","winwre3","Winter Wren","Troglodytes hiemalis","L11600102","Moose Mountain and Mill Pond, Hanover","2025-05-21 08:08",1,43.7032828,-72.1643284,TRUE,FALSE,FALSE,"S240876554"
"102","winwre3","Winter Wren","Troglodytes hiemalis","L45603718","Horseshoe Pond Trail, Eustis US-ME 45.37705, -70.75876","2025-05-21 08:02",1,45.37705,-70.758761,TRUE,FALSE,TRUE,"S240938266"
"103","winwre3","Winter Wren","Troglodytes hiemalis","L29053621","Vermont Welcome Center","2025-05-21 08:00",1,43.5863027,-73.2922422,TRUE,FALSE,FALSE,"S240865189"
"104","winwre3","Winter Wren","Troglodytes hiemalis","L8208072","Hiram Village","2025-05-21 08:00",1,43.8806651,-70.8004395,TRUE,FALSE,FALSE,"S241195463"
"105","winwre3","Winter Wren","Troglodytes hiemalis","L45677754","Chazy Highlands Wild Forest 44.69874153240569, -73.9839402847668","2025-05-21 08:00",1,44.6982834,-73.9833742,TRUE,FALSE,TRUE,"S241306059"
"106","winwre3","Winter Wren","Troglodytes hiemalis","L9624919","Saxon Hill Recreational Area","2025-05-21 07:48",1,44.4910335,-73.0343403,TRUE,FALSE,FALSE,"S240915273"
"107","winwre3","Winter Wren","Troglodytes hiemalis","L7420090","2276 x AuTrain River","2025-05-21 07:36",1,46.3767213,-86.8433189,TRUE,FALSE,TRUE,"S240986338"
"108","winwre3","Winter Wren","Troglodytes hiemalis","L45589305","486 Maurice Roberts Memorial Highway, Fairlee, Vermont, US (43.944, -72.136)","2025-05-21 07:35",1,43.94369,-72.1359133,TRUE,FALSE,TRUE,"S240862621"
"109","winwre3","Winter Wren","Troglodytes hiemalis","L8559627","Four Seasons Trails","2025-05-21 07:32",1,47.3475299,-68.3274713,TRUE,FALSE,FALSE,"S240911755"
"110","winwre3","Winter Wren","Troglodytes hiemalis","L725492","Tahqua Trail","2025-05-21 07:32",1,46.5642307,-85.0413036,TRUE,FALSE,TRUE,"S240880149"
"111","winwre3","Winter Wren","Troglodytes hiemalis","L45595844","556 Cascade Bluffs, Grand Marais, Minnesota, US (47.756, -90.523)","2025-05-21 07:29",1,47.755988,-90.5232603,TRUE,FALSE,TRUE,"S240898609"
"112","winwre3","Winter Wren","Troglodytes hiemalis","L45487070","Lower Merryall area near Merryall Brook","2025-05-21 07:27",NA,41.617938,-73.426781,TRUE,FALSE,TRUE,"S240858144"
"113","winwre3","Winter Wren","Troglodytes hiemalis","L16248284","Padanarum Road","2025-05-21 07:19",2,43.6503193,-73.6069648,TRUE,FALSE,FALSE,"S240999481"
"114","winwre3","Winter Wren","Troglodytes hiemalis","L37878109","KLT North Acres Wildlife Conservation Area","2025-05-21 07:09",1,44.3518592,-69.8431727,TRUE,FALSE,FALSE,"S240935418"
"115","winwre3","Winter Wren","Troglodytes hiemalis","L14944681","Peter A. Krusch Nature Preserve","2025-05-21 07:01",4,44.6612969,-72.878623,TRUE,FALSE,FALSE,"S240880868"
"116","winwre3","Winter Wren","Troglodytes hiemalis","L476877","Folsom  Knoll","2025-05-21 07:00",1,44.1402032,-72.8081882,TRUE,FALSE,TRUE,"S240906498"
"117","winwre3","Winter Wren","Troglodytes hiemalis","L45620681","Scammon Ridge, Greenville","2025-05-21 06:51",1,45.494697,-69.517272,TRUE,FALSE,TRUE,"S241018738"
"118","winwre3","Winter Wren","Troglodytes hiemalis","L35080745","6753 North Manitou Trail, Northport, Michigan, US (45.08, -85.689)","2025-05-21 06:49",1,45.0804017,-85.6888883,TRUE,FALSE,TRUE,"S240860007"
"119","winwre3","Winter Wren","Troglodytes hiemalis","L825062","Bloomingdale Bog Trail--South Entrance","2025-05-21 06:47",2,44.3641149,-74.1511381,TRUE,FALSE,FALSE,"S240861844"
"120","winwre3","Winter Wren","Troglodytes hiemalis","L39728522","149 Marshall Point","2025-05-21 06:42",1,43.918811,-69.2580704,TRUE,FALSE,TRUE,"S240848770"
"121","winwre3","Winter Wren","Troglodytes hiemalis","L9585662","Moose Pond Club Rd.","2025-05-21 06:41",2,43.88371,-74.031871,TRUE,FALSE,FALSE,"S240983645"
"122","winwre3","Winter Wren","Troglodytes hiemalis","L12939911","Head of the Pond Rd, Brighton","2025-05-21 06:40",2,44.7784022,-71.8331732,TRUE,FALSE,TRUE,"S240907635"
"123","winwre3","Winter Wren","Troglodytes hiemalis","L1143939","Mount Desert Island High School","2025-05-21 06:28",1,44.3727785,-68.3024955,TRUE,FALSE,FALSE,"S241059691"
"124","winwre3","Winter Wren","Troglodytes hiemalis","L722150","Hubbard Brook Experimental Forest (restricted access)","2025-05-21 06:27",2,43.9420352,-71.7256165,TRUE,FALSE,FALSE,"S240936025"
"125","winwre3","Winter Wren","Troglodytes hiemalis","L1511319","Bow Lake, Northwood/Strafford","2025-05-21 06:12",1,43.2476996,-71.1822522,TRUE,FALSE,FALSE,"S240839797"
"126","winwre3","Winter Wren","Troglodytes hiemalis","L30776267","Yard","2025-05-21 06:10",1,44.975062,-72.768416,TRUE,FALSE,TRUE,"S240853283"
"127","winwre3","Winter Wren","Troglodytes hiemalis","L442903","Zurich Bog","2025-05-21 06:03",1,43.1505969,-77.0560455,TRUE,FALSE,FALSE,"S240875568"
"128","winwre3","Winter Wren","Troglodytes hiemalis","L45616248","Brown Mountain connector carriage road","2025-05-21 05:55",1,44.3120483,-68.2848145,TRUE,FALSE,TRUE,"S240997532"
"129","winwre3","Winter Wren","Troglodytes hiemalis","L3004435","LaPlatte Headwaters Town Forest","2025-05-21 05:50",1,44.2982505,-73.0942713,TRUE,FALSE,FALSE,"S240885189"
"130","winwre3","Winter Wren","Troglodytes hiemalis","L45594889","Town of Berne","2025-05-21 05:22",1,42.6255179,-74.1336685,TRUE,FALSE,TRUE,"S240893665"
"131","winwre3","Winter Wren","Troglodytes hiemalis","L45636135","Caleb's Farm","2025-05-21 05:20",2,42.1800067,-76.2319707,TRUE,FALSE,TRUE,"S241096828"
"132","winwre3","Winter Wren","Troglodytes hiemalis","L11617323","Great Duck Island (restricted access)","2025-05-21 05:00",1,44.144019,-68.24627,TRUE,FALSE,FALSE,"S240877376"
"133","winwre3","Winter Wren","Troglodytes hiemalis","L33616074","Red Cabin","2025-05-20 17:13",1,44.6561291,-84.258698,TRUE,FALSE,TRUE,"S240730803"
"134","winwre3","Winter Wren","Troglodytes hiemalis","L45565627","Ascutney Outdoors - Mile Long Field Trails","2025-05-20 16:56",1,43.460812,-72.475503,TRUE,FALSE,TRUE,"S240741791"
"135","winwre3","Winter Wren","Troglodytes hiemalis","L4662866","Sleeping Bear Dunes NL--Treat Farm Trail","2025-05-20 16:47",1,44.790729,-86.0674953,TRUE,FALSE,FALSE,"S240713772"
"136","winwre3","Winter Wren","Troglodytes hiemalis","L12574227","Goey Pond Rd","2025-05-20 16:24",1,42.616889,-74.987074,TRUE,FALSE,TRUE,"S240725672"
"137","winwre3","Winter Wren","Troglodytes hiemalis","L1553604","Lone Rock Point / North Beach","2025-05-20 16:17",1,44.4910591,-73.2469056,TRUE,FALSE,FALSE,"S240735444"
"138","winwre3","Winter Wren","Troglodytes hiemalis","L16617500","Wallkill Valley Overlook","2025-05-20 16:17",1,41.7358057,-74.1924513,TRUE,FALSE,FALSE,"S240774221"
"139","winwre3","Winter Wren","Troglodytes hiemalis","L45553640","N7346–N7498 Miners Castle Rd, Munising US-MI 46.42822, -86.55259","2025-05-20 15:42",1,46.42822,-86.552585,TRUE,FALSE,TRUE,"S240698894"
"140","winwre3","Winter Wren","Troglodytes hiemalis","L3253970","Down East Sunrise Trail, Ellsworth","2025-05-20 15:33",1,44.5551394,-68.3782312,TRUE,FALSE,FALSE,"S240731812"
"141","winwre3","Winter Wren","Troglodytes hiemalis","L3557425","Texas Hollow SF--FLT","2025-05-20 14:30",1,42.4123376,-76.7920491,TRUE,FALSE,FALSE,"S240709167"
"142","winwre3","Winter Wren","Troglodytes hiemalis","L2314705","Borestone Mountain Audubon Sanctuary","2025-05-20 13:56",1,45.3781963,-69.4297314,TRUE,FALSE,FALSE,"S240748391"
"143","winwre3","Winter Wren","Troglodytes hiemalis","L1760720","Acadia NP--Valley Cove","2025-05-20 12:40",1,44.3075112,-68.3174376,TRUE,FALSE,FALSE,"S240638529"
"144","winwre3","Winter Wren","Troglodytes hiemalis","L207418","Wompatuck SP (Plymouth Co.)","2025-05-20 12:36",1,42.2062945,-70.8417813,TRUE,FALSE,FALSE,"S240688014"
"145","winwre3","Winter Wren","Troglodytes hiemalis","L45561713","Strawberry lane","2025-05-20 12:17",1,41.5794337,-81.4290118,TRUE,FALSE,TRUE,"S240726095"
"146","winwre3","Winter Wren","Troglodytes hiemalis","L45589143","Rusk Mountain","2025-05-20 11:51",3,42.1927772,-74.2701688,TRUE,FALSE,TRUE,"S240861689"
"147","winwre3","Winter Wren","Troglodytes hiemalis","L6693586","White Mt. NF--Sabbaday Brook Trail, Waterville Valley","2025-05-20 11:38",1,43.9973155,-71.3927668,TRUE,FALSE,FALSE,"S240770729"
"148","winwre3","Winter Wren","Troglodytes hiemalis","L45540545","Gwinn Tourist Park","2025-05-20 11:05",1,46.2845582,-87.4352292,TRUE,FALSE,TRUE,"S240622593"
"149","winwre3","Winter Wren","Troglodytes hiemalis","L24170360","Old Mast Road, Albany, New Hampshire, US (43.923, -71.357)","2025-05-20 10:49",1,43.9228779,-71.3573058,TRUE,FALSE,TRUE,"S240624810"
"150","winwre3","Winter Wren","Troglodytes hiemalis","L45540449","35 Morse Road, Royalston, Massachusetts, US (42.646, -72.123) Guiney Forest","2025-05-20 10:39",2,42.6460203,-72.1231143,TRUE,FALSE,TRUE,"S240622181"
"151","winwre3","Winter Wren","Troglodytes hiemalis","L25590089","Past Clatter New Milford US-CT 41.54217, -73.40153","2025-05-20 10:35",1,41.542169,-73.401529,TRUE,FALSE,TRUE,"S240601713"
"152","winwre3","Winter Wren","Troglodytes hiemalis","L51","Wachusett Mountain State Reservation","2025-05-20 10:35",1,42.4896311,-71.8984795,TRUE,FALSE,FALSE,"S240677174"
"153","winwre3","Winter Wren","Troglodytes hiemalis","L45566207","473–739 Mill Rd, Napanoch US-NY 41.84139, -74.41412","2025-05-20 10:28",1,41.841389,-74.414123,TRUE,FALSE,TRUE,"S240745200"
"154","winwre3","Winter Wren","Troglodytes hiemalis","L45556356","Bear River Rd, Newry US-ME 44.58349, -70.93652","2025-05-20 10:27",1,44.583487,-70.936522,TRUE,FALSE,TRUE,"S240695835"
"155","winwre3","Winter Wren","Troglodytes hiemalis","L19993418","Sunday River Whitecap Trail","2025-05-20 10:22",1,44.5576496,-70.8984919,TRUE,FALSE,TRUE,"S240783851"
"156","winwre3","Winter Wren","Troglodytes hiemalis","L45561598","Bear River Rd, Newry US-ME 44.57273, -70.91523","2025-05-20 10:18",1,44.572728,-70.91523,TRUE,FALSE,TRUE,"S240722825"
"157","winwre3","Winter Wren","Troglodytes hiemalis","L33521623","03431, Keene US-NH 42.95358, -72.34045","2025-05-20 10:11",2,42.953579,-72.340446,TRUE,FALSE,TRUE,"S240655648"
"158","winwre3","Winter Wren","Troglodytes hiemalis","L1432948","Bloomingdale Bog Trail--CR 55 to Bigelow Rd.","2025-05-20 09:52",3,44.4167104,-74.1195601,TRUE,FALSE,FALSE,"S240639829"
"159","winwre3","Winter Wren","Troglodytes hiemalis","L4646267","16 Pinneo Hill Rd, Hanover NH","2025-05-20 09:37",1,43.7404683,-72.2369528,TRUE,FALSE,TRUE,"S240569837"
"160","winwre3","Winter Wren","Troglodytes hiemalis","L1218373","Hinesburg Town Forest","2025-05-20 09:35",1,44.3261813,-73.032614,TRUE,FALSE,FALSE,"S240606893"
"161","winwre3","Winter Wren","Troglodytes hiemalis","L45552422","Alum Cave Trail, Gatlinburg US-TN 35.64023, -83.43773","2025-05-20 09:33",2,35.640232,-83.437735,TRUE,FALSE,TRUE,"S240677337"
"162","winwre3","Winter Wren","Troglodytes hiemalis","L15843268","East Street, Huntington","2025-05-20 09:30",1,44.3200015,-72.9793521,TRUE,FALSE,TRUE,"S240565087"
"163","winwre3","Winter Wren","Troglodytes hiemalis","L326967","Bangor City Forest","2025-05-20 09:30",1,44.86227,-68.7353735,TRUE,FALSE,FALSE,"S240593854"
"164","winwre3","Winter Wren","Troglodytes hiemalis","L9843527","Singing Meadow Preserve (BRLT)","2025-05-20 09:28",1,43.9822238,-69.647709,TRUE,FALSE,FALSE,"S240565413"
"165","winwre3","Winter Wren","Troglodytes hiemalis","L1804729","Victory Basin WMA IBA--Pipeline east of River Road","2025-05-20 09:25",1,44.5581033,-71.782057,TRUE,FALSE,FALSE,"S240859024"
"166","winwre3","Winter Wren","Troglodytes hiemalis","L5975755","Warren Woods Trails (SLT)","2025-05-20 09:25",1,43.6133664,-70.3572929,TRUE,FALSE,FALSE,"S240617132"
"167","winwre3","Winter Wren","Troglodytes hiemalis","L45552103","Cabin loop","2025-05-20 09:24",1,46.393914,-88.312957,TRUE,FALSE,TRUE,"S240675979"
"168","winwre3","Winter Wren","Troglodytes hiemalis","L109241","Boston Hollow/Yale Forest","2025-05-20 09:21",2,41.9333333,-72.15,TRUE,FALSE,FALSE,"S240736749"
"169","winwre3","Winter Wren","Troglodytes hiemalis","L251836","Monhegan Island","2025-05-20 09:12",NA,43.7657055,-69.3131265,TRUE,FALSE,FALSE,"S240598769"
"170","winwre3","Winter Wren","Troglodytes hiemalis","L18685007","Kingfisher Cabin","2025-05-20 09:06",1,46.4428178,-87.2617221,TRUE,FALSE,TRUE,"S240551679"
"171","winwre3","Winter Wren","Troglodytes hiemalis","L11682632","1951 French Hollow road, Bondville US-VT 43.18537, -72.91159","2025-05-20 09:04",1,43.185373,-72.911587,TRUE,FALSE,TRUE,"S240562583"
"172","winwre3","Winter Wren","Troglodytes hiemalis","L31412658","Shindagin Hollow State Forest, Parking near MAWA gate, 42.33463, -76.33999","2025-05-20 08:56",2,42.334634,-76.339989,TRUE,FALSE,TRUE,"S240601649"
"173","winwre3","Winter Wren","Troglodytes hiemalis","L518474","Dorchester Rd, dirt road section, Lyme","2025-05-20 08:52",1,43.7948891,-72.0915985,TRUE,FALSE,TRUE,"S240582746"
"174","winwre3","Winter Wren","Troglodytes hiemalis","L45037961","5731 Goodar Road, Grayling, Michigan, US (44.652, -84.499)","2025-05-20 08:43",1,44.6519537,-84.4993481,TRUE,FALSE,TRUE,"S240587878"
"175","winwre3","Winter Wren","Troglodytes hiemalis","L829697","Brewster Peninsula Nature Trails","2025-05-20 08:41",1,44.3037964,-73.9945936,TRUE,FALSE,FALSE,"S240563397"
"176","winwre3","Winter Wren","Troglodytes hiemalis","L3447092","University of Michigan Biological Station--Carp Creek Gorge","2025-05-20 08:38",NA,45.5528708,-84.6837974,TRUE,FALSE,FALSE,"S240585093"
"177","winwre3","Winter Wren","Troglodytes hiemalis","L45531986","Owlhead Mountain Trail","2025-05-20 08:36",2,43.963714,-74.459306,TRUE,FALSE,TRUE,"S240580274"
"178","winwre3","Winter Wren","Troglodytes hiemalis","L45496802","Glen Road Pittsburg","2025-05-20 08:33",2,45.1030334,-71.2628385,TRUE,FALSE,TRUE,"S240597540"
"179","winwre3","Winter Wren","Troglodytes hiemalis","L45556284","Bear River Rd, Newry US-ME 44.59828, -70.94599","2025-05-20 08:33",1,44.598278,-70.945986,TRUE,FALSE,TRUE,"S240695576"
"180","winwre3","Winter Wren","Troglodytes hiemalis","L45287275","Lime Hollow Nature Center West of Gracie Road","2025-05-20 08:30",NA,42.557323,-76.248854,TRUE,FALSE,TRUE,"S240769852"
"181","winwre3","Winter Wren","Troglodytes hiemalis","L7414423","Deep Hollow Rd. (Dutchess Co.)","2025-05-20 08:26",2,41.8171319,-73.5959005,TRUE,FALSE,FALSE,"S240586685"
"182","winwre3","Winter Wren","Troglodytes hiemalis","L10750883","Banducci Home","2025-05-20 08:24",1,42.182232,-73.245563,TRUE,FALSE,TRUE,"S240539131"
"183","winwre3","Winter Wren","Troglodytes hiemalis","L7770652","White Mt. NF--Mt. Willey, Bethlehem","2025-05-20 08:20",1,44.1836773,-71.421466,TRUE,FALSE,FALSE,"S240758390"
"184","winwre3","Winter Wren","Troglodytes hiemalis","L2826339","Tenney Road","2025-05-20 08:05",1,44.0208187,-72.2965754,TRUE,FALSE,TRUE,"S240833302"
"185","winwre3","Winter Wren","Troglodytes hiemalis","L22740713","New York","2025-05-20 08:05",1,43.0520526,-76.5603896,TRUE,FALSE,TRUE,"S240565155"
"186","winwre3","Winter Wren","Troglodytes hiemalis","L41075315","Harvard Forest","2025-05-20 08:03",1,42.5384821,-72.1823613,TRUE,FALSE,TRUE,"S240549249"
"187","winwre3","Winter Wren","Troglodytes hiemalis","L45541137","1139–1187 Dorchester Rd, Lyme US-NH 43.77923, -72.03350","2025-05-20 07:57",2,43.779231,-72.033496,TRUE,FALSE,TRUE,"S240625200"
"188","winwre3","Winter Wren","Troglodytes hiemalis","L20158047","Boyce Hill Saylor Woods (restricted access)","2025-05-20 07:56",1,44.248275,-72.844573,TRUE,FALSE,FALSE,"S240602953"
"189","winwre3","Winter Wren","Troglodytes hiemalis","L45032787","South Townline FS Land","2025-05-20 07:41",1,44.6548051,-84.4871312,TRUE,FALSE,TRUE,"S240533886"
"190","winwre3","Winter Wren","Troglodytes hiemalis","L7755841","The Pinnacle Forest","2025-05-20 07:35",1,43.2589539,-73.0969408,TRUE,FALSE,FALSE,"S240533895"
"191","winwre3","Winter Wren","Troglodytes hiemalis","L5237800","Grafton Notch SP--Spruce Meadow Picnic Area","2025-05-20 07:34",1,44.6046642,-70.9463274,TRUE,FALSE,FALSE,"S240695351"
"192","winwre3","Winter Wren","Troglodytes hiemalis","L858584","Seven Bridges Natural Area","2025-05-20 07:27",1,44.8083301,-85.2182651,TRUE,FALSE,FALSE,"S240600714"
"193","winwre3","Winter Wren","Troglodytes hiemalis","L3704209","Reading: Brown Schoolhouse Road","2025-05-20 07:22",1,43.5009321,-72.613771,TRUE,FALSE,TRUE,"S240569954"
"194","winwre3","Winter Wren","Troglodytes hiemalis","L3578609","Laughing Whitefish Pt - eastern side/private property","2025-05-20 07:19",2,46.5032295,-86.9597965,TRUE,FALSE,TRUE,"S240629029"
"195","winwre3","Winter Wren","Troglodytes hiemalis","L44653091","ESF Newcombe","2025-05-20 07:13",1,43.972567,-74.199447,TRUE,FALSE,TRUE,"S240510808"
"196","winwre3","Winter Wren","Troglodytes hiemalis","L2266749","Canadaway Creek WMA","2025-05-20 07:11",1,42.367272,-79.2358312,TRUE,FALSE,FALSE,"S240567204"
"197","winwre3","Winter Wren","Troglodytes hiemalis","L32124060","Dead Creek at NY-3, Tupper Lake US-NY 44.24267, -74.59995","2025-05-20 07:00",2,44.242666,-74.599948,TRUE,FALSE,TRUE,"S241294034"
"198","winwre3","Winter Wren","Troglodytes hiemalis","L14868430","Millsfield, Private Yard","2025-05-20 06:55",1,44.8173921,-71.2479728,TRUE,FALSE,TRUE,"S241137986"
"199","winwre3","Winter Wren","Troglodytes hiemalis","L1473196","Raven Ridge Natural Area","2025-05-20 06:48",1,44.2716871,-73.1481812,TRUE,FALSE,FALSE,"S240701764"
"200","winwre3","Winter Wren","Troglodytes hiemalis","L724261","Peninsula Point","2025-05-20 06:47",1,45.6704443,-86.9660568,TRUE,FALSE,FALSE,"S240736003"
"201","winwre3","Winter Wren","Troglodytes hiemalis","L44173753","05045, Fairlee US-VT 43.95913, -72.14781","2025-05-20 06:41",2,43.959134,-72.147814,TRUE,FALSE,TRUE,"S240517467"
"202","winwre3","Winter Wren","Troglodytes hiemalis","L4115608","Maple Meadows","2025-05-20 06:32",1,44.0422008,-73.4797356,TRUE,FALSE,TRUE,"S240610982"
"203","winwre3","Winter Wren","Troglodytes hiemalis","L365343","Skinner SP","2025-05-20 06:28",1,42.2988111,-72.5892944,TRUE,FALSE,FALSE,"S240642842"
"204","winwre3","Winter Wren","Troglodytes hiemalis","L8896905","Dirty Bird Ranch (Private)","2025-05-20 06:25",1,42.2684747,-76.5388437,TRUE,FALSE,TRUE,"S240722694"
"205","winwre3","Winter Wren","Troglodytes hiemalis","L45529403","Big Butt Trail","2025-05-20 06:23",1,35.807135,-82.35421,TRUE,FALSE,TRUE,"S240567150"
"206","winwre3","Winter Wren","Troglodytes hiemalis","L45559483","SIH - one and two lines","2025-05-20 06:21",1,35.033989,-83.480684,TRUE,FALSE,TRUE,"S240711424"
"207","winwre3","Winter Wren","Troglodytes hiemalis","L31730500","Bush Bay Trail","2025-05-20 06:07",1,45.9911733,-84.2676688,TRUE,FALSE,FALSE,"S240535181"
"208","winwre3","Winter Wren","Troglodytes hiemalis","L10384359","Jordan Homestead Preserve","2025-05-20 05:57",1,44.5202755,-68.4184431,TRUE,FALSE,FALSE,"S240541460"
"209","winwre3","Winter Wren","Troglodytes hiemalis","L36483804","Wolfe Park, Binghamton US-NY 42.16062, -75.91117","2025-05-20 05:54",1,42.160623,-75.911168,TRUE,FALSE,TRUE,"S240491074"
"210","winwre3","Winter Wren","Troglodytes hiemalis","L21998966","Bradford House","2025-05-20 05:50",1,44.008919,-72.203589,TRUE,FALSE,TRUE,"S240490105"
"211","winwre3","Winter Wren","Troglodytes hiemalis","L45531629","Unnamed Road, Eustis, Maine, US (45.358, -70.591)","2025-05-20 05:48",1,45.3583819,-70.5912432,TRUE,FALSE,TRUE,"S240579228"
"212","winwre3","Winter Wren","Troglodytes hiemalis","L44180985","05045, Fairlee US-VT 43.96635, -72.14600","2025-05-20 05:44",3,43.966354,-72.146003,TRUE,FALSE,TRUE,"S240497509"
"213","winwre3","Winter Wren","Troglodytes hiemalis","L45515350","3218–3226 Wheelerville Rd, Rutland US-VT 43.64324, -72.87282","2025-05-20 05:41",1,43.643245,-72.872824,TRUE,FALSE,TRUE,"S240488565"
"214","winwre3","Winter Wren","Troglodytes hiemalis","L784698","Monkey Run Casita","2025-05-20 05:32",1,42.4625889,-76.4269153,TRUE,FALSE,TRUE,"S240486502"
"215","winwre3","Winter Wren","Troglodytes hiemalis","L4774071","Okemo Mountain","2025-05-20 05:30",8,43.407796,-72.749251,TRUE,FALSE,FALSE,"S240530006"
"216","winwre3","Winter Wren","Troglodytes hiemalis","L30692124","Island Loop","2025-05-20 05:23",1,43.996585,-69.147292,TRUE,FALSE,TRUE,"S240492887"
"217","winwre3","Winter Wren","Troglodytes hiemalis","L45514514","331–1023 Rowell Brook Rd, Bradford US-VT 43.98078, -72.14863","2025-05-20 04:58",4,43.980782,-72.148628,TRUE,FALSE,TRUE,"S240484998"
"218","winwre3","Winter Wren","Troglodytes hiemalis","L1539396","Northeast Penjajawoc Preserve (BLT)","2025-05-20 04:48",3,44.8534582,-68.7438841,TRUE,FALSE,FALSE,"S240634452"
"219","winwre3","Winter Wren","Troglodytes hiemalis","L611979","Acadia NP--Seawall Campground","2025-05-20 04:40",1,44.2433544,-68.3073664,TRUE,FALSE,FALSE,"S240577038"
"220","winwre3","Winter Wren","Troglodytes hiemalis","L280147","Fields Pond Audubon Center","2025-05-19 17:15",1,44.7386861,-68.7275076,TRUE,FALSE,FALSE,"S240358271"
"221","winwre3","Winter Wren","Troglodytes hiemalis","L9745494","Railroad Grade Trail","2025-05-19 16:12",1,39.0626696,-79.4862545,TRUE,FALSE,FALSE,"S240422848"
"222","winwre3","Winter Wren","Troglodytes hiemalis","L165264","Centennial Woods (UVM Natural Area)","2025-05-19 15:26",1,44.4794,-73.1841,TRUE,FALSE,FALSE,"S240338955"
"223","winwre3","Winter Wren","Troglodytes hiemalis","L3840215","Itasca SP--Schoolcraft Trail","2025-05-19 13:55",1,47.2391445,-95.2097243,TRUE,FALSE,FALSE,"S240338196"
"224","winwre3","Winter Wren","Troglodytes hiemalis","L14437829","Washington Island - Hemlock/Shellswick (Private)","2025-05-19 13:41",1,45.352347,-86.870978,TRUE,FALSE,TRUE,"S240422579"
"225","winwre3","Winter Wren","Troglodytes hiemalis","L124514","Mulholland Wildflower Preserve","2025-05-19 13:30",1,42.431675,-76.48283,TRUE,FALSE,FALSE,"S240422660"
"226","winwre3","Winter Wren","Troglodytes hiemalis","L2781605","Loyalsock SF--Jacoby Falls Trail","2025-05-19 12:52",1,41.3772675,-76.9196069,TRUE,FALSE,FALSE,"S240282188"
"227","winwre3","Winter Wren","Troglodytes hiemalis","L2356770","Luensman Overview Park","2025-05-19 12:50",1,42.3455109,-79.4578925,TRUE,FALSE,FALSE,"S240615499"
"228","winwre3","Winter Wren","Troglodytes hiemalis","L45483219","Somerset Woods","2025-05-19 12:21",1,44.936767,-69.788661,TRUE,FALSE,TRUE,"S240324963"
"229","winwre3","Winter Wren","Troglodytes hiemalis","L44894460","Mathews-Thomas Park, Boston Heights US-OH (41.2499,-81.5041)","2025-05-19 11:50",1,41.249899,-81.504118,TRUE,FALSE,TRUE,"S240361248"
"230","winwre3","Winter Wren","Troglodytes hiemalis","L45478396","E Bigelow Rd, Dead River Twp US-ME 45.12767, -70.16613","2025-05-19 11:44",2,45.12767,-70.166125,TRUE,FALSE,TRUE,"S240303311"
"231","winwre3","Winter Wren","Troglodytes hiemalis","L426558","Catamount Community Forest","2025-05-19 11:30",2,44.4482727,-73.0491257,TRUE,FALSE,FALSE,"S240253111"
"232","winwre3","Winter Wren","Troglodytes hiemalis","L157279","Iroquois NWR--Onondaga Trail","2025-05-19 11:08",1,43.12222,-78.36889,TRUE,FALSE,FALSE,"S240250910"
"233","winwre3","Winter Wren","Troglodytes hiemalis","L11882791","Sunrise Trail, Pembroke, Maine, US (44.979, -67.252)","2025-05-19 11:08",1,44.979406,-67.2522352,TRUE,FALSE,TRUE,"S240262972"
"234","winwre3","Winter Wren","Troglodytes hiemalis","L1623974","Susan Creek Nature Preserve","2025-05-19 11:03",2,45.3507087,-85.1897497,TRUE,FALSE,FALSE,"S240247121"
"235","winwre3","Winter Wren","Troglodytes hiemalis","L159420","Whitetop Mountain","2025-05-19 11:00",1,36.6386,-81.6056,TRUE,FALSE,FALSE,"S240975591"
"236","winwre3","Winter Wren","Troglodytes hiemalis","L15729283","Henry's Grove (East Quabbin Land Trust), Hubbardston","2025-05-19 10:58",1,42.4759207,-71.935771,TRUE,FALSE,FALSE,"S240422388"
"237","winwre3","Winter Wren","Troglodytes hiemalis","L20496380","Eagle Rise Rd, Traverse City US-MI 44.98697, -85.49408","2025-05-19 10:25",1,44.986972,-85.494078,TRUE,FALSE,TRUE,"S240221284"
"238","winwre3","Winter Wren","Troglodytes hiemalis","L45468616","Little Beaver Lake Road, Shingleton, Michigan, US (46.558, -86.362)","2025-05-19 10:16",1,46.5578848,-86.3623637,TRUE,FALSE,TRUE,"S240257903"
"239","winwre3","Winter Wren","Troglodytes hiemalis","L1204644","Watkins Glen SP--Gorge Trail","2025-05-19 10:13",1,42.3743395,-76.8764991,TRUE,FALSE,FALSE,"S240226377"
"240","winwre3","Winter Wren","Troglodytes hiemalis","L11350306","6449W Glenwood Dr, Manistique US-MI 45.96440, -86.20189","2025-05-19 10:07",1,45.964405,-86.201887,TRUE,FALSE,TRUE,"S240184934"
"241","winwre3","Winter Wren","Troglodytes hiemalis","L45492302","Peru Town Forest","2025-05-19 10:06",1,43.216532,-72.883265,TRUE,FALSE,TRUE,"S240372281"
"242","winwre3","Winter Wren","Troglodytes hiemalis","L12434482","Mount Greylock State Reservation, Lanesborough US-MA 42.56386, -73.20968","2025-05-19 10:06",1,42.563858,-73.209676,TRUE,FALSE,TRUE,"S240354014"
"243","winwre3","Winter Wren","Troglodytes hiemalis","L2865478","Bashakill State WMA--Stop Sign Trail","2025-05-19 10:05",1,41.5350853,-74.5126033,TRUE,FALSE,FALSE,"S240436222"
"244","winwre3","Winter Wren","Troglodytes hiemalis","L3304724","WV - Tucker - Blackwater Falls, lodge area","2025-05-19 10:05",2,39.1080482,-79.4976389,TRUE,FALSE,TRUE,"S240206318"
"245","winwre3","Winter Wren","Troglodytes hiemalis","L30741694","River Road - South of Dygert (Hunt)","2025-05-19 10:02",1,42.597724,-77.988249,TRUE,FALSE,TRUE,"S240249325"
"246","winwre3","Winter Wren","Troglodytes hiemalis","L209858","Fitzgerald Lake Conservation Area--Boardwalk","2025-05-19 09:55",1,42.3541407,-72.6660163,TRUE,FALSE,FALSE,"S240260379"
"247","winwre3","Winter Wren","Troglodytes hiemalis","L45459141","4 Richard's Ln.  (private), Seal Cove US-ME 44.31189, -68.39913","2025-05-19 09:44",1,44.311889,-68.399135,TRUE,FALSE,TRUE,"S240213334"
"248","winwre3","Winter Wren","Troglodytes hiemalis","L8028872","Palms Book SP","2025-05-19 09:43",1,46.0047573,-86.3830805,TRUE,FALSE,FALSE,"S240196239"
"249","winwre3","Winter Wren","Troglodytes hiemalis","L24303319","201–399 Meadow Rd, Corinth US-ME 45.00652, -68.94495","2025-05-19 09:33",1,45.006516,-68.944947,TRUE,FALSE,TRUE,"S240170560"
"250","winwre3","Winter Wren","Troglodytes hiemalis","L45478304","Van Loan Trail","2025-05-19 09:31",1,42.946678,-71.528121,TRUE,FALSE,TRUE,"S240302870"
"251","winwre3","Winter Wren","Troglodytes hiemalis","L24877172","Acadia Puffin Cruises Parking Lot and Dock Area","2025-05-19 09:23",3,44.474249,-67.887787,TRUE,FALSE,FALSE,"S240154264"
"252","winwre3","Winter Wren","Troglodytes hiemalis","L389791","Hulbert Bog","2025-05-19 09:20",2,46.3179921,-85.1598573,TRUE,FALSE,FALSE,"S240202263"
"253","winwre3","Winter Wren","Troglodytes hiemalis","L4718401","Pine View Road Bridge","2025-05-19 09:19",1,44.9569027,-89.3073463,TRUE,FALSE,TRUE,"S240208518"
"254","winwre3","Winter Wren","Troglodytes hiemalis","L1498735","Sapsucker Woods--Stadlen and Hoyt-Pileated Trail","2025-05-19 09:06",1,42.4777154,-76.4481604,TRUE,FALSE,FALSE,"S240244729"
"255","winwre3","Winter Wren","Troglodytes hiemalis","L859935","Fisherman's Island SP","2025-05-19 09:05",1,45.2961431,-85.3268623,TRUE,FALSE,FALSE,"S240166971"
"256","winwre3","Winter Wren","Troglodytes hiemalis","L45455366","401–457 Cornwall Hollow Rd, West Cornwall US-CT 41.90005, -73.28200","2025-05-19 09:05",1,41.900046,-73.282003,TRUE,FALSE,TRUE,"S240195367"
"257","winwre3","Winter Wren","Troglodytes hiemalis","L45461164","Negaunee Twp Ski Trails","2025-05-19 09:05",1,46.5211707,-87.5446241,TRUE,FALSE,TRUE,"S240222928"
"258","winwre3","Winter Wren","Troglodytes hiemalis","L45686683","Umbagog NWR-- Bear Brook Pond","2025-05-19 09:05",1,44.8236909,-71.1134884,TRUE,FALSE,TRUE,"S241347362"
"259","winwre3","Winter Wren","Troglodytes hiemalis","L925533","Shallow Lake Trail","2025-05-19 09:00",2,43.8151699,-74.7280147,TRUE,FALSE,FALSE,"S241288871"
"260","winwre3","Winter Wren","Troglodytes hiemalis","L1152172","Taconic-Hereford Multiple Use Area","2025-05-19 08:59",1,41.7233478,-73.7573147,TRUE,FALSE,FALSE,"S240244691"
"261","winwre3","Winter Wren","Troglodytes hiemalis","L41937207","Latty Cove Rd (Private)","2025-05-19 08:57",1,44.2652218,-68.4042751,TRUE,FALSE,TRUE,"S240648199"
"262","winwre3","Winter Wren","Troglodytes hiemalis","L715243","Bay:Treetop Hollow----------2","2025-05-19 08:54",1,43.6610961,-83.914175,TRUE,FALSE,TRUE,"S240145011"
"263","winwre3","Winter Wren","Troglodytes hiemalis","L32819942","Marsh Rd","2025-05-19 08:40",1,44.6758242,-87.5395121,TRUE,FALSE,TRUE,"S240356197"
"264","winwre3","Winter Wren","Troglodytes hiemalis","L1884168","Loyalsock SF--Shanerburg/Cold Run Rds.","2025-05-19 08:36",1,41.4399493,-76.5609575,TRUE,FALSE,FALSE,"S240422652"
"265","winwre3","Winter Wren","Troglodytes hiemalis","L2115362","Round pond (mercer pond)","2025-05-19 08:35",2,42.2455585,-73.389513,TRUE,FALSE,TRUE,"S240267538"
"266","winwre3","Winter Wren","Troglodytes hiemalis","L303312","Lion's Den Gorge Nature Preserve","2025-05-19 07:57",1,43.3389009,-87.8851629,TRUE,FALSE,FALSE,"S240388194"
"267","winwre3","Winter Wren","Troglodytes hiemalis","L594414","Duck Pond, Long Pond Town Forest, Lempster","2025-05-19 07:37",1,43.1954466,-72.1458006,TRUE,FALSE,FALSE,"S240165736"
"268","winwre3","Winter Wren","Troglodytes hiemalis","L2400443","Little River Community Trail, Belfast","2025-05-19 07:37",1,44.3989646,-69.0036303,TRUE,FALSE,FALSE,"S240126455"
"269","winwre3","Winter Wren","Troglodytes hiemalis","L4841121","Witherle Woods (MCHT)","2025-05-19 07:25",1,44.3906476,-68.8174045,TRUE,FALSE,FALSE,"S240145330"
"270","winwre3","Winter Wren","Troglodytes hiemalis","L45490138","258 Main Rd, Monterey US-MA 42.18188, -73.24408","2025-05-19 07:22",1,42.181884,-73.244084,TRUE,FALSE,TRUE,"S240359139"
"271","winwre3","Winter Wren","Troglodytes hiemalis","L1172905","USFS FR-91","2025-05-19 07:19",2,38.9357785,-79.7286415,TRUE,FALSE,FALSE,"S240259624"
"272","winwre3","Winter Wren","Troglodytes hiemalis","L45085315","York Pond Rd, White Mountain NF","2025-05-19 07:17",1,44.5082974,-71.3056895,TRUE,FALSE,TRUE,"S240376086"
"273","winwre3","Winter Wren","Troglodytes hiemalis","L16136682","West Rutland Marsh--Whipple Hollow Trail","2025-05-19 07:09",2,43.6227849,-73.0652851,TRUE,FALSE,FALSE,"S240142633"
"274","winwre3","Winter Wren","Troglodytes hiemalis","L45477128","W Flagstaff Rd, New Portland US-ME 45.17366, -70.40901","2025-05-19 06:44",1,45.173664,-70.409012,TRUE,FALSE,TRUE,"S240297661"
"275","winwre3","Winter Wren","Troglodytes hiemalis","L25107740","UMaine Bike Path North","2025-05-19 06:29",1,44.920887,-68.6743317,TRUE,FALSE,TRUE,"S240150175"
"276","winwre3","Winter Wren","Troglodytes hiemalis","L6234973","Great Hawk Pond Area-Falcon Loops","2025-05-19 06:20",1,43.8709838,-72.839269,TRUE,FALSE,TRUE,"S240131901"
"277","winwre3","Winter Wren","Troglodytes hiemalis","L36012954","7240 Davis Rd, Naples. Restricted Access","2025-05-19 06:00",1,42.650703,-77.422867,TRUE,FALSE,TRUE,"S240354240"
"278","winwre3","Winter Wren","Troglodytes hiemalis","L45436001","Ditch Bank Forest Rd","2025-05-19 05:59",1,46.736914,-92.758666,TRUE,FALSE,TRUE,"S240150793"
"279","winwre3","Winter Wren","Troglodytes hiemalis","L636521","Dewey Marsh SWA","2025-05-19 05:31",1,44.6438525,-89.5582724,TRUE,FALSE,FALSE,"S240281680"
"280","winwre3","Winter Wren","Troglodytes hiemalis","L1939226","Kent's Ledge","2025-05-19 05:15",1,43.808,-72.53,TRUE,FALSE,FALSE,"S240105846"
"281","winwre3","Winter Wren","Troglodytes hiemalis","L1236827","Aton Forest--BBS Line 4-8","2025-05-19 04:30",1,42.0283867,-73.1482404,TRUE,FALSE,FALSE,"S240196995"
"282","winwre3","Winter Wren","Troglodytes hiemalis","L15442021","1003 Carriage Rd, Carrabassett Valley US-ME 45.07936, -70.21245","2025-05-18 17:23",1,45.079357,-70.212452,TRUE,FALSE,TRUE,"S239945560"
"283","winwre3","Winter Wren","Troglodytes hiemalis","L942296","Great Smoky Mountains NP--Elkmont Campground","2025-05-18 17:05",1,35.6586417,-83.5835304,TRUE,FALSE,FALSE,"S240332154"
"284","winwre3","Winter Wren","Troglodytes hiemalis","L17996041","Home Intervale, White Mtn National Forest","2025-05-18 16:54",1,44.103138,-71.140073,TRUE,FALSE,TRUE,"S240117717"
"285","winwre3","Winter Wren","Troglodytes hiemalis","L5706286","East Lawn Cemetery","2025-05-18 16:45",1,42.438724,-76.468395,TRUE,FALSE,FALSE,"S239977591"
"286","winwre3","Winter Wren","Troglodytes hiemalis","L8032680","Saint Michael's College Natural Area","2025-05-18 15:30",1,44.4966632,-73.1523212,TRUE,FALSE,FALSE,"S239959177"
"287","winwre3","Winter Wren","Troglodytes hiemalis","L160756","Indian Point Blagden Preserve (TNC)","2025-05-18 15:27",1,44.3829498,-68.3649158,TRUE,FALSE,FALSE,"S239903088"
"288","winwre3","Winter Wren","Troglodytes hiemalis","L19676559","Mason Tract Trail","2025-05-18 15:19",1,44.5437107,-84.5490558,TRUE,FALSE,FALSE,"S239891647"
"289","winwre3","Winter Wren","Troglodytes hiemalis","L45569025","Swanson road","2025-05-18 14:55",1,45.2685783,-85.3434506,TRUE,FALSE,TRUE,"S240763070"
"290","winwre3","Winter Wren","Troglodytes hiemalis","L45391249","CCC Rd, Willoughby St Forest","2025-05-18 14:50",1,44.695582,-72.036828,TRUE,FALSE,TRUE,"S239874045"
"291","winwre3","Winter Wren","Troglodytes hiemalis","L7663318","White Mt. NF--Bartlett Experimental Forest","2025-05-18 14:42",1,44.0540609,-71.2958944,TRUE,FALSE,FALSE,"S239882563"
"292","winwre3","Winter Wren","Troglodytes hiemalis","L5985419","Elmer Johnston Nature Preserve","2025-05-18 14:26",1,45.5741855,-85.0939115,TRUE,FALSE,FALSE,"S239859206"
"293","winwre3","Winter Wren","Troglodytes hiemalis","L45391010","Powerline, Waterford","2025-05-18 14:19",1,44.3481542,-71.8610486,TRUE,FALSE,TRUE,"S239872882"
"294","winwre3","Winter Wren","Troglodytes hiemalis","L7369939","moose lake, fall lake township,MN USA","2025-05-18 14:00",2,47.9786252,-91.5215635,TRUE,FALSE,TRUE,"S239968656"
"295","winwre3","Winter Wren","Troglodytes hiemalis","L26892395","Hill City WTP","2025-05-18 13:45",1,46.982785,-93.60832,TRUE,FALSE,FALSE,"S239905111"
"296","winwre3","Winter Wren","Troglodytes hiemalis","L45387063","Hunters Beach Trail, Mount Desert US-ME 44.29964, -68.21790","2025-05-18 13:45",1,44.299641,-68.217897,TRUE,FALSE,TRUE,"S239855387"
"297","winwre3","Winter Wren","Troglodytes hiemalis","L11064158","Lake Ann Pathway","2025-05-18 13:45",1,44.7115326,-85.863346,TRUE,FALSE,FALSE,"S239977682"
"298","winwre3","Winter Wren","Troglodytes hiemalis","L41217380","Skop Road Home","2025-05-18 13:41",1,45.1824518,-84.8966306,TRUE,FALSE,TRUE,"S239870173"
"299","winwre3","Winter Wren","Troglodytes hiemalis","L778698","Howard Christensen Nature Center","2025-05-18 13:25",1,43.2581433,-85.6878448,TRUE,TRUE,FALSE,"S239909796"
"300","winwre3","Winter Wren","Troglodytes hiemalis","L5661734","Houghton College and Forest Trails","2025-05-18 13:15",NA,42.429295,-78.1513998,TRUE,FALSE,FALSE,"S239964657"
"301","winwre3","Winter Wren","Troglodytes hiemalis","L43309201","1084 Garson Avenue, Rochester, New York, US (43.164, -77.557)","2025-05-18 13:06",1,43.163547,-77.5571771,TRUE,FALSE,TRUE,"S240030543"
"302","winwre3","Winter Wren","Troglodytes hiemalis","L27310015","Roy Hill Rd Chebeague Island","2025-05-18 12:43",1,43.737284,-70.111637,TRUE,FALSE,TRUE,"S239956517"
"303","winwre3","Winter Wren","Troglodytes hiemalis","L7648269","Acadia NP--Schoodic Institute Campus","2025-05-18 12:41",1,44.3353649,-68.0611429,TRUE,FALSE,FALSE,"S239924062"
"304","winwre3","Winter Wren","Troglodytes hiemalis","L45385028","558–598 VT-12, Montpelier US-VT 44.31460, -72.57758","2025-05-18 12:30",1,44.314596,-72.57758,TRUE,FALSE,TRUE,"S239846538"
"305","winwre3","Winter Wren","Troglodytes hiemalis","L45436224","1 Lobster Cove Rd, Monhegan US-ME 43.76221, -69.32046","2025-05-18 12:27",1,43.762214,-69.320464,TRUE,FALSE,TRUE,"S240097749"
"306","winwre3","Winter Wren","Troglodytes hiemalis","L2079866","Sand Bay","2025-05-18 12:26",1,45.7682115,-86.8157458,TRUE,FALSE,FALSE,"S239788029"
"307","winwre3","Winter Wren","Troglodytes hiemalis","L12590684","Pharsalia Woods SF (formerly New Michigan SF)","2025-05-18 12:14",1,42.5942738,-75.7247319,TRUE,FALSE,FALSE,"S239789951"
"308","winwre3","Winter Wren","Troglodytes hiemalis","L15214275","State Game Lands 206","2025-05-18 12:03",1,41.2767733,-76.2142641,TRUE,FALSE,FALSE,"S239804870"
"309","winwre3","Winter Wren","Troglodytes hiemalis","L30639592","Narrows Rd, Canaseraga US-NY","2025-05-18 11:50",1,42.429772,-77.79211,TRUE,FALSE,TRUE,"S239885165"
"310","winwre3","Winter Wren","Troglodytes hiemalis","L35248519","Sunkhaze Meadows NWR--Carter Meadows Trail","2025-05-18 11:43",1,44.9660049,-68.5423279,TRUE,FALSE,FALSE,"S239791746"
"311","winwre3","Winter Wren","Troglodytes hiemalis","L300494","Webster Park--Campground area","2025-05-18 11:38",1,43.2544474,-77.4600935,TRUE,FALSE,FALSE,"S239840750"
"312","winwre3","Winter Wren","Troglodytes hiemalis","L4513917","Federated Women's Club State Forest (Worcester Co.)","2025-05-18 11:38",1,42.4872206,-72.2560209,TRUE,FALSE,FALSE,"S239922192"
"313","winwre3","Winter Wren","Troglodytes hiemalis","L2031764","Weeks SP, Lancaster","2025-05-18 11:38",1,44.4512527,-71.570735,TRUE,FALSE,FALSE,"S239790888"
"314","winwre3","Winter Wren","Troglodytes hiemalis","L45401661","E Bigelow Rd, Dead River Twp US-ME 45.13486, -70.17130","2025-05-18 11:20",1,45.134858,-70.171301,TRUE,FALSE,TRUE,"S239921375"
"315","winwre3","Winter Wren","Troglodytes hiemalis","L18513845","Hills of Oulu Home","2025-05-18 11:19",1,46.631782,-91.512324,TRUE,FALSE,TRUE,"S239791437"
"316","winwre3","Winter Wren","Troglodytes hiemalis","L2233053","Shindagin Hollow SF--Shindagin Hollow Rd.","2025-05-18 11:18",2,42.3338153,-76.3400674,TRUE,FALSE,FALSE,"S239969361"
"317","winwre3","Winter Wren","Troglodytes hiemalis","L7411129","Deep Hollow Road","2025-05-18 11:16",1,41.8159694,-73.5851866,TRUE,FALSE,TRUE,"S239766832"
"318","winwre3","Winter Wren","Troglodytes hiemalis","L482362","ME - Islesboro Island - Willson Property","2025-05-18 11:12",1,44.3531916,-68.9101124,TRUE,FALSE,TRUE,"S239773442"
"319","winwre3","Winter Wren","Troglodytes hiemalis","L6158751","Windswept Woods","2025-05-18 11:09",1,44.420655,-68.516005,TRUE,FALSE,TRUE,"S239780415"
"320","winwre3","Winter Wren","Troglodytes hiemalis","L6504119","Arcadia Dunes--Baldy Trails","2025-05-18 11:00",1,44.5284203,-86.215674,TRUE,FALSE,FALSE,"S239782362"
"321","winwre3","Winter Wren","Troglodytes hiemalis","L1455563","Center Point Road","2025-05-18 10:34",1,44.0001582,-69.8597453,TRUE,FALSE,FALSE,"S239779735"
"322","winwre3","Winter Wren","Troglodytes hiemalis","L191517","Noblewood Park","2025-05-18 10:21",1,44.3537132,-73.3614635,TRUE,FALSE,FALSE,"S239760237"
"323","winwre3","Winter Wren","Troglodytes hiemalis","L34399621","Devil's Path, Elka Park, New York, US (42.119, -74.087)","2025-05-18 10:21",2,42.1189081,-74.0871675,TRUE,FALSE,TRUE,"S239869023"
"324","winwre3","Winter Wren","Troglodytes hiemalis","L303743","Carpenter Nature Center","2025-05-18 10:17",1,44.7661095,-92.8146245,TRUE,TRUE,FALSE,"S239840761"
"325","winwre3","Winter Wren","Troglodytes hiemalis","L912839","Jericho Research Forest--UVM","2025-05-18 10:15",1,44.4517958,-73.0032921,TRUE,FALSE,FALSE,"S239778333"
"326","winwre3","Winter Wren","Troglodytes hiemalis","L38639346","Faraway Farm Personal Bog [Boreal Feeders]","2025-05-18 09:56",3,47.4232928,-92.2277228,TRUE,FALSE,TRUE,"S239781282"
"327","winwre3","Winter Wren","Troglodytes hiemalis","L2187784","Pike Lands (DCC)","2025-05-18 09:56",1,44.8983374,-67.0517814,TRUE,FALSE,FALSE,"S239806122"
"328","winwre3","Winter Wren","Troglodytes hiemalis","L5219789","Carter Nature Preserve","2025-05-18 09:52",1,44.4556863,-68.4809589,TRUE,FALSE,FALSE,"S239924059"
"329","winwre3","Winter Wren","Troglodytes hiemalis","L212481","Bloomingdale Bog Trail","2025-05-18 09:51",1,44.4128015,-74.121715,TRUE,FALSE,FALSE,"S239850941"
"330","winwre3","Winter Wren","Troglodytes hiemalis","L19433726","Seney NWR--Northern Hardwoods Trails","2025-05-18 09:48",NA,46.2413282,-85.9442096,TRUE,FALSE,FALSE,"S239755406"
"331","winwre3","Winter Wren","Troglodytes hiemalis","L3493345","Cottage at Spruce Cove, St. George, ME. Knox Cty","2025-05-18 09:45",1,43.953535,-69.2665478,TRUE,FALSE,TRUE,"S240123841"
"332","winwre3","Winter Wren","Troglodytes hiemalis","L1346011","Erie County Forest","2025-05-18 09:43",1,42.5514208,-78.5686035,TRUE,FALSE,FALSE,"S239871366"
"333","winwre3","Winter Wren","Troglodytes hiemalis","L26923564","Presidential Rail Trail, Whitefield US-NH","2025-05-18 09:35",3,44.360242,-71.537071,TRUE,FALSE,TRUE,"S239821767"
"334","winwre3","Winter Wren","Troglodytes hiemalis","L2940588","Jug End Mt Washington State Park","2025-05-18 09:24",2,42.1477426,-73.4499355,TRUE,FALSE,TRUE,"S239803910"
"335","winwre3","Winter Wren","Troglodytes hiemalis","L3192363","White Mt. NF--Mt. Chocorua, Albany","2025-05-18 09:23",1,43.9540976,-71.2733745,TRUE,FALSE,FALSE,"S240156076"
"336","winwre3","Winter Wren","Troglodytes hiemalis","L7190451","Griswold Rd, Cassadaga US-NY","2025-05-18 09:21",1,42.353595,-79.230377,TRUE,FALSE,TRUE,"S239745008"
"337","winwre3","Winter Wren","Troglodytes hiemalis","L45401527","Long Falls Dam Rd, Bingham US-ME 45.22260, -70.19037","2025-05-18 09:15",1,45.222604,-70.190365,TRUE,FALSE,TRUE,"S239920727"
"338","winwre3","Winter Wren","Troglodytes hiemalis","L26213516","Best Rd, Windsor US-VT 43.53473, -72.48408","2025-05-18 09:14",1,43.534729,-72.484076,TRUE,FALSE,TRUE,"S239709512"
"339","winwre3","Winter Wren","Troglodytes hiemalis","L31579089","186 S Shore Dr, Owls Head US-ME 44.07210, -69.06584","2025-05-18 09:12",1,44.072102,-69.065841,TRUE,FALSE,TRUE,"S239698484"
"340","winwre3","Winter Wren","Troglodytes hiemalis","L45401232","Old Hawkeye Rd, Au Sable Forks US-NY 44.51117, -73.88277","2025-05-18 09:10",1,44.511165,-73.882771,TRUE,FALSE,TRUE,"S239919776"
"341","winwre3","Winter Wren","Troglodytes hiemalis","L18767699","Cook Township, Pennsylvania, US (40.145, -79.219)","2025-05-18 09:02",1,40.1448621,-79.2188038,TRUE,FALSE,TRUE,"S239862400"
"342","winwre3","Winter Wren","Troglodytes hiemalis","L39595145","618 Snow Road","2025-05-18 08:51",2,44.666908,-84.620919,TRUE,FALSE,TRUE,"S239846568"
"343","winwre3","Winter Wren","Troglodytes hiemalis","L12680187","Ice Age Trail--Dunes Segment/Aurora Manitowoc Medical Center","2025-05-18 08:50",1,44.12584,-87.618259,TRUE,FALSE,FALSE,"S239767153"
"344","winwre3","Winter Wren","Troglodytes hiemalis","L11966510","Long Pond Rd, near Long Pond","2025-05-18 08:47",3,44.0592275,-71.8827724,TRUE,FALSE,TRUE,"S239791132"
"345","winwre3","Winter Wren","Troglodytes hiemalis","L37801335","Range Rd, Sandwich","2025-05-18 08:46",NA,43.7779629,-71.4386469,TRUE,FALSE,TRUE,"S239707762"
"346","winwre3","Winter Wren","Troglodytes hiemalis","L1420208","Ricketts Glen SP--Glens Natural Area","2025-05-18 08:40",1,41.3040706,-76.2744607,TRUE,FALSE,FALSE,"S240424885"
"347","winwre3","Winter Wren","Troglodytes hiemalis","L4574287","Washburn Road, Alexandria NH","2025-05-18 08:39",1,43.610519,-71.868288,TRUE,FALSE,TRUE,"S239653471"
"348","winwre3","Winter Wren","Troglodytes hiemalis","L11633337","Swamp Rd.","2025-05-18 08:34",1,44.665318,-83.310801,TRUE,FALSE,FALSE,"S239666914"
"349","winwre3","Winter Wren","Troglodytes hiemalis","L24880363","Wickett Conservation Area - Old Town","2025-05-18 08:28",1,44.948713,-68.799443,TRUE,FALSE,TRUE,"S239667013"
"350","winwre3","Winter Wren","Troglodytes hiemalis","L45358973","170 New Greenough Pond Road, Errol, New Hampshire, US (44.816, -71.115)n","2025-05-18 08:25",1,44.8163797,-71.1148158,TRUE,FALSE,TRUE,"S239727905"
"351","winwre3","Winter Wren","Troglodytes hiemalis","L5920841","Rawley Point Trail","2025-05-18 08:25",1,44.1682589,-87.5437598,TRUE,FALSE,TRUE,"S239699313"
"352","winwre3","Winter Wren","Troglodytes hiemalis","L29541640","Faraway Farm Personal Bog [Great Overland Trail, North]","2025-05-18 08:19",1,47.4265916,-92.2280644,TRUE,FALSE,TRUE,"S239694857"
"353","winwre3","Winter Wren","Troglodytes hiemalis","L26201767","Church Rd Aniwa","2025-05-18 08:19",2,45.0097757,-89.4097252,TRUE,FALSE,TRUE,"S239907859"
"354","winwre3","Winter Wren","Troglodytes hiemalis","L4891126","Acadia NP--Schoodic Woods Campground Amphitheater","2025-05-18 08:16",1,44.3824591,-68.0677271,TRUE,FALSE,FALSE,"S239922078"
"355","winwre3","Winter Wren","Troglodytes hiemalis","L2016302","The Cabin (Private)","2025-05-18 08:15",2,42.4595367,-78.0127895,TRUE,FALSE,TRUE,"S239692697"
"356","winwre3","Winter Wren","Troglodytes hiemalis","L1856734","US-NH-Amherst-5- Owen Ln","2025-05-18 08:13",1,42.88069,-71.653753,TRUE,FALSE,TRUE,"S239693844"
"357","winwre3","Winter Wren","Troglodytes hiemalis","L23316287","Upton State Forest, Upton US-MA 42.20888, -71.60802","2025-05-18 08:10",1,42.208876,-71.608022,TRUE,FALSE,TRUE,"S239866165"
"358","winwre3","Winter Wren","Troglodytes hiemalis","L2185856","Bear Swamp SF (Otsego Co.)","2025-05-18 08:10",1,42.6942963,-74.6742439,TRUE,FALSE,FALSE,"S239962506"
"359","winwre3","Winter Wren","Troglodytes hiemalis","L941919","Minute Man NHP","2025-05-18 08:06",1,42.4539878,-71.3041878,TRUE,FALSE,FALSE,"S239829296"
"360","winwre3","Winter Wren","Troglodytes hiemalis","L32025738","Frost Lake BWCA","2025-05-18 08:00",1,47.997021,-90.825212,TRUE,FALSE,TRUE,"S240186146"
"361","winwre3","Winter Wren","Troglodytes hiemalis","L16540505","Goose River Preserve (MCC)","2025-05-18 07:59",1,44.0443216,-69.3119931,TRUE,FALSE,FALSE,"S239645082"
"362","winwre3","Winter Wren","Troglodytes hiemalis","L123059","Silver Lake Bog Preserve","2025-05-18 07:59",1,44.51111,-73.88611,TRUE,FALSE,FALSE,"S239899538"
"363","winwre3","Winter Wren","Troglodytes hiemalis","L45347659","Monocle Lake Interpretive Trail, Brimley US-MI 46.46849, -84.64096","2025-05-18 07:51",1,46.468494,-84.640964,TRUE,FALSE,TRUE,"S239670933"
"364","winwre3","Winter Wren","Troglodytes hiemalis","L45351895","Genesee County Park","2025-05-18 07:47",1,42.880363,-78.11802,TRUE,FALSE,TRUE,"S239692451"
"365","winwre3","Winter Wren","Troglodytes hiemalis","L1314810","Ashuelot River Headwaters Forest--Silver Mt., Lempster","2025-05-18 07:47",1,43.1959471,-72.1752083,TRUE,FALSE,FALSE,"S239637838"
"366","winwre3","Winter Wren","Troglodytes hiemalis","L7875369","Gunflint Trail--Moose Viewing Trail","2025-05-18 07:45",1,47.9989409,-90.3573634,TRUE,FALSE,FALSE,"S239800898"
"367","winwre3","Winter Wren","Troglodytes hiemalis","L14543058","Knotty Lane Waterford","2025-05-18 07:45",1,44.3971563,-71.9488407,TRUE,FALSE,TRUE,"S239718998"
"368","winwre3","Winter Wren","Troglodytes hiemalis","L2865802","Gumaer Falls Rd., Wurtsboro","2025-05-18 07:34",1,41.5953531,-74.4736174,TRUE,FALSE,FALSE,"S239882520"
"369","winwre3","Winter Wren","Troglodytes hiemalis","L3530744","Holden Arboretum -- Stebbin's South (Restricted Access)","2025-05-18 07:30",1,41.5962851,-81.2915111,TRUE,FALSE,TRUE,"S240914409"
"370","winwre3","Winter Wren","Troglodytes hiemalis","L12050890","Channel Drive, Joe's Pond Danville","2025-05-18 07:30",1,44.4233507,-72.2232731,TRUE,FALSE,TRUE,"S239750053"
"371","winwre3","Winter Wren","Troglodytes hiemalis","L38944588","453 Weeks Mills Rd, So China","2025-05-18 07:30",1,44.3585601,-69.546573,TRUE,FALSE,TRUE,"S239878499"
"372","winwre3","Winter Wren","Troglodytes hiemalis","L26617013","Wittenberg Mountain","2025-05-18 07:30",1,42.008646,-74.3465634,TRUE,FALSE,FALSE,"S239884954"
"373","winwre3","Winter Wren","Troglodytes hiemalis","L28498081","Guiney Memorial Forest","2025-05-18 07:28",1,42.646964,-72.123204,TRUE,FALSE,FALSE,"S240401348"
"374","winwre3","Winter Wren","Troglodytes hiemalis","L1563473","Monocle Lake Campground","2025-05-18 07:26",1,46.468201,-84.641304,TRUE,FALSE,FALSE,"S239672240"
"375","winwre3","Winter Wren","Troglodytes hiemalis","L1538911","Acadia NP--Frazer Point","2025-05-18 07:12",1,44.3754377,-68.0752723,TRUE,FALSE,FALSE,"S240000808"
"376","winwre3","Winter Wren","Troglodytes hiemalis","L45344589","900 Sherman Hollow Road, Huntington, Vermont, US (44.352, -73.007)","2025-05-18 07:06",3,44.3518114,-73.0071099,TRUE,FALSE,TRUE,"S239654365"
"377","winwre3","Winter Wren","Troglodytes hiemalis","L24393481","Dale Lane to Roaringkill Rd, Elka Park US-NY 42.14817, -74.11203","2025-05-18 07:04",1,42.148174,-74.112026,TRUE,FALSE,TRUE,"S239617030"
"378","winwre3","Winter Wren","Troglodytes hiemalis","L12203418","Back Cove Trail To High Island Road","2025-05-18 06:52",1,43.8816928,-69.553543,TRUE,FALSE,TRUE,"S239670236"
"379","winwre3","Winter Wren","Troglodytes hiemalis","L2293755","Hinesburg Town Forest Economou Road","2025-05-18 06:46",2,44.320655,-73.028698,TRUE,FALSE,TRUE,"S239608653"
"380","winwre3","Winter Wren","Troglodytes hiemalis","L14143326","Pond Gut (41.723, -73.756)","2025-05-18 06:44",2,41.7238424,-73.756583,TRUE,FALSE,TRUE,"S239603738"
"381","winwre3","Winter Wren","Troglodytes hiemalis","L524399","Whiting Rd. Nature Preserve","2025-05-18 06:41",1,43.2444454,-77.4706893,TRUE,FALSE,FALSE,"S239723967"
"382","winwre3","Winter Wren","Troglodytes hiemalis","L97555","Sapsucker Woods","2025-05-18 06:40",1,42.4787599,-76.4529133,TRUE,FALSE,FALSE,"S239900962"
"383","winwre3","Winter Wren","Troglodytes hiemalis","L339888","Boot Head Preserve (MCHT), Lubec","2025-05-18 06:37",3,44.7753587,-67.0311928,TRUE,FALSE,FALSE,"S239614045"
"384","winwre3","Winter Wren","Troglodytes hiemalis","L19721107","My Backyard","2025-05-18 06:34",1,42.1373978,-74.0900762,TRUE,FALSE,TRUE,"S239626239"
"385","winwre3","Winter Wren","Troglodytes hiemalis","L740910","Spur Lake SNA","2025-05-18 06:30",4,45.7152293,-89.1578293,TRUE,FALSE,FALSE,"S239806998"
"386","winwre3","Winter Wren","Troglodytes hiemalis","L1002845","ME, Unity/Thorndike, Ward Hill MBA Quad UNITY-NE","2025-05-18 06:30",1,44.6075182,-69.2820168,TRUE,FALSE,TRUE,"S240075230"
"387","winwre3","Winter Wren","Troglodytes hiemalis","L4188852","Steinhaugen County Park","2025-05-18 06:30",1,44.6370859,-89.4678658,TRUE,FALSE,FALSE,"S239850235"
"388","winwre3","Winter Wren","Troglodytes hiemalis","L2304434","October Farm Riverfront","2025-05-18 06:14",1,42.4841878,-71.320281,TRUE,FALSE,FALSE,"S239673953"
"389","winwre3","Winter Wren","Troglodytes hiemalis","L2102199","0yard","2025-05-18 06:00",1,44.9845617,-91.6873884,TRUE,FALSE,TRUE,"S240002216"
"390","winwre3","Winter Wren","Troglodytes hiemalis","L45396968","4677 Blue Mountain Rd, Saint Regis Falls US-NY (44.5950,-74.5032)","2025-05-18 05:56",1,44.595048,-74.503154,TRUE,FALSE,TRUE,"S239899688"
"391","winwre3","Winter Wren","Troglodytes hiemalis","L681419","Emery County Park","2025-05-18 05:46",2,42.7146691,-78.5970926,TRUE,FALSE,FALSE,"S239645629"
"392","winwre3","Winter Wren","Troglodytes hiemalis","L3547211","Errol, private yards","2025-05-18 05:45",1,44.7891067,-71.1536837,TRUE,FALSE,TRUE,"S239610728"
"393","winwre3","Winter Wren","Troglodytes hiemalis","L937177","Bolton Flats WMA--Pine Hill Rd. Grasslands","2025-05-18 05:43",1,42.4736796,-71.649313,TRUE,FALSE,FALSE,"S239907838"
"394","winwre3","Winter Wren","Troglodytes hiemalis","L40076640","home","2025-05-18 05:40",1,44.3585063,-69.5464911,TRUE,FALSE,TRUE,"S240100451"
"395","winwre3","Winter Wren","Troglodytes hiemalis","L11322066","Keeney Swamp SF--Fitch Hill X Forest Road","2025-05-18 05:31",1,42.4103249,-77.9051843,TRUE,FALSE,FALSE,"S239982167"
"396","winwre3","Winter Wren","Troglodytes hiemalis","L7188532","US-NY Appleton-Checkered Tavern Rd woodland swamp","2025-05-18 05:23",1,43.278135,-78.619382,TRUE,FALSE,TRUE,"S239556305"
"397","winwre3","Winter Wren","Troglodytes hiemalis","L45262761","29–99 Dexter Rd, Saint Regis Falls US-NY 44.61215, -74.47826","2025-05-18 05:15",1,44.612147,-74.478258,TRUE,FALSE,TRUE,"S239703722"
"398","winwre3","Winter Wren","Troglodytes hiemalis","L37547114","Whitehead Island, St. George US-ME 43.97970, -69.12632","2025-05-18 05:01",3,43.979701,-69.126321,TRUE,FALSE,TRUE,"S239594914"
"399","winwre3","Winter Wren","Troglodytes hiemalis","L15519033","6280 Webster Rd, Orchard Park US-NY 42.78203, -78.75422","2025-05-17 23:00",1,42.782034,-78.754222,TRUE,FALSE,TRUE,"S239825981"
"400","winwre3","Winter Wren","Troglodytes hiemalis","L33008739","Porch","2025-05-17 18:56",1,46.1579383,-92.9325483,TRUE,FALSE,TRUE,"S239462562"
"401","winwre3","Winter Wren","Troglodytes hiemalis","L3778865","Bridge Lake","2025-05-17 18:25",1,44.6384142,-85.7883954,TRUE,FALSE,FALSE,"S239447753"
"402","winwre3","Winter Wren","Troglodytes hiemalis","L40038427","2001–2283 Coits Pond Rd, Cabot US-VT 44.44909, -72.32571","2025-05-17 17:36",1,44.449093,-72.325712,TRUE,FALSE,TRUE,"S239483012"
"403","winwre3","Winter Wren","Troglodytes hiemalis","L207391","Mount Auburn Cemetery","2025-05-17 16:55",1,42.371,-71.146,TRUE,FALSE,FALSE,"S239459323"
"404","winwre3","Winter Wren","Troglodytes hiemalis","L45310299","High Road Landing","2025-05-17 16:39",1,44.6474295,-71.0165406,TRUE,FALSE,TRUE,"S239481125"
"405","winwre3","Winter Wren","Troglodytes hiemalis","L32018386","1778 CR-5, Carlton US-MN (46.6437,-92.5300)","2025-05-17 16:12",1,46.64368,-92.529977,TRUE,FALSE,TRUE,"S239410876"
"406","winwre3","Winter Wren","Troglodytes hiemalis","L13449308","Boreal Life Trail","2025-05-17 15:38",1,44.43932,-74.256302,TRUE,FALSE,FALSE,"S239394260"
"407","winwre3","Winter Wren","Troglodytes hiemalis","L45302302","2652–2754 Checkered Tavern Rd, Appleton US-NY (43.2798,-78.6195)","2025-05-17 15:30",1,43.279754,-78.619511,TRUE,FALSE,TRUE,"S239438967"
"408","winwre3","Winter Wren","Troglodytes hiemalis","L11609634","William Cullen Bryant Homestead (TTOR)","2025-05-17 14:57",1,42.4711607,-72.9348801,TRUE,FALSE,FALSE,"S239365147"
"409","winwre3","Winter Wren","Troglodytes hiemalis","L24573718","1158–1198 Gee Brook Rd, East Branch US-NY (42.0428,-75.1142)","2025-05-17 14:15",1,42.042751,-75.114241,TRUE,FALSE,TRUE,"S239433914"
"410","winwre3","Winter Wren","Troglodytes hiemalis","L4789938","Morrow Mountain SF--Mack Rd.","2025-05-17 14:12",1,42.8191001,-75.7581568,TRUE,FALSE,FALSE,"S239380902"
"411","winwre3","Winter Wren","Troglodytes hiemalis","L2172580","Jordan River Valley","2025-05-17 14:07",2,45.0129963,-85.0060272,TRUE,FALSE,TRUE,"S239393456"
"412","winwre3","Winter Wren","Troglodytes hiemalis","L11693013","170 Marshfield Road, Plainfield, Vermont, US (44.362, -72.431)","2025-05-17 13:55",1,44.3623616,-72.4312783,TRUE,FALSE,TRUE,"S239372574"
"413","winwre3","Winter Wren","Troglodytes hiemalis","L4649862","Wenlock WMA - South American Pond Rd","2025-05-17 13:34",1,44.7575989,-71.7321062,TRUE,FALSE,TRUE,"S239318216"
"414","winwre3","Winter Wren","Troglodytes hiemalis","L4649533","Stone Lake","2025-05-17 13:18",1,47.288102,-92.550228,TRUE,FALSE,FALSE,"S239325698"
"415","winwre3","Winter Wren","Troglodytes hiemalis","L3700856","N. Birch St.","2025-05-17 13:10",1,44.7481886,-85.1992643,TRUE,FALSE,TRUE,"S239306019"
"416","winwre3","Winter Wren","Troglodytes hiemalis","L45309855","Upton, Maine, US (44.635, -71.003)","2025-05-17 13:05",1,44.6349337,-71.0027953,TRUE,FALSE,TRUE,"S239479178"
"417","winwre3","Winter Wren","Troglodytes hiemalis","L7692951","Mill Brook Preserve (PRLT)","2025-05-17 12:45",1,43.7208696,-70.3531408,TRUE,FALSE,FALSE,"S239338409"
"418","winwre3","Winter Wren","Troglodytes hiemalis","L1653964","North Point","2025-05-17 12:39",1,45.3399072,-85.2461548,TRUE,FALSE,FALSE,"S239361245"
"419","winwre3","Winter Wren","Troglodytes hiemalis","L45272426","3290–3298 Wheelerville Rd, Rutland US-VT 43.62649, -72.87301","2025-05-17 12:37",1,43.626492,-72.873014,TRUE,FALSE,TRUE,"S239305773"
"420","winwre3","Winter Wren","Troglodytes hiemalis","L11770493","Old Ishpeming Landfill","2025-05-17 12:26",1,46.4942909,-87.6429226,TRUE,FALSE,FALSE,"S239324936"
"421","winwre3","Winter Wren","Troglodytes hiemalis","L1611288","Ashuelot River Headwaters Forest--Mountain Rd., Lempster","2025-05-17 12:17",1,43.2006603,-72.1369762,TRUE,FALSE,FALSE,"S239296514"
"422","winwre3","Winter Wren","Troglodytes hiemalis","L15208712","PRIVATE ACCESS Malone","2025-05-17 12:15",2,44.72458,-74.20704,TRUE,FALSE,TRUE,"S240567244"
"423","winwre3","Winter Wren","Troglodytes hiemalis","L45264561","Checkered Tavern Rd—wet woods","2025-05-17 12:11",1,43.277903,-78.619416,TRUE,FALSE,TRUE,"S239272780"
"424","winwre3","Winter Wren","Troglodytes hiemalis","L45272375","3501–3599 Swift Run Rd., Beaver Springs US-PA","2025-05-17 12:06",1,40.805372,-77.287671,TRUE,FALSE,TRUE,"S239305571"
"425","winwre3","Winter Wren","Troglodytes hiemalis","L11010561","Wolf Laurel Nature Trail to AT","2025-05-17 12:04",1,35.970402,-82.505617,TRUE,FALSE,TRUE,"S239300497"
"426","winwre3","Winter Wren","Troglodytes hiemalis","L45271042","3242–3252 Wheelerville Rd, Rutland US-VT 43.63668, -72.87010","2025-05-17 11:59",1,43.636679,-72.870102,TRUE,FALSE,TRUE,"S239300020"
"427","winwre3","Winter Wren","Troglodytes hiemalis","L9272356","Green Lakes SP--Perimeter Trail","2025-05-17 11:59",1,43.0540084,-75.9970904,TRUE,FALSE,FALSE,"S239323699"
"428","winwre3","Winter Wren","Troglodytes hiemalis","L7757270","Pole Road","2025-05-17 11:50",1,41.9255261,-74.628828,TRUE,FALSE,TRUE,"S239414161"
"429","winwre3","Winter Wren","Troglodytes hiemalis","L2031768","Martin Meadow Pond, Lancaster","2025-05-17 11:40",1,44.440462,-71.5970957,TRUE,FALSE,FALSE,"S239628680"
"430","winwre3","Winter Wren","Troglodytes hiemalis","L275986","Magee Marsh--Boardwalk","2025-05-17 11:39",1,41.6277095,-83.191884,TRUE,FALSE,FALSE,"S239315399"
"431","winwre3","Winter Wren","Troglodytes hiemalis","L4746375","Environmental Education Laboratory","2025-05-17 11:37",NA,45.9774082,-86.2085232,TRUE,FALSE,FALSE,"S239271777"
"432","winwre3","Winter Wren","Troglodytes hiemalis","L19034200","R11","2025-05-17 11:30",1,44.006056,-72.249527,TRUE,FALSE,TRUE,"S240582723"
"433","winwre3","Winter Wren","Troglodytes hiemalis","L45270875","1042 Wheelerville Rd, Rutland US-VT 43.64335, -72.88674","2025-05-17 11:22",1,43.643355,-72.886737,TRUE,FALSE,TRUE,"S239299496"
"434","winwre3","Winter Wren","Troglodytes hiemalis","L45231108","Pillsbury State Park--North Pond (43.24, -72.097)","2025-05-17 11:21",1,43.2402056,-72.0974879,TRUE,FALSE,TRUE,"S239952372"
"435","winwre3","Winter Wren","Troglodytes hiemalis","L1041152","Percy Johnson Memorial Park","2025-05-17 11:20",1,45.3629267,-86.8648394,TRUE,FALSE,FALSE,"S239297259"
"436","winwre3","Winter Wren","Troglodytes hiemalis","L7351572","South of Enosburgh Town Forest","2025-05-17 11:20",1,44.8824481,-72.6937925,TRUE,FALSE,TRUE,"S239244376"
"437","winwre3","Winter Wren","Troglodytes hiemalis","L45288698","Naomakong preserve","2025-05-17 11:10",1,46.473011,-84.957511,TRUE,FALSE,TRUE,"S239375433"
"438","winwre3","Winter Wren","Troglodytes hiemalis","L293565","Arnot Forest (Tompkins Co.)","2025-05-17 11:05",1,42.2863742,-76.656052,TRUE,FALSE,FALSE,"S239469756"
"439","winwre3","Winter Wren","Troglodytes hiemalis","L3953949","Fischer Old-Growth Forest (CBGNA)","2025-05-17 11:03",1,42.3825187,-76.5678167,TRUE,FALSE,FALSE,"S239267311"
"440","winwre3","Winter Wren","Troglodytes hiemalis","L11058846","Oil Creek SP--Petroleum Centre/Wildcat Hollow/Egbert Farm Day Use Area","2025-05-17 11:01",1,41.5150222,-79.6806434,TRUE,FALSE,FALSE,"S239488660"
"441","winwre3","Winter Wren","Troglodytes hiemalis","L2877203","Arnot Forest--Banfield Rd.","2025-05-17 11:00",2,42.276571,-76.643584,TRUE,FALSE,FALSE,"S239448492"
"442","winwre3","Winter Wren","Troglodytes hiemalis","L2782935","Robert Treman SP--Rim Trail","2025-05-17 10:42",2,42.3999511,-76.5828026,TRUE,FALSE,FALSE,"S239869796"
"443","winwre3","Winter Wren","Troglodytes hiemalis","L1509081","Lake Colby Railroad Tracks","2025-05-17 10:37",1,44.3364468,-74.1524597,TRUE,FALSE,FALSE,"S239285878"
"444","winwre3","Winter Wren","Troglodytes hiemalis","L45267627","Banfield Road, Cayuta, New York, US (42.273, -76.64)","2025-05-17 10:26",1,42.2733949,-76.6398382,TRUE,FALSE,TRUE,"S239285559"
"445","winwre3","Winter Wren","Troglodytes hiemalis","L32974355","3354 Loyalsock Road, Dushore, Pennsylvania, US (41.481, -76.534)","2025-05-17 10:11",1,41.4811419,-76.5341889,TRUE,FALSE,TRUE,"S239225544"
"446","winwre3","Winter Wren","Troglodytes hiemalis","L45306985","Blackhawk Island","2025-05-17 10:11",1,43.650692,-89.794081,TRUE,FALSE,TRUE,"S239464485"
"447","winwre3","Winter Wren","Troglodytes hiemalis","L31191495","Peterson Hollow Road, Erieville, New York, US (42.832, -75.78)","2025-05-17 10:10",NA,42.8324964,-75.7801285,TRUE,FALSE,TRUE,"S239210428"
"448","winwre3","Winter Wren","Troglodytes hiemalis","L7237257","Checkered Tavern Rd, South of Gow Rd (43.2775,-78.6192)","2025-05-17 10:03",1,43.277458,-78.619174,TRUE,FALSE,TRUE,"S239183677"
"449","winwre3","Winter Wren","Troglodytes hiemalis","L31888207","Forest Haven Road, Glen Arbor, Michigan, US (44.889, -85.992)","2025-05-17 10:02",1,44.8890126,-85.9924744,TRUE,FALSE,TRUE,"S239233909"
"450","winwre3","Winter Wren","Troglodytes hiemalis","L45288935","N. Country Trail @ 123","2025-05-17 10:00",1,46.51546,-85.081015,TRUE,FALSE,TRUE,"S239376493"
"451","winwre3","Winter Wren","Troglodytes hiemalis","L1416636","Cooley Bog (correct location)","2025-05-17 10:00",1,41.8945286,-74.6895747,TRUE,FALSE,TRUE,"S239394745"
"452","winwre3","Winter Wren","Troglodytes hiemalis","L6650625","Morgan Hill SF--Shackham Rd., north (Onondaga Co.)","2025-05-17 09:59",2,42.7946008,-76.009673,TRUE,FALSE,FALSE,"S239295689"
"453","winwre3","Winter Wren","Troglodytes hiemalis","L45255872","Olivia's Overlook, Charcoal Trail, Richmond, Massachusetts, US (42.352, -73.338)","2025-05-17 09:53",2,42.3518466,-73.337902,TRUE,FALSE,TRUE,"S239234681"
"454","winwre3","Winter Wren","Troglodytes hiemalis","L743112","Ravenswood Park (TTOR)","2025-05-17 09:52",1,42.6008048,-70.6988205,TRUE,FALSE,FALSE,"S239233920"
"455","winwre3","Winter Wren","Troglodytes hiemalis","L9631114","Laughing Whitefish Falls","2025-05-17 09:50",1,46.3823723,-87.0770604,TRUE,FALSE,FALSE,"S239395870"
"456","winwre3","Winter Wren","Troglodytes hiemalis","L3624392","Baileys Harbor Boreal Forest And Wetlands SNA","2025-05-17 09:48",6,45.0939589,-87.0552778,TRUE,FALSE,FALSE,"S239299413"
"457","winwre3","Winter Wren","Troglodytes hiemalis","L501724","Blackwater Falls SP","2025-05-17 09:47",1,39.1121479,-79.4963837,TRUE,FALSE,FALSE,"S239214201"
"458","winwre3","Winter Wren","Troglodytes hiemalis","L425913","Filor Hill","2025-05-17 09:41",1,42.5080462,-75.2424431,TRUE,FALSE,TRUE,"S239212331"
"459","winwre3","Winter Wren","Troglodytes hiemalis","L2843301","Tower Hill Road, Millbrook","2025-05-17 09:34",1,41.7930883,-73.5834355,TRUE,FALSE,TRUE,"S239751833"
"460","winwre3","Winter Wren","Troglodytes hiemalis","L1140842","Bobolink Farm","2025-05-17 09:20",1,42.9708059,-71.9395065,TRUE,FALSE,TRUE,"S239152683"
"461","winwre3","Winter Wren","Troglodytes hiemalis","L361697","Ashley Reservoir","2025-05-17 09:17",2,42.1752583,-72.6591222,TRUE,FALSE,FALSE,"S239311599"
"462","winwre3","Winter Wren","Troglodytes hiemalis","L42987673","Headquarters Rd Howard Lake","2025-05-17 09:16",2,45.1120016,-67.2650132,TRUE,FALSE,TRUE,"S239274679"
"463","winwre3","Winter Wren","Troglodytes hiemalis","L45253883","147–389 Boston Hollow Rd, Ashford US-CT 41.92826, -72.16719","2025-05-17 09:14",2,41.928263,-72.167194,TRUE,FALSE,TRUE,"S239225579"
"464","winwre3","Winter Wren","Troglodytes hiemalis","L2185066","Sleeping Bear Dunes NL--North Bar Lake","2025-05-17 09:14",1,44.8419947,-86.0641394,TRUE,FALSE,FALSE,"S239166907"
"465","winwre3","Winter Wren","Troglodytes hiemalis","L1554922","Little Lake Area","2025-05-17 09:09",1,45.4089528,-86.9406029,TRUE,FALSE,FALSE,"S239278057"
"466","winwre3","Winter Wren","Troglodytes hiemalis","L113951","Spencer Crest Nature Center","2025-05-17 09:07",1,42.116154,-77.08286,TRUE,FALSE,FALSE,"S239233954"
"467","winwre3","Winter Wren","Troglodytes hiemalis","L20048977","Dave’s Biosphere North (private)","2025-05-17 09:04",2,44.666799,-84.621051,TRUE,FALSE,TRUE,"S239246614"
"468","winwre3","Winter Wren","Troglodytes hiemalis","L18896882","Brishlotte Lake","2025-05-17 09:02",2,47.2760724,-68.3048297,TRUE,FALSE,FALSE,"S239202609"
"469","winwre3","Winter Wren","Troglodytes hiemalis","L45270008","Greenwood Foundation Riverview","2025-05-17 09:00",2,45.277251,-84.496749,TRUE,FALSE,TRUE,"S239295874"
"470","winwre3","Winter Wren","Troglodytes hiemalis","L11206332","Glencliff NH - E Haverhill Railroad Grade Trail","2025-05-17 08:55",1,43.9848049,-71.8976285,TRUE,FALSE,TRUE,"S239164134"
"471","winwre3","Winter Wren","Troglodytes hiemalis","L45263011","605–627 Chlorinator Rd, Milford US-NY (42.5970,-74.9654)","2025-05-17 08:54",1,42.596973,-74.965358,TRUE,FALSE,TRUE,"S239265824"
"472","winwre3","Winter Wren","Troglodytes hiemalis","L16042939","The Adirondack Park, Paul Smiths US-NY 44.47330, -74.40561","2025-05-17 08:45",1,44.473304,-74.405606,TRUE,FALSE,TRUE,"S239259404"
"473","winwre3","Winter Wren","Troglodytes hiemalis","L1192723","Negwegon SP (general)","2025-05-17 08:36",1,44.872416,-83.3203125,TRUE,FALSE,FALSE,"S239241330"
"474","winwre3","Winter Wren","Troglodytes hiemalis","L6802814","Old Furnace Rd","2025-05-17 08:30",3,43.936281,-73.612512,TRUE,FALSE,TRUE,"S239204969"
"475","winwre3","Winter Wren","Troglodytes hiemalis","L45294054","Coutts-Moriarty","2025-05-17 08:30",1,44.9351434,-72.1021667,TRUE,FALSE,TRUE,"S239400610"
"476","winwre3","Winter Wren","Troglodytes hiemalis","L2098616","Mud Pond Conservation Area","2025-05-17 08:30",1,44.4137351,-73.0759907,TRUE,FALSE,FALSE,"S239296366"
"477","winwre3","Winter Wren","Troglodytes hiemalis","L45239014","04783, Westmanland US-ME 46.96604, -68.25206","2025-05-17 08:27",1,46.966036,-68.252064,TRUE,FALSE,TRUE,"S239152086"
"478","winwre3","Winter Wren","Troglodytes hiemalis","L18067211","4746 Tyler Branch Rd, Enosburg Falls US-VT 44.85402, -72.74539","2025-05-17 08:25",1,44.854021,-72.745386,TRUE,FALSE,TRUE,"S239121846"
"479","winwre3","Winter Wren","Troglodytes hiemalis","L45274308","Mt. Tom, Holyoke, Massachusetts, US (42.239, -72.643)","2025-05-17 08:25",1,42.2393622,-72.6427442,TRUE,FALSE,TRUE,"S239313634"
"480","winwre3","Winter Wren","Troglodytes hiemalis","L31946459","583 Fuller Farm Rd, Warren US-VT 44.08585, -72.84408","2025-05-17 08:06",1,44.085846,-72.844079,TRUE,FALSE,TRUE,"S239261474"
"481","winwre3","Winter Wren","Troglodytes hiemalis","L617867","Headlands Dunes State Nature Preserve","2025-05-17 07:51",1,41.7642698,-81.2838936,TRUE,FALSE,FALSE,"S239253034"
"482","winwre3","Winter Wren","Troglodytes hiemalis","L3775020","Hogback Swamp","2025-05-17 07:51",1,43.9352861,-73.5758115,TRUE,FALSE,FALSE,"S239204762"
"483","winwre3","Winter Wren","Troglodytes hiemalis","L878792","Highland Forest","2025-05-17 07:50",2,42.8183216,-75.9169006,TRUE,FALSE,TRUE,"S240889249"
"484","winwre3","Winter Wren","Troglodytes hiemalis","L791692","Mud Lake SWA--Birch Rd. Access (Door Co.)","2025-05-17 07:48",2,45.1149652,-87.0893097,TRUE,FALSE,FALSE,"S239196534"
"485","winwre3","Winter Wren","Troglodytes hiemalis","L3533498","south mountain palenville","2025-05-17 07:45",1,42.1933333,-74.026486,TRUE,FALSE,TRUE,"S239370071"
"486","winwre3","Winter Wren","Troglodytes hiemalis","L31254156","Law Farm Nature Trails","2025-05-17 07:43",1,45.200085,-69.188416,TRUE,FALSE,FALSE,"S239183111"
"487","winwre3","Winter Wren","Troglodytes hiemalis","L1003798","Bete Grise","2025-05-17 07:40",1,47.3873093,-87.9577446,TRUE,FALSE,FALSE,"S239271848"
"488","winwre3","Winter Wren","Troglodytes hiemalis","L11605886","BBA MC","2025-05-17 07:39",1,43.264066,-72.867181,TRUE,FALSE,TRUE,"S239178779"
"489","winwre3","Winter Wren","Troglodytes hiemalis","L16042965","The Adirondack Park, Saint Regis Falls US-NY 44.51545, -74.45996","2025-05-17 07:36",1,44.515453,-74.459961,TRUE,FALSE,TRUE,"S239264215"
"490","winwre3","Winter Wren","Troglodytes hiemalis","L31911865","Ricketts Glen ( Old Bulldozer Road Trail )","2025-05-17 07:30",1,41.3005481,-76.2718955,TRUE,FALSE,TRUE,"S239349703"
"491","winwre3","Winter Wren","Troglodytes hiemalis","L45260694","Bear Spring Mt WMA","2025-05-17 07:26",2,42.1016369,-75.0589489,TRUE,FALSE,TRUE,"S239255819"
"492","winwre3","Winter Wren","Troglodytes hiemalis","L1056686","Presque Isle SP--Fry's Landing","2025-05-17 07:24",1,42.1588226,-80.0832081,TRUE,FALSE,FALSE,"S239759106"
"493","winwre3","Winter Wren","Troglodytes hiemalis","L7397913","W. Cherry St. Ext.","2025-05-17 07:23",1,42.2108676,-72.6580811,TRUE,FALSE,TRUE,"S239317642"
"494","winwre3","Winter Wren","Troglodytes hiemalis","L45234661","5893–5951 McGonagle Rd, Floodwood US-MN 46.94114, -92.80635","2025-05-17 07:23",1,46.941138,-92.806352,TRUE,FALSE,TRUE,"S239128087"
"495","winwre3","Winter Wren","Troglodytes hiemalis","L24375532","Pegjack Memorial Forest (Thetford)","2025-05-17 07:20",2,43.8513882,-72.2111622,TRUE,FALSE,TRUE,"S239118312"
"496","winwre3","Winter Wren","Troglodytes hiemalis","L45268617","Azure Mountain Trail, Saint Regis Falls US-NY 44.53786, -74.48535","2025-05-17 07:17",1,44.537859,-74.48535,TRUE,FALSE,TRUE,"S239289757"
"497","winwre3","Winter Wren","Troglodytes hiemalis","L45308788","Pressey Village Bird Walk - Wings, Waves, and Woods Festival","2025-05-17 07:15",2,44.224081,-68.694425,TRUE,FALSE,TRUE,"S239469021"
"498","winwre3","Winter Wren","Troglodytes hiemalis","L200833","Green Lakes SP","2025-05-17 07:12",1,43.058106,-75.9706704,TRUE,FALSE,FALSE,"S239390387"
"499","winwre3","Winter Wren","Troglodytes hiemalis","L1936364","Waabizheshikana Trail (Western Waterfront Trail)","2025-05-17 07:10",1,46.722741,-92.1876526,TRUE,FALSE,FALSE,"S239571851"
"500","winwre3","Winter Wren","Troglodytes hiemalis","L27016280","Ravine Lodge (excluding Mount Moosilauke trails), Woodstock","2025-05-17 07:10",1,43.9935464,-71.8161977,TRUE,FALSE,FALSE,"S239400930"
"501","winwre3","Winter Wren","Troglodytes hiemalis","L11784679","Mohonk Pocket Park","2025-05-17 07:09",1,41.8265909,-74.0908892,TRUE,FALSE,TRUE,"S239122463"
"502","winwre3","Winter Wren","Troglodytes hiemalis","L11097233","Settlement Quarry Preserve (IHT)","2025-05-17 07:06",3,44.1790494,-68.6395311,TRUE,FALSE,FALSE,"S239142719"
"503","winwre3","Winter Wren","Troglodytes hiemalis","L99407","Shindagin Hollow SF","2025-05-17 07:05",1,42.3308189,-76.3347942,TRUE,FALSE,FALSE,"S239399001"
"504","winwre3","Winter Wren","Troglodytes hiemalis","L45238047","94 Pressey Village Road, Deer Isle, Maine, US (44.224, -68.695)","2025-05-17 07:04",1,44.2241532,-68.6953426,TRUE,FALSE,TRUE,"S239146811"
"505","winwre3","Winter Wren","Troglodytes hiemalis","L5696141","Hogback Road","2025-05-17 07:03",1,43.936166,-73.547376,TRUE,FALSE,TRUE,"S239203943"
"506","winwre3","Winter Wren","Troglodytes hiemalis","L729847","October Mountain SF--Four Corners (road intersection area only!)","2025-05-17 07:02",1,42.3561655,-73.1807899,TRUE,FALSE,FALSE,"S239426906"
"507","winwre3","Winter Wren","Troglodytes hiemalis","L33951510","Audubon","2025-05-17 07:00",1,44.346117,-72.99653,TRUE,FALSE,TRUE,"S240951683"
"508","winwre3","Winter Wren","Troglodytes hiemalis","L43038731","1167 Jenkins Rd, Mansfield US-PA 41.89465, -76.95117","2025-05-17 06:54",1,41.894646,-76.951168,TRUE,FALSE,TRUE,"S239078834"
"509","winwre3","Winter Wren","Troglodytes hiemalis","L19916732","Porter Hill House, Rindge US-NH (42.7454,-71.9411)","2025-05-17 06:49",1,42.745449,-71.941146,TRUE,FALSE,TRUE,"S239100204"
"510","winwre3","Winter Wren","Troglodytes hiemalis","L45244769","200–1598 Blackstone Rd, Westmanland US-ME 46.94116, -68.19673","2025-05-17 06:47",1,46.941158,-68.196726,TRUE,FALSE,TRUE,"S239181361"
"511","winwre3","Winter Wren","Troglodytes hiemalis","L752036","Lefferts Pond - Chittenden (55 acres)","2025-05-17 06:44",1,43.7151985,-72.9018244,TRUE,FALSE,FALSE,"S239365135"
"512","winwre3","Winter Wren","Troglodytes hiemalis","L5226275","Rocky Narrows (TTOR), Sherborn","2025-05-17 06:30",1,42.2251703,-71.3521284,TRUE,FALSE,FALSE,"S239178130"
"513","winwre3","Winter Wren","Troglodytes hiemalis","L45274963","Engle Road To Hall Trail","2025-05-17 06:30",1,40.9908772,-77.2634862,TRUE,FALSE,TRUE,"S239316408"
"514","winwre3","Winter Wren","Troglodytes hiemalis","L45244829","2–174 Bondeson Rd, New Sweden US-ME 46.93820, -68.16426","2025-05-17 06:26",1,46.9382,-68.16426,TRUE,FALSE,TRUE,"S239181694"
"515","winwre3","Winter Wren","Troglodytes hiemalis","L45268986","4556–4596 Blue Mountain Rd, Saint Regis Falls US-NY 44.58993, -74.49814","2025-05-17 06:21",1,44.589932,-74.498138,TRUE,FALSE,TRUE,"S239291360"
"516","winwre3","Winter Wren","Troglodytes hiemalis","L38460597","Wildwood Road, Seal Harbor","2025-05-17 06:20",1,44.3068921,-68.2418443,TRUE,FALSE,TRUE,"S239086480"
"517","winwre3","Winter Wren","Troglodytes hiemalis","L45223257","8880 Maple Flats Road, Cleveland, New York, US (43.299, -75.844)","2025-05-17 06:19",1,43.2994168,-75.8436912,TRUE,FALSE,TRUE,"S239062832"
"518","winwre3","Winter Wren","Troglodytes hiemalis","L19655137","Laughing Whitefish Point - Private Residence","2025-05-17 06:06",1,46.5017144,-86.9596902,TRUE,FALSE,TRUE,"S239255539"
"519","winwre3","Winter Wren","Troglodytes hiemalis","L165381","Victory Basin IBA","2025-05-17 06:02",1,44.5351902,-71.7899171,TRUE,FALSE,FALSE,"S239091048"
"520","winwre3","Winter Wren","Troglodytes hiemalis","L11532034","330 Old Meacham Rd (Private)","2025-05-17 05:58",1,44.651151,-74.263213,TRUE,FALSE,TRUE,"S239056291"
"521","winwre3","Winter Wren","Troglodytes hiemalis","L7458915","Antrim Creek Natural Area","2025-05-17 05:55",1,45.1764707,-85.3767085,TRUE,FALSE,FALSE,"S239143034"
"522","winwre3","Winter Wren","Troglodytes hiemalis","L11752543","Banducci Home","2025-05-17 05:54",1,42.182392,-73.244945,TRUE,FALSE,TRUE,"S239053612"
"523","winwre3","Winter Wren","Troglodytes hiemalis","L31923183","Center Street, Cleveland, New York, US (43.312, -75.871)","2025-05-17 05:44",2,43.3117428,-75.8714247,TRUE,FALSE,TRUE,"S239053951"
"524","winwre3","Winter Wren","Troglodytes hiemalis","L594125","Marblehead Neck Wildlife Sanctuary (Mass Audubon)","2025-05-17 05:36",1,42.4930171,-70.8401871,TRUE,FALSE,FALSE,"S239108499"
"525","winwre3","Winter Wren","Troglodytes hiemalis","L16974766","Lyme Timber Lands","2025-05-17 05:30",1,41.4443112,-78.2614305,TRUE,FALSE,TRUE,"S240398846"
"526","winwre3","Winter Wren","Troglodytes hiemalis","L733057","Mount Tom State Reservation--West Entrance","2025-05-17 05:27",1,42.2400118,-72.6513112,TRUE,FALSE,FALSE,"S239388303"
"527","winwre3","Winter Wren","Troglodytes hiemalis","L45269242","16–28 Dexter Rd, Saint Regis Falls US-NY 44.60781, -74.49256","2025-05-17 05:26",2,44.607808,-74.492563,TRUE,FALSE,TRUE,"S239292941"
"528","winwre3","Winter Wren","Troglodytes hiemalis","L17401450","White Oaks Road, Williamstown, MA","2025-05-17 05:09",1,42.743786,-73.187823,TRUE,FALSE,TRUE,"S239048280"
"529","winwre3","Winter Wren","Troglodytes hiemalis","L45269867","1–37 Brown Tract Rd, Saint Regis Falls US-NY (44.6031,-74.4983)","2025-05-17 05:07",2,44.603101,-74.498261,TRUE,FALSE,TRUE,"S239295233"
"530","winwre3","Winter Wren","Troglodytes hiemalis","L19183214","BoundTree","2025-05-17 04:57",2,43.225172,-71.755077,TRUE,FALSE,TRUE,"S239072126"
"531","winwre3","Winter Wren","Troglodytes hiemalis","L7737555","Home","2025-05-16 20:55",1,43.414165,-75.968185,TRUE,FALSE,TRUE,"S238982180"
"532","winwre3","Winter Wren","Troglodytes hiemalis","L29719274","Susquehannock SF--West Branch Rd. Beaver Ponds","2025-05-16 20:19",1,41.6790304,-77.7981149,TRUE,FALSE,FALSE,"S238967774"
"533","winwre3","Winter Wren","Troglodytes hiemalis","L7358519","Chocolay Bayou Nature Preserve","2025-05-16 19:53",1,46.4992083,-87.355763,TRUE,FALSE,FALSE,"S238976994"
"534","winwre3","Winter Wren","Troglodytes hiemalis","L4646623","Munuscong WMA--overlook","2025-05-16 19:49",1,46.2044275,-84.2691864,TRUE,FALSE,FALSE,"S239965627"
"535","winwre3","Winter Wren","Troglodytes hiemalis","L616562","Moran WMA, Windsor","2025-05-16 18:50",1,42.5254414,-73.0609439,TRUE,FALSE,FALSE,"S238977909"
"536","winwre3","Winter Wren","Troglodytes hiemalis","L45193324","survey unit 30","2025-05-16 17:45",1,45.582829,-69.313032,TRUE,FALSE,TRUE,"S238915485"
"537","winwre3","Winter Wren","Troglodytes hiemalis","L45201694","3978 Wakeley Lake Access Road, Grayling, Michigan, US (44.627, -84.513)","2025-05-16 17:34",1,44.6270883,-84.5126118,TRUE,FALSE,TRUE,"S240421798"
"538","winwre3","Winter Wren","Troglodytes hiemalis","L16301078","Ulster Park","2025-05-16 17:30",1,41.8560442,-73.9804514,TRUE,FALSE,TRUE,"S238940123"
"539","winwre3","Winter Wren","Troglodytes hiemalis","L45195719","3700 US-44, Gardiner US-NY 41.73613, -74.19983","2025-05-16 17:28",1,41.736132,-74.199826,TRUE,FALSE,TRUE,"S238928372"
"540","winwre3","Winter Wren","Troglodytes hiemalis","L269990","Clark Reservation SP","2025-05-16 17:20",1,42.9953045,-76.0941063,TRUE,FALSE,FALSE,"S238928715"
"541","winwre3","Winter Wren","Troglodytes hiemalis","L2221658","Mt. Pisgah Farm","2025-05-16 17:06",1,44.7017279,-72.0042229,TRUE,FALSE,TRUE,"S238904371"
"542","winwre3","Winter Wren","Troglodytes hiemalis","L3990130","Witt Swamp Preserve","2025-05-16 17:02",1,44.2264736,-70.555476,TRUE,FALSE,FALSE,"S238917657"
"543","winwre3","Winter Wren","Troglodytes hiemalis","L1649173","McCormick Wilderness--White Deer Lake Trail","2025-05-16 16:53",1,46.6494141,-88.0409156,TRUE,FALSE,FALSE,"S238952675"
"544","winwre3","Winter Wren","Troglodytes hiemalis","L934894","Trout Brook Valley Conservation Area","2025-05-16 16:19",1,41.2529034,-73.3398342,TRUE,FALSE,FALSE,"S238913258"
"545","winwre3","Winter Wren","Troglodytes hiemalis","L14976484","Barkhamsted: Legion Rd. (American Legion S.F. - interior section)","2025-05-16 16:10",1,41.938785,-73.008759,TRUE,FALSE,TRUE,"S239003233"
"546","winwre3","Winter Wren","Troglodytes hiemalis","L2879806","Little Sand Bay Nature Preserve","2025-05-16 16:03",1,45.7185523,-85.5048315,TRUE,FALSE,FALSE,"S238884431"
"547","winwre3","Winter Wren","Troglodytes hiemalis","L9281529","Hardwick Trails","2025-05-16 15:55",1,44.5122705,-72.3630415,TRUE,FALSE,TRUE,"S238907486"
"548","winwre3","Winter Wren","Troglodytes hiemalis","L27173458","122–348 Dana Clark Rd, Hartwick US-NY 42.71841, -75.06487","2025-05-16 14:46",2,42.718415,-75.064865,TRUE,FALSE,TRUE,"S238893899"
"549","winwre3","Winter Wren","Troglodytes hiemalis","L1000806","Debar Park Rd.","2025-05-16 14:30",1,44.6310086,-74.1971111,TRUE,FALSE,FALSE,"S240521602"
"550","winwre3","Winter Wren","Troglodytes hiemalis","L14974179","Barkhamsted: W. River Rd. (American Legion S.F. - north section","2025-05-16 14:25",1,41.942629,-73.012867,TRUE,FALSE,TRUE,"S239016594"
"551","winwre3","Winter Wren","Troglodytes hiemalis","L45186262","Eshqua Bog Natural Area, Woodstock, VT","2025-05-16 14:21",1,43.5972383,-72.4870849,TRUE,FALSE,TRUE,"S239771103"
"552","winwre3","Winter Wren","Troglodytes hiemalis","L1582280","Crawford Notch SP--Arethusa Falls Trail, Harts Location","2025-05-16 14:19",2,44.1474294,-71.3718624,TRUE,FALSE,FALSE,"S238911678"
"553","winwre3","Winter Wren","Troglodytes hiemalis","L37739718","Weskeag River Wildlife Preserve (Mid-Coast Audubon)","2025-05-16 14:16",1,44.031324,-69.1349288,TRUE,FALSE,FALSE,"S238883805"
"554","winwre3","Winter Wren","Troglodytes hiemalis","L45456951","Forney Ridge Trail - Andrews Bald to Board Camp Gap","2025-05-16 13:45",1,35.538869,-83.493864,TRUE,FALSE,TRUE,"S240202614"
"555","winwre3","Winter Wren","Troglodytes hiemalis","L45245467","2 Success Pond Road, Berlin, New Hampshire, US (44.529, -71.036)","2025-05-16 13:43",1,44.5289005,-71.0358251,TRUE,FALSE,TRUE,"S239184720"
"556","winwre3","Winter Wren","Troglodytes hiemalis","L45456891","Andrews Bald","2025-05-16 13:39",1,35.538866,-83.493826,TRUE,FALSE,TRUE,"S240202297"
"557","winwre3","Winter Wren","Troglodytes hiemalis","L45300390","South Tilson Road, Rudyard, Michigan, US (46.318, -84.593)","2025-05-16 13:03",1,46.3183446,-84.5929876,TRUE,FALSE,TRUE,"S239429529"
"558","winwre3","Winter Wren","Troglodytes hiemalis","L45175743","Red Creek Rd.","2025-05-16 12:58",2,46.013491,-84.737711,TRUE,FALSE,TRUE,"S238829836"
"559","winwre3","Winter Wren","Troglodytes hiemalis","L45181125","Big Bay Road, Marquette, Michigan, US (46.615, -87.469)","2025-05-16 12:50",1,46.6151522,-87.4692846,TRUE,FALSE,TRUE,"S238854143"
"560","winwre3","Winter Wren","Troglodytes hiemalis","L4228100","Lone jack","2025-05-16 12:45",1,45.5051433,-70.0255251,TRUE,FALSE,TRUE,"S238982115"
"561","winwre3","Winter Wren","Troglodytes hiemalis","L4786971","Aroostook NWR--Weapons Storage Area","2025-05-16 12:44",1,46.9685997,-67.8671552,TRUE,FALSE,FALSE,"S238880756"
"562","winwre3","Winter Wren","Troglodytes hiemalis","L45496128","High Falls Hiking Trail, Owls Head US-NY (44.7042,-74.1640)","2025-05-16 12:00",2,44.704207,-74.164029,TRUE,FALSE,TRUE,"S240392408"
"563","winwre3","Winter Wren","Troglodytes hiemalis","L14457872","Steam Mill Brook WMA--Stannard section","2025-05-16 11:55",2,44.5186822,-72.1786892,TRUE,FALSE,FALSE,"S238916614"
"564","winwre3","Winter Wren","Troglodytes hiemalis","L4922775","Elbow Pond, Woodstock","2025-05-16 11:39",1,43.9800929,-71.7342854,TRUE,FALSE,FALSE,"S238994304"
"565","winwre3","Winter Wren","Troglodytes hiemalis","L45189835","West Virginia Rd, Limestone US-ME 46.93030, -67.91718","2025-05-16 11:19",1,46.930305,-67.917183,TRUE,FALSE,TRUE,"S238897084"
"566","winwre3","Winter Wren","Troglodytes hiemalis","L45243000","Porcupine Mountains State Park middle mirror lake trail","2025-05-16 11:06",1,46.78616,-89.758733,TRUE,FALSE,TRUE,"S240378587"
"567","winwre3","Winter Wren","Troglodytes hiemalis","L619011","Leelanau SP--North","2025-05-16 11:00",1,45.21025,-85.54933,TRUE,FALSE,FALSE,"S238902485"
"568","winwre3","Winter Wren","Troglodytes hiemalis","L2591122","Cherry Plain SP","2025-05-16 10:35",1,42.6196413,-73.4117275,TRUE,FALSE,FALSE,"S238886983"
"569","winwre3","Winter Wren","Troglodytes hiemalis","L45305025","Mount Tremper","2025-05-16 10:30",1,42.0511536,-74.2835229,TRUE,FALSE,TRUE,"S239453619"
"570","winwre3","Winter Wren","Troglodytes hiemalis","L1667898","Peninsula SP--Eagle Tower and Trail","2025-05-16 10:28",1,45.1627302,-87.1976104,TRUE,FALSE,FALSE,"S238847959"
"571","winwre3","Winter Wren","Troglodytes hiemalis","L45167163","890–898 Hemlock Rd, Washington Island US-WI (45.3628,-86.8660)","2025-05-16 10:21",1,45.36282,-86.866023,TRUE,FALSE,TRUE,"S238789376"
"572","winwre3","Winter Wren","Troglodytes hiemalis","L24457084","Catskill Park, Roscoe US-NY 41.94557, -74.91575","2025-05-16 10:15",1,41.94557,-74.915753,TRUE,FALSE,TRUE,"S238701572"
"573","winwre3","Winter Wren","Troglodytes hiemalis","L109234","Sharon Audubon Center","2025-05-16 10:11",1,41.855434,-73.4532166,TRUE,FALSE,FALSE,"S238613210"
"574","winwre3","Winter Wren","Troglodytes hiemalis","L45275615","Auto selected 46.06950, -88.76557","2025-05-16 10:10",1,46.069496,-88.765571,TRUE,FALSE,TRUE,"S239319050"
"575","winwre3","Winter Wren","Troglodytes hiemalis","L5667799","Leelanau Trail south of Fouch Rd.","2025-05-16 10:01",1,44.8223645,-85.6726527,TRUE,FALSE,FALSE,"S238806676"
"576","winwre3","Winter Wren","Troglodytes hiemalis","L7686851","Sheehan Home Farm Hersey","2025-05-16 09:57",1,46.0582127,-68.4322981,TRUE,FALSE,TRUE,"S238699099"
"577","winwre3","Winter Wren","Troglodytes hiemalis","L45145640","Gorge Marsh","2025-05-16 09:49",1,44.348171,-68.202293,TRUE,FALSE,TRUE,"S238613112"
