"","speciesCode","comName","sciName","locId","locName","obsDt","howMany","lat","lng","obsValid","obsReviewed","locationPrivate","subId"
"1","plsvir","Plumbeous Vireo","Vireo plumbeus","L23439062","Dale Ball Trails--Sierra del Norte","2025-06-23 16:49",4,35.71062,-105.899281,TRUE,FALSE,FALSE,"S253554205"
"2","plsvir","Plumbeous Vireo","Vireo plumbeus","L48337786","4986 County Road 124, Elizabeth, Colorado, US (39.309, -104.572)","2025-06-23 16:16",1,39.3086235,-104.5721173,TRUE,FALSE,TRUE,"S253550651"
"3","plsvir","Plumbeous Vireo","Vireo plumbeus","L325223","Rocky Mountain NP--Upper Beaver Meadows","2025-06-23 15:19",1,40.3730498,-105.6140614,TRUE,FALSE,FALSE,"S253543823"
"4","plsvir","Plumbeous Vireo","Vireo plumbeus","L2413068","Madera Canyon--Carrie Nation Trail","2025-06-23 14:11",1,31.704511,-110.8764482,TRUE,FALSE,FALSE,"S253545933"
"5","plsvir","Plumbeous Vireo","Vireo plumbeus","L554723","Walker Ranch--Meyers Gulch","2025-06-23 12:40",3,39.9579448,-105.3385663,TRUE,FALSE,FALSE,"S253527624"
"6","plsvir","Plumbeous Vireo","Vireo plumbeus","L17515820","Upper City Creek trailhead","2025-06-23 12:34",1,42.847604,-112.460764,TRUE,FALSE,TRUE,"S253499789"
"7","plsvir","Plumbeous Vireo","Vireo plumbeus","L4709514","Custer SP--Visitor Center","2025-06-23 12:00",1,43.7611918,-103.3685374,TRUE,FALSE,FALSE,"S253496638"
"8","plsvir","Plumbeous Vireo","Vireo plumbeus","L2280425","Wildcat Hills--Old Stage Hill Road","2025-06-23 11:35",1,41.704543,-103.6604905,TRUE,FALSE,FALSE,"S253532129"
"9","plsvir","Plumbeous Vireo","Vireo plumbeus","L2708878","Rampart Range Rd at Hwy 67","2025-06-23 11:25",3,39.3771618,-105.0944316,TRUE,FALSE,FALSE,"S253547492"
"10","plsvir","Plumbeous Vireo","Vireo plumbeus","L48322450","Auto selected 36.39187, -105.28852","2025-06-23 11:16",1,36.391868,-105.28852,TRUE,FALSE,TRUE,"S253488760"
"11","plsvir","Plumbeous Vireo","Vireo plumbeus","L268114","Madera Canyon--Santa Rita Lodge","2025-06-23 10:45",1,31.7251514,-110.8801067,TRUE,FALSE,FALSE,"S253523652"
"12","plsvir","Plumbeous Vireo","Vireo plumbeus","L129068","Mt. Lemmon--Rose Canyon and Lake","2025-06-23 10:40",4,32.3926274,-110.7024693,TRUE,FALSE,FALSE,"S253546942"
"13","plsvir","Plumbeous Vireo","Vireo plumbeus","L1211296","Upper Water Canyon","2025-06-23 10:40",9,35.8377417,-106.360103,TRUE,FALSE,FALSE,"S253516690"
"14","plsvir","Plumbeous Vireo","Vireo plumbeus","L37213790","Cienega trail","2025-06-23 10:36",3,35.1679232,-106.3952334,TRUE,FALSE,TRUE,"S253522000"
"15","plsvir","Plumbeous Vireo","Vireo plumbeus","L1141965","Mt. Lemmon--Sunset Trailhead (lower Bear Wallow)","2025-06-23 09:56",1,32.4275106,-110.7422505,TRUE,FALSE,FALSE,"S253484096"
"16","plsvir","Plumbeous Vireo","Vireo plumbeus","L621892","Wetmore area","2025-06-23 09:33",1,38.2349441,-105.0844002,TRUE,FALSE,FALSE,"S253474140"
"17","plsvir","Plumbeous Vireo","Vireo plumbeus","L3001403","Hardscrabble Point of Interest","2025-06-23 09:33",1,38.2580052,-105.0890975,TRUE,FALSE,FALSE,"S253474142"
"18","plsvir","Plumbeous Vireo","Vireo plumbeus","L200055","Cibola NF--Water Canyon","2025-06-23 09:11",3,34.0231527,-107.1310644,TRUE,FALSE,FALSE,"S253464717"
"19","plsvir","Plumbeous Vireo","Vireo plumbeus","L129062","Ramsey Canyon Preserve (formerly Mile Hi Ranch)","2025-06-23 09:10",1,31.4473746,-110.307608,TRUE,FALSE,FALSE,"S253498451"
"20","plsvir","Plumbeous Vireo","Vireo plumbeus","L753821","Oak Creek Canyon--West Fork","2025-06-23 09:09",1,34.988,-111.7477,TRUE,FALSE,FALSE,"S253532070"
"21","plsvir","Plumbeous Vireo","Vireo plumbeus","L7064389","749 Weasel Drive, Pagosa Springs, Colorado, US (37.222, -107.163)","2025-06-23 09:08",1,37.2221603,-107.1628616,TRUE,FALSE,TRUE,"S253447842"
"22","plsvir","Plumbeous Vireo","Vireo plumbeus","L109237","Roxborough SP","2025-06-23 09:00",1,39.4295306,-105.0694388,TRUE,FALSE,FALSE,"S253527911"
"23","plsvir","Plumbeous Vireo","Vireo plumbeus","L48323341","Sulfur Springs and Alamo Canyon","2025-06-23 08:56",2,35.903593,-106.621239,TRUE,FALSE,TRUE,"S253492069"
"24","plsvir","Plumbeous Vireo","Vireo plumbeus","L3795590","Lincoln Mountain Open Space","2025-06-23 08:55",1,39.1765345,-104.7496176,TRUE,FALSE,FALSE,"S253541543"
"25","plsvir","Plumbeous Vireo","Vireo plumbeus","L571230","South Fork Canyon--Big Springs Park","2025-06-23 08:53",1,40.334,-111.52496,TRUE,FALSE,FALSE,"S253448863"
"26","plsvir","Plumbeous Vireo","Vireo plumbeus","L3014820","Jewel Cave NM","2025-06-23 08:52",2,43.7308886,-103.8274253,TRUE,FALSE,FALSE,"S253485508"
"27","plsvir","Plumbeous Vireo","Vireo plumbeus","L168704","Randall Davey Audubon Center","2025-06-23 08:46",1,35.6901148,-105.8881831,TRUE,FALSE,FALSE,"S253512749"
"28","plsvir","Plumbeous Vireo","Vireo plumbeus","L280849","Guadalupe Mts. NP--McKittrick Canyon (FWTX 17)","2025-06-23 08:45",7,31.9860597,-104.7691626,TRUE,FALSE,FALSE,"S253515288"
"29","plsvir","Plumbeous Vireo","Vireo plumbeus","L296633","Madera Canyon--Mt. Wrightson Picnic Area & Upper Canyon Trails","2025-06-23 08:36",1,31.7124,-110.8744,TRUE,FALSE,FALSE,"S253482923"
"30","plsvir","Plumbeous Vireo","Vireo plumbeus","L4385704","Castlewood Canyon SP--West Side Area","2025-06-23 08:35",2,39.3531357,-104.7655713,TRUE,FALSE,FALSE,"S253462992"
"31","plsvir","Plumbeous Vireo","Vireo plumbeus","L522498","Old Saint Vrain Rd","2025-06-23 08:33",1,40.20936,-105.2803516,TRUE,FALSE,FALSE,"S253508232"
"32","plsvir","Plumbeous Vireo","Vireo plumbeus","L20118656","Carrie Nation Mine Trail, Green Valley, Arizona, US (31.709, -110.876)","2025-06-23 08:32",7,31.7091357,-110.8755469,TRUE,FALSE,TRUE,"S253485830"
"33","plsvir","Plumbeous Vireo","Vireo plumbeus","L337028","Spring Mountain Ranch SP","2025-06-23 08:13",1,36.0690146,-115.4588759,TRUE,FALSE,FALSE,"S253513456"
"34","plsvir","Plumbeous Vireo","Vireo plumbeus","L25525664","Mountaindale Cabins & RV Resort","2025-06-23 08:12",5,38.586961,-104.9484466,TRUE,FALSE,FALSE,"S253527730"
"35","plsvir","Plumbeous Vireo","Vireo plumbeus","L48316681","South Boundary Trail, E US Highway 64, Taos US-NM 36.38079, -105.51178","2025-06-23 08:08",2,36.380791,-105.511777,TRUE,FALSE,TRUE,"S253466262"
"36","plsvir","Plumbeous Vireo","Vireo plumbeus","L3062977","Carlito Springs Open Space","2025-06-23 08:08",1,35.0865192,-106.3981408,TRUE,FALSE,FALSE,"S253449265"
"37","plsvir","Plumbeous Vireo","Vireo plumbeus","L3443613","National Center for Atmospheric Research Mesa","2025-06-23 08:05",1,39.9775147,-105.276854,TRUE,FALSE,FALSE,"S253541123"
"38","plsvir","Plumbeous Vireo","Vireo plumbeus","L575126","Pueblo Mountain Park","2025-06-23 07:55",2,38.0463506,-105.0026894,TRUE,FALSE,FALSE,"S253537435"
"39","plsvir","Plumbeous Vireo","Vireo plumbeus","L266623","Oak Creek Canyon--Cave Springs CG","2025-06-23 07:51",2,34.9987102,-111.7397091,TRUE,FALSE,FALSE,"S253452869"
"40","plsvir","Plumbeous Vireo","Vireo plumbeus","L44581715","Behind house (39.5444,-110.4162)","2025-06-23 07:44",1,39.544389,-110.416223,TRUE,FALSE,TRUE,"S253417336"
"41","plsvir","Plumbeous Vireo","Vireo plumbeus","L4530030","Mingus Mountain--Butterfly Spring","2025-06-23 07:34",2,34.7064731,-112.1391678,TRUE,FALSE,FALSE,"S253543134"
"42","plsvir","Plumbeous Vireo","Vireo plumbeus","L44766146","Bradshaw Mountains: Upper Knapp Gulch","2025-06-23 07:30",8,34.4375745,-112.3991389,TRUE,FALSE,TRUE,"S253519275"
"43","plsvir","Plumbeous Vireo","Vireo plumbeus","L354340","Butterfield Canyon--Lower (canyon bottom)","2025-06-23 07:28",3,40.4929421,-112.1174115,TRUE,FALSE,FALSE,"S253483757"
"44","plsvir","Plumbeous Vireo","Vireo plumbeus","L5880494","Colorado Trail--Durango Trailhead to Junction Creek Bridge at 2.6 miles","2025-06-23 07:15",1,37.3313775,-107.9029424,TRUE,FALSE,FALSE,"S253457213"
"45","plsvir","Plumbeous Vireo","Vireo plumbeus","L2126806","Madera Canyon--Bog Springs","2025-06-23 07:11",6,31.7213046,-110.8626723,TRUE,FALSE,FALSE,"S253493441"
"46","plsvir","Plumbeous Vireo","Vireo plumbeus","L22671028","Hobble creek bike path","2025-06-23 07:08",1,40.158476,-111.528959,TRUE,FALSE,TRUE,"S253422360"
"47","plsvir","Plumbeous Vireo","Vireo plumbeus","L48227627","2051 Kerr Gulch Rd, Evergreen US-CO 39.67835, -105.31922","2025-06-23 07:07",1,39.678346,-105.319222,TRUE,FALSE,TRUE,"S253425546"
"48","plsvir","Plumbeous Vireo","Vireo plumbeus","L16134168","Running Fox Ranch","2025-06-23 06:52",2,35.8275,-105.3144,TRUE,FALSE,TRUE,"S253438911"
"49","plsvir","Plumbeous Vireo","Vireo plumbeus","L1313480","Dinosaur NM--Canyon Area Visitor Center","2025-06-23 06:47",1,40.2437589,-108.9724606,TRUE,FALSE,FALSE,"S253473595"
"50","plsvir","Plumbeous Vireo","Vireo plumbeus","L3354672","Confluence of Pueblo and Acid Canyons","2025-06-23 06:45",5,35.8889067,-106.3039041,TRUE,FALSE,FALSE,"S253447430"
"51","plsvir","Plumbeous Vireo","Vireo plumbeus","L39479011","Aldo Leopold House","2025-06-23 06:26",3,36.6525317,-105.9695654,TRUE,FALSE,FALSE,"S253416204"
"52","plsvir","Plumbeous Vireo","Vireo plumbeus","L868939","Custer SP--Wildlife Loop","2025-06-23 06:22",1,43.7067869,-103.3406639,TRUE,FALSE,FALSE,"S253419298"
"53","plsvir","Plumbeous Vireo","Vireo plumbeus","L7443321","Slate Creek Divide--FR-201A (Maricopa Co.)","2025-06-23 06:15",4,34.00007,-111.454095,TRUE,FALSE,FALSE,"S253548888"
"54","plsvir","Plumbeous Vireo","Vireo plumbeus","L17680725","Salida East Recreation Site","2025-06-23 06:15",1,38.508332,-105.960721,TRUE,FALSE,FALSE,"S253413396"
"55","plsvir","Plumbeous Vireo","Vireo plumbeus","L3938682","Arizona Trail--Anderson Mesa Station","2025-06-23 06:10",1,35.100692,-111.5366739,TRUE,FALSE,FALSE,"S253479924"
"56","plsvir","Plumbeous Vireo","Vireo plumbeus","L3154811","Slate Creek Divide (Maricopa Co.)","2025-06-23 06:05",2,34.000011,-111.470356,TRUE,FALSE,FALSE,"S253532149"
"57","plsvir","Plumbeous Vireo","Vireo plumbeus","L33863395","Gardner BBS route Huerfano","2025-06-23 05:18",6,37.9410128,-105.2327483,TRUE,FALSE,TRUE,"S253545741"
"58","plsvir","Plumbeous Vireo","Vireo plumbeus","L48315704","Cibola NF--Saw Mill Well","2025-06-23 05:16",9,34.2582564,-107.8510016,TRUE,FALSE,TRUE,"S253462358"
"59","plsvir","Plumbeous Vireo","Vireo plumbeus","L5451104","Saulsbury Canyon Trail (W Turkey Creek)","2025-06-23 05:09",4,31.8655216,-109.3389764,TRUE,FALSE,FALSE,"S253458213"
"60","plsvir","Plumbeous Vireo","Vireo plumbeus","L285162","Mt. Rushmore National Memorial","2025-06-23 04:27",6,43.8779123,-103.4555054,TRUE,FALSE,FALSE,"S253459659"
"61","plsvir","Plumbeous Vireo","Vireo plumbeus","L10778154","Evergreen Meadows","2025-06-22 19:02",1,39.575725,-105.3205436,TRUE,FALSE,TRUE,"S253313549"
"62","plsvir","Plumbeous Vireo","Vireo plumbeus","L749724","Madera Canyon--Amphitheater","2025-06-22 18:45",1,31.7221396,-110.8797151,TRUE,FALSE,FALSE,"S253319426"
"63","plsvir","Plumbeous Vireo","Vireo plumbeus","L20137083","Neff’s Canyon Trailhead","2025-06-22 18:10",1,40.677097,-111.776294,TRUE,FALSE,FALSE,"S253302567"
"64","plsvir","Plumbeous Vireo","Vireo plumbeus","L3891443","Custer SP--Legion Lake Lodge","2025-06-22 18:01",1,43.7618466,-103.4627607,TRUE,FALSE,FALSE,"S253311223"
"65","plsvir","Plumbeous Vireo","Vireo plumbeus","L4580520","Madera Canyon--Nature Trail (county line/Madera PA to Amphitheater)","2025-06-22 17:38",1,31.7253496,-110.8813848,TRUE,FALSE,FALSE,"S253306374"
"66","plsvir","Plumbeous Vireo","Vireo plumbeus","L5525302","W Turkey Creek Rd--Nat'l Forest boundary to road end (mp 8.3-11)","2025-06-22 16:48",2,31.8658952,-109.3487477,TRUE,FALSE,FALSE,"S253458127"
"67","plsvir","Plumbeous Vireo","Vireo plumbeus","L47953086","Camping and rock climbing site Carson NF","2025-06-22 16:23",2,36.658666,-105.982355,TRUE,FALSE,TRUE,"S253273100"
"68","plsvir","Plumbeous Vireo","Vireo plumbeus","L2959574","Blodgett Peak Open Space","2025-06-22 16:00",2,38.9487044,-104.8916245,TRUE,FALSE,FALSE,"S253539868"
"69","plsvir","Plumbeous Vireo","Vireo plumbeus","L48321058","Mt Lemmon - Turkey Run Rd","2025-06-22 14:30",1,32.447572,-110.7696515,TRUE,FALSE,TRUE,"S253484292"
"70","plsvir","Plumbeous Vireo","Vireo plumbeus","L31228015","Mt. Lemmon--Bigelow Trailhead","2025-06-22 13:47",2,32.4097979,-110.7132959,TRUE,FALSE,FALSE,"S253521475"
"71","plsvir","Plumbeous Vireo","Vireo plumbeus","L1414692","Sugarite Canyon SP--Lake Maloya","2025-06-22 13:40",1,36.9837903,-104.3742608,TRUE,FALSE,FALSE,"S253455629"
"72","plsvir","Plumbeous Vireo","Vireo plumbeus","L48259699","Syler Spring Trail, Washington US-UT 37.39003, -113.35501","2025-06-22 13:22",2,37.390031,-113.35501,TRUE,FALSE,TRUE,"S253210236"
"73","plsvir","Plumbeous Vireo","Vireo plumbeus","L15561895","Hidden Springs Lake","2025-06-22 13:18",1,33.6850875,-108.8601782,TRUE,FALSE,FALSE,"S253218975"
"74","plsvir","Plumbeous Vireo","Vireo plumbeus","L753059","Mt. Lemmon--Incinerator Ridge","2025-06-22 12:20",1,32.4111248,-110.7064819,TRUE,FALSE,FALSE,"S253521342"
"75","plsvir","Plumbeous Vireo","Vireo plumbeus","L1221351","Thumb Butte Trail","2025-06-22 12:04",1,34.5512503,-112.5210191,TRUE,FALSE,FALSE,"S253249036"
"76","plsvir","Plumbeous Vireo","Vireo plumbeus","L748275","Cibola NF--Doc Long Picnic Ground & Bill Spring Trail","2025-06-22 11:45",1,35.1774762,-106.3796389,TRUE,FALSE,FALSE,"S253183907"
"77","plsvir","Plumbeous Vireo","Vireo plumbeus","L3807304","Coconino NF--Sandy's Canyon Trail","2025-06-22 11:32",1,35.1269096,-111.5986973,TRUE,FALSE,FALSE,"S253250085"
"78","plsvir","Plumbeous Vireo","Vireo plumbeus","L14500339","42A Forest Road, San Simon, Arizona, US (31.876, -109.228)","2025-06-22 11:18",1,31.8762424,-109.2280584,TRUE,FALSE,TRUE,"S253220569"
"79","plsvir","Plumbeous Vireo","Vireo plumbeus","L503396","Price Canyon--Recreation Area Rd.","2025-06-22 10:51",2,39.7615172,-110.9174001,TRUE,FALSE,FALSE,"S253190546"
"80","plsvir","Plumbeous Vireo","Vireo plumbeus","L48250118","Perimeter Trail Behind Pajarito Complex","2025-06-22 10:48",1,35.9046625,-106.3145132,TRUE,FALSE,TRUE,"S253173688"
"81","plsvir","Plumbeous Vireo","Vireo plumbeus","L2335940","Roosevelt National Forest--Dadd Gulch Trail area","2025-06-22 10:45",2,40.6976885,-105.5403036,TRUE,FALSE,FALSE,"S253263536"
"82","plsvir","Plumbeous Vireo","Vireo plumbeus","L4713349","Spruce Mountain Open Space","2025-06-22 10:11",1,39.158218,-104.8848009,TRUE,FALSE,FALSE,"S253216074"
"83","plsvir","Plumbeous Vireo","Vireo plumbeus","L36157204","Steven’s Gulch","2025-06-22 10:08",1,40.683406,-105.40879,TRUE,FALSE,TRUE,"S253206217"
"84","plsvir","Plumbeous Vireo","Vireo plumbeus","L21008318","Mt. Graham--Turkey Flat","2025-06-22 10:00",1,32.632362,-109.815598,TRUE,FALSE,FALSE,"S253166865"
"85","plsvir","Plumbeous Vireo","Vireo plumbeus","L351236","Scott Reservoir","2025-06-22 09:55",1,34.1755122,-109.9589536,TRUE,FALSE,FALSE,"S253236789"
"86","plsvir","Plumbeous Vireo","Vireo plumbeus","L2913877","Tiny Town Draw","2025-06-22 09:46",1,39.6025966,-105.2198625,TRUE,FALSE,TRUE,"S253175727"
"87","plsvir","Plumbeous Vireo","Vireo plumbeus","L3953029","Angel Fire 2 BBS Route - Stop 49","2025-06-22 09:46",1,36.0288329,-105.2257714,TRUE,FALSE,TRUE,"S253546887"
"88","plsvir","Plumbeous Vireo","Vireo plumbeus","L2909240","Rotary Trail","2025-06-22 09:39",1,40.4540155,-106.9168523,TRUE,FALSE,FALSE,"S253178317"
"89","plsvir","Plumbeous Vireo","Vireo plumbeus","L48315867","Harden Cienega","2025-06-22 09:38",1,33.200113,-109.1352928,TRUE,FALSE,TRUE,"S253317540"
"90","plsvir","Plumbeous Vireo","Vireo plumbeus","L3953027","Angel Fire 2 BBS Route - Stop 47","2025-06-22 09:35",1,36.04307,-105.2218929,TRUE,FALSE,TRUE,"S253546385"
"91","plsvir","Plumbeous Vireo","Vireo plumbeus","L128889","Mt. Lemmon--Bear Wallow","2025-06-22 09:30",2,32.4210014,-110.731102,TRUE,FALSE,FALSE,"S253225578"
"92","plsvir","Plumbeous Vireo","Vireo plumbeus","L3953025","Angel Fire 2 BBS Route - Stop 45","2025-06-22 09:23",1,36.0566811,-105.2255306,TRUE,FALSE,TRUE,"S253545913"
"93","plsvir","Plumbeous Vireo","Vireo plumbeus","L25615782","96 Young Canyon Rd, Cloudcroft US-NM (32.9537,-105.6858)","2025-06-22 09:22",1,32.953708,-105.685845,TRUE,FALSE,TRUE,"S253189323"
"94","plsvir","Plumbeous Vireo","Vireo plumbeus","L151670","Mogollon","2025-06-22 09:20",2,33.3974166,-108.7980795,TRUE,FALSE,FALSE,"S253254748"
"95","plsvir","Plumbeous Vireo","Vireo plumbeus","L3953024","Angel Fire 2 BBS Route - Stop 44","2025-06-22 09:18",1,36.06444,-105.22827,TRUE,FALSE,TRUE,"S253545604"
"96","plsvir","Plumbeous Vireo","Vireo plumbeus","L5885937","Sierra Anchas--Parker Creek Trail #160","2025-06-22 09:15",4,33.7944228,-110.9709712,TRUE,FALSE,FALSE,"S253317660"
"97","plsvir","Plumbeous Vireo","Vireo plumbeus","L11479710","Red Butte Canyon","2025-06-22 09:15",1,40.7735629,-111.8216242,TRUE,FALSE,TRUE,"S253319224"
"98","plsvir","Plumbeous Vireo","Vireo plumbeus","L48280475","San Francisco River--Harden Cienega Creek","2025-06-22 09:12",2,33.200757,-109.136636,TRUE,FALSE,TRUE,"S253324313"
"99","plsvir","Plumbeous Vireo","Vireo plumbeus","L24942464","Turkey run","2025-06-22 09:11",3,32.444753,-110.76045,TRUE,FALSE,TRUE,"S253256872"
"100","plsvir","Plumbeous Vireo","Vireo plumbeus","L3953022","Angel Fire 2 BBS Route - Stop 42","2025-06-22 09:06",1,36.0778,-105.22953,TRUE,FALSE,TRUE,"S253544783"
"101","plsvir","Plumbeous Vireo","Vireo plumbeus","L2496903","Rist Canyon Rd--mile 9 to Stove Prairie Rd","2025-06-22 08:45",1,40.6235148,-105.3312144,TRUE,FALSE,FALSE,"S253206119"
"102","plsvir","Plumbeous Vireo","Vireo plumbeus","L1777822","Deer Creek Canyon Park--Meadowlark Trail","2025-06-22 08:38",1,39.5436808,-105.1574403,TRUE,FALSE,FALSE,"S253197443"
"103","plsvir","Plumbeous Vireo","Vireo plumbeus","L3953017","Angel Fire 2 BBS Route - Stop 37","2025-06-22 08:38",1,36.1118376,-105.2188298,TRUE,FALSE,TRUE,"S253543309"
"104","plsvir","Plumbeous Vireo","Vireo plumbeus","L3741257","Santa Fe NF--Borrego Trail","2025-06-22 08:38",1,35.7501377,-105.8339649,TRUE,FALSE,FALSE,"S253283894"
"105","plsvir","Plumbeous Vireo","Vireo plumbeus","L48331010","Beaver Pond along San Francisco River","2025-06-22 08:34",1,33.2008837,-109.1359025,TRUE,FALSE,TRUE,"S253321011"
"106","plsvir","Plumbeous Vireo","Vireo plumbeus","L12212675","Burlingorge and Roaring Fork River, Aspen, Colorado, US (39.221, -106.857)","2025-06-22 08:27",1,39.2208113,-106.8568944,TRUE,FALSE,TRUE,"S253145449"
"107","plsvir","Plumbeous Vireo","Vireo plumbeus","L190028","Ojito de San Antonio Open Space","2025-06-22 08:23",1,35.1034101,-106.3819456,TRUE,FALSE,FALSE,"S253129218"
"108","plsvir","Plumbeous Vireo","Vireo plumbeus","L1168253","Cibola NF--Nine Mile Picnic Site","2025-06-22 08:23",1,35.2153492,-106.4229834,TRUE,FALSE,FALSE,"S253158581"
"109","plsvir","Plumbeous Vireo","Vireo plumbeus","L4556976","Cave Creek--South Fork Bridge","2025-06-22 08:21",1,31.8737675,-109.1833091,TRUE,FALSE,TRUE,"S253211036"
"110","plsvir","Plumbeous Vireo","Vireo plumbeus","L389852","Prescott National Forest","2025-06-22 08:15",NA,34.4491928,-112.4356055,TRUE,FALSE,TRUE,"S253178827"
"111","plsvir","Plumbeous Vireo","Vireo plumbeus","L129031","Miller Canyon Trail","2025-06-22 08:13",1,31.40806,-110.28619,TRUE,FALSE,FALSE,"S253165822"
"112","plsvir","Plumbeous Vireo","Vireo plumbeus","L48232573","3462 Sunshine Canyon Drive, Boulder, Colorado, US (40.046, -105.328)","2025-06-22 08:04",1,40.0461941,-105.3278779,TRUE,FALSE,TRUE,"S253103608"
"113","plsvir","Plumbeous Vireo","Vireo plumbeus","L1213072","Santa Fe NF--Chamisa Trail","2025-06-22 08:02",2,35.7286155,-105.8657813,TRUE,FALSE,FALSE,"S253227983"
"114","plsvir","Plumbeous Vireo","Vireo plumbeus","L1239724","Rist Canyon Rd--miles 6 to 9","2025-06-22 07:57",2,40.635841,-105.3200912,TRUE,FALSE,FALSE,"S253206083"
"115","plsvir","Plumbeous Vireo","Vireo plumbeus","L48318953","Jones Canyon - Cmpgd to Wilderness boundary","2025-06-22 07:54",5,33.621714,-108.900156,TRUE,FALSE,TRUE,"S253475331"
"116","plsvir","Plumbeous Vireo","Vireo plumbeus","L127970","Mt. Lemmon--upper","2025-06-22 07:50",1,32.4404984,-110.7902985,TRUE,FALSE,FALSE,"S253224403"
"117","plsvir","Plumbeous Vireo","Vireo plumbeus","L3952923","Angel Fire 2 BBS Route - Stop 28","2025-06-22 07:46",1,36.158392,-105.2349921,TRUE,FALSE,TRUE,"S253538304"
"118","plsvir","Plumbeous Vireo","Vireo plumbeus","L576986","Mt. Lemmon--Willow Canyon","2025-06-22 07:41",1,32.3878983,-110.6986928,TRUE,FALSE,TRUE,"S253312943"
"119","plsvir","Plumbeous Vireo","Vireo plumbeus","L3952922","Angel Fire 2 BBS Route - Stop 27","2025-06-22 07:41",2,36.1661336,-105.2372137,TRUE,FALSE,TRUE,"S253538008"
"120","plsvir","Plumbeous Vireo","Vireo plumbeus","L15093905","Rangely Camper Park","2025-06-22 07:33",3,40.089372,-108.789436,TRUE,FALSE,FALSE,"S253108642"
"121","plsvir","Plumbeous Vireo","Vireo plumbeus","L48278084","Prescott National Forest: Trail 106 to 105","2025-06-22 07:30",8,34.7014345,-112.1108041,TRUE,FALSE,TRUE,"S253299468"
"122","plsvir","Plumbeous Vireo","Vireo plumbeus","L3952920","Angel Fire 2 BBS Route - Stop 25","2025-06-22 07:29",1,36.1779773,-105.2348627,TRUE,FALSE,TRUE,"S253537332"
"123","plsvir","Plumbeous Vireo","Vireo plumbeus","L2361953","Stratton Open Space","2025-06-22 07:29",4,38.7985137,-104.8655319,TRUE,FALSE,FALSE,"S253135521"
"124","plsvir","Plumbeous Vireo","Vireo plumbeus","L744308","Mt. Ord (Maricopa Co.)","2025-06-22 07:28",1,33.9053284,-111.4103365,TRUE,FALSE,FALSE,"S253158153"
"125","plsvir","Plumbeous Vireo","Vireo plumbeus","L48235181","26746 Light Lane, Colorado, US (39.523, -105.296)","2025-06-22 07:25",1,39.5229159,-105.2959859,TRUE,FALSE,TRUE,"S253115160"
"126","plsvir","Plumbeous Vireo","Vireo plumbeus","L12088402","Paso Bonito and Ladera","2025-06-22 07:24",1,34.549411,-112.567331,TRUE,FALSE,TRUE,"S253263799"
"127","plsvir","Plumbeous Vireo","Vireo plumbeus","L456475","Lory SP","2025-06-22 07:21",1,40.564245,-105.1747048,TRUE,FALSE,FALSE,"S253168106"
"128","plsvir","Plumbeous Vireo","Vireo plumbeus","L3952896","Angel Fire 2 BBS Route - Stop 23","2025-06-22 07:18",1,36.191802,-105.2329818,TRUE,FALSE,TRUE,"S253536130"
"129","plsvir","Plumbeous Vireo","Vireo plumbeus","L38543127","Southern (Woodpecker) Crossing","2025-06-22 07:18",5,34.9931615,-106.3478689,TRUE,FALSE,TRUE,"S253093468"
"130","plsvir","Plumbeous Vireo","Vireo plumbeus","L11725816","Mill Creek Canyon","2025-06-22 07:16",1,40.3372276,-116.9526722,TRUE,FALSE,FALSE,"S253168359"
"131","plsvir","Plumbeous Vireo","Vireo plumbeus","L942502","Santa Fe Canyon Preserve","2025-06-22 07:12",2,35.6883371,-105.8927482,TRUE,FALSE,FALSE,"S253124047"
"132","plsvir","Plumbeous Vireo","Vireo plumbeus","L48280597","San Francisco River--Cottonwood Spring","2025-06-22 07:08",5,33.220121,-109.127552,TRUE,FALSE,TRUE,"S253304858"
"133","plsvir","Plumbeous Vireo","Vireo plumbeus","L1430276","Woods Canyon Lake","2025-06-22 07:08",1,34.335,-110.945,TRUE,FALSE,FALSE,"S253308005"
"134","plsvir","Plumbeous Vireo","Vireo plumbeus","L1239734","Rist Canyon Rd--miles 3 to 6 ","2025-06-22 07:02",3,40.6384463,-105.2733994,TRUE,FALSE,FALSE,"S253206054"
"135","plsvir","Plumbeous Vireo","Vireo plumbeus","L48247420","Cibola NF--Ojo La Casa (Bernalillo Co.)","2025-06-22 06:57",6,34.8727019,-106.3403308,TRUE,FALSE,TRUE,"S253163341"
"136","plsvir","Plumbeous Vireo","Vireo plumbeus","L3952915","Angel Fire 2 BBS Route - Stop 19","2025-06-22 06:55",1,36.21958,-105.23271,TRUE,FALSE,TRUE,"S253534746"
"137","plsvir","Plumbeous Vireo","Vireo plumbeus","L48247526","Brunswick Canyon Rd, Carson City US-NV 39.15928, -119.67402","2025-06-22 06:54",3,39.159279,-119.67402,TRUE,FALSE,TRUE,"S253163714"
"138","plsvir","Plumbeous Vireo","Vireo plumbeus","L42273385","Aliperti Cabin (W Turkey Creek)","2025-06-22 06:53",1,31.864886,-109.340902,TRUE,FALSE,TRUE,"S253457898"
"139","plsvir","Plumbeous Vireo","Vireo plumbeus","L48262225","Roxborough State Park, Littleton US-CO 39.42880, -105.06847","2025-06-22 06:52",1,39.428797,-105.068473,TRUE,FALSE,TRUE,"S253221144"
"140","plsvir","Plumbeous Vireo","Vireo plumbeus","L37958543","Frisco Camp Picnic Site","2025-06-22 06:44",3,33.20305,-109.149523,TRUE,FALSE,FALSE,"S253317920"
"141","plsvir","Plumbeous Vireo","Vireo plumbeus","L1298216","Tamaya Cottonwoods Bosque Trail","2025-06-22 06:34",1,35.3438176,-106.5433073,TRUE,FALSE,FALSE,"S253096709"
"142","plsvir","Plumbeous Vireo","Vireo plumbeus","L804736","Waterton Canyon--from Waterton Rd to overhead pipes","2025-06-22 06:31",1,39.4860209,-105.1018995,TRUE,FALSE,FALSE,"S253145240"
"143","plsvir","Plumbeous Vireo","Vireo plumbeus","L48244241","Mars Hill Road","2025-06-22 06:26",1,35.2006904,-111.6621049,TRUE,FALSE,TRUE,"S253153648"
"144","plsvir","Plumbeous Vireo","Vireo plumbeus","L48237467","Maswik Laundry Rd, Grand Canyon Village US-AZ 36.05366, -112.14797","2025-06-22 06:24",1,36.053658,-112.147972,TRUE,FALSE,TRUE,"S253124595"
"145","plsvir","Plumbeous Vireo","Vireo plumbeus","L843781","Cibola NF--Sulphur Canyon Picnic Area","2025-06-22 06:15",4,35.172335,-106.3765812,TRUE,FALSE,FALSE,"S253127760"
"146","plsvir","Plumbeous Vireo","Vireo plumbeus","L1212326","Groom Creek Loop Trail #307","2025-06-22 06:11",5,34.4644607,-112.4407473,TRUE,FALSE,FALSE,"S253149335"
"147","plsvir","Plumbeous Vireo","Vireo plumbeus","L777604","Strawberry Hill Recreation Area","2025-06-22 06:08",1,46.41545,-105.6723,TRUE,FALSE,FALSE,"S253105862"
"148","plsvir","Plumbeous Vireo","Vireo plumbeus","L296632","Madera Canyon--Madera Kubo B&B","2025-06-22 06:05",1,31.7200828,-110.8787354,TRUE,FALSE,FALSE,"S253479645"
"149","plsvir","Plumbeous Vireo","Vireo plumbeus","L2798502","NM, Bandelier, Maintenance Lagoons (Access by Permit Only)","2025-06-22 06:04",1,35.7895363,-106.2769224,TRUE,FALSE,TRUE,"S253056071"
"150","plsvir","Plumbeous Vireo","Vireo plumbeus","L1239740","Rist Canyon Rd--miles 0 to 3 ","2025-06-22 05:58",3,40.6264611,-105.2239609,TRUE,FALSE,FALSE,"S253206026"
"151","plsvir","Plumbeous Vireo","Vireo plumbeus","L48257371","5811 Highway 50, Howard, Colorado, US (38.47, -105.872)","2025-06-22 05:40",2,38.469784,-105.8717478,TRUE,FALSE,TRUE,"S253200994"
"152","plsvir","Plumbeous Vireo","Vireo plumbeus","L3952899","Angel Fire 2 BBS Route - Stop 3","2025-06-22 05:24",1,36.32253,-105.2691,TRUE,FALSE,TRUE,"S253528410"
"153","plsvir","Plumbeous Vireo","Vireo plumbeus","L2704095","Gila NF--Cottonwood Campground","2025-06-22 05:11",1,33.6188391,-108.8946337,TRUE,FALSE,FALSE,"S253505388"
"154","plsvir","Plumbeous Vireo","Vireo plumbeus","L48315745","Little Cottonwood Campground","2025-06-22 05:06",4,38.2560267,-112.5431217,TRUE,FALSE,TRUE,"S253462496"
"155","plsvir","Plumbeous Vireo","Vireo plumbeus","L48247396","Cibola NF--Ojo La Casa (Torrance Co.)","2025-06-22 05:02",5,34.8681869,-106.3416008,TRUE,FALSE,TRUE,"S253163261"
"156","plsvir","Plumbeous Vireo","Vireo plumbeus","L48280679","San Francisco River--Indian Cave Spring","2025-06-22 04:26",1,33.230061,-109.113166,TRUE,FALSE,TRUE,"S253303398"
"157","plsvir","Plumbeous Vireo","Vireo plumbeus","L587297","Elden Spring","2025-06-21 18:07",1,35.2273919,-111.6043997,TRUE,FALSE,FALSE,"S252922735"
"158","plsvir","Plumbeous Vireo","Vireo plumbeus","L4690005","Wolverine Canyon--Lower","2025-06-21 17:49",1,43.2522547,-112.0150566,TRUE,FALSE,FALSE,"S252935500"
"159","plsvir","Plumbeous Vireo","Vireo plumbeus","L48318825","925–927 Bursum Rd, Glenwood US-NM 33.38742, -108.77552","2025-06-21 16:31",1,33.387423,-108.775517,TRUE,FALSE,TRUE,"S253474833"
"160","plsvir","Plumbeous Vireo","Vireo plumbeus","L48254579","NMOS San Francisco River Expedition -- Mogollon, New Mexico, US (33.217, -108.938)","2025-06-21 16:31",1,33.2167509,-108.9384583,TRUE,FALSE,TRUE,"S253190386"
"161","plsvir","Plumbeous Vireo","Vireo plumbeus","L13487264","Cibola NF--Capulin Snowplay Site and The Log (Sandoval Co.)","2025-06-21 16:08",1,35.2183353,-106.4158435,TRUE,FALSE,FALSE,"S252892283"
"162","plsvir","Plumbeous Vireo","Vireo plumbeus","L15491144","Arizona Game and Fish--Old Hatchery","2025-06-21 15:01",1,34.1238058,-109.9218072,TRUE,FALSE,FALSE,"S252891816"
"163","plsvir","Plumbeous Vireo","Vireo plumbeus","L48255536","NMOS San Francisco River Expedition -- Mogollon, New Mexico, US (33.212, -108.965)","2025-06-21 14:27",2,33.2117468,-108.9646993,TRUE,FALSE,TRUE,"S253193954"
"164","plsvir","Plumbeous Vireo","Vireo plumbeus","L128887","Mt. Lemmon--Bear Canyon (General Hitchcock Campground)","2025-06-21 14:19",1,32.3771019,-110.6850967,TRUE,FALSE,FALSE,"S253201932"
"165","plsvir","Plumbeous Vireo","Vireo plumbeus","L31880277","10 Sky Haven, Newcastle US-WY","2025-06-21 13:10",1,43.843222,-104.170344,TRUE,FALSE,TRUE,"S252864501"
"166","plsvir","Plumbeous Vireo","Vireo plumbeus","L3812801","Santa Fe NF--Rowe Mesa South","2025-06-21 13:00",4,35.3693216,-105.6328111,TRUE,FALSE,FALSE,"S252942113"
"167","plsvir","Plumbeous Vireo","Vireo plumbeus","L338058","Cibola NF--Capulin Spring (Bernalillo and Sandoval Co.)","2025-06-21 12:56",3,35.2167001,-106.4153279,TRUE,FALSE,FALSE,"S252846700"
"168","plsvir","Plumbeous Vireo","Vireo plumbeus","L1168548","Castle Rocks SP--Smoky Mt. Campground","2025-06-21 12:35",1,42.07461,-113.65178,TRUE,FALSE,FALSE,"S252843097"
"169","plsvir","Plumbeous Vireo","Vireo plumbeus","L969715","Rifle Falls SP","2025-06-21 12:30",1,39.6742292,-107.6992321,TRUE,FALSE,FALSE,"S252919037"
"170","plsvir","Plumbeous Vireo","Vireo plumbeus","L721939","Flying J Ranch Park","2025-06-21 12:13",1,39.5450915,-105.3225256,TRUE,FALSE,FALSE,"S252837062"
"171","plsvir","Plumbeous Vireo","Vireo plumbeus","L48256739","NMOS San Francisco River Expedition -- Mogollon, New Mexico, US (33.213, -108.977)","2025-06-21 12:04",2,33.2127081,-108.9771897,TRUE,FALSE,TRUE,"S253198314"
"172","plsvir","Plumbeous Vireo","Vireo plumbeus","L358618","Cibola NF--Springtime Campground","2025-06-21 12:02",1,33.5746538,-107.4039745,TRUE,FALSE,FALSE,"S252898282"
"173","plsvir","Plumbeous Vireo","Vireo plumbeus","L1984583","Phantom Canyon (Fremont)","2025-06-21 11:41",3,38.5055944,-105.1092911,TRUE,FALSE,FALSE,"S252817530"
"174","plsvir","Plumbeous Vireo","Vireo plumbeus","L48284730","Martinez Ranch","2025-06-21 10:47",2,33.2075071,-109.162599,TRUE,FALSE,TRUE,"S253319709"
"175","plsvir","Plumbeous Vireo","Vireo plumbeus","L48178977","Water Canyon Trail, Los Alamos US-NM 35.83750, -106.35997","2025-06-21 10:46",4,35.837503,-106.359969,TRUE,FALSE,TRUE,"S252860865"
"176","plsvir","Plumbeous Vireo","Vireo plumbeus","L7768549","Home - Tijeras, NM","2025-06-21 10:30",1,34.9981183,-106.3427846,TRUE,FALSE,TRUE,"S253070488"
"177","plsvir","Plumbeous Vireo","Vireo plumbeus","L48280306","Big Dry Creek and San Francisco River confluence","2025-06-21 10:25",1,33.217883,-108.891182,TRUE,FALSE,TRUE,"S253299512"
"178","plsvir","Plumbeous Vireo","Vireo plumbeus","L7950487","Pineries Open Space","2025-06-21 10:17",2,39.0192963,-104.6520568,TRUE,FALSE,FALSE,"S252784191"
"179","plsvir","Plumbeous Vireo","Vireo plumbeus","L48262591","NMOS San Francisco River Expedition -- Mogollon, New Mexico, US (33.222, -108.991)","2025-06-21 10:09",3,33.2219189,-108.9912384,TRUE,FALSE,TRUE,"S253222844"
"180","plsvir","Plumbeous Vireo","Vireo plumbeus","L3089449","Spring Mountains NRA--Deer Creek Picnic Area","2025-06-21 09:54",1,36.3145986,-115.6210833,TRUE,FALSE,FALSE,"S252878053"
"181","plsvir","Plumbeous Vireo","Vireo plumbeus","L562873","Ghost Ranch","2025-06-21 09:50",1,36.3293708,-106.473484,TRUE,FALSE,FALSE,"S252844715"
"182","plsvir","Plumbeous Vireo","Vireo plumbeus","L589679","Bandelier NM--Pueblo Loop Trail","2025-06-21 09:47",2,35.7825972,-106.2743193,TRUE,FALSE,FALSE,"S252935013"
"183","plsvir","Plumbeous Vireo","Vireo plumbeus","L20887439","Long Park Road--between Rustler Park and Long Park","2025-06-21 09:46",2,31.896225,-109.2795289,TRUE,FALSE,FALSE,"S252897314"
"184","plsvir","Plumbeous Vireo","Vireo plumbeus","L575823","Tonto Natural Bridge State Park","2025-06-21 09:43",1,34.3223857,-111.4541531,TRUE,FALSE,FALSE,"S252875822"
"185","plsvir","Plumbeous Vireo","Vireo plumbeus","L1310536","Dinosaur NM--Josie Morris Cabin","2025-06-21 09:42",1,40.4256286,-109.1745973,TRUE,FALSE,FALSE,"S252796464"
"186","plsvir","Plumbeous Vireo","Vireo plumbeus","L48168702","Land's End Road and North Fork Kannah Creek","2025-06-21 09:40",1,39.0073602,-108.2371115,TRUE,FALSE,TRUE,"S252823073"
"187","plsvir","Plumbeous Vireo","Vireo plumbeus","L33709725","Pecos National Historical Park, Glorieta US-NM 35.56915, -105.75473","2025-06-21 09:25",2,35.569154,-105.754731,TRUE,FALSE,TRUE,"S253123876"
"188","plsvir","Plumbeous Vireo","Vireo plumbeus","L129069","Rustler Park","2025-06-21 09:23",1,31.9030991,-109.2776031,TRUE,FALSE,FALSE,"S253520943"
"189","plsvir","Plumbeous Vireo","Vireo plumbeus","L1593261","Cibola NF--Las Huertas Picnic Area","2025-06-21 09:12",3,35.2351102,-106.4121112,TRUE,FALSE,FALSE,"S252828288"
"190","plsvir","Plumbeous Vireo","Vireo plumbeus","L48285006","Dix creek","2025-06-21 09:08",2,33.200534,-109.1581097,TRUE,FALSE,TRUE,"S253319628"
"191","plsvir","Plumbeous Vireo","Vireo plumbeus","L2948522","Cibola NF--Tree Spring Trailhead","2025-06-21 08:58",1,35.1938953,-106.40468,TRUE,FALSE,FALSE,"S253304369"
"192","plsvir","Plumbeous Vireo","Vireo plumbeus","L48280446","Big Dry Creek and Little Dry Creek confluence","2025-06-21 08:45",1,33.209274,-108.873096,TRUE,FALSE,TRUE,"S253300188"
"193","plsvir","Plumbeous Vireo","Vireo plumbeus","L48142816","E Highway 132, Nephi US-UT 39.71421, -111.78678","2025-06-21 08:45",1,39.714209,-111.786776,TRUE,FALSE,TRUE,"S252753396"
"194","plsvir","Plumbeous Vireo","Vireo plumbeus","L48152504","Auto selected 38.40314, -105.27318","2025-06-21 08:40",1,38.403141,-105.273178,TRUE,FALSE,TRUE,"S252773943"
"195","plsvir","Plumbeous Vireo","Vireo plumbeus","L129056","Pinery Canyon","2025-06-21 08:37",1,31.9328003,-109.2713013,TRUE,FALSE,FALSE,"S253520826"
"196","plsvir","Plumbeous Vireo","Vireo plumbeus","L5494660","Cibola NF--Sandia Man Cave","2025-06-21 08:35",3,35.254611,-106.405917,TRUE,FALSE,FALSE,"S252829844"
"197","plsvir","Plumbeous Vireo","Vireo plumbeus","L48165655","Lime Kiln Canyon Trail","2025-06-21 08:34",1,47.136234,-109.352279,TRUE,FALSE,TRUE,"S252810711"
"198","plsvir","Plumbeous Vireo","Vireo plumbeus","L34268917","Mt. Bigelow Overlook, Tucson US-AZ 32.41770, -110.72411","2025-06-21 08:28",1,32.417701,-110.724113,TRUE,FALSE,TRUE,"S252793854"
"199","plsvir","Plumbeous Vireo","Vireo plumbeus","L9507671","Big Cottonwood Canyon--Storm Mountain Picnic Area","2025-06-21 08:15",1,40.6245211,-111.743689,TRUE,FALSE,FALSE,"S252791140"
"200","plsvir","Plumbeous Vireo","Vireo plumbeus","L46145702","335 Forest Access Road, Tijeras, New Mexico","2025-06-21 08:13",3,34.9898198,-106.3553865,TRUE,FALSE,TRUE,"S252733638"
"201","plsvir","Plumbeous Vireo","Vireo plumbeus","L129021","Madera Canyon--Madera Picnic Area","2025-06-21 08:13",1,31.7271702,-110.8807518,TRUE,FALSE,FALSE,"S252856929"
"202","plsvir","Plumbeous Vireo","Vireo plumbeus","L17455915","65164 Solar Rd, Montrose US-CO 38.38709, -107.86214","2025-06-21 08:09",1,38.387086,-107.862143,TRUE,FALSE,TRUE,"S253115634"
"203","plsvir","Plumbeous Vireo","Vireo plumbeus","L376533","Genesee Mountain Park--south of I-70","2025-06-21 08:04",1,39.6981811,-105.2914131,TRUE,FALSE,FALSE,"S252770311"
"204","plsvir","Plumbeous Vireo","Vireo plumbeus","L131389","Fountain Creek Regional Park","2025-06-21 08:04",1,38.7071991,-104.7164001,TRUE,FALSE,FALSE,"S252765240"
"205","plsvir","Plumbeous Vireo","Vireo plumbeus","L219408","Cibola NF--Cienega Canyon Picnic Area","2025-06-21 08:04",3,35.167564,-106.3801861,TRUE,FALSE,FALSE,"S252758465"
"206","plsvir","Plumbeous Vireo","Vireo plumbeus","L48151343","16133 W Deer Creek Canyon Rd, Littleton US-CO (39.5393,-105.1820)","2025-06-21 07:58",1,39.539324,-105.182018,TRUE,FALSE,TRUE,"S252756243"
"207","plsvir","Plumbeous Vireo","Vireo plumbeus","L4616012","Bear Creek Canyon Park","2025-06-21 07:56",1,38.8208972,-104.8912114,TRUE,FALSE,FALSE,"S252809708"
"208","plsvir","Plumbeous Vireo","Vireo plumbeus","L11311892","Droney Gulch Natural Area","2025-06-21 07:53",1,38.5882651,-106.1246748,TRUE,FALSE,FALSE,"S252763360"
"209","plsvir","Plumbeous Vireo","Vireo plumbeus","L6779780","Eldorado Community Preserve trailhead #4 (restricted access)","2025-06-21 07:49",2,35.5138944,-105.8339611,TRUE,FALSE,TRUE,"S252812988"
"210","plsvir","Plumbeous Vireo","Vireo plumbeus","L292553","Madera Canyon--Whitehouse Picnic area","2025-06-21 07:37",1,31.733668,-110.882269,TRUE,FALSE,FALSE,"S252768729"
"211","plsvir","Plumbeous Vireo","Vireo plumbeus","L3786956","Glass Mtns.--Wildrose Canyon","2025-06-21 07:30",1,37.7223244,-118.6100507,TRUE,TRUE,FALSE,"S252914028"
"212","plsvir","Plumbeous Vireo","Vireo plumbeus","L3943183","Tonto NF--Ponderosa CG","2025-06-21 07:25",2,34.2969859,-111.1186476,TRUE,FALSE,FALSE,"S252743064"
"213","plsvir","Plumbeous Vireo","Vireo plumbeus","L6944240","Ranch Road","2025-06-21 07:25",3,35.0427633,-108.2370245,TRUE,FALSE,TRUE,"S252851989"
"214","plsvir","Plumbeous Vireo","Vireo plumbeus","L37237936","177 W Pine Ridge Drive","2025-06-21 07:23",1,34.158475,-109.956909,TRUE,FALSE,TRUE,"S252927992"
"215","plsvir","Plumbeous Vireo","Vireo plumbeus","L11844481","San Francisco River at Box Canyon/Sundial Springs Rd.","2025-06-21 07:21",2,33.2490296,-108.8781974,TRUE,FALSE,FALSE,"S253326205"
"216","plsvir","Plumbeous Vireo","Vireo plumbeus","L25872341","Hiway 105 Sulphur Springs","2025-06-21 07:19",4,35.9066894,-106.6203746,TRUE,FALSE,FALSE,"S252843664"
"217","plsvir","Plumbeous Vireo","Vireo plumbeus","L4787869","Custer SP--Heddy Draw Overlook","2025-06-21 07:09",1,43.7475149,-103.4751272,TRUE,FALSE,FALSE,"S252785887"
"218","plsvir","Plumbeous Vireo","Vireo plumbeus","L266622","Red Rock SP","2025-06-21 06:59",1,34.8117069,-111.8288603,TRUE,FALSE,FALSE,"S252783080"
"219","plsvir","Plumbeous Vireo","Vireo plumbeus","L48268204","NMOS San Francisco River Expedition, Lloyd Canyon -- Mogollon, New Mexico, US (33.226, -109.011)","2025-06-21 06:50",6,33.2263208,-109.0113617,TRUE,FALSE,TRUE,"S253245483"
"220","plsvir","Plumbeous Vireo","Vireo plumbeus","L15802804","Custer SP - Lover's Leap Trail","2025-06-21 06:46",2,43.764041,-103.383133,TRUE,FALSE,FALSE,"S252741008"
"221","plsvir","Plumbeous Vireo","Vireo plumbeus","L8399045","Deer Creek Canyon Rd and S Deer Creek","2025-06-21 06:46",2,39.536913,-105.18661,TRUE,FALSE,TRUE,"S252755904"
"222","plsvir","Plumbeous Vireo","Vireo plumbeus","L2225745","Home Franktown Deerfield","2025-06-21 06:30",1,39.374181,-104.693288,TRUE,FALSE,TRUE,"S252792315"
"223","plsvir","Plumbeous Vireo","Vireo plumbeus","L15213981","Gila NF--San Francisco Hot Springs Trail","2025-06-21 06:28",3,33.2280319,-108.8670899,TRUE,FALSE,FALSE,"S252946198"
"224","plsvir","Plumbeous Vireo","Vireo plumbeus","L12096919","Hells Canyon Tank","2025-06-21 06:14",1,35.082012,-112.405206,TRUE,FALSE,FALSE,"S252869349"
"225","plsvir","Plumbeous Vireo","Vireo plumbeus","L211809","Madera Canyon--Proctor Rd.","2025-06-21 06:06",1,31.739938,-110.886147,TRUE,FALSE,FALSE,"S252702090"
"226","plsvir","Plumbeous Vireo","Vireo plumbeus","L473975","Cheyenne Mountain SP","2025-06-21 06:04",1,38.7311714,-104.8223591,TRUE,FALSE,FALSE,"S252770173"
"227","plsvir","Plumbeous Vireo","Vireo plumbeus","L14786316","Tuyonyi Overlook trail","2025-06-21 06:01",1,35.7949044,-106.2829561,TRUE,FALSE,TRUE,"S252882996"
"228","plsvir","Plumbeous Vireo","Vireo plumbeus","L2271195","Staunton SP (Jefferson Co)","2025-06-21 05:52",1,39.5174412,-105.3884554,TRUE,FALSE,FALSE,"S253495081"
"229","plsvir","Plumbeous Vireo","Vireo plumbeus","L48188095","Kelso Creek","2025-06-21 05:52",2,38.571646,-108.570382,TRUE,FALSE,TRUE,"S252896619"
"230","plsvir","Plumbeous Vireo","Vireo plumbeus","L24985943","35 Jose Gonzales","2025-06-21 05:45",1,35.5762607,-105.7045602,TRUE,FALSE,TRUE,"S253131605"
"231","plsvir","Plumbeous Vireo","Vireo plumbeus","L48200881","San Francisco River below Big Dry confluence, New Mexico, US","2025-06-21 05:43",1,33.21994,-108.9026603,TRUE,FALSE,TRUE,"S253287494"
"232","plsvir","Plumbeous Vireo","Vireo plumbeus","L5743073","Spring Mountains NRA--Stanley B Canyon","2025-06-21 05:31",2,36.2615078,-115.6332493,TRUE,FALSE,FALSE,"S253318588"
"233","plsvir","Plumbeous Vireo","Vireo plumbeus","L48190336","San Francisco River West of Frisco Camp","2025-06-21 05:30",2,33.2090398,-109.1584323,TRUE,FALSE,TRUE,"S252906616"
"234","plsvir","Plumbeous Vireo","Vireo plumbeus","L585741","Spring Mountains NRA--Fletcher Canyon","2025-06-21 05:23",2,36.2660753,-115.6122851,TRUE,FALSE,FALSE,"S252729294"
"235","plsvir","Plumbeous Vireo","Vireo plumbeus","L7692691","Grand Canyon NP--Shoshone Point","2025-06-21 05:21",4,36.0387584,-112.0615983,TRUE,FALSE,FALSE,"S252758327"
"236","plsvir","Plumbeous Vireo","Vireo plumbeus","L11842469","Usfs 661, Plumtaw","2025-06-21 05:20",1,37.3602959,-107.066368,TRUE,FALSE,TRUE,"S252924638"
"237","plsvir","Plumbeous Vireo","Vireo plumbeus","L48107614","Auto selected 34.44111, -111.36844","2025-06-21 05:05",1,34.441114,-111.368443,TRUE,FALSE,TRUE,"S252694978"
"238","plsvir","Plumbeous Vireo","Vireo plumbeus","L48134464","Carson NF south of Rt 64, 3.3 miles W of Ranger Station.","2025-06-20 18:35",2,36.653394,-106.032228,TRUE,FALSE,TRUE,"S252685059"
"239","plsvir","Plumbeous Vireo","Vireo plumbeus","L2909733","Rio Grande del Norte NM--Slide Trail","2025-06-20 18:15",2,36.3409795,-105.7230993,TRUE,FALSE,FALSE,"S252893616"
"240","plsvir","Plumbeous Vireo","Vireo plumbeus","L7858887","East Verde River--Water Wheel Falls trailhead","2025-06-20 18:06",1,34.3506791,-111.2855796,TRUE,FALSE,FALSE,"S252541250"
"241","plsvir","Plumbeous Vireo","Vireo plumbeus","L14325313","County Road 110, Ranchos de Taos, New Mexico, US (36.349, -105.713)","2025-06-20 17:09",3,36.3493842,-105.7126117,TRUE,FALSE,TRUE,"S252549748"
"242","plsvir","Plumbeous Vireo","Vireo plumbeus","L109292","Castlewood Canyon SP","2025-06-20 16:51",1,39.3307441,-104.7387991,TRUE,FALSE,FALSE,"S252518412"
"243","plsvir","Plumbeous Vireo","Vireo plumbeus","L4028291","Bandelier NM--Frijoles Canyon","2025-06-20 14:14",1,35.7789562,-106.2707654,TRUE,FALSE,FALSE,"S253186198"
"244","plsvir","Plumbeous Vireo","Vireo plumbeus","L48083658","Entrance to Black Hills Forest","2025-06-20 13:31",1,43.724168,-103.954531,TRUE,FALSE,TRUE,"S252454857"
"245","plsvir","Plumbeous Vireo","Vireo plumbeus","L18847789","Mt. Lemmon--Butterfly Trail","2025-06-20 13:14",1,32.429357,-110.739172,TRUE,FALSE,FALSE,"S252497813"
"246","plsvir","Plumbeous Vireo","Vireo plumbeus","L41657441","Bradshaw Tank & Meadow","2025-06-20 13:08",1,34.3680261,-111.4576285,TRUE,FALSE,TRUE,"S252509564"
"247","plsvir","Plumbeous Vireo","Vireo plumbeus","L20065839","Santa Fe NF - Apache Canyon","2025-06-20 13:00",3,35.6300309,-105.8361557,TRUE,FALSE,TRUE,"S252545662"
"248","plsvir","Plumbeous Vireo","Vireo plumbeus","L48247733","CG NF -- Poker Jim Butte Rd (East Hanging Woman Creek to Roberts Creek)","2025-06-20 12:57",1,45.3146483,-106.4121812,TRUE,FALSE,TRUE,"S253164400"
"249","plsvir","Plumbeous Vireo","Vireo plumbeus","L16671069","Gila NF--NM-159 above Mogollon","2025-06-20 12:42",1,33.379598,-108.766547,TRUE,FALSE,FALSE,"S252943613"
"250","plsvir","Plumbeous Vireo","Vireo plumbeus","L449534","Zion NP--Lava Point (NO Blue Springs Reservoir birds)","2025-06-20 12:40",1,37.383304,-113.0295539,TRUE,FALSE,FALSE,"S253257278"
"251","plsvir","Plumbeous Vireo","Vireo plumbeus","L48092822","2200–2798 E Walker Rd, Prescott US-AZ 34.43227, -112.42216","2025-06-20 12:28",2,34.432266,-112.422156,TRUE,FALSE,TRUE,"S252491897"
"252","plsvir","Plumbeous Vireo","Vireo plumbeus","L48257156","Little Mountain Aspen Grove","2025-06-20 12:08",1,41.087861,-109.318166,TRUE,FALSE,TRUE,"S253199998"
"253","plsvir","Plumbeous Vireo","Vireo plumbeus","L48080436","Roxborough Park (home)","2025-06-20 12:00",1,39.4279052,-105.0772498,TRUE,FALSE,TRUE,"S252442697"
"254","plsvir","Plumbeous Vireo","Vireo plumbeus","L1509906","Utah Lake Parkway Trail (North Shore)","2025-06-20 11:49",1,40.3622447,-111.8832118,TRUE,FALSE,FALSE,"S252415345"
"255","plsvir","Plumbeous Vireo","Vireo plumbeus","L48101703","11701 S Downing Pass, San Simon US-AZ 31.91835, -109.27464","2025-06-20 11:38",1,31.918346,-109.274638,TRUE,FALSE,TRUE,"S252530254"
"256","plsvir","Plumbeous Vireo","Vireo plumbeus","L3281841","Los Alamos Nature Center","2025-06-20 11:37",1,35.8849724,-106.3062751,TRUE,FALSE,FALSE,"S252427933"
"257","plsvir","Plumbeous Vireo","Vireo plumbeus","L128884","Barfoot Junction","2025-06-20 11:32",1,31.9150326,-109.2690586,TRUE,FALSE,FALSE,"S252536389"
"258","plsvir","Plumbeous Vireo","Vireo plumbeus","L8180361","Salinas Pueblo Missions NM--Gran Quivira (Socorro Co.)","2025-06-20 11:30",2,34.259563,-106.092239,TRUE,FALSE,FALSE,"S252480883"
"259","plsvir","Plumbeous Vireo","Vireo plumbeus","L11831443","Mormon Pioneer Trail","2025-06-20 11:25",1,40.832681,-111.623262,TRUE,FALSE,FALSE,"S253039476"
"260","plsvir","Plumbeous Vireo","Vireo plumbeus","L48271426","NMOS San Francisco River Expedition -- Mogollon, New Mexico, US (33.216, -108.96)","2025-06-20 11:20",3,33.2158245,-108.9597211,TRUE,FALSE,TRUE,"S253260141"
"261","plsvir","Plumbeous Vireo","Vireo plumbeus","L15939059","Rose Canyon Lake, Tucson US-AZ (32.3888,-110.7102)","2025-06-20 10:40",2,32.388795,-110.710247,TRUE,FALSE,TRUE,"S252438884"
"262","plsvir","Plumbeous Vireo","Vireo plumbeus","L142267","Heron Lake SP","2025-06-20 10:36",4,36.6795845,-106.6866989,TRUE,FALSE,FALSE,"S252438967"
"263","plsvir","Plumbeous Vireo","Vireo plumbeus","L3938255","South Willow Canyon--Cottonwood CG","2025-06-20 10:11",1,40.501669,-112.559654,TRUE,FALSE,FALSE,"S252488200"
"264","plsvir","Plumbeous Vireo","Vireo plumbeus","L587840","South Willow Canyon","2025-06-20 10:11",1,40.5009431,-112.5840282,TRUE,FALSE,FALSE,"S252446696"
"265","plsvir","Plumbeous Vireo","Vireo plumbeus","L3740463","Claunch 2 BBS stop 50","2025-06-20 10:02",2,34.2108916,-105.7551069,TRUE,FALSE,TRUE,"S253309052"
"266","plsvir","Plumbeous Vireo","Vireo plumbeus","L48074383","Curt Gowdy State Park, Cheyenne US-WY 41.17578, -105.24530","2025-06-20 09:58",2,41.175778,-105.245305,TRUE,FALSE,TRUE,"S252417941"
"267","plsvir","Plumbeous Vireo","Vireo plumbeus","L3740427","Claunch 2 BBS stop 47","2025-06-20 09:44",4,34.2244349,-105.7574372,TRUE,FALSE,TRUE,"S253308910"
"268","plsvir","Plumbeous Vireo","Vireo plumbeus","L3740390","Claunch 2 BBS stop 46","2025-06-20 09:39",1,34.2257864,-105.7641535,TRUE,FALSE,TRUE,"S253308909"
"269","plsvir","Plumbeous Vireo","Vireo plumbeus","L793543","Matthews-Reeser Bird Sanctuary","2025-06-20 09:25",1,40.3782272,-105.5091911,TRUE,FALSE,FALSE,"S252456987"
"270","plsvir","Plumbeous Vireo","Vireo plumbeus","L3011182","Upper Canyon Road, between Cerro Gordo and RDAC","2025-06-20 09:18",1,35.6873307,-105.8922386,TRUE,FALSE,FALSE,"S252404706"
"271","plsvir","Plumbeous Vireo","Vireo plumbeus","L354093","Catwalk National Recreation Trail","2025-06-20 09:12",8,33.3736887,-108.8403511,TRUE,FALSE,FALSE,"S252943551"
"272","plsvir","Plumbeous Vireo","Vireo plumbeus","L48155792","Divide Road, Whitewater US-CO","2025-06-20 09:11",1,38.806553,-108.587209,TRUE,FALSE,TRUE,"S252772447"
"273","plsvir","Plumbeous Vireo","Vireo plumbeus","L3740276","Claunch 2 BBS stop 40","2025-06-20 09:04",3,34.2369706,-105.7959709,TRUE,FALSE,TRUE,"S253308906"
"274","plsvir","Plumbeous Vireo","Vireo plumbeus","L15555177","FS437","2025-06-20 08:53",2,36.3336245,-105.5635055,TRUE,FALSE,TRUE,"S252941854"
"275","plsvir","Plumbeous Vireo","Vireo plumbeus","L3740242","Claunch 2 BBS stop 38","2025-06-20 08:52",2,34.2234132,-105.7975845,TRUE,FALSE,TRUE,"S253308937"
"276","plsvir","Plumbeous Vireo","Vireo plumbeus","L4610516","Fatman's Loop Trail #25","2025-06-20 08:46",1,35.2301878,-111.5793653,TRUE,FALSE,FALSE,"S252425433"
"277","plsvir","Plumbeous Vireo","Vireo plumbeus","L3740151","Claunch 2 BBS stop 37","2025-06-20 08:46",1,34.2172788,-105.7993248,TRUE,FALSE,TRUE,"S253308936"
"278","plsvir","Plumbeous Vireo","Vireo plumbeus","L3740138","Claunch 2 BBS stop 36","2025-06-20 08:41",1,34.2124372,-105.8055925,TRUE,FALSE,TRUE,"S253308935"
"279","plsvir","Plumbeous Vireo","Vireo plumbeus","L3740124","Claunch 2 BBS stop 35","2025-06-20 08:35",1,34.2068972,-105.8103915,TRUE,FALSE,TRUE,"S253308905"
"280","plsvir","Plumbeous Vireo","Vireo plumbeus","L267654","Mt. Lemmon--Marshall Gulch","2025-06-20 08:30",1,32.4280212,-110.7556783,TRUE,FALSE,FALSE,"S252481540"
"281","plsvir","Plumbeous Vireo","Vireo plumbeus","L986620","Jacks Canyon Area","2025-06-20 08:30",1,38.8016075,-108.58567,TRUE,FALSE,FALSE,"S252772191"
"282","plsvir","Plumbeous Vireo","Vireo plumbeus","L10122784","Ridgway SP--Visitor Center & campgrounds","2025-06-20 08:29",2,38.2145687,-107.7347423,TRUE,FALSE,FALSE,"S252391112"
"283","plsvir","Plumbeous Vireo","Vireo plumbeus","L343285","Fairview Cemetery (Chaffee)","2025-06-20 08:27",1,38.5398118,-106.0306264,TRUE,FALSE,FALSE,"S252360770"
"284","plsvir","Plumbeous Vireo","Vireo plumbeus","L3740046","Claunch 2 BBS stop 33","2025-06-20 08:23",1,34.1958905,-105.7991767,TRUE,FALSE,TRUE,"S253308904"
"285","plsvir","Plumbeous Vireo","Vireo plumbeus","L48196175","394 Timber Creek Road, Lewistown, Montana, US (46.712, -109.496)","2025-06-20 08:14",1,46.7117208,-109.4958538,TRUE,FALSE,TRUE,"S252933064"
"286","plsvir","Plumbeous Vireo","Vireo plumbeus","L6452071","Dolores Ponds (wastewater plant area)","2025-06-20 08:09",1,37.4711201,-108.5155731,TRUE,FALSE,FALSE,"S252370289"
"287","plsvir","Plumbeous Vireo","Vireo plumbeus","L7517077","South Willow Lake Trail","2025-06-20 07:59",1,40.489249,-112.617312,TRUE,FALSE,FALSE,"S252524553"
"288","plsvir","Plumbeous Vireo","Vireo plumbeus","L3739979","Claunch 2 BBS stop 28","2025-06-20 07:54",1,34.1657774,-105.7755432,TRUE,FALSE,TRUE,"S253308929"
"289","plsvir","Plumbeous Vireo","Vireo plumbeus","L1580676","Button Rock Trail","2025-06-20 07:46",2,40.2286956,-105.3436122,TRUE,FALSE,FALSE,"S252407456"
"290","plsvir","Plumbeous Vireo","Vireo plumbeus","L301174","Mt. Lemmon--Mt Bigelow Rd","2025-06-20 07:45",2,32.4170301,-110.7250857,TRUE,FALSE,FALSE,"S252448675"
"291","plsvir","Plumbeous Vireo","Vireo plumbeus","L46189349","Tonto National Forest, Tonto Basin US-AZ 33.81544, -110.98596","2025-06-20 07:45",1,33.81544,-110.985962,TRUE,FALSE,TRUE,"S253509529"
"292","plsvir","Plumbeous Vireo","Vireo plumbeus","L3084031","Upper Los Alamos Canyon","2025-06-20 07:39",2,35.879071,-106.3344222,TRUE,FALSE,FALSE,"S252375094"
"293","plsvir","Plumbeous Vireo","Vireo plumbeus","L48103997","Sierra Ancha--Sawmill Flats Campground","2025-06-20 07:39",2,33.813564,-110.984605,TRUE,TRUE,FALSE,"S252540540"
"294","plsvir","Plumbeous Vireo","Vireo plumbeus","L3952615","Black Canyon of the Gunnison NP--North Rim","2025-06-20 07:23",1,38.586068,-107.696981,TRUE,FALSE,FALSE,"S252385192"
"295","plsvir","Plumbeous Vireo","Vireo plumbeus","L46936013","Cajun pine trail","2025-06-20 07:20",4,35.0000774,-106.3591692,TRUE,FALSE,TRUE,"S252338786"
"296","plsvir","Plumbeous Vireo","Vireo plumbeus","L3738672","Claunch 2 BBS stop 22","2025-06-20 07:19",1,34.1417312,-105.7485826,TRUE,FALSE,TRUE,"S253308902"
"297","plsvir","Plumbeous Vireo","Vireo plumbeus","L48053350","Trail behind Meckley Center","2025-06-20 07:11",1,40.151282,-105.388339,TRUE,FALSE,TRUE,"S252329013"
"298","plsvir","Plumbeous Vireo","Vireo plumbeus","L11781357","Ditch Trail Loop, lower Basalt Mtn","2025-06-20 07:11",1,39.4617503,-107.0495177,TRUE,FALSE,TRUE,"S252440927"
"299","plsvir","Plumbeous Vireo","Vireo plumbeus","L131388","Garden of the Gods","2025-06-20 07:10",2,38.8774633,-104.8781876,TRUE,FALSE,FALSE,"S252375067"
"300","plsvir","Plumbeous Vireo","Vireo plumbeus","L691579","Rio de Flag--Picture Canyon","2025-06-20 07:06",1,35.2289344,-111.5534592,TRUE,FALSE,FALSE,"S252371821"
"301","plsvir","Plumbeous Vireo","Vireo plumbeus","L2255134","Cal-Wood Education Center","2025-06-20 07:01",1,40.1461144,-105.3904961,TRUE,FALSE,FALSE,"S252875494"
"302","plsvir","Plumbeous Vireo","Vireo plumbeus","L6116647","Ramsay-Shockey Open Space","2025-06-20 07:01",4,40.3677334,-105.2909195,TRUE,FALSE,TRUE,"S252408685"
"303","plsvir","Plumbeous Vireo","Vireo plumbeus","L4984636","Aspen Creek Trail #48","2025-06-20 06:55",3,34.500341,-112.527726,TRUE,FALSE,FALSE,"S252367650"
"304","plsvir","Plumbeous Vireo","Vireo plumbeus","L48271834","NMOS San Francisco River Expedition -- Mogollon, New Mexico, US (33.215, -108.909)","2025-06-20 06:55",2,33.214866,-108.9086586,TRUE,FALSE,TRUE,"S253261803"
"305","plsvir","Plumbeous Vireo","Vireo plumbeus","L48094930","Prescott National Forest: Trail 392","2025-06-20 06:50",2,34.5381736,-112.5374087,TRUE,FALSE,TRUE,"S252755712"
"306","plsvir","Plumbeous Vireo","Vireo plumbeus","L129099","Cave Creek Canyon--South Fork","2025-06-20 06:43",1,31.8688764,-109.1883919,TRUE,FALSE,FALSE,"S252425059"
"307","plsvir","Plumbeous Vireo","Vireo plumbeus","L48072739","Rodgers Tank","2025-06-20 06:30",1,35.2759668,-112.31655,TRUE,FALSE,TRUE,"S252414625"
"308","plsvir","Plumbeous Vireo","Vireo plumbeus","L2440114","Horton Creek Trail","2025-06-20 06:30",1,34.345912,-111.0908988,TRUE,FALSE,FALSE,"S252557497"
"309","plsvir","Plumbeous Vireo","Vireo plumbeus","L390362","Granite Basin Lake","2025-06-20 06:30",2,34.6168572,-112.5493392,TRUE,FALSE,FALSE,"S252829180"
"310","plsvir","Plumbeous Vireo","Vireo plumbeus","L320033","Garden Canyon--Upper Picnic Area","2025-06-20 06:30",2,31.4727031,-110.3526698,TRUE,FALSE,FALSE,"S252390004"
"311","plsvir","Plumbeous Vireo","Vireo plumbeus","L48098824","East Red Butte Canyon Road, Salt Lake City US-UT","2025-06-20 06:24",1,40.770572,-111.821823,TRUE,FALSE,TRUE,"S252517919"
"312","plsvir","Plumbeous Vireo","Vireo plumbeus","L48076009","Forest Service Road 187, Pinetop US-AZ 34.14022, -109.89853","2025-06-20 06:22",5,34.140221,-109.898533,TRUE,FALSE,TRUE,"S252424473"
"313","plsvir","Plumbeous Vireo","Vireo plumbeus","L9830170","timber knoll area","2025-06-20 06:21",2,34.2514342,-109.7401739,TRUE,FALSE,TRUE,"S252516872"
"314","plsvir","Plumbeous Vireo","Vireo plumbeus","L772504","Hualapai Mountain Park","2025-06-20 06:07",4,35.0963162,-113.8858223,TRUE,FALSE,FALSE,"S252432904"
"315","plsvir","Plumbeous Vireo","Vireo plumbeus","L48095841","Cow Creek","2025-06-20 05:45",8,38.639708,-108.819587,TRUE,FALSE,TRUE,"S252504920"
"316","plsvir","Plumbeous Vireo","Vireo plumbeus","L48050931","Ice Cave Trail","2025-06-20 05:42",2,34.165728,-109.94935,TRUE,FALSE,TRUE,"S252316310"
"317","plsvir","Plumbeous Vireo","Vireo plumbeus","L2391932","Bald Mountain Scenic Area","2025-06-20 05:37",2,40.046573,-105.3407979,TRUE,FALSE,FALSE,"S252412580"
"318","plsvir","Plumbeous Vireo","Vireo plumbeus","L720652","Ramsey Canyon Inn (opened 1988)","2025-06-20 05:33",1,31.4486597,-110.3068952,TRUE,FALSE,FALSE,"S252429918"
"319","plsvir","Plumbeous Vireo","Vireo plumbeus","L47850220","Pino Ridge Forest Access Trail","2025-06-20 05:32",3,34.16008,-109.952293,TRUE,FALSE,TRUE,"S252307673"
"320","plsvir","Plumbeous Vireo","Vireo plumbeus","L48104144","Sierra Ancha—Armer B","2025-06-20 05:18",3,33.836121,-110.982962,TRUE,TRUE,TRUE,"S252540226"
"321","plsvir","Plumbeous Vireo","Vireo plumbeus","L3380924","AZ-Cochise-Portal--2494 S. Old Canyon Rd. (private)","2025-06-20 05:00",1,31.9063055,-109.1534289,TRUE,FALSE,TRUE,"S252547573"
"322","plsvir","Plumbeous Vireo","Vireo plumbeus","L27467701","My House","2025-06-20 01:10",1,40.170607,-111.594136,TRUE,FALSE,TRUE,"S252240515"
"323","plsvir","Plumbeous Vireo","Vireo plumbeus","L4383311","Cibola NF--Palomas Peak Trail","2025-06-19 20:05",1,35.2262222,-106.4093056,TRUE,FALSE,FALSE,"S252210591"
"324","plsvir","Plumbeous Vireo","Vireo plumbeus","L11683903","Young Gulch Trail","2025-06-19 18:25",1,40.6776199,-105.348945,TRUE,FALSE,FALSE,"S252889681"
"325","plsvir","Plumbeous Vireo","Vireo plumbeus","L958786","Lincoln NF--Karr Canyon Campground and Picnic Area","2025-06-19 18:05",1,32.8972612,-105.8127514,TRUE,FALSE,FALSE,"S252215821"
"326","plsvir","Plumbeous Vireo","Vireo plumbeus","L1107694","Long Canyon Trail","2025-06-19 16:56",1,39.9878072,-105.313375,TRUE,FALSE,FALSE,"S252887119"
"327","plsvir","Plumbeous Vireo","Vireo plumbeus","L1175561","Red Rock Canyon Open Space","2025-06-19 16:46",1,38.8473432,-104.8811263,TRUE,FALSE,FALSE,"S252175970"
"328","plsvir","Plumbeous Vireo","Vireo plumbeus","L48075170","Rio Grande de Norte NM--Lone Juniper CG","2025-06-19 15:56",1,36.300581,-105.771699,TRUE,FALSE,TRUE,"S252421120"
"329","plsvir","Plumbeous Vireo","Vireo plumbeus","L32583288","Schoolhouse Loop Trail","2025-06-19 15:55",1,40.1348674,-105.298292,TRUE,FALSE,FALSE,"S252211193"
"330","plsvir","Plumbeous Vireo","Vireo plumbeus","L48270837","Escalante Pueblo Trail at Canyon of the Ancients Museum","2025-06-19 15:46",1,37.478134,-108.546106,TRUE,FALSE,TRUE,"S253257769"
"331","plsvir","Plumbeous Vireo","Vireo plumbeus","L285623","Lichen Loop Trail","2025-06-19 15:39",1,40.1457589,-105.2980907,TRUE,FALSE,FALSE,"S252182436"
"332","plsvir","Plumbeous Vireo","Vireo plumbeus","L1208408","Black Canyon--Crystal Dam","2025-06-19 15:36",2,38.5126067,-107.6252014,TRUE,FALSE,FALSE,"S252459229"
"333","plsvir","Plumbeous Vireo","Vireo plumbeus","L4886548","Ione","2025-06-19 14:56",1,38.9516391,-117.5827861,TRUE,FALSE,FALSE,"S252747578"
"334","plsvir","Plumbeous Vireo","Vireo plumbeus","L48011849","Ocate US-NM 36.23957, -105.11874","2025-06-19 14:37",1,36.239567,-105.118744,TRUE,FALSE,TRUE,"S252133378"
"335","plsvir","Plumbeous Vireo","Vireo plumbeus","L48059039","Suicide Pass Road, Broadus, Montana, US (45.553, -105.897)","2025-06-19 14:37",1,45.5533136,-105.8968469,TRUE,FALSE,TRUE,"S252356761"
"336","plsvir","Plumbeous Vireo","Vireo plumbeus","L18358355","Arapaho - Porensky home","2025-06-19 14:07",4,40.624422,-105.271487,TRUE,FALSE,TRUE,"S252135738"
"337","plsvir","Plumbeous Vireo","Vireo plumbeus","L18027126","Pike NF Rd 530 (closed) near Dell Gulch","2025-06-19 14:01",1,39.33877,-105.2416,TRUE,FALSE,TRUE,"S252131343"
"338","plsvir","Plumbeous Vireo","Vireo plumbeus","L48032528","Yampa Bench Road, Colorado, US (40.491, -108.987)","2025-06-19 13:52",1,40.4909002,-108.9872855,TRUE,FALSE,TRUE,"S252228522"
"339","plsvir","Plumbeous Vireo","Vireo plumbeus","L16164770","June Creek Trail","2025-06-19 13:00",2,39.6660646,-106.5547556,TRUE,FALSE,TRUE,"S252129493"
"340","plsvir","Plumbeous Vireo","Vireo plumbeus","L48002505","3926–3928 Seminoe Rd, Hanna US-WY 42.16686, -106.94467","2025-06-19 12:34",2,42.166857,-106.944666,TRUE,FALSE,TRUE,"S252097028"
"341","plsvir","Plumbeous Vireo","Vireo plumbeus","L9793050","Santa Fe NF - Torito","2025-06-19 12:30",1,35.662998,-105.5799223,TRUE,FALSE,TRUE,"S252226604"
"342","plsvir","Plumbeous Vireo","Vireo plumbeus","L12283791","Aspen Corner","2025-06-19 11:57",1,35.3205148,-111.7194725,TRUE,FALSE,FALSE,"S252123444"
"343","plsvir","Plumbeous Vireo","Vireo plumbeus","L129102","Cave Creek Canyon--Southwestern Research Station","2025-06-19 11:52",1,31.8835432,-109.2058731,TRUE,FALSE,FALSE,"S252103933"
"344","plsvir","Plumbeous Vireo","Vireo plumbeus","L4837312","Black Canyon of the Gunnison NP--Oak Flats Trail","2025-06-19 11:34",1,38.5545422,-107.6910889,TRUE,FALSE,FALSE,"S252426794"
"345","plsvir","Plumbeous Vireo","Vireo plumbeus","L39229577","49 Arroyo Calabasas Rd, Santa Fe US-NM 35.71103, -106.02504","2025-06-19 11:27",1,35.711029,-106.025045,TRUE,FALSE,TRUE,"S252895745"
"346","plsvir","Plumbeous Vireo","Vireo plumbeus","L2957528","Dawson Butte Open Space","2025-06-19 11:13",5,39.3010962,-104.9374151,TRUE,FALSE,FALSE,"S252102124"
"347","plsvir","Plumbeous Vireo","Vireo plumbeus","L11659277","Serenity Trail","2025-06-19 11:10",2,43.881387,-104.181958,TRUE,FALSE,FALSE,"S252150815"
"348","plsvir","Plumbeous Vireo","Vireo plumbeus","L444934","East Turkey Creek--FR42B","2025-06-19 11:09",1,31.9129118,-109.2404039,TRUE,FALSE,FALSE,"S252099918"
"349","plsvir","Plumbeous Vireo","Vireo plumbeus","L34300830","Blue Jay Trail Mancos, Colorado, US (37.43, -108.304)","2025-06-19 10:47",2,37.4297539,-108.304233,TRUE,FALSE,TRUE,"S252072571"
"350","plsvir","Plumbeous Vireo","Vireo plumbeus","L942367","Mt. Lemmon--Bear Wallow--lower--1918 Trail","2025-06-19 10:41",3,32.4264191,-110.7415427,TRUE,FALSE,TRUE,"S252079206"
"351","plsvir","Plumbeous Vireo","Vireo plumbeus","L1660345","Mt. Lemmon--Inspiration Rock Picnic Area","2025-06-19 10:41",1,32.4343387,-110.7526013,TRUE,FALSE,FALSE,"S252142135"
"352","plsvir","Plumbeous Vireo","Vireo plumbeus","L1771242","Black Forest Regional Park","2025-06-19 10:19",2,39.0179439,-104.7347348,TRUE,FALSE,FALSE,"S252059272"
"353","plsvir","Plumbeous Vireo","Vireo plumbeus","L7874100","Mt. Lemmon--Wallow to Bigelow path (""Secret Trail"")","2025-06-19 10:13",2,32.41753,-110.72882,TRUE,FALSE,TRUE,"S252070528"
"354","plsvir","Plumbeous Vireo","Vireo plumbeus","L9529761","Cloudcroft BBS Route - Stop 48","2025-06-19 09:55",2,32.8588839,-105.586773,TRUE,FALSE,TRUE,"S252870306"
"355","plsvir","Plumbeous Vireo","Vireo plumbeus","L9529749","Cloudcroft BBS Route - Stop 47","2025-06-19 09:49",1,32.8569252,-105.5962704,TRUE,FALSE,TRUE,"S252870305"
"356","plsvir","Plumbeous Vireo","Vireo plumbeus","L47995870","Hilso Area","2025-06-19 09:45",1,35.4022178,-108.5575488,TRUE,FALSE,TRUE,"S252070537"
"357","plsvir","Plumbeous Vireo","Vireo plumbeus","L4787904","Custer SP --Hole in the Wall Picnic Area","2025-06-19 09:45",1,43.8109641,-103.4547531,TRUE,FALSE,FALSE,"S252184561"
"358","plsvir","Plumbeous Vireo","Vireo plumbeus","L37260091","Lily Pond","2025-06-19 09:41",1,35.145386,-111.977502,TRUE,FALSE,TRUE,"S252096240"
"359","plsvir","Plumbeous Vireo","Vireo plumbeus","L9529716","Cloudcroft BBS Route - Stop 45","2025-06-19 09:37",2,32.8521285,-105.611574,TRUE,FALSE,TRUE,"S252870303"
"360","plsvir","Plumbeous Vireo","Vireo plumbeus","L9569433","Pinetop--Country Club Trail","2025-06-19 09:32",2,34.1416103,-109.8924637,TRUE,FALSE,FALSE,"S252156925"
"361","plsvir","Plumbeous Vireo","Vireo plumbeus","L7579690","Coal Creek Open Space (Jefferson Co)","2025-06-19 09:22",1,39.8860638,-105.2598381,TRUE,FALSE,FALSE,"S252059445"
"362","plsvir","Plumbeous Vireo","Vireo plumbeus","L9529643","Cloudcroft BBS Route - Stop 41","2025-06-19 09:14",1,32.850629,-105.6428664,TRUE,FALSE,TRUE,"S252870299"
"363","plsvir","Plumbeous Vireo","Vireo plumbeus","L2403315","Santa Cruz Lake","2025-06-19 09:13",1,35.9797079,-105.9158206,TRUE,FALSE,FALSE,"S252123487"
"364","plsvir","Plumbeous Vireo","Vireo plumbeus","L9529634","Cloudcroft BBS Route - Stop 40","2025-06-19 09:08",1,32.8488595,-105.6515095,TRUE,FALSE,TRUE,"S252870298"
"365","plsvir","Plumbeous Vireo","Vireo plumbeus","L5627333","Chiricahua NM--Bonita Creek Trail","2025-06-19 09:05",1,32.009856,-109.384197,TRUE,FALSE,FALSE,"S252201078"
"366","plsvir","Plumbeous Vireo","Vireo plumbeus","L9529618","Cloudcroft BBS Route - Stop 39","2025-06-19 09:03",2,32.8465782,-105.6598264,TRUE,FALSE,TRUE,"S252870297"
"367","plsvir","Plumbeous Vireo","Vireo plumbeus","L753054","Mt. Lemmon--Palisades Visitor Center","2025-06-19 09:03",2,32.4104319,-110.7147995,TRUE,FALSE,FALSE,"S252144059"
"368","plsvir","Plumbeous Vireo","Vireo plumbeus","L5226994","Roxborough SP","2025-06-19 09:02",2,39.4340385,-105.0734138,TRUE,FALSE,TRUE,"S252509272"
"369","plsvir","Plumbeous Vireo","Vireo plumbeus","L11119228","Mt. Lemmon--Kellogg Mountain Route","2025-06-19 09:01",1,32.4144174,-110.7103882,TRUE,FALSE,TRUE,"S252057441"
"370","plsvir","Plumbeous Vireo","Vireo plumbeus","L47998499","Sleepy Lion Trail, Lyons US-CO 40.22159, -105.35282","2025-06-19 09:00",1,40.221587,-105.352822,TRUE,FALSE,TRUE,"S252081184"
"371","plsvir","Plumbeous Vireo","Vireo plumbeus","L9529597","Cloudcroft BBS Route - Stop 38","2025-06-19 08:57",1,32.8448097,-105.6668383,TRUE,FALSE,TRUE,"S252870296"
"372","plsvir","Plumbeous Vireo","Vireo plumbeus","L11953388","Coconino National Forest, Sedona US-AZ 35.01466, -111.68619","2025-06-19 08:55",2,35.014661,-111.686187,TRUE,FALSE,TRUE,"S253326752"
"373","plsvir","Plumbeous Vireo","Vireo plumbeus","L9529588","Cloudcroft BBS Route - Stop 37","2025-06-19 08:51",1,32.8432223,-105.6762787,TRUE,FALSE,TRUE,"S252870295"
"374","plsvir","Plumbeous Vireo","Vireo plumbeus","L9529555","Cloudcroft BBS Route - Stop 35","2025-06-19 08:40",1,32.8408338,-105.6932101,TRUE,FALSE,TRUE,"S252870293"
"375","plsvir","Plumbeous Vireo","Vireo plumbeus","L48008283","Forest Service Road 42A, San Simon US-AZ 31.87694, -109.22635","2025-06-19 08:35",1,31.876944,-109.226351,TRUE,FALSE,TRUE,"S252119601"
"376","plsvir","Plumbeous Vireo","Vireo plumbeus","L5884815","Castlewood Canyon Rd--Lake Gulch Rd to Castlewood Canyon SP","2025-06-19 08:35",1,39.317732,-104.7572351,TRUE,FALSE,FALSE,"S252061095"
"377","plsvir","Plumbeous Vireo","Vireo plumbeus","L7389108","Lory SP--Well Gulch Nature Trail","2025-06-19 08:34",5,40.5778286,-105.182274,TRUE,FALSE,FALSE,"S252126394"
"378","plsvir","Plumbeous Vireo","Vireo plumbeus","L30126396","Angostura Longs Area","2025-06-19 08:31",1,43.2816079,-103.3742251,TRUE,FALSE,TRUE,"S252034457"
"379","plsvir","Plumbeous Vireo","Vireo plumbeus","L47982494","510 Bear Creek Road, Colorado Springs, Colorado, US (38.822, -104.889)","2025-06-19 08:24",1,38.821988,-104.8892761,TRUE,FALSE,TRUE,"S252017747"
"380","plsvir","Plumbeous Vireo","Vireo plumbeus","L9529485","Cloudcroft BBS Route - Stop 32","2025-06-19 08:22",1,32.8355584,-105.7167761,TRUE,FALSE,TRUE,"S252870290"
"381","plsvir","Plumbeous Vireo","Vireo plumbeus","L363693","Deer Creek Canyon Park","2025-06-19 08:18",1,39.5355568,-105.1626778,TRUE,FALSE,FALSE,"S252320341"
"382","plsvir","Plumbeous Vireo","Vireo plumbeus","L3079944","Frey Trails","2025-06-19 08:13",2,35.8425493,-106.4194393,TRUE,FALSE,TRUE,"S252879861"
"383","plsvir","Plumbeous Vireo","Vireo plumbeus","L855860","Mt. Lemmon--San Pedro Vista","2025-06-19 08:10",1,32.4003,-110.6900509,TRUE,FALSE,FALSE,"S252147145"
"384","plsvir","Plumbeous Vireo","Vireo plumbeus","L48012668","Divide Road, Kiosk Pullout, Colorado, US (38.816, -108.586)","2025-06-19 08:08",1,38.8161331,-108.5856712,TRUE,FALSE,TRUE,"S252136506"
"385","plsvir","Plumbeous Vireo","Vireo plumbeus","L1550416","Juan Tomas Open Space","2025-06-19 08:02",5,35.0006738,-106.3108726,TRUE,FALSE,FALSE,"S252093211"
"386","plsvir","Plumbeous Vireo","Vireo plumbeus","L9529379","Cloudcroft BBS Route - Stop 28","2025-06-19 07:59",2,32.8302716,-105.7467936,TRUE,FALSE,TRUE,"S252870270"
"387","plsvir","Plumbeous Vireo","Vireo plumbeus","L6059243","Bandelier NM--Alamo Boundary Trail","2025-06-19 07:54",4,35.8345536,-106.4451653,TRUE,FALSE,FALSE,"S252095308"
"388","plsvir","Plumbeous Vireo","Vireo plumbeus","L9529359","Cloudcroft BBS Route - Stop 27","2025-06-19 07:53",1,32.8282005,-105.7554605,TRUE,FALSE,TRUE,"S252870269"
"389","plsvir","Plumbeous Vireo","Vireo plumbeus","L48008337","Forest Service Road 42, San Simon US-AZ 31.89284, -109.21285","2025-06-19 07:53",1,31.892842,-109.21285,TRUE,FALSE,TRUE,"S252119846"
"390","plsvir","Plumbeous Vireo","Vireo plumbeus","L1253384","Carson NF--Rio Grande del Rancho Wetlands","2025-06-19 07:44",2,36.252921,-105.57938,TRUE,FALSE,FALSE,"S252161723"
"391","plsvir","Plumbeous Vireo","Vireo plumbeus","L2365664","Mesa Verde NP--Spruce Canyon & Pictograph Loop Trails","2025-06-19 07:42",2,37.1808358,-108.4894368,TRUE,FALSE,FALSE,"S252037743"
"392","plsvir","Plumbeous Vireo","Vireo plumbeus","L9529339","Cloudcroft BBS Route - Stop 25","2025-06-19 07:42",1,32.8294659,-105.7723071,TRUE,FALSE,TRUE,"S252870287"
"393","plsvir","Plumbeous Vireo","Vireo plumbeus","L9529325","Cloudcroft BBS Route - Stop 24","2025-06-19 07:36",1,32.8308084,-105.7810079,TRUE,FALSE,TRUE,"S252870286"
"394","plsvir","Plumbeous Vireo","Vireo plumbeus","L772675","Carson NF--Tierra Azul Wetlands","2025-06-19 07:29",1,36.2950748,-105.5797344,TRUE,FALSE,FALSE,"S252941909"
"395","plsvir","Plumbeous Vireo","Vireo plumbeus","L128888","Mt. Lemmon--Bear Canyon (Cypress, Middle Bear, Chihuahua Pine Picnic Areas)","2025-06-19 07:27",1,32.3731003,-110.6912994,TRUE,FALSE,FALSE,"S252130530"
"396","plsvir","Plumbeous Vireo","Vireo plumbeus","L48177290","Tonto National Forest, Tonto Basin US-AZ 33.83418, -110.99606","2025-06-19 07:02",1,33.834185,-110.996057,TRUE,FALSE,TRUE,"S252854374"
"397","plsvir","Plumbeous Vireo","Vireo plumbeus","L3640659","Big Supai Tank","2025-06-19 07:00",1,35.2363788,-112.2696905,TRUE,FALSE,TRUE,"S252417417"
"398","plsvir","Plumbeous Vireo","Vireo plumbeus","L47975563","U.S. Highway 64, Taos, New Mexico, US (36.378, -105.54)","2025-06-19 06:58",1,36.3781177,-105.5397395,TRUE,FALSE,TRUE,"S251986463"
"399","plsvir","Plumbeous Vireo","Vireo plumbeus","L480168","Veterans Oasis Park","2025-06-19 06:57",1,33.2347837,-111.7695838,TRUE,FALSE,FALSE,"S252139281"
"400","plsvir","Plumbeous Vireo","Vireo plumbeus","L47881766","Upper Lehman CG","2025-06-19 06:40",1,39.013311,-114.250799,TRUE,FALSE,TRUE,"S252074185"
"401","plsvir","Plumbeous Vireo","Vireo plumbeus","L9529135","Cloudcroft BBS Route - Stop 14","2025-06-19 06:38",2,32.896602,-105.7789882,TRUE,FALSE,TRUE,"S252870275"
"402","plsvir","Plumbeous Vireo","Vireo plumbeus","L5871997","Mt. Lemmon--Butterfly Trailhead","2025-06-19 06:29",1,32.4273205,-110.7408719,TRUE,FALSE,TRUE,"S251998697"
"403","plsvir","Plumbeous Vireo","Vireo plumbeus","L48015091","Mingus Mountain: Campground to Mingus Lake","2025-06-19 06:05",6,34.694487,-112.1252069,TRUE,FALSE,TRUE,"S252155110"
"404","plsvir","Plumbeous Vireo","Vireo plumbeus","L268780","Waterton Canyon (please use one or both of the two  more specific locations)","2025-06-19 05:47",1,39.4839095,-105.1127136,TRUE,FALSE,FALSE,"S252072231"
"405","plsvir","Plumbeous Vireo","Vireo plumbeus","L47984807","New Mexico, US (35.818, -106.323)","2025-06-19 05:42",8,35.8180672,-106.3229707,TRUE,FALSE,TRUE,"S252027448"
"406","plsvir","Plumbeous Vireo","Vireo plumbeus","L48260136","Above Rifle","2025-06-19 05:14",2,39.665897,-107.76379,TRUE,FALSE,TRUE,"S253212155"
"407","plsvir","Plumbeous Vireo","Vireo plumbeus","L724158","McGaffey Lake and Campground","2025-06-19 05:03",4,35.3747743,-108.519559,TRUE,FALSE,FALSE,"S251950956"
"408","plsvir","Plumbeous Vireo","Vireo plumbeus","L48014625","Calamity Creek","2025-06-19 04:52",7,38.675251,-108.801834,TRUE,FALSE,TRUE,"S252145585"
"409","plsvir","Plumbeous Vireo","Vireo plumbeus","L12140174","Cibola NF--Kiwanis Cabin","2025-06-18 19:20",1,35.2033661,-106.4432824,TRUE,FALSE,FALSE,"S252189628"
"410","plsvir","Plumbeous Vireo","Vireo plumbeus","L43397344","Sacramento Canyon Road, Timberon, New Mexico, US (32.706, -105.743)","2025-06-18 18:36",1,32.7060677,-105.7434833,TRUE,FALSE,TRUE,"S251890217"
"411","plsvir","Plumbeous Vireo","Vireo plumbeus","L14854300","Aztec Ditch Canyon Road","2025-06-18 17:14",1,36.9261947,-107.88002,TRUE,FALSE,TRUE,"S251864232"
"412","plsvir","Plumbeous Vireo","Vireo plumbeus","L48177238","Little Spearfish Trail","2025-06-18 17:03",1,44.328482,-103.98917,TRUE,FALSE,TRUE,"S252854197"
"413","plsvir","Plumbeous Vireo","Vireo plumbeus","L21031711","NF 522 Friedland Prairie Road","2025-06-18 16:00",1,35.291315,-111.7058189,TRUE,FALSE,TRUE,"S251879529"
"414","plsvir","Plumbeous Vireo","Vireo plumbeus","L31814355","Spanish Peaks SWA--Dochter Tract Trail","2025-06-18 15:27",2,37.2482,-104.804247,TRUE,FALSE,FALSE,"S251867492"
"415","plsvir","Plumbeous Vireo","Vireo plumbeus","L2142077","Coconino National Forest--Double Springs","2025-06-18 15:25",1,34.9427291,-111.4914036,TRUE,FALSE,FALSE,"S251893430"
"416","plsvir","Plumbeous Vireo","Vireo plumbeus","L2334203","Casper--Garden Creek Falls","2025-06-18 15:09",2,42.767625,-106.3319578,TRUE,FALSE,FALSE,"S251881564"
"417","plsvir","Plumbeous Vireo","Vireo plumbeus","L2963000","Bosque del Oso SWA","2025-06-18 14:48",1,37.087775,-104.884758,TRUE,FALSE,FALSE,"S252097199"
"418","plsvir","Plumbeous Vireo","Vireo plumbeus","L765367","Juan Miller Campgrounds","2025-06-18 14:35",1,33.2686171,-109.3449579,TRUE,FALSE,FALSE,"S252216067"
"419","plsvir","Plumbeous Vireo","Vireo plumbeus","L958775","Lincoln NF--Bluff Springs","2025-06-18 13:41",1,32.8308059,-105.7383066,TRUE,FALSE,FALSE,"S251818355"
"420","plsvir","Plumbeous Vireo","Vireo plumbeus","L25547245","Cibola NF--Tajique Campground","2025-06-18 12:51",1,34.7659417,-106.3278294,TRUE,FALSE,FALSE,"S251812394"
"421","plsvir","Plumbeous Vireo","Vireo plumbeus","L268106","Coconino NF--Marshall Lake","2025-06-18 12:13",1,35.1182987,-111.5342705,TRUE,FALSE,FALSE,"S251893300"
"422","plsvir","Plumbeous Vireo","Vireo plumbeus","L19045234","Ridgway Visitors Center and Campground (Upper CG)","2025-06-18 12:12",1,38.216984,-107.740573,TRUE,FALSE,TRUE,"S251800455"
"423","plsvir","Plumbeous Vireo","Vireo plumbeus","L2910584","Stony Pass Rd at Wigwam Creek","2025-06-18 11:49",1,39.23067,-105.3023458,TRUE,FALSE,FALSE,"S251851512"
"424","plsvir","Plumbeous Vireo","Vireo plumbeus","L47927896","Auto selected 37.28843, -112.93108","2025-06-18 11:41",1,37.288433,-112.931077,TRUE,FALSE,TRUE,"S251760759"
"425","plsvir","Plumbeous Vireo","Vireo plumbeus","L2344344","South Fork Rd Portal AZ","2025-06-18 11:40",2,31.89417,-109.1665,TRUE,FALSE,TRUE,"S251805110"
"426","plsvir","Plumbeous Vireo","Vireo plumbeus","L951782","Yellow Fork Canyon -- Lower","2025-06-18 11:32",2,40.4687118,-112.0973069,TRUE,FALSE,FALSE,"S251801914"
"427","plsvir","Plumbeous Vireo","Vireo plumbeus","L47935945","E Mesa Trail, Virgin US-UT 37.29596, -112.92053","2025-06-18 11:30",1,37.295958,-112.920529,TRUE,FALSE,TRUE,"S253251032"
"428","plsvir","Plumbeous Vireo","Vireo plumbeus","L2892455","Schultz Tank","2025-06-18 11:10",1,35.2851747,-111.6265789,TRUE,FALSE,FALSE,"S251808261"
"429","plsvir","Plumbeous Vireo","Vireo plumbeus","L1824263","Mesa Verde Lodge","2025-06-18 11:05",1,37.2576146,-108.4978088,TRUE,FALSE,FALSE,"S251791897"
"430","plsvir","Plumbeous Vireo","Vireo plumbeus","L43100652","PT3--Orange","2025-06-18 11:01",1,36.9168241,-107.7011583,TRUE,FALSE,TRUE,"S253146633"
"431","plsvir","Plumbeous Vireo","Vireo plumbeus","L47933449","82609, Casper US-WY (42.7007,-106.4582)","2025-06-18 10:54",2,42.700688,-106.458167,TRUE,FALSE,TRUE,"S251784945"
"432","plsvir","Plumbeous Vireo","Vireo plumbeus","L47838350","8825 Curtis Rd, Beulah US-CO 38.06739, -104.98049","2025-06-18 10:20",1,38.067389,-104.980486,TRUE,FALSE,TRUE,"S251751841"
"433","plsvir","Plumbeous Vireo","Vireo plumbeus","L1569035","Nebo Loop -- Camp Maple Dell","2025-06-18 09:45",1,39.9740111,-111.6922649,TRUE,FALSE,FALSE,"S251746247"
"434","plsvir","Plumbeous Vireo","Vireo plumbeus","L2086664","Mesa Verde NP--Spruce Tree House","2025-06-18 09:33",2,37.1832536,-108.4864658,TRUE,FALSE,FALSE,"S251791558"
"435","plsvir","Plumbeous Vireo","Vireo plumbeus","L12375234","Tío Gordo Tank","2025-06-18 09:31",2,36.5814571,-105.952131,TRUE,FALSE,FALSE,"S251738975"
"436","plsvir","Plumbeous Vireo","Vireo plumbeus","L37367070","Bryce Canyon NP--Sunrise Point","2025-06-18 09:27",1,37.6283549,-112.1629429,TRUE,FALSE,FALSE,"S251750872"
"437","plsvir","Plumbeous Vireo","Vireo plumbeus","L1934075","Uncompahgre River at Buckhorn Rd (Ouray County Only)","2025-06-18 09:11",1,38.3309601,-107.7792799,TRUE,FALSE,FALSE,"S251744292"
"438","plsvir","Plumbeous Vireo","Vireo plumbeus","L47947664","Waldron Trail","2025-06-18 09:08",1,36.040032,-112.203581,TRUE,FALSE,TRUE,"S251848637"
"439","plsvir","Plumbeous Vireo","Vireo plumbeus","L798569","Rock Canyon","2025-06-18 09:00",1,40.2638741,-111.6266727,TRUE,FALSE,FALSE,"S252376631"
"440","plsvir","Plumbeous Vireo","Vireo plumbeus","L285168","Devils Tower NM","2025-06-18 08:57",1,44.590762,-104.7180517,TRUE,FALSE,FALSE,"S251791376"
"441","plsvir","Plumbeous Vireo","Vireo plumbeus","L2887210","Arches NP--Courthouse Wash","2025-06-18 08:55",1,38.648383,-109.5998454,TRUE,FALSE,FALSE,"S251823212"
"442","plsvir","Plumbeous Vireo","Vireo plumbeus","L47925817","Tree Spring Trail, Albuquerque US-NM 35.19368, -106.40503","2025-06-18 08:51",3,35.193679,-106.405028,TRUE,FALSE,TRUE,"S251752290"
"443","plsvir","Plumbeous Vireo","Vireo plumbeus","L47922895","Consumers Rd, Helper US-UT 39.67634, -111.03259","2025-06-18 08:50",1,39.676342,-111.032595,TRUE,FALSE,TRUE,"S251740306"
"444","plsvir","Plumbeous Vireo","Vireo plumbeus","L42162466","Private Residence 113 Crazy Mountain Vista Rd, Columbus US-MT 45.61973, -109.10919","2025-06-18 08:42",1,45.619731,-109.109185,TRUE,FALSE,TRUE,"S251736089"
"445","plsvir","Plumbeous Vireo","Vireo plumbeus","L128885","Barfoot Park","2025-06-18 08:41",2,31.9172001,-109.2790985,TRUE,FALSE,FALSE,"S251744565"
"446","plsvir","Plumbeous Vireo","Vireo plumbeus","L47923937","East Barfoot Park Road, San Simon US-AZ 31.91741, -109.26871","2025-06-18 08:41",2,31.91741,-109.268713,TRUE,FALSE,TRUE,"S251744562"
"447","plsvir","Plumbeous Vireo","Vireo plumbeus","L1164525","Bandelier NM (Sandoval Co.)","2025-06-18 08:40",6,35.78231,-106.2701941,TRUE,FALSE,FALSE,"S251818349"
"448","plsvir","Plumbeous Vireo","Vireo plumbeus","L189761","Organ Mountains-Desert Peaks NM--Dripping Springs NA","2025-06-18 08:21",1,32.32773,-106.59024,TRUE,FALSE,FALSE,"S251749080"
"449","plsvir","Plumbeous Vireo","Vireo plumbeus","L18216732","Route from Home to Canal (38.290877; -111.429870)","2025-06-18 08:16",1,38.2908251,-111.43017,TRUE,FALSE,TRUE,"S251751410"
"450","plsvir","Plumbeous Vireo","Vireo plumbeus","L1542527","Mesa Verde NP--Far View Area","2025-06-18 07:46",2,37.2378593,-108.5038348,TRUE,FALSE,FALSE,"S251791292"
"451","plsvir","Plumbeous Vireo","Vireo plumbeus","L45230385","Birdy MM 17-18","2025-06-18 07:35",1,37.3730158,-113.0700658,TRUE,FALSE,TRUE,"S251846655"
"452","plsvir","Plumbeous Vireo","Vireo plumbeus","L10207441","Eldorado Mountain Open Space--Fowler Trail","2025-06-18 07:34",4,39.930477,-105.2744985,TRUE,FALSE,FALSE,"S251729824"
"453","plsvir","Plumbeous Vireo","Vireo plumbeus","L2971505","Jensen Yard","2025-06-18 07:07",2,40.3677773,-109.3524717,TRUE,FALSE,TRUE,"S251757687"
"454","plsvir","Plumbeous Vireo","Vireo plumbeus","L47928367","Triangle Peak Trail US-CO 39.29731, -106.91591","2025-06-18 07:03",1,39.29731,-106.915907,TRUE,FALSE,TRUE,"S251762731"
"455","plsvir","Plumbeous Vireo","Vireo plumbeus","L2096953","Rio Grande Trail--Gerbaz Way Bridge to Snowmass","2025-06-18 07:03",1,39.3011377,-106.9284296,TRUE,FALSE,FALSE,"S251752942"
"456","plsvir","Plumbeous Vireo","Vireo plumbeus","L9287162","Huachuca Canyon--1.7 mile picnic area","2025-06-18 07:00",4,31.5177588,-110.3884391,TRUE,FALSE,FALSE,"S251737351"
"457","plsvir","Plumbeous Vireo","Vireo plumbeus","L47919580","Pole Canyon Trail, Baker US-NV 38.98987, -114.21269","2025-06-18 06:52",1,38.989866,-114.212693,TRUE,FALSE,TRUE,"S251726334"
"458","plsvir","Plumbeous Vireo","Vireo plumbeus","L2092980","Willow Creek Bosque Open Space","2025-06-18 06:44",1,35.3032881,-106.5777469,TRUE,FALSE,FALSE,"S251699196"
"459","plsvir","Plumbeous Vireo","Vireo plumbeus","L18213022","Rodeo Drive Lake (aka Boot Lake)","2025-06-18 06:43",1,34.271759,-109.675681,TRUE,FALSE,FALSE,"S251710207"
"460","plsvir","Plumbeous Vireo","Vireo plumbeus","L47943157","CO9 - Warmer Gulch SWA","2025-06-18 06:11",1,38.710455,-105.507039,TRUE,FALSE,TRUE,"S251827836"
"461","plsvir","Plumbeous Vireo","Vireo plumbeus","L47920464","White Rock, New Mexico, US (35.792, -106.352)","2025-06-18 05:51",2,35.7923928,-106.3522927,TRUE,FALSE,TRUE,"S251730193"
"462","plsvir","Plumbeous Vireo","Vireo plumbeus","L47942337","Upper Alamo Trail, Pena Blanca US-NM 35.78328, -106.34013","2025-06-18 05:48",8,35.783279,-106.340133,TRUE,FALSE,TRUE,"S251829998"
"463","plsvir","Plumbeous Vireo","Vireo plumbeus","L1583240","Huachuca Canyon--lower picnic area","2025-06-18 05:25",2,31.5411676,-110.3741764,TRUE,FALSE,FALSE,"S251737422"
"464","plsvir","Plumbeous Vireo","Vireo plumbeus","L1416495","1. Mule Pass Yard","2025-06-18 05:00",1,31.4641892,-109.9561961,TRUE,FALSE,TRUE,"S251714573"
"465","plsvir","Plumbeous Vireo","Vireo plumbeus","L47927767","Coconino NF--Easy Oldham","2025-06-18 04:32",3,35.2461762,-111.6321176,TRUE,FALSE,TRUE,"S251760244"
"466","plsvir","Plumbeous Vireo","Vireo plumbeus","L1036736","Emigration Canyon","2025-06-17 20:09",1,40.7813173,-111.7240959,TRUE,FALSE,TRUE,"S251561177"
"467","plsvir","Plumbeous Vireo","Vireo plumbeus","L47943470","BLM Road 5750 - Scrub Oak","2025-06-17 19:02",1,38.700916,-105.487068,TRUE,FALSE,TRUE,"S251829204"
"468","plsvir","Plumbeous Vireo","Vireo plumbeus","L1569872","Custer SP--Lakota Lake","2025-06-17 17:21",1,43.8488432,-103.3990711,TRUE,FALSE,FALSE,"S251531505"
"469","plsvir","Plumbeous Vireo","Vireo plumbeus","L47879798","Park CR-102 north of CR-122","2025-06-17 16:54",1,38.761324,-105.517438,TRUE,FALSE,TRUE,"S251525026"
"470","plsvir","Plumbeous Vireo","Vireo plumbeus","L47909438","11701 S Downing Pass, San Simon US-AZ 31.91083, -109.27274","2025-06-17 15:47",1,31.910831,-109.272745,TRUE,FALSE,TRUE,"S251676402"
"471","plsvir","Plumbeous Vireo","Vireo plumbeus","L47940226","Santa Clara River Trail, Pine Valley US-UT (37.3756,-113.4653)","2025-06-17 12:42",2,37.375644,-113.465269,TRUE,FALSE,TRUE,"S251814408"
"472","plsvir","Plumbeous Vireo","Vireo plumbeus","L47888135","3752 E Kolob Canyons Rd, Toquerville US-UT 37.45509, -113.18595","2025-06-17 12:41",1,37.455085,-113.185953,TRUE,FALSE,TRUE,"S251562985"
"473","plsvir","Plumbeous Vireo","Vireo plumbeus","L47869673","Iron Mountain Rd, Keystone US-SD 43.85065, -103.40923","2025-06-17 12:26",2,43.850653,-103.409234,TRUE,FALSE,TRUE,"S251478895"
"474","plsvir","Plumbeous Vireo","Vireo plumbeus","L504369","Settlement Canyon ","2025-06-17 11:58",4,40.5102754,-112.2961307,TRUE,FALSE,FALSE,"S251560151"
"475","plsvir","Plumbeous Vireo","Vireo plumbeus","L4631201","Great Basin NP--Upper Lehman Creek Trail","2025-06-17 11:50",1,39.0156493,-114.2735624,TRUE,FALSE,FALSE,"S253202583"
"476","plsvir","Plumbeous Vireo","Vireo plumbeus","L733406","Mt. Graham--Arcadia CG","2025-06-17 11:21",4,32.648839,-109.8191246,TRUE,FALSE,FALSE,"S251476056"
"477","plsvir","Plumbeous Vireo","Vireo plumbeus","L7752277","North Fork North Creek","2025-06-17 11:20",1,38.394235,-112.50579,TRUE,FALSE,TRUE,"S251605487"
"478","plsvir","Plumbeous Vireo","Vireo plumbeus","L11839937","D S Rd at Coates Creek (view from road)","2025-06-17 11:16",1,38.9487924,-108.9762222,TRUE,FALSE,FALSE,"S251491416"
"479","plsvir","Plumbeous Vireo","Vireo plumbeus","L47864933","Pole Canyon Trail, Baker US-NV 38.98985, -114.21263","2025-06-17 11:12",2,38.989847,-114.212625,TRUE,FALSE,TRUE,"S251458966"
"480","plsvir","Plumbeous Vireo","Vireo plumbeus","L14575561","Boggy Draw Road, Dolores, Colorado, US (37.511, -108.453)","2025-06-17 10:53",2,37.5106442,-108.4525392,TRUE,FALSE,TRUE,"S251458108"
"481","plsvir","Plumbeous Vireo","Vireo plumbeus","L1208307","Bryce Canyon NP--Fairyland Point","2025-06-17 10:46",1,37.6494078,-112.1473432,TRUE,FALSE,FALSE,"S251565024"
"482","plsvir","Plumbeous Vireo","Vireo plumbeus","L17396611","Jemez Springs","2025-06-17 10:09",1,35.7702315,-106.6914741,TRUE,FALSE,FALSE,"S251417780"
"483","plsvir","Plumbeous Vireo","Vireo plumbeus","L47868791","Lincoln NF--La Luz Canyon Rd.","2025-06-17 10:02",2,32.9867191,-105.7934295,TRUE,FALSE,FALSE,"S251476495"
"484","plsvir","Plumbeous Vireo","Vireo plumbeus","L5950627","Mingus Mountain--Mingus Lake (aka Elk Well)","2025-06-17 10:02",1,34.6970875,-112.1290451,TRUE,FALSE,FALSE,"S251693998"
"485","plsvir","Plumbeous Vireo","Vireo plumbeus","L1249312","Starsmore Discovery Center","2025-06-17 09:50",1,38.7908249,-104.8653656,TRUE,FALSE,FALSE,"S251403421"
"486","plsvir","Plumbeous Vireo","Vireo plumbeus","L6551230","Portis Loop of Thunder Trails","2025-06-17 09:35",2,38.0605268,-108.3109474,TRUE,FALSE,TRUE,"S251677934"
"487","plsvir","Plumbeous Vireo","Vireo plumbeus","L5804523","Great Basin NP--Pole Canyon","2025-06-17 09:30",1,38.9813299,-114.2236197,TRUE,FALSE,FALSE,"S252548427"
"488","plsvir","Plumbeous Vireo","Vireo plumbeus","L18723453","Lathrop SP—Horseshoe Lake","2025-06-17 09:27",1,37.607984,-104.846938,TRUE,FALSE,FALSE,"S251405451"
"489","plsvir","Plumbeous Vireo","Vireo plumbeus","L48253195","Guadalupe Mountain Trail, Cerro US-NM 36.71542, -105.66780","2025-06-17 09:14",2,36.715417,-105.6678,TRUE,FALSE,TRUE,"S253185230"
"490","plsvir","Plumbeous Vireo","Vireo plumbeus","L41639380","Sharyn Road","2025-06-17 09:09",1,34.3720463,-111.4581807,TRUE,FALSE,TRUE,"S251420609"
"491","plsvir","Plumbeous Vireo","Vireo plumbeus","L15573791","Mount Falcon Park, Morrison US-CO 39.63611, -105.23951","2025-06-17 08:44",1,39.636112,-105.239513,TRUE,FALSE,TRUE,"S251449216"
"492","plsvir","Plumbeous Vireo","Vireo plumbeus","L1873056","Boynton Canyon","2025-06-17 08:30",4,34.9187667,-111.8544875,TRUE,FALSE,FALSE,"S251488994"
"493","plsvir","Plumbeous Vireo","Vireo plumbeus","L47856549","Mesa Top Loop","2025-06-17 08:22",1,37.1742641,-108.4854291,TRUE,FALSE,TRUE,"S251424160"
"494","plsvir","Plumbeous Vireo","Vireo plumbeus","L953586","Custer SP--Sylvan Lake campground","2025-06-17 08:17",2,43.8403309,-103.5578048,TRUE,FALSE,FALSE,"S251484863"
"495","plsvir","Plumbeous Vireo","Vireo plumbeus","L1185690","Mogote Campground","2025-06-17 08:13",1,37.0647676,-106.233716,TRUE,FALSE,FALSE,"S251677183"
"496","plsvir","Plumbeous Vireo","Vireo plumbeus","L452854","Jordanelle Reclamation Area","2025-06-17 08:08",1,40.5784986,-111.429863,TRUE,FALSE,FALSE,"S251415934"
"497","plsvir","Plumbeous Vireo","Vireo plumbeus","L11304440","Middle Percha Cr.eek/Gila NF 40E","2025-06-17 08:00",10,32.912899,-107.7288551,TRUE,FALSE,TRUE,"S251868836"
"498","plsvir","Plumbeous Vireo","Vireo plumbeus","L47811840","South Rim Campground, Loop A","2025-06-17 07:40",1,38.542476,-107.689576,TRUE,FALSE,TRUE,"S251413906"
"499","plsvir","Plumbeous Vireo","Vireo plumbeus","L47911909","Butterfly Trail, Clarkdale US-AZ 34.70592, -112.13943","2025-06-17 07:39",3,34.705916,-112.139434,TRUE,FALSE,TRUE,"S251690555"
"500","plsvir","Plumbeous Vireo","Vireo plumbeus","L11498996","Santa Fe NF--Cañon del Valle Trail","2025-06-17 07:34",1,35.8524331,-106.3545596,TRUE,FALSE,FALSE,"S251438459"
"501","plsvir","Plumbeous Vireo","Vireo plumbeus","L43412208","Animas mtn","2025-06-17 07:31",1,37.301913,-107.875878,TRUE,FALSE,TRUE,"S251412818"
"502","plsvir","Plumbeous Vireo","Vireo plumbeus","L233676","Trinidad Lake SP","2025-06-17 07:30",1,37.1354569,-104.5784909,TRUE,FALSE,FALSE,"S251554222"
"503","plsvir","Plumbeous Vireo","Vireo plumbeus","L1633754","Mount Falcon","2025-06-17 07:30",1,39.632407,-105.2294296,TRUE,FALSE,TRUE,"S251527573"
"504","plsvir","Plumbeous Vireo","Vireo plumbeus","L375967","Madera Canyon--Pima Co.","2025-06-17 07:27",2,31.7310142,-110.881319,TRUE,FALSE,FALSE,"S251478718"
"505","plsvir","Plumbeous Vireo","Vireo plumbeus","L269204","Huachuca Canyon","2025-06-17 07:11",4,31.5313995,-110.3805093,TRUE,FALSE,FALSE,"S251502276"
"506","plsvir","Plumbeous Vireo","Vireo plumbeus","L42313841","Pink--TP09","2025-06-17 07:08",1,36.9978901,-107.6851911,TRUE,FALSE,TRUE,"S251541842"
"507","plsvir","Plumbeous Vireo","Vireo plumbeus","L109288","Aiken Canyon Preserve","2025-06-17 06:54",3,38.6212294,-104.8886847,TRUE,FALSE,FALSE,"S251402938"
"508","plsvir","Plumbeous Vireo","Vireo plumbeus","L5785605","Mingus--Hwy 89A Switchback Pullouts","2025-06-17 06:49",1,34.715524,-112.153464,TRUE,FALSE,TRUE,"S251682568"
"509","plsvir","Plumbeous Vireo","Vireo plumbeus","L281844","Montosa Canyon--km 1 (culvert area)","2025-06-17 06:27",1,31.6714585,-110.941082,TRUE,FALSE,FALSE,"S251368180"
"510","plsvir","Plumbeous Vireo","Vireo plumbeus","L128937","Carr Canyon--Reef Townsite CG","2025-06-17 06:17",3,31.4286245,-110.2909517,TRUE,FALSE,FALSE,"S251415895"
"511","plsvir","Plumbeous Vireo","Vireo plumbeus","L47942328","Middle Alamo Trail, Pena Blanca US-NM 35.76373, -106.31870","2025-06-17 05:48",1,35.763725,-106.3187,TRUE,FALSE,TRUE,"S251823780"
"512","plsvir","Plumbeous Vireo","Vireo plumbeus","L1578891","Sixmile Reservoir","2025-06-17 05:42",1,41.8379102,-111.1081305,TRUE,FALSE,FALSE,"S251444420"
"513","plsvir","Plumbeous Vireo","Vireo plumbeus","L12375228","Carson NF--Tusas Ridge","2025-06-17 05:37",4,36.6248238,-105.9805527,TRUE,FALSE,FALSE,"S251350085"
"514","plsvir","Plumbeous Vireo","Vireo plumbeus","L129089","Scotia Canyon--upper","2025-06-17 05:32",2,31.45,-110.4,TRUE,FALSE,FALSE,"S251469071"
"515","plsvir","Plumbeous Vireo","Vireo plumbeus","L19709145","lower lower strawberry creek breeding bird survey route","2025-06-17 04:51",1,39.0608257,-114.2737814,TRUE,FALSE,TRUE,"S251501470"
"516","plsvir","Plumbeous Vireo","Vireo plumbeus","L47816402","Castle Trail, Mount Falcon Park, Morrison US-CO 39.63731, -105.21683","2025-06-16 17:33",1,39.637314,-105.216828,TRUE,FALSE,TRUE,"S251233980"
"517","plsvir","Plumbeous Vireo","Vireo plumbeus","L507771","Middle Canyon","2025-06-16 17:20",1,40.503052,-112.2267956,TRUE,FALSE,FALSE,"S251234613"
"518","plsvir","Plumbeous Vireo","Vireo plumbeus","L5135391","Santa Fe NF--Black Canyon Campground","2025-06-16 17:05",1,35.727954,-105.839283,TRUE,FALSE,FALSE,"S251262103"
"519","plsvir","Plumbeous Vireo","Vireo plumbeus","L1000716","Carson NF--Williams Lake","2025-06-16 15:00",1,36.556602,-105.4301262,TRUE,FALSE,FALSE,"S251219413"
"520","plsvir","Plumbeous Vireo","Vireo plumbeus","L47846535","11701 S Downing Pass, San Simon US-AZ 31.90661, -109.27698","2025-06-16 14:57",1,31.906614,-109.276981,TRUE,FALSE,TRUE,"S251382290"
"521","plsvir","Plumbeous Vireo","Vireo plumbeus","L3669982","red Canyon Park May 24, 2015, 11:54 AM","2025-06-16 14:10",1,38.588352,-105.249031,TRUE,FALSE,TRUE,"S251191341"
"522","plsvir","Plumbeous Vireo","Vireo plumbeus","L548515","Salinas Pueblo Missions NM--Quarai Ruins","2025-06-16 14:07",1,34.5948689,-106.2952298,TRUE,FALSE,FALSE,"S251172933"
"523","plsvir","Plumbeous Vireo","Vireo plumbeus","L47818051","JM-202","2025-06-16 13:31",1,42.6361465,-103.3043112,TRUE,FALSE,TRUE,"S251241663"
"524","plsvir","Plumbeous Vireo","Vireo plumbeus","L12212596","Valles Caldera National Preserve--South Mountain Trail","2025-06-16 13:18",2,35.8477105,-106.5320958,TRUE,FALSE,FALSE,"S251181190"
"525","plsvir","Plumbeous Vireo","Vireo plumbeus","L7127095","Pinto","2025-06-16 12:30",1,37.5210952,-113.5120296,TRUE,FALSE,FALSE,"S251505083"
"526","plsvir","Plumbeous Vireo","Vireo plumbeus","L11485033","Fishers Peak SP--Moore's Canyon","2025-06-16 12:22",2,37.11049,-104.517949,TRUE,FALSE,FALSE,"S251171296"
"527","plsvir","Plumbeous Vireo","Vireo plumbeus","L13487275","Cibola NF--Capulin Spring Picnic Site (Bernalillo Co.)","2025-06-16 12:16",1,35.2158349,-106.4159027,TRUE,FALSE,FALSE,"S251121643"
"528","plsvir","Plumbeous Vireo","Vireo plumbeus","L26771401","HWY-204, road to Elliot Barker Wildlife Area","2025-06-16 11:59",1,36.5447166,-104.9178981,TRUE,FALSE,TRUE,"S251139965"
"529","plsvir","Plumbeous Vireo","Vireo plumbeus","L30294341","CR - Brazos/Padre Trail","2025-06-16 11:10",1,39.4391195,-104.9395975,TRUE,FALSE,TRUE,"S251250482"
"530","plsvir","Plumbeous Vireo","Vireo plumbeus","L46846225","27946 County Road 90, Simla US-CO 39.18675, -104.16135","2025-06-16 11:10",1,39.186745,-104.16135,TRUE,FALSE,TRUE,"S251194545"
"531","plsvir","Plumbeous Vireo","Vireo plumbeus","L47869113","Gallinas BBS - Stop 47","2025-06-16 11:07",2,35.5635395,-105.279711,TRUE,FALSE,TRUE,"S251476690"
"532","plsvir","Plumbeous Vireo","Vireo plumbeus","L47868589","Gallinas BBS - Stop 45","2025-06-16 10:52",2,35.5687858,-105.2953174,TRUE,FALSE,TRUE,"S251474621"
"533","plsvir","Plumbeous Vireo","Vireo plumbeus","L6059110","Black Forest Section 16 Trail","2025-06-16 10:46",1,38.9987196,-104.6686077,TRUE,FALSE,FALSE,"S251177271"
"534","plsvir","Plumbeous Vireo","Vireo plumbeus","L47868455","Gallinas BBS - Stop 44","2025-06-16 10:45",1,35.5737785,-105.3022236,TRUE,FALSE,TRUE,"S251474076"
"535","plsvir","Plumbeous Vireo","Vireo plumbeus","L47868226","Gallinas BBS - Stop 42","2025-06-16 10:32",1,35.5787378,-105.3161632,TRUE,FALSE,TRUE,"S251473187"
"536","plsvir","Plumbeous Vireo","Vireo plumbeus","L48174854","Fishlake Natl Forest -- SR-72 north of Hogan Pass","2025-06-16 10:28",1,38.6207529,-111.4549528,TRUE,FALSE,TRUE,"S252848536"
"537","plsvir","Plumbeous Vireo","Vireo plumbeus","L27658768","Walker Arizona","2025-06-16 10:14",1,34.452246,-112.3875624,TRUE,FALSE,TRUE,"S251190320"
"538","plsvir","Plumbeous Vireo","Vireo plumbeus","L28505861","1501 Bishops Lodge Rd, Santa Fe US-NM 35.75541, -105.92477","2025-06-16 10:00",1,35.755407,-105.924765,TRUE,FALSE,TRUE,"S251082965"
"539","plsvir","Plumbeous Vireo","Vireo plumbeus","L47864441","Gallinas BBS - Stop 37","2025-06-16 09:59",1,35.5899404,-105.3587719,TRUE,FALSE,TRUE,"S251458346"
"540","plsvir","Plumbeous Vireo","Vireo plumbeus","L10304814","Cave Creek Canyon--Ash Spring Trail #247A","2025-06-16 09:50",1,31.8738218,-109.2353229,TRUE,FALSE,FALSE,"S251383297"
"541","plsvir","Plumbeous Vireo","Vireo plumbeus","L1783608","White Rock ""Y"" Settling Pond","2025-06-16 09:50",2,35.8669412,-106.2191892,TRUE,FALSE,FALSE,"S251102768"
"542","plsvir","Plumbeous Vireo","Vireo plumbeus","L3621918","Lower Pueblo Canyon Wetlands (Santa Fe Co.)","2025-06-16 09:45",2,35.8802185,-106.2329328,TRUE,FALSE,FALSE,"S253184770"
"543","plsvir","Plumbeous Vireo","Vireo plumbeus","L19074048","Dowdy Lake","2025-06-16 09:44",1,40.7960015,-105.5622166,TRUE,FALSE,FALSE,"S251106174"
"544","plsvir","Plumbeous Vireo","Vireo plumbeus","L1090088","North Fork County Park","2025-06-16 09:44",1,41.3707703,-111.9076395,TRUE,FALSE,FALSE,"S251074890"
"545","plsvir","Plumbeous Vireo","Vireo plumbeus","L1538639","Animas City Mountain Park","2025-06-16 09:20",3,37.3207309,-107.8692139,TRUE,FALSE,FALSE,"S253542414"
"546","plsvir","Plumbeous Vireo","Vireo plumbeus","L346650","Walnut Canyon NM","2025-06-16 09:07",1,35.1717762,-111.5094022,TRUE,FALSE,FALSE,"S251241011"
"547","plsvir","Plumbeous Vireo","Vireo plumbeus","L7442093","Lower South Crestone Creek Trail","2025-06-16 09:05",2,37.9853735,-105.6798935,TRUE,FALSE,FALSE,"S251068371"
"548","plsvir","Plumbeous Vireo","Vireo plumbeus","L779572","Roby Canyon","2025-06-16 08:55",1,43.8086104,-104.0345836,TRUE,FALSE,FALSE,"S251137575"
"549","plsvir","Plumbeous Vireo","Vireo plumbeus","L7442215","South Crestone Creek Park","2025-06-16 08:54",1,37.9832087,-105.6910944,TRUE,FALSE,FALSE,"S251054305"
"550","plsvir","Plumbeous Vireo","Vireo plumbeus","L30294265","CR - Wauhatchie/Coyote Trail","2025-06-16 08:43",2,39.4449769,-104.9546712,TRUE,FALSE,TRUE,"S251251315"
"551","plsvir","Plumbeous Vireo","Vireo plumbeus","L32631292","Simms Mesa Interpretive Trail, Dave Wood Road, Montrose, Colorado, US (38.306, -107.963)","2025-06-16 08:40",2,38.3056826,-107.9630578,TRUE,FALSE,TRUE,"S251078403"
"552","plsvir","Plumbeous Vireo","Vireo plumbeus","L47817389","Gallinas BBS - Stop 26","2025-06-16 08:39",1,35.6377162,-105.4219406,TRUE,FALSE,TRUE,"S251238701"
"553","plsvir","Plumbeous Vireo","Vireo plumbeus","L7571671","Ceran Saint Vrain Trail","2025-06-16 08:37",1,40.1248023,-105.4413445,TRUE,FALSE,FALSE,"S251139976"
"554","plsvir","Plumbeous Vireo","Vireo plumbeus","L47817339","Gallinas BBS - Stop 25","2025-06-16 08:33",2,35.6395398,-105.4276956,TRUE,FALSE,TRUE,"S251238452"
"555","plsvir","Plumbeous Vireo","Vireo plumbeus","L48253805","Fire to Fire Gathering Site","2025-06-16 08:30",1,40.3161972,-110.660297,TRUE,FALSE,TRUE,"S253192816"
"556","plsvir","Plumbeous Vireo","Vireo plumbeus","L47774640","500 Meadow Ln, Guffey US-CO 38.80228, -105.39874","2025-06-16 08:26",1,38.802279,-105.398745,TRUE,FALSE,TRUE,"S251042891"
"557","plsvir","Plumbeous Vireo","Vireo plumbeus","L47817297","Gallinas BBS - Stop 24","2025-06-16 08:26",1,35.644363,-105.4275169,TRUE,FALSE,TRUE,"S251238265"
"558","plsvir","Plumbeous Vireo","Vireo plumbeus","L7138424","Santa Fe NF--Little Tesuque Creek Trail","2025-06-16 08:21",1,35.726366,-105.8892131,TRUE,FALSE,FALSE,"S251158462"
"559","plsvir","Plumbeous Vireo","Vireo plumbeus","L47817243","Gallinas BBS - Stop 23","2025-06-16 08:18",1,35.6511414,-105.427478,TRUE,FALSE,TRUE,"S251237997"
"560","plsvir","Plumbeous Vireo","Vireo plumbeus","L1815481","Button Rock Preserve","2025-06-16 08:16",2,40.2321031,-105.3377971,TRUE,FALSE,FALSE,"S251190004"
"561","plsvir","Plumbeous Vireo","Vireo plumbeus","L47817155","Gallinas BBS - Stop 22","2025-06-16 08:10",1,35.6588918,-105.4339029,TRUE,FALSE,TRUE,"S251237607"
"562","plsvir","Plumbeous Vireo","Vireo plumbeus","L735377","Zion NP--Visitor Center & Campgrounds","2025-06-16 08:05",1,37.2004753,-112.9866922,TRUE,FALSE,FALSE,"S251186240"
"563","plsvir","Plumbeous Vireo","Vireo plumbeus","L6096756","Grand Staircase-Escalante NM--Upper Calf Creek Trail","2025-06-16 08:05",1,37.854988,-111.4519225,TRUE,FALSE,FALSE,"S251168115"
"564","plsvir","Plumbeous Vireo","Vireo plumbeus","L11777932","Santa Fe NF--East Fork Trailhead","2025-06-16 07:57",2,35.8208058,-106.5910721,TRUE,FALSE,FALSE,"S251097647"
"565","plsvir","Plumbeous Vireo","Vireo plumbeus","L47816808","Gallinas BBS - Stop 20","2025-06-16 07:56",1,35.6701811,-105.436132,TRUE,FALSE,TRUE,"S251235951"
"566","plsvir","Plumbeous Vireo","Vireo plumbeus","L689299","Matheson Wetlands Preserve--Main Pond & Boardwalk","2025-06-16 07:55",1,38.5778294,-109.5750618,TRUE,FALSE,FALSE,"S251130955"
"567","plsvir","Plumbeous Vireo","Vireo plumbeus","L47816768","Gallinas BBS - Stop 19","2025-06-16 07:49",1,35.6742284,-105.4299258,TRUE,FALSE,TRUE,"S251235765"
"568","plsvir","Plumbeous Vireo","Vireo plumbeus","L47816715","Gallinas BBS - Stop 18","2025-06-16 07:41",1,35.6779859,-105.4316527,TRUE,FALSE,TRUE,"S251235534"
"569","plsvir","Plumbeous Vireo","Vireo plumbeus","L5874544","Log Chute Trail system","2025-06-16 07:36",2,37.3399593,-107.9081655,TRUE,FALSE,FALSE,"S251067683"
"570","plsvir","Plumbeous Vireo","Vireo plumbeus","L33245917","Sandia Crest Scenic Highway MM 10 Hairpin","2025-06-16 07:35",3,35.2104283,-106.4281718,TRUE,FALSE,TRUE,"S251181184"
"571","plsvir","Plumbeous Vireo","Vireo plumbeus","L34255611","Gallinas BBS - Stop 16","2025-06-16 07:26",1,35.6831839,-105.4228629,TRUE,FALSE,TRUE,"S251234800"
"572","plsvir","Plumbeous Vireo","Vireo plumbeus","L129020","Lawrence E. Wood Picnic Area & Madera Canyon Trail","2025-06-16 07:26",1,30.7063007,-104.1054001,TRUE,FALSE,FALSE,"S251033745"
"573","plsvir","Plumbeous Vireo","Vireo plumbeus","L34255507","Gallinas BBS - Stop 15","2025-06-16 07:18",2,35.687197,-105.4252824,TRUE,FALSE,TRUE,"S251224214"
"574","plsvir","Plumbeous Vireo","Vireo plumbeus","L34255469","Gallinas BBS - Stop 14","2025-06-16 07:10",1,35.6880532,-105.4171685,TRUE,FALSE,TRUE,"S251223991"
"575","plsvir","Plumbeous Vireo","Vireo plumbeus","L32994997","Woods Canyon Lake Administration Campground","2025-06-16 06:39",1,34.3221934,-110.9412774,TRUE,FALSE,TRUE,"S251482949"
"576","plsvir","Plumbeous Vireo","Vireo plumbeus","L295940","Davis Mountains Preserve (Nature Conservancy)(restricted access)","2025-06-16 06:30",5,30.6971209,-104.1232681,TRUE,FALSE,FALSE,"S251100584"
"577","plsvir","Plumbeous Vireo","Vireo plumbeus","L11923864","Cheesman Canyon Trailhead","2025-06-16 06:02",2,39.2416756,-105.2658455,TRUE,FALSE,TRUE,"S251194250"
"578","plsvir","Plumbeous Vireo","Vireo plumbeus","L47773152","Milk Ranch Canyon Trail","2025-06-16 05:57",8,35.4410229,-108.5498178,TRUE,FALSE,TRUE,"S251035688"
"579","plsvir","Plumbeous Vireo","Vireo plumbeus","L4668778","Bandelier NM--Cerro Grande Trail","2025-06-16 05:48",3,35.8484241,-106.4217804,TRUE,FALSE,FALSE,"S251094115"
"580","plsvir","Plumbeous Vireo","Vireo plumbeus","L4950325","Black Canyon of the Gunnison NP--South Rim Campground","2025-06-16 05:48",1,38.5433993,-107.6890182,TRUE,FALSE,FALSE,"S251015845"
"581","plsvir","Plumbeous Vireo","Vireo plumbeus","L47783263","New Mexico 4, White Rock, New Mexico, US (35.829, -106.385)","2025-06-16 05:43",3,35.8286177,-106.3852409,TRUE,FALSE,TRUE,"S251080666"
"582","plsvir","Plumbeous Vireo","Vireo plumbeus","L6018262","Browns Canyon NM--Ruby Mountain Campground area","2025-06-16 05:41",1,38.752615,-106.070245,TRUE,FALSE,FALSE,"S250996515"
"583","plsvir","Plumbeous Vireo","Vireo plumbeus","L4673731","Thorpe Park","2025-06-16 05:40",1,35.2026968,-111.6590899,TRUE,FALSE,FALSE,"S251442141"
"584","plsvir","Plumbeous Vireo","Vireo plumbeus","L34254824","Gallinas BBS - Stop 3","2025-06-16 05:35",1,35.6790872,-105.3522411,TRUE,FALSE,TRUE,"S251113891"
