"","speciesCode","comName","sciName","locId","locName","obsDt","howMany","lat","lng","obsValid","obsReviewed","locationPrivate","subId"
"1","calcon","California Condor","Gymnogyps californianus","L47530155","High Peaks Trail, Paicines US-CA 36.47888, -121.19421","2025-06-13 14:07",1,36.478876,-121.194213,TRUE,FALSE,TRUE,"S249967741"
"2","calcon","California Condor","Gymnogyps californianus","L47408764","Kolob Terrace Road","2025-06-13 08:52",2,37.343164,-113.076718,TRUE,FALSE,TRUE,"S249917288"
"3","calcon","California Condor","Gymnogyps californianus","L821559","Glen Canyon NRA--Navajo Bridge","2025-06-13 07:44",1,36.817626,-111.6312477,TRUE,FALSE,FALSE,"S249867893"
"4","calcon","California Condor","Gymnogyps californianus","L1053539","Pinnacles NP--Rim & South High Peaks Trail","2025-06-12 14:42",10,36.477171,-121.1872673,TRUE,FALSE,FALSE,"S249702664"
"5","calcon","California Condor","Gymnogyps californianus","L8468998","Grand Canyon NP--Lookout Studio","2025-06-12 14:41",1,36.0577859,-112.1414182,TRUE,FALSE,FALSE,"S249641203"
"6","calcon","California Condor","Gymnogyps californianus","L39467351","HVSVRA - 45","2025-06-12 09:21",1,34.7240728,-118.8345774,TRUE,FALSE,TRUE,"S249562883"
"7","calcon","California Condor","Gymnogyps californianus","L5655832","Zion NP--Big Bend","2025-06-12 08:30",1,37.2733015,-112.9457617,TRUE,FALSE,FALSE,"S249592378"
"8","calcon","California Condor","Gymnogyps californianus","L427264","Kolob Terrace","2025-06-11 14:42",5,37.4181633,-113.0435658,TRUE,FALSE,FALSE,"S249406446"
"9","calcon","California Condor","Gymnogyps californianus","L561886","Julia Pfeiffer Burns SP--coastal vicinity & McWay Falls","2025-06-11 14:00",3,36.1588857,-121.6703665,TRUE,FALSE,FALSE,"S249395527"
"10","calcon","California Condor","Gymnogyps californianus","L742244","Zion NP--Riverside Walk","2025-06-11 07:10",1,37.2903064,-112.9472208,TRUE,FALSE,FALSE,"S249407346"
"11","calcon","California Condor","Gymnogyps californianus","L832838","Pinnacles NP--campground","2025-06-10 19:20",4,36.4908694,-121.1476135,TRUE,FALSE,FALSE,"S249047798"
"12","calcon","California Condor","Gymnogyps californianus","L586552","Grand Canyon NP--Mather Point","2025-06-10 16:44",1,36.0612422,-112.1084833,TRUE,FALSE,FALSE,"S249064664"
"13","calcon","California Condor","Gymnogyps californianus","L47309489","Condors, 35757–36651 Old Ridge Route Rd, Castaic US-CA 34.57449, -118.66868","2025-06-10 10:19",6,34.574488,-118.668683,TRUE,TRUE,TRUE,"S248944110"
"14","calcon","California Condor","Gymnogyps californianus","L47313376","Hudson Ranch Road, Pine Mountain Club, California, US (34.883, -119.354)","2025-06-10 10:19",1,34.8831706,-119.3542959,TRUE,FALSE,TRUE,"S248961194"
"15","calcon","California Condor","Gymnogyps californianus","L2934827","Bitter Creek NWR--sign overlook","2025-06-10 09:48",3,34.9041594,-119.3766595,TRUE,FALSE,FALSE,"S248955999"
"16","calcon","California Condor","Gymnogyps californianus","L1053553","Pinnacles NP--Condor Gulch Trail","2025-06-10 07:01",5,36.4855387,-121.1927605,TRUE,FALSE,FALSE,"S248967231"
"17","calcon","California Condor","Gymnogyps californianus","L47263924","1–3 Bridge View Dr, Marble Canyon US-AZ 36.81662, -111.63984","2025-06-09 19:27",1,36.816622,-111.639838,TRUE,FALSE,TRUE,"S248729475"
"18","calcon","California Condor","Gymnogyps californianus","L835068","Vermilion Cliffs--Condor Viewing Site","2025-06-09 13:50",3,36.771,-112.0565,TRUE,FALSE,FALSE,"S248880004"
"19","calcon","California Condor","Gymnogyps californianus","L1818807","Big Sur coast--Torre Canyon to  Buena Vista (Gray Whale) overlook, includes Partington Cove & Tanbark Trail","2025-06-09 11:21",1,36.176526,-121.695096,TRUE,FALSE,FALSE,"S248895502"
"20","calcon","California Condor","Gymnogyps californianus","L2136276","Hudson Ranch Road","2025-06-09 11:15",1,34.8982164,-119.3659278,TRUE,FALSE,FALSE,"S248671024"
"21","calcon","California Condor","Gymnogyps californianus","L13077106","Grand Canyon NP--Bright Angel Trailhead","2025-06-09 10:26",1,36.0572872,-112.1435988,TRUE,FALSE,FALSE,"S248601421"
"22","calcon","California Condor","Gymnogyps californianus","L46909614","Blue Mountain (Kern Co., private, no access)","2025-06-09 09:32",2,35.7599534,-118.7596205,TRUE,FALSE,TRUE,"S248665799"
"23","calcon","California Condor","Gymnogyps californianus","L302299","Pinnacles NP","2025-06-09 08:14",1,36.4891359,-121.1843199,TRUE,FALSE,FALSE,"S248686203"
"24","calcon","California Condor","Gymnogyps californianus","L1026312","Grand Canyon NP--Bright Angel Lodge","2025-06-08 18:58",1,36.0569229,-112.140981,TRUE,FALSE,FALSE,"S248381363"
"25","calcon","California Condor","Gymnogyps californianus","L1803495","Pinnacles NP--West Side Visitor Station (SBT Co.)","2025-06-08 15:00",1,36.477557,-121.2255891,TRUE,FALSE,FALSE,"S248327874"
"26","calcon","California Condor","Gymnogyps californianus","L832828","Pinnacles NP--Bear Gulch Trail","2025-06-08 13:43",5,36.4777231,-121.1852074,TRUE,FALSE,FALSE,"S248341621"
"27","calcon","California Condor","Gymnogyps californianus","L43716330","Ridge Route Road--Forest Rte 8no4 pullout","2025-06-08 11:34",2,34.5725553,-118.6649781,TRUE,TRUE,FALSE,"S248386134"
"28","calcon","California Condor","Gymnogyps californianus","L794297","Pinnacles NP--Balconies Caves Trail","2025-06-08 11:15",2,36.4988786,-121.2025259,TRUE,FALSE,FALSE,"S248259808"
"29","calcon","California Condor","Gymnogyps californianus","L631087","Lake Piru","2025-06-08 08:15",1,34.4703904,-118.7528085,TRUE,FALSE,FALSE,"S248269196"
"30","calcon","California Condor","Gymnogyps californianus","L525323","Havasupai Indian Reservation","2025-06-07 19:58",1,36.2552702,-112.6980758,TRUE,FALSE,FALSE,"S247936974"
"31","calcon","California Condor","Gymnogyps californianus","L383218","Glen Canyon NRA--Lee's Ferry","2025-06-07 17:21",1,36.8666264,-111.5862036,TRUE,FALSE,FALSE,"S248072288"
"32","calcon","California Condor","Gymnogyps californianus","L44424549","Forest Route 8N04, (Hike or Bike Only) Castaic, California, US (34.617, -118.701)","2025-06-07 13:31",5,34.6172351,-118.7012272,TRUE,TRUE,TRUE,"S248042419"
"33","calcon","California Condor","Gymnogyps californianus","L1316859","Pinnacles NP--Juniper Canyon Trail","2025-06-07 10:50",3,36.487311,-121.2047982,TRUE,FALSE,FALSE,"S247835751"
"34","calcon","California Condor","Gymnogyps californianus","L24121272","Redwood NP--Dolason Prairie Picnic Area","2025-06-06 14:54",1,41.205458,-123.950758,TRUE,TRUE,FALSE,"S247519573"
"35","calcon","California Condor","Gymnogyps californianus","L47035032","Dolason Prairie","2025-06-06 14:30",7,41.20536,-123.95096,TRUE,TRUE,TRUE,"S247724999"
"36","calcon","California Condor","Gymnogyps californianus","L23693972","Dolason Prairie Picnic Area","2025-06-06 11:17",9,41.2054419,-123.9506936,TRUE,TRUE,TRUE,"S248198375"
"37","calcon","California Condor","Gymnogyps californianus","L23802150","Zion NP--Angels Landing Peak (stationary counts)","2025-06-06 11:02",1,37.2695018,-112.9481106,TRUE,FALSE,FALSE,"S248138133"
"38","calcon","California Condor","Gymnogyps californianus","L587800","Yokohl Valley Drive (Mtn-296)","2025-06-06 09:00",4,36.2722342,-118.936615,TRUE,TRUE,FALSE,"S247429208"
"39","calcon","California Condor","Gymnogyps californianus","L2299857","Pinnacles NP--Bear Gulch Nature Center","2025-06-06 08:11",3,36.4814632,-121.1807306,TRUE,FALSE,FALSE,"S247502868"
"40","calcon","California Condor","Gymnogyps californianus","L1053551","Pinnacles NP--High Peaks Trail (steep narrow section)","2025-06-05 09:01",2,36.4841154,-121.1979854,TRUE,FALSE,FALSE,"S247189924"
"41","calcon","California Condor","Gymnogyps californianus","L1014915","Grand Canyon NP--Mather CG","2025-06-04 16:30",1,36.0495847,-112.1210146,TRUE,FALSE,FALSE,"S246829975"
"42","calcon","California Condor","Gymnogyps californianus","L715527","Redwood NP--Lyons Ranch Trail","2025-06-04 15:37",3,41.1431136,-123.8985729,TRUE,TRUE,FALSE,"S246985673"
"43","calcon","California Condor","Gymnogyps californianus","L876076","San Simeon Creek Road","2025-06-04 11:30",4,35.6089036,-121.0775634,TRUE,TRUE,FALSE,"S246853336"
"44","calcon","California Condor","Gymnogyps californianus","L46887235","Old Ridge Route Rd.","2025-06-04 11:20",4,34.588057,-118.681935,TRUE,TRUE,TRUE,"S247037630"
"45","calcon","California Condor","Gymnogyps californianus","L725270","Harmony--Old Creamery Rd/Harmony Valley Rd","2025-06-04 10:53",1,35.5077757,-121.0215926,TRUE,TRUE,FALSE,"S246817014"
