"","speciesCode","comName","sciName","locId","locName","obsDt","howMany","lat","lng","obsValid","obsReviewed","locationPrivate","subId"
"1","lessca","Lesser Scaup","Aythya affinis","L9523564","Horsehead Lake--Northwest","2025-06-10 16:01",2,47.0824103,-99.8193113,TRUE,FALSE,FALSE,"S248977380"
"2","lessca","Lesser Scaup","Aythya affinis","L1333782","Malheur NWR--Wright's Pond","2025-06-10 15:59",1,43.2299022,-118.8752213,TRUE,FALSE,FALSE,"S249004978"
"3","lessca","Lesser Scaup","Aythya affinis","L47317541","Audubon National Wildlife Refuge, Coleharbor US-ND 47.56143, -101.16170","2025-06-10 15:26",8,47.561435,-101.161696,TRUE,FALSE,TRUE,"S248977270"
"4","lessca","Lesser Scaup","Aythya affinis","L5987280","Crooked River Wetlands Complex","2025-06-10 15:18",1,44.3165109,-120.897857,TRUE,FALSE,FALSE,"S249011548"
"5","lessca","Lesser Scaup","Aythya affinis","L6471374","Quivira NWR--Big Salt Marsh--Wildlife Drive","2025-06-10 15:11",1,38.1856615,-98.5338718,TRUE,FALSE,FALSE,"S248982390"
"6","lessca","Lesser Scaup","Aythya affinis","L47314697","3018–3098 Ninth St NW, Coleharbor US-ND 47.54540, -101.19071","2025-06-10 14:50",16,47.545401,-101.19071,TRUE,FALSE,TRUE,"S248967356"
"7","lessca","Lesser Scaup","Aythya affinis","L7637512","Rochelle Ranch Golf Course","2025-06-10 14:34",3,41.7943641,-107.19208,TRUE,FALSE,FALSE,"S248989411"
"8","lessca","Lesser Scaup","Aythya affinis","L338774","Neegronda Reservoir","2025-06-10 14:05",1,38.3034071,-102.7543708,TRUE,FALSE,FALSE,"S248980137"
"9","lessca","Lesser Scaup","Aythya affinis","L5965437","Dot Lake","2025-06-10 13:44",10,63.6633196,-144.0706032,TRUE,FALSE,FALSE,"S248991671"
"10","lessca","Lesser Scaup","Aythya affinis","L450388","Lake Hood & Lake Spenard","2025-06-10 13:26",20,61.1787982,-149.9607182,TRUE,FALSE,FALSE,"S248994559"
"11","lessca","Lesser Scaup","Aythya affinis","L42899138","Lalen Lake","2025-06-10 13:16",1,61.6046584,-149.6893687,TRUE,FALSE,FALSE,"S248990793"
"12","lessca","Lesser Scaup","Aythya affinis","L129129","Westchester Lagoon","2025-06-10 11:35",32,61.2070462,-149.9198785,TRUE,FALSE,FALSE,"S248975360"
"13","lessca","Lesser Scaup","Aythya affinis","L3406540","Market Lake WMA--General","2025-06-10 11:05",2,43.7808238,-112.146163,TRUE,FALSE,FALSE,"S248943552"
"14","lessca","Lesser Scaup","Aythya affinis","L3043399","Wetlands at US Hwy 40 & Grand CR 201","2025-06-10 10:19",3,40.0656145,-106.2785304,TRUE,FALSE,FALSE,"S248891427"
"15","lessca","Lesser Scaup","Aythya affinis","L391467","Dallas Southside WTP","2025-06-10 10:17",2,32.6456988,-96.6391754,TRUE,FALSE,FALSE,"S248907661"
"16","lessca","Lesser Scaup","Aythya affinis","L20552412","Job Corps Ponds","2025-06-10 10:15",8,46.2054302,-112.7771166,TRUE,FALSE,FALSE,"S249015200"
"17","lessca","Lesser Scaup","Aythya affinis","L2272855","Harriman SP--Silver Lake","2025-06-10 09:49",3,44.3282611,-111.4669875,TRUE,FALSE,FALSE,"S248934239"
"18","lessca","Lesser Scaup","Aythya affinis","L47295707","Craven Creek/Franklin Reservoir","2025-06-10 09:40",6,41.862231,-110.407587,TRUE,FALSE,TRUE,"S248879303"
"19","lessca","Lesser Scaup","Aythya affinis","L47306364","2851–2899 38th Ave SE, Dawson US-ND 46.99989, -99.69235","2025-06-10 09:20",2,46.999893,-99.692345,TRUE,FALSE,TRUE,"S248930690"
"20","lessca","Lesser Scaup","Aythya affinis","L1236105","La Grande Waste Water Treatment Ponds","2025-06-10 09:15",8,45.2869651,-118.0295563,TRUE,FALSE,FALSE,"S248988630"
"21","lessca","Lesser Scaup","Aythya affinis","L158584","Bowdoin NWR","2025-06-10 09:02",30,48.4018332,-107.6784611,TRUE,FALSE,FALSE,"S248940234"
"22","lessca","Lesser Scaup","Aythya affinis","L247316","Ninepipe NWR","2025-06-10 09:02",1,47.4379957,-114.1184238,TRUE,FALSE,FALSE,"S248881051"
"23","lessca","Lesser Scaup","Aythya affinis","L448084","Woodland WTP","2025-06-10 08:44",2,38.6624345,-121.7173585,TRUE,FALSE,FALSE,"S248949854"
"24","lessca","Lesser Scaup","Aythya affinis","L2217961","Bike Path from Elk Refuge to Moose","2025-06-10 08:30",6,43.486972,-110.7623792,TRUE,FALSE,TRUE,"S249009787"
"25","lessca","Lesser Scaup","Aythya affinis","L47285207","Clark Salyer NWR—County Road 6 NW crossing","2025-06-10 08:15",8,48.90839,-100.957414,TRUE,FALSE,TRUE,"S248829511"
"26","lessca","Lesser Scaup","Aythya affinis","L248057","Pte. Mouillee SGA (permit required Sep 1-Dec 15)","2025-06-10 08:02",1,42.0146112,-83.2001495,TRUE,FALSE,FALSE,"S248940474"
"27","lessca","Lesser Scaup","Aythya affinis","L9551185","Alsop Lake","2025-06-10 07:58",3,41.3937405,-105.7882591,TRUE,FALSE,FALSE,"S248844175"
"28","lessca","Lesser Scaup","Aythya affinis","L573127","Horicon NWR--Old Marsh Rd.","2025-06-10 07:43",1,43.6159453,-88.6473083,TRUE,FALSE,FALSE,"S248869357"
"29","lessca","Lesser Scaup","Aythya affinis","L376186","""Viera"" Ritch Grissom Memorial Wetlands","2025-06-10 06:48",1,28.228577,-80.7604659,TRUE,FALSE,FALSE,"S248855239"
"30","lessca","Lesser Scaup","Aythya affinis","L47280940","Pond, North Entrance Road, Gardiner, YNP","2025-06-10 06:14",13,45.0049961,-110.703528,TRUE,FALSE,TRUE,"S248806757"
"31","lessca","Lesser Scaup","Aythya affinis","L22294897","Starr Rd","2025-06-10 05:52",2,48.0311714,-119.8883749,TRUE,FALSE,FALSE,"S248903217"
"32","lessca","Lesser Scaup","Aythya affinis","L1617602","Okanogan Highlands--Sanger Lake","2025-06-09 19:19",6,48.9406911,-119.1401183,TRUE,FALSE,FALSE,"S248737656"
"33","lessca","Lesser Scaup","Aythya affinis","L47266500","Richardson Highway, Summit Lake, Alaska, US (63.124, -145.493)","2025-06-09 18:59",1,63.1244192,-145.4928648,TRUE,FALSE,TRUE,"S248741673"
"34","lessca","Lesser Scaup","Aythya affinis","L941892","Denali Hwy.--Maclaren River Bridge","2025-06-09 18:35",7,63.1197993,-146.5311384,TRUE,FALSE,FALSE,"S248746953"
"35","lessca","Lesser Scaup","Aythya affinis","L534241","Fairbanks--Peat Ponds Wildlife Area","2025-06-09 18:31",2,64.9110145,-147.9393518,TRUE,FALSE,FALSE,"S248733490"
"36","lessca","Lesser Scaup","Aythya affinis","L1222783","Okanogan Highlands--Teal Lake","2025-06-09 18:24",12,48.9416708,-119.1834641,TRUE,FALSE,FALSE,"S248737695"
"37","lessca","Lesser Scaup","Aythya affinis","L1548108","Saratoga Lake and Storer Wetlands","2025-06-09 17:54",6,41.471583,-106.7899704,TRUE,FALSE,FALSE,"S248718496"
"38","lessca","Lesser Scaup","Aythya affinis","L36884722","Yellowstone NP--Storm Point Trail","2025-06-09 17:46",1,44.5544695,-110.3293741,TRUE,FALSE,FALSE,"S248704205"
"39","lessca","Lesser Scaup","Aythya affinis","L247305","Central Park Pond","2025-06-09 17:40",5,45.8284823,-111.2841328,TRUE,FALSE,FALSE,"S248725297"
"40","lessca","Lesser Scaup","Aythya affinis","L47267675","Denali Hwy, Delta Junction US-AK 63.08626, -146.36513","2025-06-09 17:20",2,63.086264,-146.365133,TRUE,FALSE,TRUE,"S248746878"
"41","lessca","Lesser Scaup","Aythya affinis","L4733078","Muskrat Lake (Okanogan Co.)","2025-06-09 17:11",4,48.8799541,-119.1597962,TRUE,FALSE,FALSE,"S248724183"
"42","lessca","Lesser Scaup","Aythya affinis","L272853","Sprague WTP","2025-06-09 16:52",8,47.3017565,-117.9651468,TRUE,FALSE,FALSE,"S248709495"
"43","lessca","Lesser Scaup","Aythya affinis","L2703750","J. Clark Salyer NWR--Willow City Road","2025-06-09 16:35",2,48.5890289,-100.6856203,TRUE,FALSE,FALSE,"S248737937"
"44","lessca","Lesser Scaup","Aythya affinis","L3091619","Des Lacs NWR--Lower Des Lacs Lake","2025-06-09 16:00",4,48.607187,-102.0095084,TRUE,FALSE,FALSE,"S248684399"
"45","lessca","Lesser Scaup","Aythya affinis","L789554","Indian Tom Lake","2025-06-09 15:22",2,41.9896085,-121.8802643,TRUE,FALSE,FALSE,"S248688512"
"46","lessca","Lesser Scaup","Aythya affinis","L19979477","Freezeout Lake WMA--auto tour route ""The Neck""","2025-06-09 15:20",2,47.6753607,-112.0419934,TRUE,FALSE,FALSE,"S248668134"
"47","lessca","Lesser Scaup","Aythya affinis","L352554","Fargo--Sewage Settling Ponds","2025-06-09 14:52",1,46.9626441,-96.8402598,TRUE,FALSE,FALSE,"S248649085"
"48","lessca","Lesser Scaup","Aythya affinis","L158883","Des Lacs NWR","2025-06-09 14:45",10,48.6691025,-102.0971815,TRUE,FALSE,FALSE,"S248650760"
"49","lessca","Lesser Scaup","Aythya affinis","L24676679","Aeneas Valley Rd.-Lost Lake","2025-06-09 14:40",6,48.603493,-119.118533,TRUE,FALSE,TRUE,"S248726167"
"50","lessca","Lesser Scaup","Aythya affinis","L47256243","22nd Street SE, Robinson (47.097, -99.823)","2025-06-09 14:23",2,47.0969,-99.822825,TRUE,FALSE,TRUE,"S248692217"
"51","lessca","Lesser Scaup","Aythya affinis","L12332761","Lake Ogallala Platte / Canal diversion","2025-06-09 14:20",2,41.2105607,-101.6343739,TRUE,FALSE,FALSE,"S248689206"
"52","lessca","Lesser Scaup","Aythya affinis","L302479","Yellowstone NP--Swan Lake","2025-06-09 14:19",17,44.9193872,-110.7345425,TRUE,FALSE,FALSE,"S248736471"
"53","lessca","Lesser Scaup","Aythya affinis","L279820","Muskegon Wastewater System","2025-06-09 14:06",2,43.2511023,-86.037524,TRUE,FALSE,FALSE,"S248651451"
"54","lessca","Lesser Scaup","Aythya affinis","L903606","Lock and Dam 14 (Illinois)","2025-06-09 14:03",2,41.5694812,-90.3956795,TRUE,TRUE,FALSE,"S248639340"
"55","lessca","Lesser Scaup","Aythya affinis","L1086587","Manitowoc Lakefront","2025-06-09 14:00",3,44.0927942,-87.6501703,TRUE,FALSE,FALSE,"S248722232"
"56","lessca","Lesser Scaup","Aythya affinis","L7525960","Des Lacs National Wildlife Refuge, Upper Des Lacs Lake, South End","2025-06-09 13:56",4,48.695954,-102.10671,TRUE,FALSE,TRUE,"S248642507"
"57","lessca","Lesser Scaup","Aythya affinis","L47267640","Richardson Hwy, Gakona US-AK 62.53743, -145.51424","2025-06-09 13:33",4,62.537431,-145.514241,TRUE,FALSE,TRUE,"S248746729"
"58","lessca","Lesser Scaup","Aythya affinis","L128553","Chugach NF--Tern Lake","2025-06-09 13:04",2,60.5340384,-149.5476663,TRUE,FALSE,FALSE,"S248840552"
"59","lessca","Lesser Scaup","Aythya affinis","L2337643","Coral Ditch","2025-06-09 12:50",2,44.7987496,-117.8081346,TRUE,FALSE,FALSE,"S248734850"
"60","lessca","Lesser Scaup","Aythya affinis","L14033764","Farner and Lewis Roads, Nampa","2025-06-09 12:23",8,43.517036,-116.696737,TRUE,FALSE,TRUE,"S248628784"
"61","lessca","Lesser Scaup","Aythya affinis","L5833849","Oakland International Airport","2025-06-09 12:00",6,37.71036,-122.224748,TRUE,FALSE,FALSE,"S248631524"
"62","lessca","Lesser Scaup","Aythya affinis","L12121751","Indian Lake SP","2025-06-09 11:50",4,45.94301,-86.332424,TRUE,FALSE,FALSE,"S248631219"
"63","lessca","Lesser Scaup","Aythya affinis","L760406","Yellowstone NP--Blacktail Ponds","2025-06-09 11:44",8,44.9531216,-110.6025195,TRUE,FALSE,FALSE,"S248707246"
"64","lessca","Lesser Scaup","Aythya affinis","L382860","Karlstad Sewage Lagoons","2025-06-09 11:31",4,48.5887865,-96.5275526,TRUE,FALSE,FALSE,"S248593364"
"65","lessca","Lesser Scaup","Aythya affinis","L11669971","Jackson National Fish Hatchery","2025-06-09 11:22",6,43.535246,-110.733841,TRUE,FALSE,FALSE,"S248611989"
"66","lessca","Lesser Scaup","Aythya affinis","L267594","Jim Bridger Power Plant","2025-06-09 11:20",1,41.7372475,-108.7876511,TRUE,FALSE,FALSE,"S248617043"
"67","lessca","Lesser Scaup","Aythya affinis","L5786158","Ebey Waterfront Trail, Marysville","2025-06-09 11:08",2,48.0458046,-122.1758652,TRUE,FALSE,FALSE,"S248653362"
"68","lessca","Lesser Scaup","Aythya affinis","L850357","Northwood Park","2025-06-09 10:42",1,61.1783948,-149.9294758,TRUE,FALSE,FALSE,"S248639683"
"69","lessca","Lesser Scaup","Aythya affinis","L505160","4-H Center, Cunningham Lake","2025-06-09 10:39",1,39.5663969,-79.2390633,TRUE,TRUE,FALSE,"S248712532"
"70","lessca","Lesser Scaup","Aythya affinis","L1659903","Gutierrez Ranch (restricted access)","2025-06-09 10:30",23,44.1625922,-120.0912952,TRUE,FALSE,FALSE,"S248680219"
"71","lessca","Lesser Scaup","Aythya affinis","L47230380","1506–1550 WY-72, Elk Mountain US-WY 41.71741, -106.45008","2025-06-09 10:13",5,41.717408,-106.450078,TRUE,FALSE,TRUE,"S248572988"
"72","lessca","Lesser Scaup","Aythya affinis","L1161518","Glenn Hwy.--Tahneta Lake & Startup Creek","2025-06-09 10:09",2,61.9056665,-147.2992434,TRUE,FALSE,FALSE,"S248745829"
"73","lessca","Lesser Scaup","Aythya affinis","L14956083","141 Aviation Avenue, Anchorage, Alaska, US (61.176, -149.947)","2025-06-09 09:24",20,61.1763187,-149.9465109,TRUE,FALSE,TRUE,"S248603652"
"74","lessca","Lesser Scaup","Aythya affinis","L1312278","Arco Ponds","2025-06-09 09:15",40,46.1624744,-112.7791214,TRUE,FALSE,FALSE,"S248848980"
"75","lessca","Lesser Scaup","Aythya affinis","L157588","Camas Centennial Marsh","2025-06-09 09:15",2,43.26451,-114.99878,TRUE,FALSE,FALSE,"S248622199"
"76","lessca","Lesser Scaup","Aythya affinis","L337164","McNary NWR--Headquarters/Quail Trail","2025-06-09 09:13",6,46.2014931,-118.9934768,TRUE,FALSE,FALSE,"S248631161"
"77","lessca","Lesser Scaup","Aythya affinis","L1155802","Tetlin NWR--Midway Lake","2025-06-09 09:12",20,63.2277631,-142.2913707,TRUE,FALSE,FALSE,"S248631507"
"78","lessca","Lesser Scaup","Aythya affinis","L158589","Lake Helena WMA","2025-06-09 09:03",15,46.701,-111.9584,TRUE,FALSE,FALSE,"S248606075"
"79","lessca","Lesser Scaup","Aythya affinis","L275481","Mortenson Lake NWR (no public access)","2025-06-09 09:02",2,41.2105169,-105.8364792,TRUE,FALSE,FALSE,"S248667462"
"80","lessca","Lesser Scaup","Aythya affinis","L267398","Shiawassee NWR--Wildlife Drive","2025-06-09 08:50",1,43.3596344,-84.0304756,TRUE,TRUE,FALSE,"S248593502"
"81","lessca","Lesser Scaup","Aythya affinis","L161083","MLK Jr. Regional Shoreline--Arrowhead Marsh","2025-06-09 08:48",1,37.7421628,-122.2112274,TRUE,FALSE,FALSE,"S248604711"
"82","lessca","Lesser Scaup","Aythya affinis","L47222477","CR-26, Walden US-CO 40.56697, -106.44671","2025-06-09 08:39",5,40.566969,-106.446705,TRUE,FALSE,TRUE,"S248539304"
"83","lessca","Lesser Scaup","Aythya affinis","L613438","Klamath Wildlife Area--Miller Island Unit","2025-06-09 08:38",8,42.1551736,-121.8082073,TRUE,FALSE,FALSE,"S248597069"
"84","lessca","Lesser Scaup","Aythya affinis","L37315966","Home (2nd St)","2025-06-09 08:31",3,46.7715359,-92.1226737,TRUE,FALSE,TRUE,"S248519907"
"85","lessca","Lesser Scaup","Aythya affinis","L7351336","Luke Lynch Wildlife Habitat Management Area","2025-06-09 08:27",5,42.8968117,-109.8576701,TRUE,FALSE,FALSE,"S248552388"
"86","lessca","Lesser Scaup","Aythya affinis","L271593","Flat Creek Wildlife Observation Point and Marshes","2025-06-09 08:26",1,43.4908574,-110.7611319,TRUE,FALSE,FALSE,"S248537753"
"87","lessca","Lesser Scaup","Aythya affinis","L447435","Hatfield Lake","2025-06-09 08:13",10,44.1232081,-121.198554,TRUE,FALSE,FALSE,"S248719413"
"88","lessca","Lesser Scaup","Aythya affinis","L38196112","Grand Harbor","2025-06-09 08:00",1,27.6834141,-80.3949881,TRUE,TRUE,TRUE,"S248490999"
"89","lessca","Lesser Scaup","Aythya affinis","L47237461","4140 Boat St, Fairbanks US-AK 64.84013, -147.83511","2025-06-09 07:57",1,64.840125,-147.835109,TRUE,FALSE,TRUE,"S248607606"
"90","lessca","Lesser Scaup","Aythya affinis","L47255920","30th Street SE (46.981, -99.818)","2025-06-09 07:52",8,46.9810467,-99.8184833,TRUE,FALSE,TRUE,"S248690645"
"91","lessca","Lesser Scaup","Aythya affinis","L2402250","MLK Jr. Regional Shoreline","2025-06-09 07:45",1,37.7318068,-122.2070861,TRUE,FALSE,FALSE,"S248586076"
"92","lessca","Lesser Scaup","Aythya affinis","L47212199","US-2 W, Berthold US-ND 48.32726, -101.90651","2025-06-09 07:32",2,48.327261,-101.906514,TRUE,FALSE,TRUE,"S248492595"
"93","lessca","Lesser Scaup","Aythya affinis","L158812","Chase Lake NWR (please use a more specific location)","2025-06-09 07:28",2,47.0114,-99.4454,TRUE,FALSE,FALSE,"S248611272"
"94","lessca","Lesser Scaup","Aythya affinis","L1873949","Yellowstone NP--Hayden Valley","2025-06-09 07:26",15,44.6430767,-110.4559043,TRUE,FALSE,FALSE,"S248516721"
"95","lessca","Lesser Scaup","Aythya affinis","L247318","Benton Lake NWR","2025-06-09 07:11",2,47.6641904,-111.3007221,TRUE,FALSE,FALSE,"S248605865"
"96","lessca","Lesser Scaup","Aythya affinis","L837268","Sacramento NWR--Auto Route & Visitor Center","2025-06-09 07:00",5,39.4284385,-122.1564999,TRUE,FALSE,FALSE,"S248629086"
"97","lessca","Lesser Scaup","Aythya affinis","L47264178","Steamboat Point, Yellowstone NP","2025-06-09 05:10",10,44.529813,-110.297671,TRUE,FALSE,TRUE,"S248730809"
"98","lessca","Lesser Scaup","Aythya affinis","L25484589","2612 Lakeside Dr, Fairplay US-CO 39.24335, -106.07448","2025-06-08 21:55",7,39.243352,-106.074477,TRUE,FALSE,TRUE,"S248521580"
"99","lessca","Lesser Scaup","Aythya affinis","L2984314","Utqiaġvik--Middle Salt Lagoon","2025-06-08 21:46",1,71.3158115,-156.6885567,TRUE,FALSE,FALSE,"S248729089"
"100","lessca","Lesser Scaup","Aythya affinis","L356333","Thief River Falls WTP","2025-06-08 21:11",NA,48.10732,-96.23161,TRUE,FALSE,FALSE,"S248379568"
"101","lessca","Lesser Scaup","Aythya affinis","L2156402","Kyger Open Space","2025-06-08 20:19",NA,40.48234,-104.9480581,TRUE,FALSE,FALSE,"S248380718"
"102","lessca","Lesser Scaup","Aythya affinis","L5654940","Ninepipes NWR--Olsen Road","2025-06-08 19:34",2,47.4281412,-114.0986276,TRUE,FALSE,TRUE,"S248384923"
"103","lessca","Lesser Scaup","Aythya affinis","L19423439","Malhuer HQ","2025-06-08 19:27",2,43.265747,-118.843024,TRUE,FALSE,TRUE,"S248395941"
"104","lessca","Lesser Scaup","Aythya affinis","L47184308","CR-400, Saratoga US-WY 41.71755, -106.55022","2025-06-08 18:26",2,41.717546,-106.550224,TRUE,FALSE,TRUE,"S248366216"
"105","lessca","Lesser Scaup","Aythya affinis","L47184368","OO Ranch Rd, Princeton US-OR 43.28480, -119.17794","2025-06-08 18:13",2,43.284798,-119.177943,TRUE,FALSE,TRUE,"S248368112"
"106","lessca","Lesser Scaup","Aythya affinis","L47183480","1000 Grizzly Trail, Butte US-MT 46.00525, -112.61150","2025-06-08 18:12",15,46.005247,-112.611502,TRUE,FALSE,TRUE,"S248362414"
"107","lessca","Lesser Scaup","Aythya affinis","L911244","Bar 14 Pond","2025-06-08 18:06",1,46.9759189,-120.5369282,TRUE,FALSE,FALSE,"S248418878"
"108","lessca","Lesser Scaup","Aythya affinis","L47182133","CR-400, Saratoga US-WY 41.69492, -106.61788","2025-06-08 17:51",2,41.694922,-106.617876,TRUE,FALSE,TRUE,"S248355733"
"109","lessca","Lesser Scaup","Aythya affinis","L47266381","Marsh Off Double O Road, Burns, Oregon, US (43.285, -119.178)","2025-06-08 17:22",2,43.2847192,-119.1782172,TRUE,FALSE,TRUE,"S248741055"
"110","lessca","Lesser Scaup","Aythya affinis","L47188917","US-83, Max, ND","2025-06-08 17:15",NA,47.966078,-101.292972,TRUE,FALSE,TRUE,"S248387022"
"111","lessca","Lesser Scaup","Aythya affinis","L7209244","Muddy Creek Wetlands","2025-06-08 17:10",22,41.3186888,-107.7732182,TRUE,FALSE,FALSE,"S248371147"
"112","lessca","Lesser Scaup","Aythya affinis","L272192","Cattail Pond","2025-06-08 16:46",2,40.375214,-105.1143998,TRUE,FALSE,FALSE,"S248357248"
"113","lessca","Lesser Scaup","Aythya affinis","L341652","Lenore Lake","2025-06-08 16:26",8,47.5057859,-119.5043439,TRUE,FALSE,FALSE,"S248346119"
"114","lessca","Lesser Scaup","Aythya affinis","L8876685","Wolf Lake--121st St Park","2025-06-08 16:24",1,41.6755072,-87.5090808,TRUE,TRUE,FALSE,"S248307823"
"115","lessca","Lesser Scaup","Aythya affinis","L9423480","South Lake Lenore","2025-06-08 16:11",10,47.4525474,-119.5166769,TRUE,FALSE,FALSE,"S248338141"
"116","lessca","Lesser Scaup","Aythya affinis","L1283588","Yellowstone NP--LeHardy Rapids","2025-06-08 16:00",10,44.6073502,-110.3845739,TRUE,FALSE,FALSE,"S248475986"
"117","lessca","Lesser Scaup","Aythya affinis","L167924","Rocky Mountain Arsenal NWR","2025-06-08 15:00",1,39.8209707,-104.8680639,TRUE,FALSE,FALSE,"S248335519"
"118","lessca","Lesser Scaup","Aythya affinis","L47169979","I-15 N, Idaho Falls US-ID 43.63658, -112.08729","2025-06-08 14:58",6,43.636584,-112.087292,TRUE,FALSE,TRUE,"S248299377"
"119","lessca","Lesser Scaup","Aythya affinis","L2791309","Minersville Reservoir -- North Side","2025-06-08 14:57",10,38.254358,-112.8065872,TRUE,FALSE,FALSE,"S248315737"
"120","lessca","Lesser Scaup","Aythya affinis","L4827152","Kinney Lake","2025-06-08 14:52",2,45.3140722,-117.1021342,TRUE,FALSE,FALSE,"S248315818"
"121","lessca","Lesser Scaup","Aythya affinis","L1222792","Okanogan Highlands--Fields Lake","2025-06-08 14:36",4,48.9374283,-119.1289401,TRUE,FALSE,FALSE,"S248319418"
"122","lessca","Lesser Scaup","Aythya affinis","L41716088","Hwy 49 Horicon Marsh","2025-06-08 14:20",2,43.6330518,-88.6490182,TRUE,FALSE,TRUE,"S248260793"
"123","lessca","Lesser Scaup","Aythya affinis","L711323","Otto Lake","2025-06-08 14:12",14,63.8463098,-149.0364718,TRUE,FALSE,FALSE,"S248321612"
"124","lessca","Lesser Scaup","Aythya affinis","L272214","Windy Gap Reservoir","2025-06-08 14:02",2,40.1085377,-105.9818839,TRUE,FALSE,FALSE,"S248324755"
"125","lessca","Lesser Scaup","Aythya affinis","L47174984","Stebbins Saint Michael, Stebbins US-AK 63.52409, -162.22610","2025-06-08 14:01",2,63.524088,-162.226103,TRUE,FALSE,TRUE,"S248321671"
"126","lessca","Lesser Scaup","Aythya affinis","L1158296","Tule Lake NWR--Auto Tour and Sump 1B (MOD Co.)","2025-06-08 14:00",1,41.841189,-121.428443,TRUE,FALSE,FALSE,"S248374483"
"127","lessca","Lesser Scaup","Aythya affinis","L336013","Lake Los Carneros Park","2025-06-08 13:54",1,34.44322,-119.84975,TRUE,TRUE,FALSE,"S248334703"
"128","lessca","Lesser Scaup","Aythya affinis","L967682","Blackfeet Potholes","2025-06-08 13:43",4,48.4887392,-113.1298684,TRUE,FALSE,FALSE,"S248274920"
"129","lessca","Lesser Scaup","Aythya affinis","L47176752","S-208, Whitewater US-MT 48.71850, -107.66086","2025-06-08 13:43",4,48.718497,-107.660864,TRUE,FALSE,TRUE,"S248329824"
"130","lessca","Lesser Scaup","Aythya affinis","L47173794","3251 Aviation Ave, Anchorage US-AK (61.1773,-149.9444)","2025-06-08 13:19",4,61.177324,-149.944359,TRUE,FALSE,TRUE,"S248315990"
"131","lessca","Lesser Scaup","Aythya affinis","L355479","Moose Lake WTP","2025-06-08 13:08",2,46.4401,-92.80241,TRUE,FALSE,FALSE,"S248684802"
"132","lessca","Lesser Scaup","Aythya affinis","L9443819","Summer Lake Wildlife Area--East Link and Gull Island","2025-06-08 13:04",2,42.955722,-120.714412,TRUE,FALSE,FALSE,"S248283244"
"133","lessca","Lesser Scaup","Aythya affinis","L47152800","5824 North Dakota 36, Woodworth, North Dakota, US (47.154, -99.265)","2025-06-08 13:04",8,47.1537176,-99.2647184,TRUE,FALSE,TRUE,"S248230779"
"134","lessca","Lesser Scaup","Aythya affinis","L44027615","lake lucille","2025-06-08 13:00",2,61.5697365,-149.4819641,TRUE,FALSE,TRUE,"S248301946"
"135","lessca","Lesser Scaup","Aythya affinis","L501241","Okanogan Highlands--Mary Ann Creek","2025-06-08 13:00",4,48.9644414,-119.1347122,TRUE,FALSE,FALSE,"S248320145"
"136","lessca","Lesser Scaup","Aythya affinis","L1979614","Tule Lake NWR--Auto Tour and Sump 1A","2025-06-08 12:46",20,41.8776136,-121.5273285,TRUE,FALSE,FALSE,"S248374733"
"137","lessca","Lesser Scaup","Aythya affinis","L47176802","59544, Whitewater US-MT 48.87055, -107.58843","2025-06-08 12:42",3,48.870545,-107.588429,TRUE,FALSE,TRUE,"S248330019"
"138","lessca","Lesser Scaup","Aythya affinis","L455722","Para/McCain's Ponds","2025-06-08 12:17",2,46.8574296,-119.1854596,TRUE,FALSE,FALSE,"S248312852"
"139","lessca","Lesser Scaup","Aythya affinis","L47153497","Viewing Área","2025-06-08 12:13",2,43.489483,-110.762062,TRUE,FALSE,TRUE,"S248239291"
"140","lessca","Lesser Scaup","Aythya affinis","L8633868","Runner Slough","2025-06-08 11:46",3,46.8773585,-99.1244197,TRUE,FALSE,FALSE,"S248212016"
"141","lessca","Lesser Scaup","Aythya affinis","L11688335","Bean Lake wetlands","2025-06-08 11:45",6,47.299979,-112.40706,TRUE,FALSE,TRUE,"S248280208"
"142","lessca","Lesser Scaup","Aythya affinis","L1627403","Yellowstone NP--Pelican Creek","2025-06-08 11:44",1,44.557846,-110.3626563,TRUE,FALSE,FALSE,"S248246005"
"143","lessca","Lesser Scaup","Aythya affinis","L47142413","39th Ave SE, Tappen US-ND 47.04528, -99.67167","2025-06-08 11:36",1,47.045279,-99.671674,TRUE,FALSE,TRUE,"S248189838"
"144","lessca","Lesser Scaup","Aythya affinis","L494468","Lee Valley Reservoir","2025-06-08 11:27",1,33.942,-109.501,TRUE,FALSE,FALSE,"S248241783"
"145","lessca","Lesser Scaup","Aythya affinis","L2222767","Utqiaġvik--Middle Salt Lagoon (S end)","2025-06-08 11:26",1,71.3051952,-156.6897583,TRUE,FALSE,FALSE,"S248557602"
"146","lessca","Lesser Scaup","Aythya affinis","L1024345","Maxwell NWR--Lake 13","2025-06-08 11:22",1,36.5810737,-104.5828056,TRUE,FALSE,FALSE,"S248239655"
"147","lessca","Lesser Scaup","Aythya affinis","L3690518","Yellowstone NP--Hayden Valley--Trout Creek area","2025-06-08 11:19",22,44.6465135,-110.4584098,TRUE,FALSE,FALSE,"S248698126"
"148","lessca","Lesser Scaup","Aythya affinis","L2191941","Hwy. 205--Substation Pond","2025-06-08 11:12",2,43.4971413,-119.0183258,TRUE,FALSE,FALSE,"S248370282"
"149","lessca","Lesser Scaup","Aythya affinis","L158895","Audubon NWR","2025-06-08 11:00",12,47.577987,-101.2470187,TRUE,FALSE,FALSE,"S248376095"
"150","lessca","Lesser Scaup","Aythya affinis","L47161254","Double O Road, Princeton, Oregon, US (43.347, -119.29)","2025-06-08 10:56",1,43.347268,-119.2900189,TRUE,FALSE,TRUE,"S248263699"
"151","lessca","Lesser Scaup","Aythya affinis","L2161814","South Park Wildlife Habitat Management Area","2025-06-08 10:54",12,43.3965039,-110.7767773,TRUE,FALSE,FALSE,"S248282606"
"152","lessca","Lesser Scaup","Aythya affinis","L589213","Modoc NWR","2025-06-08 10:36",50,41.4575229,-120.5219078,TRUE,FALSE,FALSE,"S248219803"
"153","lessca","Lesser Scaup","Aythya affinis","L32863155","Dalton Highway, Anchorage, Alaska, US (69.006, -148.817)","2025-06-08 10:33",NA,69.0060513,-148.8171094,TRUE,FALSE,TRUE,"S248260000"
"154","lessca","Lesser Scaup","Aythya affinis","L737396","Fruitgrowers Reservoir--North Road Causeway","2025-06-08 10:27",3,38.8422327,-107.9353952,TRUE,FALSE,FALSE,"S248234877"
"155","lessca","Lesser Scaup","Aythya affinis","L159714","Manitowoc Impoundment","2025-06-08 10:21",2,44.1001088,-87.6486295,TRUE,FALSE,FALSE,"S248174607"
"156","lessca","Lesser Scaup","Aythya affinis","L1156220","Thousand Acre Marsh","2025-06-08 09:55",2,39.5470076,-75.5847359,TRUE,TRUE,FALSE,"S248204698"
"157","lessca","Lesser Scaup","Aythya affinis","L266967","Great Western Reservoir (closed to public)","2025-06-08 09:51",4,39.8968365,-105.1522923,TRUE,FALSE,FALSE,"S248218810"
"158","lessca","Lesser Scaup","Aythya affinis","L1254749","Browns Lake","2025-06-08 09:48",10,46.9576129,-113.0110359,TRUE,FALSE,FALSE,"S248360004"
"159","lessca","Lesser Scaup","Aythya affinis","L639242","Tule Lake NWR (SIS Co.)","2025-06-08 09:46",15,41.9374906,-121.5600126,TRUE,FALSE,FALSE,"S248400177"
"160","lessca","Lesser Scaup","Aythya affinis","L8184842","Pole Creek Reservoir","2025-06-08 09:38",2,44.2523497,-117.56001,TRUE,FALSE,FALSE,"S248215537"
"161","lessca","Lesser Scaup","Aythya affinis","L29392643","Clear Lake","2025-06-08 09:35",5,45.5568148,-96.0732465,TRUE,FALSE,FALSE,"S248157655"
"162","lessca","Lesser Scaup","Aythya affinis","L3858879","Baskett Slough NWR--South Slough transect path","2025-06-08 09:33",2,44.9562801,-123.2571548,TRUE,FALSE,FALSE,"S248273803"
"163","lessca","Lesser Scaup","Aythya affinis","L47126349","Alkaline Lake--Boat Launch","2025-06-08 09:19",2,46.661261,-99.587568,TRUE,FALSE,TRUE,"S248122530"
"164","lessca","Lesser Scaup","Aythya affinis","L140438","LaSalle's Landing Park","2025-06-08 09:18",2,43.1763487,-77.5259313,TRUE,TRUE,FALSE,"S248102773"
"165","lessca","Lesser Scaup","Aythya affinis","L515634","Arapaho NWR--Auto Loop","2025-06-08 09:18",20,40.6686604,-106.322937,TRUE,FALSE,FALSE,"S248214471"
"166","lessca","Lesser Scaup","Aythya affinis","L11075645","ND Nelson Co. - Cty Rd 1","2025-06-08 09:00",4,48.1516109,-98.2640065,TRUE,FALSE,TRUE,"S248265903"
"167","lessca","Lesser Scaup","Aythya affinis","L1221670","CR115 (MOD Co.)","2025-06-08 08:56",4,41.4308867,-120.5255985,TRUE,FALSE,FALSE,"S248350433"
"168","lessca","Lesser Scaup","Aythya affinis","L32088963","Slag Point (Morgan Park Mudflats)","2025-06-08 08:53",1,46.6867,-92.201862,TRUE,FALSE,FALSE,"S248167077"
"169","lessca","Lesser Scaup","Aythya affinis","L1592528","Yellowstone NP--Mary Bay Picnic Area","2025-06-08 08:44",21,44.5480051,-110.2962166,TRUE,FALSE,FALSE,"S248140159"
"170","lessca","Lesser Scaup","Aythya affinis","L162766","Union Bay Natural Area/Montlake Fill","2025-06-08 08:41",1,47.65424,-122.29137,TRUE,FALSE,FALSE,"S248183996"
"171","lessca","Lesser Scaup","Aythya affinis","L566915","Rocky Mountain NP--Lily Lake area","2025-06-08 08:30",NA,40.3073545,-105.540247,TRUE,FALSE,FALSE,"S248649186"
"172","lessca","Lesser Scaup","Aythya affinis","L1793610","Georgetown Lake--Phillipsburg Bay","2025-06-08 08:26",2,46.2058648,-113.2850073,TRUE,FALSE,FALSE,"S248123943"
"173","lessca","Lesser Scaup","Aythya affinis","L7836927","Isle Royale NP--Rock Harbor Trail","2025-06-08 08:14",2,48.122723,-88.531415,TRUE,FALSE,FALSE,"S248876709"
"174","lessca","Lesser Scaup","Aythya affinis","L355432","French Lake","2025-06-08 08:02",1,45.1778,-93.5016,TRUE,FALSE,FALSE,"S248093203"
"175","lessca","Lesser Scaup","Aythya affinis","L159619","Malheur NWR--Headquarters","2025-06-08 07:58",2,43.2658741,-118.8448941,TRUE,FALSE,FALSE,"S248198626"
"176","lessca","Lesser Scaup","Aythya affinis","L3659024","Tony Knowles Coastal Trail--Pete's Place to Audubon Wayside","2025-06-08 07:33",7,61.2022996,-149.9509227,TRUE,FALSE,FALSE,"S248244662"
"177","lessca","Lesser Scaup","Aythya affinis","L926819","Burns Sewage Ponds (restricted access)","2025-06-08 07:28",4,43.5672909,-119.0676928,TRUE,FALSE,FALSE,"S248123148"
"178","lessca","Lesser Scaup","Aythya affinis","L608435","Chautauqua NWR--Eagle Bluff","2025-06-08 07:24",3,40.3747335,-89.9800786,TRUE,FALSE,FALSE,"S248162425"
"179","lessca","Lesser Scaup","Aythya affinis","L47147825","Frenchglen Highway, Burns, Oregon, US (43.315, -118.976)","2025-06-08 07:18",2,43.3145398,-118.9758108,TRUE,FALSE,TRUE,"S248211653"
"180","lessca","Lesser Scaup","Aythya affinis","L6571966","RMANWR - trail to Havana Pond","2025-06-08 07:17",1,39.8091878,-104.8566055,TRUE,FALSE,TRUE,"S248177327"
"181","lessca","Lesser Scaup","Aythya affinis","L265651","Crooked Knee Lake","2025-06-08 07:03",2,47.2303596,-117.9110592,TRUE,FALSE,FALSE,"S248209572"
"182","lessca","Lesser Scaup","Aythya affinis","L751035","Hwy. 205 (Catlow Valley Rd.)--Roaring Springs Ranch pulloff","2025-06-08 07:00",2,42.6567921,-118.9861518,TRUE,FALSE,FALSE,"S248234103"
"183","lessca","Lesser Scaup","Aythya affinis","L578857","Stick Marsh (Indian River Co.)","2025-06-08 06:27",3,27.8127215,-80.7080555,TRUE,TRUE,FALSE,"S248039907"
"184","lessca","Lesser Scaup","Aythya affinis","L888074","Western Wings Pond","2025-06-07 20:55",3,43.7423286,-112.1505404,TRUE,FALSE,FALSE,"S247935432"
"185","lessca","Lesser Scaup","Aythya affinis","L15496544","Lewis Ln, Nampa US-ID 43.51707, -116.69688","2025-06-07 20:12",6,43.517074,-116.696883,TRUE,FALSE,TRUE,"S248140694"
"186","lessca","Lesser Scaup","Aythya affinis","L158903","Long Lake NWR","2025-06-07 19:22",1,46.6698025,-100.2278475,TRUE,FALSE,FALSE,"S247916656"
"187","lessca","Lesser Scaup","Aythya affinis","L1622316","Baxter Bog Park","2025-06-07 18:33",4,61.189188,-149.7577436,TRUE,FALSE,FALSE,"S247935487"
"188","lessca","Lesser Scaup","Aythya affinis","L7480044","Kotzebue Loop road west","2025-06-07 18:25",5,66.8685688,-162.617569,TRUE,FALSE,TRUE,"S247937412"
"189","lessca","Lesser Scaup","Aythya affinis","L47076847","Moscow Lake WPA","2025-06-07 18:20",3,48.740009,-98.715626,TRUE,FALSE,TRUE,"S247889042"
"190","lessca","Lesser Scaup","Aythya affinis","L1171159","Tetlin NWR--Lakeview Campground  & Yarger Lake","2025-06-07 18:07",NA,62.9642878,-141.6410066,TRUE,FALSE,FALSE,"S248398796"
"191","lessca","Lesser Scaup","Aythya affinis","L109176","Camas NWR","2025-06-07 18:03",3,43.9509896,-112.2557731,TRUE,FALSE,FALSE,"S247930300"
"192","lessca","Lesser Scaup","Aythya affinis","L47071885","East Side Road, Anaconda, Montana, US (46.152, -112.767)","2025-06-07 17:55",17,46.1520795,-112.767274,TRUE,FALSE,TRUE,"S247907986"
"193","lessca","Lesser Scaup","Aythya affinis","L3045759","Viridian Community / Lake Viridian","2025-06-07 17:36",1,32.794057,-97.0886707,TRUE,TRUE,FALSE,"S247915640"
"194","lessca","Lesser Scaup","Aythya affinis","L1647633","Phillips Bros. catfish ponds (restricted access)","2025-06-07 17:31",1,32.9676398,-90.3794594,TRUE,FALSE,FALSE,"S247916088"
"195","lessca","Lesser Scaup","Aythya affinis","L157943","Little Camas Reservoir","2025-06-07 16:39",12,43.34624,-115.387566,TRUE,FALSE,FALSE,"S248222414"
"196","lessca","Lesser Scaup","Aythya affinis","L659759","Sherburne NWR--Wildlife Drive","2025-06-07 16:12",3,45.4656464,-93.7356734,TRUE,FALSE,FALSE,"S247889687"
"197","lessca","Lesser Scaup","Aythya affinis","L332514","Medicine Lake NWR","2025-06-07 16:00",2,48.4844088,-104.451592,TRUE,FALSE,FALSE,"S247879483"
"198","lessca","Lesser Scaup","Aythya affinis","L2222152","Denali Hwy.--Oscar Creek Lakes (mm 48 to mm 52)","2025-06-07 15:37",5,63.073173,-146.7022739,TRUE,FALSE,FALSE,"S247997528"
"199","lessca","Lesser Scaup","Aythya affinis","L17859358","Fisherman’s Corner Recreation Area","2025-06-07 15:30",1,41.5694812,-90.3901434,TRUE,TRUE,FALSE,"S247836971"
"200","lessca","Lesser Scaup","Aythya affinis","L2070084","Crane Prairie Reservoir--Cow Camp","2025-06-07 15:22",2,43.8122338,-121.7738342,TRUE,FALSE,FALSE,"S247907991"
"201","lessca","Lesser Scaup","Aythya affinis","L950318","Tetlin NWR--Deadman Lake","2025-06-07 15:07",2,62.8883142,-141.5459888,TRUE,FALSE,FALSE,"S248134114"
"202","lessca","Lesser Scaup","Aythya affinis","L47083731","Dalton Highway, Anchorage, Alaska, US (69.006, -148.817)","2025-06-07 15:05",5,69.0064363,-148.8166572,TRUE,FALSE,TRUE,"S247924965"
"203","lessca","Lesser Scaup","Aythya affinis","L2348135","Lake Shel-oole","2025-06-07 14:56",2,48.5257003,-111.8539953,TRUE,FALSE,FALSE,"S247838956"
"204","lessca","Lesser Scaup","Aythya affinis","L21265457","Cherokee Water Facility","2025-06-07 14:51",1,38.7531366,-104.4782797,TRUE,FALSE,FALSE,"S247886474"
"205","lessca","Lesser Scaup","Aythya affinis","L46004623","Dalton Highway, Anchorage, Alaska, US (68.952, -148.872)","2025-06-07 14:31",4,68.9524628,-148.8720266,TRUE,FALSE,TRUE,"S247925618"
"206","lessca","Lesser Scaup","Aythya affinis","L1317101","Denali Hwy.--mm 72.9 Pond","2025-06-07 14:31",6,63.05146,-147.3853904,TRUE,FALSE,FALSE,"S247997376"
"207","lessca","Lesser Scaup","Aythya affinis","L47058891","Kennedy Lake","2025-06-07 14:24",6,46.214633,-85.886,TRUE,FALSE,TRUE,"S247814906"
"208","lessca","Lesser Scaup","Aythya affinis","L4318590","Bowdoin NWR--first 5 mi. Auto Tour Route","2025-06-07 13:59",NA,48.3915524,-107.7287149,TRUE,FALSE,FALSE,"S248587802"
"209","lessca","Lesser Scaup","Aythya affinis","L164961","Bear River MBR--Auto Tour Loop","2025-06-07 13:49",3,41.4692291,-112.2947788,TRUE,FALSE,FALSE,"S247901194"
"210","lessca","Lesser Scaup","Aythya affinis","L1414701","Laguna Madre","2025-06-07 13:48",3,36.6054787,-104.6393876,TRUE,FALSE,FALSE,"S247835936"
"211","lessca","Lesser Scaup","Aythya affinis","L26452120","La Jara Ponds","2025-06-07 13:31",1,36.0940032,-106.9790368,TRUE,TRUE,FALSE,"S247872266"
"212","lessca","Lesser Scaup","Aythya affinis","L524998","West UAF Trails & Smith Lake","2025-06-07 13:29",4,64.8643458,-147.8634453,TRUE,FALSE,FALSE,"S247857725"
"213","lessca","Lesser Scaup","Aythya affinis","L47056703","I90, Anaconda","2025-06-07 13:21",4,46.1137519,-112.7987716,TRUE,FALSE,TRUE,"S247806571"
"214","lessca","Lesser Scaup","Aythya affinis","L6517534","Neah Bay--town and bay only","2025-06-07 13:04",1,48.3666101,-124.6215677,TRUE,FALSE,FALSE,"S247936749"
"215","lessca","Lesser Scaup","Aythya affinis","L47053934","Unnamed Road, Island Park, Idaho, US (44.34, -111.475)","2025-06-07 12:51",2,44.3403501,-111.4748514,TRUE,FALSE,TRUE,"S247796283"
"216","lessca","Lesser Scaup","Aythya affinis","L2770099","Great Egret Marsh Preserve (TNC)","2025-06-07 12:45",1,41.5408642,-82.8225803,TRUE,FALSE,FALSE,"S247912322"
"217","lessca","Lesser Scaup","Aythya affinis","L731037","Sinlahekin Wildlife Area--Conners Lake","2025-06-07 12:31",10,48.7509402,-119.6627641,TRUE,FALSE,FALSE,"S247865841"
"218","lessca","Lesser Scaup","Aythya affinis","L47052359","8426 S College Ave, Fort Collins US-CO 40.46798, -105.07679","2025-06-07 12:27",1,40.467979,-105.076789,TRUE,FALSE,TRUE,"S247790042"
"219","lessca","Lesser Scaup","Aythya affinis","L140460","Big Johnson Reservoir & Bluestem Prairie Open Space","2025-06-07 12:22",1,38.7482319,-104.6943795,TRUE,FALSE,FALSE,"S247798326"
"220","lessca","Lesser Scaup","Aythya affinis","L47028118","4171–4199 ND-36, Pettibone US-ND 47.13987, -99.61269","2025-06-07 12:19",2,47.139875,-99.612689,TRUE,FALSE,TRUE,"S248219192"
"221","lessca","Lesser Scaup","Aythya affinis","L47062410","935 Herrick Lane, Laramie, Wyoming, US (41.395, -105.841)","2025-06-07 12:15",NA,41.3954341,-105.8411916,TRUE,FALSE,TRUE,"S247828229"
"222","lessca","Lesser Scaup","Aythya affinis","L756102","Crescent Lake","2025-06-07 11:56",1,33.9086052,-109.4197083,TRUE,FALSE,FALSE,"S247828972"
"223","lessca","Lesser Scaup","Aythya affinis","L47180949","Brown's Lake","2025-06-07 11:45",1,46.9558726,-113.0081265,TRUE,FALSE,TRUE,"S248352234"
"224","lessca","Lesser Scaup","Aythya affinis","L47071621","Blue Lake to Ford Lake 48.68495, -119.6873","2025-06-07 11:40",9,48.684955,-119.687329,TRUE,FALSE,TRUE,"S247865374"
"225","lessca","Lesser Scaup","Aythya affinis","L249812","Blacks Creek Bird Reserve","2025-06-07 11:39",10,43.4584433,-116.1426544,TRUE,FALSE,FALSE,"S247814338"
"226","lessca","Lesser Scaup","Aythya affinis","L131619","Holbrook Reservoir","2025-06-07 11:14",1,38.0627775,-103.6097217,TRUE,FALSE,FALSE,"S247782086"
"227","lessca","Lesser Scaup","Aythya affinis","L1222788","Okanogan Highlands--Molson Lakes","2025-06-07 11:11",2,48.9860752,-119.2044067,TRUE,FALSE,FALSE,"S247885881"
"228","lessca","Lesser Scaup","Aythya affinis","L47065352","US Highway 89 North, Wilsall, Montana, US (46.044, -110.687)","2025-06-07 11:08",7,46.0437717,-110.6868683,TRUE,FALSE,TRUE,"S247839814"
"229","lessca","Lesser Scaup","Aythya affinis","L99626","Cayuga Lock and River Rd.","2025-06-07 11:06",1,42.9468066,-76.7347652,TRUE,TRUE,FALSE,"S248058073"
"230","lessca","Lesser Scaup","Aythya affinis","L47086992","Jon Corps Ponds","2025-06-07 11:03",13,46.1979472,-112.7773709,TRUE,FALSE,TRUE,"S247939268"
"231","lessca","Lesser Scaup","Aythya affinis","L3782882","Hwy 37 pullout","2025-06-07 10:41",2,38.1353024,-122.3446257,TRUE,FALSE,FALSE,"S247766551"
"232","lessca","Lesser Scaup","Aythya affinis","L2965406","Warm Lake","2025-06-07 10:41",2,44.652683,-115.664505,TRUE,FALSE,TRUE,"S248162860"
"233","lessca","Lesser Scaup","Aythya affinis","L8479745","Yellowstone NP--Bridge Bay","2025-06-07 10:31",8,44.5320817,-110.4381772,TRUE,FALSE,FALSE,"S247837114"
"234","lessca","Lesser Scaup","Aythya affinis","L166564","Long Bridge/Head of the bay, Ashland","2025-06-07 10:30",12,46.58829,-90.945175,TRUE,FALSE,FALSE,"S247726582"
"235","lessca","Lesser Scaup","Aythya affinis","L3956324","West Covington Park","2025-06-07 10:28",2,39.2614499,-76.6168848,TRUE,TRUE,FALSE,"S247694230"
"236","lessca","Lesser Scaup","Aythya affinis","L4408307","Warm Springs WMA, Job Corp Ponds","2025-06-07 10:20",8,46.1977156,-112.7717829,TRUE,FALSE,TRUE,"S247873811"
"237","lessca","Lesser Scaup","Aythya affinis","L292857","Kah Tai Lagoon","2025-06-07 10:20",2,48.1114603,-122.7781165,TRUE,FALSE,FALSE,"S248221572"
"238","lessca","Lesser Scaup","Aythya affinis","L109296","Fruitgrowers Reservoir","2025-06-07 10:18",2,38.8295785,-107.9444504,TRUE,FALSE,FALSE,"S247870767"
"239","lessca","Lesser Scaup","Aythya affinis","L11747474","Big Willow Reservoir","2025-06-07 10:16",2,44.0188962,-116.5023801,TRUE,FALSE,FALSE,"S247790259"
"240","lessca","Lesser Scaup","Aythya affinis","L925450","Hebgen Lake--Grayling Arm","2025-06-07 10:15",1,44.7972567,-111.1744959,TRUE,FALSE,FALSE,"S247870602"
"241","lessca","Lesser Scaup","Aythya affinis","L518546","Malheur NWR--Narrows","2025-06-07 10:04",2,43.2873151,-118.9591885,TRUE,FALSE,FALSE,"S247768178"
"242","lessca","Lesser Scaup","Aythya affinis","L1894671","Camas NWR--Center Pond","2025-06-07 09:55",4,43.9358188,-112.2652129,TRUE,FALSE,FALSE,"S247766656"
"243","lessca","Lesser Scaup","Aythya affinis","L753048","Malheur NWR--Central Patrol Rd.","2025-06-07 09:41",2,43.2024856,-118.8875628,TRUE,FALSE,FALSE,"S247801514"
"244","lessca","Lesser Scaup","Aythya affinis","L282520","Lagerman Agricultural Preserve--Lagerman Reservoir","2025-06-07 09:36",2,40.1348086,-105.1888925,TRUE,FALSE,FALSE,"S247798650"
"245","lessca","Lesser Scaup","Aythya affinis","L47035416","59711, Anaconda US-MT 46.19919, -112.77895","2025-06-07 09:34",12,46.199189,-112.778951,TRUE,FALSE,TRUE,"S247723806"
"246","lessca","Lesser Scaup","Aythya affinis","L2884158","Ontario Sewage Ponds (restricted access)","2025-06-07 09:32",1,44.0417458,-117.0024526,TRUE,FALSE,FALSE,"S247710856"
"247","lessca","Lesser Scaup","Aythya affinis","L560859","Russell Lakes SWA","2025-06-07 09:25",1,37.9427084,-106.1422205,TRUE,FALSE,FALSE,"S247748992"
"248","lessca","Lesser Scaup","Aythya affinis","L47035742","Storm Point Trail, Yellowstone National Park US-WY 44.55920, -110.32820","2025-06-07 09:15",2,44.559199,-110.328201,TRUE,FALSE,TRUE,"S247725092"
"249","lessca","Lesser Scaup","Aythya affinis","L2442148","Rocky Mountain Arsenal NWR--Lower Derby Lake","2025-06-07 09:09",1,39.8146676,-104.8424435,TRUE,FALSE,FALSE,"S247708054"
"250","lessca","Lesser Scaup","Aythya affinis","L657546","Lower Klamath NWR--Auto Tour Route","2025-06-07 08:20",1,41.9717075,-121.7260158,TRUE,FALSE,FALSE,"S248377693"
"251","lessca","Lesser Scaup","Aythya affinis","L998470","Don Edwards NWR--Ravenswood Salt Pond SF2","2025-06-07 08:17",1,37.4887844,-122.1341944,TRUE,TRUE,FALSE,"S247754873"
"252","lessca","Lesser Scaup","Aythya affinis","L390863","Indian Creek Reservoir","2025-06-07 08:02",3,43.3878656,-116.0129213,TRUE,FALSE,FALSE,"S247730902"
"253","lessca","Lesser Scaup","Aythya affinis","L35023988","Unnamed Road, Anaconda, Montana, US (46.16, -112.769)","2025-06-07 07:50",NA,46.1603512,-112.7694912,TRUE,FALSE,TRUE,"S247849814"
"254","lessca","Lesser Scaup","Aythya affinis","L9532109","Danzig BBS--stop 33","2025-06-07 07:50",2,46.142778,-99.275701,TRUE,FALSE,TRUE,"S247629429"
"255","lessca","Lesser Scaup","Aythya affinis","L912965","Indian Creek Nature Center--Trails","2025-06-07 07:46",2,44.5914375,-75.2957332,TRUE,FALSE,FALSE,"S247650641"
"256","lessca","Lesser Scaup","Aythya affinis","L264669","Ashurst Lake","2025-06-07 07:41",1,35.0206708,-111.4031728,TRUE,FALSE,FALSE,"S247749492"
"257","lessca","Lesser Scaup","Aythya affinis","L247312","Freezout Lake WMA","2025-06-07 07:40",1,47.6657859,-112.0112392,TRUE,FALSE,FALSE,"S247854359"
"258","lessca","Lesser Scaup","Aythya affinis","L6550725","Swan Lake Nature Study Area (IBA)--Fleetwood Dr Pumphouse","2025-06-07 07:30",1,39.6500322,-119.8445847,TRUE,FALSE,FALSE,"S247686707"
"259","lessca","Lesser Scaup","Aythya affinis","L168158","Vega SP","2025-06-07 07:24",1,39.22338,-107.79534,TRUE,FALSE,FALSE,"S247809637"
"260","lessca","Lesser Scaup","Aythya affinis","L9531947","Danzig BBS--stop 27","2025-06-07 07:22",7,46.15735,-99.315871,TRUE,FALSE,TRUE,"S247615893"
"261","lessca","Lesser Scaup","Aythya affinis","L1169963","Lower Nihill Rd.--West","2025-06-07 07:20",2,46.4897783,-109.7981204,TRUE,FALSE,FALSE,"S247788602"
"262","lessca","Lesser Scaup","Aythya affinis","L11819492","Rocky Mountain Arsenal NWR--Havana Ponds and Trail","2025-06-07 07:10",1,39.8056448,-104.8574796,TRUE,FALSE,FALSE,"S248018207"
"263","lessca","Lesser Scaup","Aythya affinis","L1784407","Sand Creek WMA--Blue Creek Reservoir","2025-06-07 07:10",2,44.22322,-111.61304,TRUE,FALSE,FALSE,"S247781238"
"264","lessca","Lesser Scaup","Aythya affinis","L1668741","Otter Creek Marsh WMA--Red Barn area","2025-06-07 07:04",1,41.9355726,-92.4301387,TRUE,TRUE,FALSE,"S247643377"
"265","lessca","Lesser Scaup","Aythya affinis","L468904","Georgetown Reservoir","2025-06-07 06:56",1,38.912284,-77.092391,TRUE,TRUE,FALSE,"S247628100"
"266","lessca","Lesser Scaup","Aythya affinis","L9531842","Danzig BBS--stop 22","2025-06-07 06:56",3,46.186628,-99.326071,TRUE,FALSE,TRUE,"S247604680"
"267","lessca","Lesser Scaup","Aythya affinis","L9531806","Danzig BBS--stop 21","2025-06-07 06:51",3,46.187809,-99.336776,TRUE,FALSE,TRUE,"S247602463"
"268","lessca","Lesser Scaup","Aythya affinis","L10294433","Sibley Lake","2025-06-07 06:30",2,46.9549987,-99.7379466,TRUE,FALSE,FALSE,"S247831829"
"269","lessca","Lesser Scaup","Aythya affinis","L158882","Lostwood NWR","2025-06-07 06:29",NA,48.602636,-102.4386493,TRUE,FALSE,FALSE,"S247770398"
"270","lessca","Lesser Scaup","Aythya affinis","L9531701","Danzig BBS--stop 16","2025-06-07 06:24",1,46.16423,-99.357571,TRUE,FALSE,TRUE,"S247591236"
"271","lessca","Lesser Scaup","Aythya affinis","L11986756","Anaconda, Montana, US (46.194, -112.776)","2025-06-07 06:23",1,46.1941338,-112.7763136,TRUE,FALSE,TRUE,"S247615086"
"272","lessca","Lesser Scaup","Aythya affinis","L47063492","TUDU spot (46.194, -112.776)","2025-06-07 06:16",10,46.1938703,-112.7757324,TRUE,FALSE,TRUE,"S247617677"
"273","lessca","Lesser Scaup","Aythya affinis","L445111","Wenas Lake","2025-06-07 06:09",3,46.8197975,-120.6817245,TRUE,FALSE,FALSE,"S247904380"
"274","lessca","Lesser Scaup","Aythya affinis","L999548","Presque Isle SP--Leo's Landing","2025-06-07 06:02",1,42.1268858,-80.1431528,TRUE,FALSE,FALSE,"S247629525"
"275","lessca","Lesser Scaup","Aythya affinis","L192824","C&O Canal--Violette's Lock","2025-06-07 05:58",1,39.066803,-77.32951,TRUE,TRUE,FALSE,"S247615418"
"276","lessca","Lesser Scaup","Aythya affinis","L46990758","Furnell WPA","2025-06-06 21:41",1,48.8612894,-111.2878239,TRUE,FALSE,TRUE,"S247523276"
"277","lessca","Lesser Scaup","Aythya affinis","L744251","Marquette--Lower Harbor","2025-06-06 18:52",9,46.5379598,-87.385152,TRUE,FALSE,FALSE,"S247509816"
"278","lessca","Lesser Scaup","Aythya affinis","L46990641","Laird Road pond N of Bears Den Rd","2025-06-06 17:56",4,48.8954064,-110.9476749,TRUE,FALSE,TRUE,"S247522823"
"279","lessca","Lesser Scaup","Aythya affinis","L249732","Thunder Lake SWA","2025-06-06 17:42",1,45.8139936,-89.209504,TRUE,TRUE,FALSE,"S247485822"
"280","lessca","Lesser Scaup","Aythya affinis","L4649533","Stone Lake","2025-06-06 17:15",3,47.288102,-92.550228,TRUE,FALSE,FALSE,"S247513590"
"281","lessca","Lesser Scaup","Aythya affinis","L966521","Lawen Marshes","2025-06-06 17:03",2,43.40224,-118.84859,TRUE,FALSE,FALSE,"S247505946"
"282","lessca","Lesser Scaup","Aythya affinis","L46984063","Westchester Lagoon viewing platform","2025-06-06 16:38",8,61.207777,-149.918751,TRUE,FALSE,TRUE,"S247494539"
"283","lessca","Lesser Scaup","Aythya affinis","L577356","Arapaho NWR--Interpretive Trail","2025-06-06 15:23",4,40.6083407,-106.2799573,TRUE,FALSE,FALSE,"S247668970"
"284","lessca","Lesser Scaup","Aythya affinis","L22666134","Denali Hwy.--mm 126.5 Lake","2025-06-06 15:07",4,63.3946929,-148.6707815,TRUE,FALSE,FALSE,"S247479319"
"285","lessca","Lesser Scaup","Aythya affinis","L888474","Walden Reservoir--SE side","2025-06-06 14:47",1,40.7251123,-106.2990332,TRUE,FALSE,FALSE,"S247427784"
"286","lessca","Lesser Scaup","Aythya affinis","L23913438","Lori Lake","2025-06-06 14:42",3,41.394973,-105.782194,TRUE,FALSE,TRUE,"S247430508"
"287","lessca","Lesser Scaup","Aythya affinis","L247311","Lee Metcalf NWR","2025-06-06 14:35",2,46.5553628,-114.0762529,TRUE,FALSE,FALSE,"S247514922"
"288","lessca","Lesser Scaup","Aythya affinis","L9307120","National Elk Refuge Road, Jackson, Wyoming, US (43.516, -110.693)","2025-06-06 14:28",8,43.5163323,-110.6931087,TRUE,FALSE,TRUE,"S247426663"
"289","lessca","Lesser Scaup","Aythya affinis","L6126355","Agassiz NWR--Lansing Parker Pool","2025-06-06 14:09",4,48.2977554,-96.0306787,TRUE,FALSE,FALSE,"S247406927"
"290","lessca","Lesser Scaup","Aythya affinis","L2318798","Medicine Lake NWR--Scenic Wildlife Loop","2025-06-06 14:02",NA,48.5006247,-104.3254227,TRUE,FALSE,FALSE,"S247506857"
"291","lessca","Lesser Scaup","Aythya affinis","L493044","Philomath Sewage Ponds (restricted access)","2025-06-06 13:57",3,44.5185755,-123.3444586,TRUE,FALSE,FALSE,"S247440260"
"292","lessca","Lesser Scaup","Aythya affinis","L31682749","Grettum Dike Road, Grantsburg, Wisconsin, US (45.707, -92.685)","2025-06-06 13:41",1,45.7065366,-92.6851932,TRUE,FALSE,TRUE,"S247410569"
"293","lessca","Lesser Scaup","Aythya affinis","L3936872","Belgium Prairie","2025-06-06 13:27",2,47.99628,-96.55252,TRUE,FALSE,FALSE,"S247390830"
"294","lessca","Lesser Scaup","Aythya affinis","L355373","Salt Lake (SD side)","2025-06-06 13:26",5,44.9680715,-96.4549424,TRUE,FALSE,FALSE,"S247426065"
"295","lessca","Lesser Scaup","Aythya affinis","L1311142","Yellowstone NP--Lost Lake","2025-06-06 13:21",3,44.9105415,-110.4275537,TRUE,FALSE,FALSE,"S247519082"
"296","lessca","Lesser Scaup","Aythya affinis","L26880511","59440, Floweree US-MT 47.69801, -111.33110","2025-06-06 13:17",4,47.698007,-111.331103,TRUE,FALSE,TRUE,"S247451310"
"297","lessca","Lesser Scaup","Aythya affinis","L2877962","Lake Louise","2025-06-06 12:46",2,47.0507097,-99.4566536,TRUE,FALSE,FALSE,"S247630228"
"298","lessca","Lesser Scaup","Aythya affinis","L571710","Blackfoot WPA","2025-06-06 12:42",3,46.9663054,-112.9723835,TRUE,FALSE,FALSE,"S247384213"
"299","lessca","Lesser Scaup","Aythya affinis","L10540408","Fargo--North Softball Complex","2025-06-06 12:36",2,46.9573243,-96.8593816,TRUE,FALSE,FALSE,"S247367378"
"300","lessca","Lesser Scaup","Aythya affinis","L19544150","Horsehead Lake","2025-06-06 12:30",5,47.0603344,-99.7706273,TRUE,FALSE,TRUE,"S247465251"
"301","lessca","Lesser Scaup","Aythya affinis","L47006750","Pettibone -48th Ave","2025-06-06 12:20",4,47.101134,-99.481312,TRUE,FALSE,TRUE,"S247592407"
"302","lessca","Lesser Scaup","Aythya affinis","L210723","Salt Lake","2025-06-06 12:16",5,44.9645052,-96.4437363,TRUE,FALSE,FALSE,"S247375740"
"303","lessca","Lesser Scaup","Aythya affinis","L46989945","Elk lake road","2025-06-06 12:15",1,44.616624,-111.656104,TRUE,FALSE,TRUE,"S247519658"
"304","lessca","Lesser Scaup","Aythya affinis","L2216585","Antelope Reservoir","2025-06-06 11:51",30,42.9043251,-117.2354507,TRUE,FALSE,FALSE,"S247483185"
"305","lessca","Lesser Scaup","Aythya affinis","L32089139","Shorebirds Lake","2025-06-06 11:39",2,46.6864812,-97.5487848,TRUE,FALSE,TRUE,"S247344887"
"306","lessca","Lesser Scaup","Aythya affinis","L1062918","Dixon Lake","2025-06-06 11:33",1,33.1615529,-117.0498848,TRUE,TRUE,FALSE,"S247457336"
"307","lessca","Lesser Scaup","Aythya affinis","L4647937","Cedar Point Biological Station","2025-06-06 11:25",2,41.2095019,-101.6477233,TRUE,FALSE,FALSE,"S247426424"
"308","lessca","Lesser Scaup","Aythya affinis","L46886114","New Yard List Alpine Wyoming","2025-06-06 11:15",1,43.132451,-111.026459,TRUE,FALSE,TRUE,"S247365251"
"309","lessca","Lesser Scaup","Aythya affinis","L27747103","Yellowstone NP--Hayden Valley-River Overlook","2025-06-06 11:09",2,44.6347871,-110.4479394,TRUE,FALSE,FALSE,"S247492307"
"310","lessca","Lesser Scaup","Aythya affinis","L1107662","MacDill AFB (restricted access)","2025-06-06 11:06",1,27.841171,-82.4837726,TRUE,FALSE,FALSE,"S247358815"
"311","lessca","Lesser Scaup","Aythya affinis","L46985217","22nd St SE","2025-06-06 10:49",6,47.096633,-99.707303,TRUE,FALSE,TRUE,"S247499634"
"312","lessca","Lesser Scaup","Aythya affinis","L1276677","Cullen Park","2025-06-06 10:46",6,41.7046822,-83.4769642,TRUE,TRUE,FALSE,"S247318593"
"313","lessca","Lesser Scaup","Aythya affinis","L46984107","Slough Creek Campground Rd, Yellowstone National Park US-WY 44.93076, -110.31586","2025-06-06 10:43",4,44.930759,-110.315861,TRUE,FALSE,TRUE,"S247494726"
"314","lessca","Lesser Scaup","Aythya affinis","L743100","Grand Teton NP--Two Ocean Lake","2025-06-06 10:20",2,43.9018505,-110.5004883,TRUE,FALSE,FALSE,"S247350925"
"315","lessca","Lesser Scaup","Aythya affinis","L46969422","Lake Ogallala - trail along n and e side","2025-06-06 09:54",1,41.230192,-101.661047,TRUE,FALSE,TRUE,"S247425753"
"316","lessca","Lesser Scaup","Aythya affinis","L4128561","Mockingbird Hills Lake (transient)","2025-06-06 09:49",1,36.446237,-89.0970129,TRUE,TRUE,FALSE,"S247314745"
"317","lessca","Lesser Scaup","Aythya affinis","L955870","Skyline Pond","2025-06-06 09:45",2,43.488206,-110.8286619,TRUE,FALSE,FALSE,"S247436121"
"318","lessca","Lesser Scaup","Aythya affinis","L47044586","Steens Mountain N Loop Rd, Frenchglen US-OR 42.81838, -118.87442","2025-06-06 09:40",1,42.818383,-118.874417,TRUE,FALSE,TRUE,"S247759634"
"319","lessca","Lesser Scaup","Aythya affinis","L5987325","Ochoco Reservoir--east end","2025-06-06 09:29",8,44.3179229,-120.6638986,TRUE,FALSE,FALSE,"S247338386"
"320","lessca","Lesser Scaup","Aythya affinis","L3882767","Yellowstone NP--Hayden Valley--Alum Creek","2025-06-06 09:28",2,44.6774641,-110.4858524,TRUE,FALSE,FALSE,"S247379446"
"321","lessca","Lesser Scaup","Aythya affinis","L4233573","Ocotillo Community Area, Chandler","2025-06-06 09:25",1,33.2512743,-111.8714277,TRUE,TRUE,TRUE,"S247866821"
"322","lessca","Lesser Scaup","Aythya affinis","L19409261","N Side of Horsehead","2025-06-06 08:58",2,47.125718,-99.786845,TRUE,FALSE,TRUE,"S247452793"
"323","lessca","Lesser Scaup","Aythya affinis","L1403263","Washington lake","2025-06-06 08:15",1,41.4963103,-74.0660327,TRUE,FALSE,TRUE,"S247367555"
"324","lessca","Lesser Scaup","Aythya affinis","L1526714","Knik River PUA--Jim Lake","2025-06-06 07:32",2,61.556399,-148.925173,TRUE,FALSE,FALSE,"S247418518"
"325","lessca","Lesser Scaup","Aythya affinis","L4354653","Yellowstone NP--Lamar Valley River Trail","2025-06-06 06:54",2,44.8691921,-110.1658452,TRUE,FALSE,FALSE,"S247494309"
"326","lessca","Lesser Scaup","Aythya affinis","L19409107","22nd Street Area","2025-06-06 06:46",3,47.096996,-99.918196,TRUE,FALSE,TRUE,"S247443306"
"327","lessca","Lesser Scaup","Aythya affinis","L955859","Grand Teton NP--Christian Pond","2025-06-06 06:23",2,43.8759247,-110.565784,TRUE,FALSE,FALSE,"S247294494"
"328","lessca","Lesser Scaup","Aythya affinis","L7499480","Bowdoin NWR--Visitor Center and Display Pond","2025-06-06 06:09",1,48.3934043,-107.7297601,TRUE,FALSE,FALSE,"S247516524"
"329","lessca","Lesser Scaup","Aythya affinis","L46970570","Tufted Duck Spot","2025-06-06 06:03",56,46.1985079,-112.7733761,TRUE,FALSE,TRUE,"S247432680"
"330","lessca","Lesser Scaup","Aythya affinis","L7502187","Wakopa WMA--Hooker Lake","2025-06-06 05:42",2,48.961932,-99.891531,TRUE,FALSE,FALSE,"S247812437"
"331","lessca","Lesser Scaup","Aythya affinis","L2161824","Springer/Bump Sullivan Wildlife Habitat Management Area--Bump-Sullivan Reservoir","2025-06-06 05:41",2,41.863169,-104.3146706,TRUE,FALSE,FALSE,"S247254567"
"332","lessca","Lesser Scaup","Aythya affinis","L728336","Thief Valley Reservoir (Union Co.)","2025-06-06 05:26",15,45.0229344,-117.785368,TRUE,FALSE,FALSE,"S247365139"
"333","lessca","Lesser Scaup","Aythya affinis","L46911256","Newell Area Grasslands","2025-06-06 05:01",5,44.719795,-103.425346,TRUE,FALSE,TRUE,"S247733508"
"334","lessca","Lesser Scaup","Aythya affinis","L8425656","Lake McConaughy--Cedar Vue Campground","2025-06-06 04:41",1,41.2938688,-101.9358952,TRUE,FALSE,FALSE,"S247424833"
"335","lessca","Lesser Scaup","Aythya affinis","L47242935","Minto","2025-06-05 21:30",2,65.1479071,-149.3538952,TRUE,FALSE,TRUE,"S248633818"
"336","lessca","Lesser Scaup","Aythya affinis","L25624545","Potter Marsh--North Pullout","2025-06-05 19:45",3,61.06947,-149.824088,TRUE,FALSE,FALSE,"S248182490"
"337","lessca","Lesser Scaup","Aythya affinis","L245619","Spring Park Reservoir","2025-06-05 19:32",14,39.4391366,-107.0886062,TRUE,FALSE,FALSE,"S247164420"
"338","lessca","Lesser Scaup","Aythya affinis","L33712380","Sandy River Lodge","2025-06-05 19:31",2,56.231547,-160.067524,TRUE,FALSE,TRUE,"S247315991"
"339","lessca","Lesser Scaup","Aythya affinis","L20055656","Gildford Wetlands","2025-06-05 19:18",1,48.5641856,-110.2909179,TRUE,FALSE,FALSE,"S247175516"
"340","lessca","Lesser Scaup","Aythya affinis","L47076777","19436–19458 State Highway 245, Hereford US-OR (44.4964,-118.1850)","2025-06-05 19:18",3,44.496431,-118.184971,TRUE,FALSE,TRUE,"S247888674"
"341","lessca","Lesser Scaup","Aythya affinis","L15345348","Frenchman Dam Rd, Hinsdale US-MT 48.70874, -107.18123","2025-06-05 19:12",2,48.708741,-107.181231,TRUE,FALSE,TRUE,"S247420969"
"342","lessca","Lesser Scaup","Aythya affinis","L3002399","Laurel Sewage Pond","2025-06-05 18:32",3,37.619064,-118.8779034,TRUE,FALSE,FALSE,"S247156371"
"343","lessca","Lesser Scaup","Aythya affinis","L810433","Ryan Dam","2025-06-05 17:50",1,47.5690124,-111.1230826,TRUE,FALSE,FALSE,"S247390719"
"344","lessca","Lesser Scaup","Aythya affinis","L1299729","West Valley Ponds","2025-06-05 17:40",NA,48.2745105,-114.3729973,TRUE,FALSE,FALSE,"S247133047"
"345","lessca","Lesser Scaup","Aythya affinis","L7477845","Sands WPA--East Unit","2025-06-05 17:36",1,48.5316117,-109.706254,TRUE,FALSE,FALSE,"S247175497"
"346","lessca","Lesser Scaup","Aythya affinis","L46909923","Otto Lake Rd, Healy US-AK 63.84813, -149.03771","2025-06-05 17:20",35,63.848125,-149.03771,TRUE,FALSE,TRUE,"S247153683"
"347","lessca","Lesser Scaup","Aythya affinis","L3986351","Homer--Beluga Slough Dam","2025-06-05 16:46",16,59.6407037,-151.5214849,TRUE,FALSE,FALSE,"S247512637"
"348","lessca","Lesser Scaup","Aythya affinis","L716993","Chester Creek & Fish Creek Mouths (Audubon Bench & Fish Creek Bench)","2025-06-05 16:00",5,61.2075708,-149.9289732,TRUE,FALSE,FALSE,"S247133730"
"349","lessca","Lesser Scaup","Aythya affinis","L7583110","Denali Hwy Float Plane Lakes","2025-06-05 15:20",14,63.3943575,-148.668005,TRUE,FALSE,TRUE,"S247170033"
"350","lessca","Lesser Scaup","Aythya affinis","L1170039","KY Dam","2025-06-05 15:11",1,37.0101151,-88.2723684,TRUE,TRUE,FALSE,"S247076416"
"351","lessca","Lesser Scaup","Aythya affinis","L33392915","Grand Mesa Reservoir 1","2025-06-05 15:04",9,39.009805,-108.105262,TRUE,FALSE,TRUE,"S248534647"
"352","lessca","Lesser Scaup","Aythya affinis","L32604928","Sink Lake","2025-06-05 14:58",2,47.110833,-99.645834,TRUE,FALSE,TRUE,"S247157466"
"353","lessca","Lesser Scaup","Aythya affinis","L211504","Red Rock Lakes NWR--Lower","2025-06-05 14:50",10,44.6444638,-111.8869394,TRUE,FALSE,FALSE,"S247751199"
"354","lessca","Lesser Scaup","Aythya affinis","L26378094","O'Neill Forebay--San Luis Cr. Group Campsite","2025-06-05 14:47",2,37.094553,-121.0619545,TRUE,FALSE,TRUE,"S247088332"
"355","lessca","Lesser Scaup","Aythya affinis","L266875","Willcox--Lake Cochise and Twin Lakes Golf Course","2025-06-05 14:45",1,32.2298515,-109.8243175,TRUE,TRUE,FALSE,"S247103251"
"356","lessca","Lesser Scaup","Aythya affinis","L1178205","Osakis Sewage Ponds","2025-06-05 14:41",2,45.8526891,-95.1670074,TRUE,FALSE,FALSE,"S247061672"
"357","lessca","Lesser Scaup","Aythya affinis","L589771","Wilson Lake and Wilson Lake Road (36 to the county line)","2025-06-05 14:31",1,40.3424883,-121.436348,TRUE,FALSE,FALSE,"S247120157"
"358","lessca","Lesser Scaup","Aythya affinis","L15641571","Margaret Eagan Sullivan Park, Anchorage US-AK 61.20753, -149.91878","2025-06-05 14:27",11,61.207532,-149.918785,TRUE,FALSE,TRUE,"S247112123"
"359","lessca","Lesser Scaup","Aythya affinis","L46911147","Kunkel Area","2025-06-05 13:56",2,47.029856,-99.671498,TRUE,FALSE,TRUE,"S247159662"
"360","lessca","Lesser Scaup","Aythya affinis","L23170346","Grand Mesa--Flowing Park Reservoir","2025-06-05 13:18",2,38.9587045,-108.1041167,TRUE,FALSE,FALSE,"S248535781"
"361","lessca","Lesser Scaup","Aythya affinis","L272215","Wyoming Hereford Ranch Reservoir #1","2025-06-05 13:11",2,41.1167222,-104.7379491,TRUE,FALSE,FALSE,"S247093316"
"362","lessca","Lesser Scaup","Aythya affinis","L46896775","959–981 County Road 115, Alturas US-CA 41.42578, -120.52570","2025-06-05 13:05",NA,41.425778,-120.525699,TRUE,FALSE,TRUE,"S247082097"
"363","lessca","Lesser Scaup","Aythya affinis","L265765","Potholes SP","2025-06-05 12:42",2,46.9809077,-119.3508177,TRUE,FALSE,FALSE,"S247073761"
"364","lessca","Lesser Scaup","Aythya affinis","L211505","Red Rock Lakes NWR--Upper","2025-06-05 12:29",8,44.591557,-111.7328195,TRUE,FALSE,FALSE,"S247750802"
"365","lessca","Lesser Scaup","Aythya affinis","L7276896","National Elk Refuge--Bert's Bench","2025-06-05 12:12",4,43.486779,-110.7611743,TRUE,FALSE,FALSE,"S247280601"
"366","lessca","Lesser Scaup","Aythya affinis","L3485867","Cedar Lake","2025-06-05 12:12",1,41.6636791,-122.4067926,TRUE,FALSE,FALSE,"S247144883"
"367","lessca","Lesser Scaup","Aythya affinis","L453748","Rockport Reservoir & SP","2025-06-05 12:10",1,40.7691018,-111.397934,TRUE,FALSE,FALSE,"S248732978"
"368","lessca","Lesser Scaup","Aythya affinis","L286222","McElroy Lake (transient, park ONLY along gravel field entrance at south end of lake. Do not go around owners buildings or equipment or walk through crops. Do not walk onto the property west of Hwy. 884)","2025-06-05 11:58",2,36.8646144,-86.5103606,TRUE,TRUE,FALSE,"S247152900"
"369","lessca","Lesser Scaup","Aythya affinis","L26339195","Grand Mesa NF - FR100","2025-06-05 11:28",8,39.033954,-108.129158,TRUE,FALSE,TRUE,"S248536016"
"370","lessca","Lesser Scaup","Aythya affinis","L4411097","South Park Loop Road and Bikepath","2025-06-05 11:10",2,43.4156701,-110.8060455,TRUE,FALSE,TRUE,"S247081504"
"371","lessca","Lesser Scaup","Aythya affinis","L3019469","Red Rock Lakes NWR--Wigeon Pond","2025-06-05 10:54",8,44.6434983,-111.651907,TRUE,FALSE,FALSE,"S247750653"
"372","lessca","Lesser Scaup","Aythya affinis","L321969","Lake Sammamish SP","2025-06-05 10:23",1,47.5597558,-122.0549817,TRUE,FALSE,FALSE,"S248352871"
"373","lessca","Lesser Scaup","Aythya affinis","L375955","Dewald Slough","2025-06-05 10:05",2,46.8044071,-99.7814369,TRUE,FALSE,FALSE,"S246980939"
"374","lessca","Lesser Scaup","Aythya affinis","L6310353","Cottonwood Reservoir, Wilsall US-MT (46.0383,-110.6934)","2025-06-05 09:59",8,46.038344,-110.693401,TRUE,FALSE,TRUE,"S247144891"
"375","lessca","Lesser Scaup","Aythya affinis","L6471373","Quivira NWR--Big Salt Marsh--NE 170th St.","2025-06-05 09:53",8,38.2017745,-98.5267379,TRUE,FALSE,FALSE,"S246975881"
"376","lessca","Lesser Scaup","Aythya affinis","L34588838","Wiseman Rd, To Hammond Rd, To Dalton HWY loop, Wiseman, AK 99709","2025-06-05 09:51",2,67.437111,-150.0907322,TRUE,FALSE,TRUE,"S247057939"
"377","lessca","Lesser Scaup","Aythya affinis","L46866162","2080 West Mosherville Road, Jonesville, Michigan, US (42.059, -84.66)","2025-06-05 09:47",1,42.0586658,-84.6602698,TRUE,TRUE,TRUE,"S246941359"
"378","lessca","Lesser Scaup","Aythya affinis","L1788998","Wells WTP","2025-06-05 09:45",3,43.7470443,-93.7524643,TRUE,FALSE,FALSE,"S246966843"
"379","lessca","Lesser Scaup","Aythya affinis","L4685650","Yellowstone NP--Slough Creek","2025-06-05 09:41",2,44.9268147,-110.3228295,TRUE,FALSE,FALSE,"S247054182"
"380","lessca","Lesser Scaup","Aythya affinis","L2898401","Nome-Teller Hwy.--Snake River","2025-06-05 09:36",2,64.5643458,-165.5115759,TRUE,FALSE,FALSE,"S247167563"
"381","lessca","Lesser Scaup","Aythya affinis","L11455319","Nome-Teller Hwy.--Six Mile Pond","2025-06-05 09:27",2,64.5615528,-165.4910246,TRUE,FALSE,FALSE,"S247166994"
"382","lessca","Lesser Scaup","Aythya affinis","L46985778","Ted Stevens Anchorage International Airport, Anchorage US-AK (61.1736,-149.9810)","2025-06-05 09:15",NA,61.173623,-149.981007,TRUE,FALSE,TRUE,"S247502090"
"383","lessca","Lesser Scaup","Aythya affinis","L1475059","Whiting Overlook Park","2025-06-05 09:10",2,43.5898845,-84.2454996,TRUE,TRUE,FALSE,"S247069936"
"384","lessca","Lesser Scaup","Aythya affinis","L749295","Hayward Regional Shoreline--Grant Ave. access","2025-06-05 09:10",1,37.6679579,-122.1614027,TRUE,FALSE,FALSE,"S247020432"
"385","lessca","Lesser Scaup","Aythya affinis","L37773241","Rawlins water supply","2025-06-05 08:23",9,41.713175,-107.268163,TRUE,FALSE,TRUE,"S246962780"
"386","lessca","Lesser Scaup","Aythya affinis","L9875848","Des Lacs NWR--Tasker's Coulee","2025-06-05 08:21",6,48.645566,-102.0915576,TRUE,FALSE,FALSE,"S247117983"
"387","lessca","Lesser Scaup","Aythya affinis","L11497596","Ontonagon sewage ponds","2025-06-05 08:10",1,46.858091,-89.3033636,TRUE,FALSE,FALSE,"S246922902"
"388","lessca","Lesser Scaup","Aythya affinis","L474833","Great Lakes Naval Training Center (restricted access)","2025-06-05 08:00",6,42.3081334,-87.8343201,TRUE,TRUE,FALSE,"S246965691"
"389","lessca","Lesser Scaup","Aythya affinis","L1637039","Redmond Sewage Ponds (restricted access)","2025-06-05 07:40",2,44.3352042,-121.2192706,TRUE,FALSE,FALSE,"S247032126"
"390","lessca","Lesser Scaup","Aythya affinis","L2866968","Pier 3 Bike Path overlook","2025-06-05 07:39",3,46.1843493,-123.8628373,TRUE,FALSE,FALSE,"S246971131"
"391","lessca","Lesser Scaup","Aythya affinis","L319397","Bear Butte Lake","2025-06-05 07:36",2,44.4563502,-103.4452331,TRUE,FALSE,FALSE,"S246954918"
"392","lessca","Lesser Scaup","Aythya affinis","L10015245","pond","2025-06-05 07:15",1,43.0247513,-88.2943025,TRUE,TRUE,TRUE,"S246914346"
"393","lessca","Lesser Scaup","Aythya affinis","L46900711","30th St SE","2025-06-05 07:00",4,46.981034,-99.811826,TRUE,FALSE,TRUE,"S247101737"
"394","lessca","Lesser Scaup","Aythya affinis","L1217734","Toolik Field Station","2025-06-05 06:45",2,68.627808,-149.593389,TRUE,FALSE,FALSE,"S246999334"
"395","lessca","Lesser Scaup","Aythya affinis","L14729424","Robinson (town)","2025-06-05 06:27",1,47.142682,-99.781228,TRUE,FALSE,FALSE,"S247223634"
"396","lessca","Lesser Scaup","Aythya affinis","L390336","Prairie Lakes Park","2025-06-05 06:21",1,42.479,-92.46,TRUE,TRUE,FALSE,"S246966778"
"397","lessca","Lesser Scaup","Aythya affinis","L159297","Craney Island Disposal Area (restricted access)","2025-06-05 05:50",1,36.9065,-76.37,TRUE,TRUE,FALSE,"S247065433"
"398","lessca","Lesser Scaup","Aythya affinis","L46941512","Grassy Lakes Rd, Moran US-WY 44.10722, -110.66716","2025-06-05 05:22",4,44.107219,-110.667157,TRUE,FALSE,TRUE,"S247307435"
"399","lessca","Lesser Scaup","Aythya affinis","L15359027","Cooperstown BBS--stop 02","2025-06-05 05:15",2,47.4858929,-98.231905,TRUE,FALSE,TRUE,"S246873320"
"400","lessca","Lesser Scaup","Aythya affinis","L5693722","Red Rock Lakes NWR, Sparrow ponds","2025-06-04 20:07",6,44.6116222,-111.7954588,TRUE,FALSE,TRUE,"S247520926"
"401","lessca","Lesser Scaup","Aythya affinis","L33185633","Lonesome Lake area","2025-06-04 19:58",3,48.2623522,-110.1991894,TRUE,FALSE,TRUE,"S246824285"
"402","lessca","Lesser Scaup","Aythya affinis","L357257","Roseau Sewage Lagoons","2025-06-04 19:19",10,48.869655,-95.7280397,TRUE,FALSE,FALSE,"S246819211"
"403","lessca","Lesser Scaup","Aythya affinis","L504373","Fayette River Bottoms -- Fayette River Ln","2025-06-04 19:15",2,39.2095661,-111.8635011,TRUE,FALSE,FALSE,"S246821242"
"404","lessca","Lesser Scaup","Aythya affinis","L25324215","South Lonesome Lake Road ponds","2025-06-04 18:59",5,48.2302922,-110.2037043,TRUE,FALSE,TRUE,"S246824267"
"405","lessca","Lesser Scaup","Aythya affinis","L33424038","Beaver Pond by Nolan Rd","2025-06-04 18:54",4,67.4222689,-150.1159221,TRUE,FALSE,TRUE,"S246836501"
"406","lessca","Lesser Scaup","Aythya affinis","L453007","Chesapeake Beach Marina","2025-06-04 18:50",1,38.6904298,-76.5332723,TRUE,FALSE,FALSE,"S246781119"
"407","lessca","Lesser Scaup","Aythya affinis","L5929085","Next to Lake Wolford.","2025-06-04 18:35",1,40.1862012,-106.410892,TRUE,FALSE,TRUE,"S248349819"
"408","lessca","Lesser Scaup","Aythya affinis","L6643183","FIS Ponds","2025-06-04 18:24",1,27.8777421,-82.6511282,TRUE,FALSE,FALSE,"S246771977"
"409","lessca","Lesser Scaup","Aythya affinis","L1739531","Cat Island Causeway (restricted access)","2025-06-04 17:55",2,44.5660227,-88.0053408,TRUE,FALSE,FALSE,"S246967021"
"410","lessca","Lesser Scaup","Aythya affinis","L2182908","North Ottawa Impoundment","2025-06-04 17:43",3,45.9856315,-96.2471008,TRUE,FALSE,FALSE,"S246817979"
"411","lessca","Lesser Scaup","Aythya affinis","L11902905","Modoc NWR--Discover Modoc Wildlife viewpoint","2025-06-04 17:39",40,41.471511,-120.546006,TRUE,FALSE,FALSE,"S246812718"
"412","lessca","Lesser Scaup","Aythya affinis","L46969517","Illinois River Lookout","2025-06-04 17:38",2,40.7136916,-106.2710583,TRUE,FALSE,TRUE,"S247426263"
"413","lessca","Lesser Scaup","Aythya affinis","L13991078","Menominee Park--Millers Bay","2025-06-04 16:51",4,44.0316474,-88.5170832,TRUE,TRUE,FALSE,"S246760912"
"414","lessca","Lesser Scaup","Aythya affinis","L15523761","Hood Lake, Anchorage US-AK (61.1772,-149.9493)","2025-06-04 16:49",10,61.177183,-149.949279,TRUE,FALSE,TRUE,"S246813283"
"415","lessca","Lesser Scaup","Aythya affinis","L859757","Boardman Lake--Logans Landing","2025-06-04 16:04",1,44.7351727,-85.6166455,TRUE,FALSE,FALSE,"S248933314"
"416","lessca","Lesser Scaup","Aythya affinis","L151646","Walden Reservoir","2025-06-04 15:54",8,40.7321439,-106.3120244,TRUE,FALSE,FALSE,"S246817333"
"417","lessca","Lesser Scaup","Aythya affinis","L158902","McKenzie Slough","2025-06-04 15:44",2,46.7942788,-100.4157696,TRUE,FALSE,FALSE,"S247833945"
"418","lessca","Lesser Scaup","Aythya affinis","L25708686","Yellowstone NP--Floating Island Lake","2025-06-04 15:19",1,44.9420592,-110.4501509,TRUE,FALSE,FALSE,"S246783615"
"419","lessca","Lesser Scaup","Aythya affinis","L46829195","Horsehead Lake—South (29th Street)","2025-06-04 14:55",10,46.995506,-99.799625,TRUE,FALSE,TRUE,"S246747145"
"420","lessca","Lesser Scaup","Aythya affinis","L379970","Dalton Hwy.--Sagwon Bluffs to Franklin Bluffs (mm 343 to mm 377.5)","2025-06-04 14:40",3,69.6432749,-148.6858713,TRUE,FALSE,FALSE,"S247918151"
"421","lessca","Lesser Scaup","Aythya affinis","L5693125","Coalmont area","2025-06-04 14:25",1,40.5618609,-106.4454014,TRUE,FALSE,FALSE,"S246750392"
"422","lessca","Lesser Scaup","Aythya affinis","L152046","Lordsburg Sewage Ponds","2025-06-04 14:17",1,32.3592192,-108.6999428,TRUE,TRUE,FALSE,"S246755175"
"423","lessca","Lesser Scaup","Aythya affinis","L852175","Kaibab NF--Kaibab Plateau","2025-06-04 14:12",2,36.6039528,-112.1347046,TRUE,TRUE,FALSE,"S246828822"
"424","lessca","Lesser Scaup","Aythya affinis","L937659","Kenai--Tarbox Wildlife Viewing Platform","2025-06-04 13:20",4,60.5420341,-151.2194681,TRUE,FALSE,FALSE,"S246797516"
"425","lessca","Lesser Scaup","Aythya affinis","L11570251","Harriman State Park","2025-06-04 13:17",40,44.3230444,-111.4603958,TRUE,FALSE,FALSE,"S246832810"
"426","lessca","Lesser Scaup","Aythya affinis","L42670003","Cattail Pond","2025-06-04 12:55",3,45.0052093,-110.7042195,TRUE,FALSE,TRUE,"S246712529"
"427","lessca","Lesser Scaup","Aythya affinis","L46847346","Dalton Highway, Anchorage, Alaska, US (69.013, -148.823)","2025-06-04 12:43",12,69.0134217,-148.8231676,TRUE,FALSE,TRUE,"S246839686"
"428","lessca","Lesser Scaup","Aythya affinis","L109541","North Potholes Reserve","2025-06-04 12:27",2,47.058487,-119.419928,TRUE,FALSE,FALSE,"S247057033"
"429","lessca","Lesser Scaup","Aythya affinis","L838336","Walla Walla Point Park","2025-06-04 12:25",1,47.4456057,-120.3176308,TRUE,FALSE,FALSE,"S246726460"
"430","lessca","Lesser Scaup","Aythya affinis","L29021925","Kenai Trail, Lee Metcalf WR","2025-06-04 12:19",8,46.559086,-114.074849,TRUE,FALSE,TRUE,"S246744899"
"431","lessca","Lesser Scaup","Aythya affinis","L19398019","Lake Helena WMA","2025-06-04 12:03",8,46.7019902,-111.9577884,TRUE,FALSE,TRUE,"S247471873"
"432","lessca","Lesser Scaup","Aythya affinis","L46812398","24299–24933 240th St NE, Thief River Falls US-MN 48.22199, -96.03635","2025-06-04 11:58",1,48.221986,-96.03635,TRUE,FALSE,TRUE,"S246674002"
"433","lessca","Lesser Scaup","Aythya affinis","L467251","Hebron Fish Hatchery and Wetlands","2025-06-04 11:56",1,39.935013,-82.5143623,TRUE,TRUE,FALSE,"S246683469"
"434","lessca","Lesser Scaup","Aythya affinis","L46813530","Road to Chase Lake","2025-06-04 11:30",1,47.1330826,-99.4179043,TRUE,FALSE,TRUE,"S246680766"
"435","lessca","Lesser Scaup","Aythya affinis","L25046923","Red Rock Lakes NWR--Shambow Pond","2025-06-04 11:10",15,44.593714,-111.7474796,TRUE,FALSE,FALSE,"S246816334"
"436","lessca","Lesser Scaup","Aythya affinis","L46843599","Clark's Fork Trail","2025-06-04 10:45",2,44.8404527,-109.3314896,TRUE,FALSE,TRUE,"S246823088"
"437","lessca","Lesser Scaup","Aythya affinis","L242207","Masonville Cove (Open Mon - Sat 9-4, Closed Sun)","2025-06-04 10:18",1,39.2429356,-76.5941797,TRUE,FALSE,FALSE,"S246673038"
"438","lessca","Lesser Scaup","Aythya affinis","L37656863","Moscow Lake WPA","2025-06-04 10:16",2,48.720365,-98.715627,TRUE,FALSE,TRUE,"S246663943"
"439","lessca","Lesser Scaup","Aythya affinis","L11620443","McPhail Slough","2025-06-04 10:00",1,46.9739957,-99.6775792,TRUE,FALSE,FALSE,"S246986751"
"440","lessca","Lesser Scaup","Aythya affinis","L5928816","Antelope Reservoir","2025-06-04 10:00",1,40.2126701,-106.3824606,TRUE,FALSE,TRUE,"S248347549"
"441","lessca","Lesser Scaup","Aythya affinis","L379017","Warren Sewage Lagoons","2025-06-04 09:42",NA,48.2042834,-96.7997217,TRUE,FALSE,FALSE,"S246654224"
"442","lessca","Lesser Scaup","Aythya affinis","L46805200","27th Ave SE potholes, Tuttle US-ND","2025-06-04 09:40",2,47.122967,-99.925859,TRUE,FALSE,TRUE,"S246643340"
"443","lessca","Lesser Scaup","Aythya affinis","L46808252","R6 Ranch (Private)","2025-06-04 09:24",2,48.1007126,-102.3762356,TRUE,FALSE,TRUE,"S246656810"
"444","lessca","Lesser Scaup","Aythya affinis","L11240385","Hubbard Recreation Area","2025-06-04 09:22",4,43.509774,-116.3577142,TRUE,FALSE,TRUE,"S246687815"
"445","lessca","Lesser Scaup","Aythya affinis","L1174183","Brush Lake SP","2025-06-04 08:15",18,48.599771,-104.1085052,TRUE,FALSE,FALSE,"S246703893"
"446","lessca","Lesser Scaup","Aythya affinis","L46801219","County Road 215 (Geyser)","2025-06-04 07:47",7,47.2716231,-110.4459871,TRUE,FALSE,TRUE,"S246624662"
"447","lessca","Lesser Scaup","Aythya affinis","L24704682","Mud Lake WMA--Camas Creek Delta","2025-06-04 07:46",2,43.8888989,-112.3570382,TRUE,FALSE,FALSE,"S246627258"
"448","lessca","Lesser Scaup","Aythya affinis","L46834238","59832, Drummond US-MT 46.78069, -113.07963","2025-06-04 07:41",2,46.780688,-113.079625,TRUE,FALSE,TRUE,"S246772007"
"449","lessca","Lesser Scaup","Aythya affinis","L1588623","Tuttle School Section Prairie","2025-06-04 07:10",2,47.1222881,-99.9364411,TRUE,FALSE,FALSE,"S246605866"
"450","lessca","Lesser Scaup","Aythya affinis","L6326941","Lexington St. Pond and wetlands","2025-06-04 07:00",3,45.9902219,-112.5300783,TRUE,FALSE,FALSE,"S246711418"
"451","lessca","Lesser Scaup","Aythya affinis","L46799300","Simplot Jack Ranch (Private)","2025-06-04 06:55",1,42.198899,-114.67347,TRUE,FALSE,TRUE,"S246615134"
"452","lessca","Lesser Scaup","Aythya affinis","L46797752","477 Blue Trail Rd, Westby US-MT (48.7951,-104.1796)","2025-06-04 06:42",14,48.795061,-104.179605,TRUE,FALSE,TRUE,"S246606913"
"453","lessca","Lesser Scaup","Aythya affinis","L2231788","Fish Lake (Chelan Co.)","2025-06-04 06:19",5,47.8307071,-120.7125806,TRUE,FALSE,FALSE,"S246671988"
"454","lessca","Lesser Scaup","Aythya affinis","L46793263","Dramamine Dam pond","2025-06-04 06:15",1,47.2965993,-110.4760892,TRUE,FALSE,TRUE,"S246580832"
"455","lessca","Lesser Scaup","Aythya affinis","L46314600","1400–1440 26th St NW, Ruso US-ND (47.7903,-100.8859)","2025-06-04 06:10",2,47.790251,-100.88587,TRUE,FALSE,TRUE,"S246785756"
"456","lessca","Lesser Scaup","Aythya affinis","L209342","Henderson Bird Viewing Preserve","2025-06-04 06:06",2,36.0749791,-115.0021416,TRUE,FALSE,FALSE,"S246696498"
"457","lessca","Lesser Scaup","Aythya affinis","L9277633","Haystack Reservoir--South Shore Campground","2025-06-04 05:35",2,44.491758,-121.152387,TRUE,FALSE,FALSE,"S246691729"
"458","lessca","Lesser Scaup","Aythya affinis","L7622448","Medicine Lake NWR--E Lake Hwy crossing","2025-06-03 20:02",8,48.5020635,-104.2924592,TRUE,FALSE,FALSE,"S246503644"
"459","lessca","Lesser Scaup","Aythya affinis","L16773363","Stanford Cemetery","2025-06-03 19:26",1,47.1560736,-110.2036117,TRUE,FALSE,FALSE,"S246496217"
"460","lessca","Lesser Scaup","Aythya affinis","L385011","Interstate Island WMA (MN)","2025-06-03 19:25",4,46.7495946,-92.1092033,TRUE,FALSE,FALSE,"S246487598"
"461","lessca","Lesser Scaup","Aythya affinis","L4682665","Bear Lake NWR--Dingle Unit","2025-06-03 19:20",3,42.2321105,-111.3492626,TRUE,FALSE,FALSE,"S246615348"
"462","lessca","Lesser Scaup","Aythya affinis","L6629508","3155 Newfound Harbor Drive, Merritt Island, Florida, US (28.303, -80.659)","2025-06-03 19:17",2,28.3034436,-80.6589666,TRUE,FALSE,TRUE,"S246460464"
"463","lessca","Lesser Scaup","Aythya affinis","L46776759","Five Corners","2025-06-03 19:15",2,42.1863715,-120.4343957,TRUE,FALSE,TRUE,"S246495517"
"464","lessca","Lesser Scaup","Aythya affinis","L7064499","5170-5376 Ninepipe Road, Charlo, Montana, US (47.455, -114.139)","2025-06-03 19:14",3,47.454723,-114.1387466,TRUE,FALSE,TRUE,"S246484572"
"465","lessca","Lesser Scaup","Aythya affinis","L12845547","Dawson (town)","2025-06-03 18:18",2,46.8665452,-99.7513444,TRUE,FALSE,FALSE,"S246492986"
"466","lessca","Lesser Scaup","Aythya affinis","L2456755","Diamond Lane (Cut-off)","2025-06-03 18:12",1,43.0365051,-118.7762189,TRUE,FALSE,TRUE,"S246493807"
"467","lessca","Lesser Scaup","Aythya affinis","L3717427","Nome-Council Rd.--Safety Sound Bridge to Last Train to Nowhere","2025-06-03 17:59",4,64.5153332,-164.5622527,TRUE,FALSE,FALSE,"S246509403"
"468","lessca","Lesser Scaup","Aythya affinis","L46807766","87th Avenue Northwest, Ross, North Dakota, US (48.223, -102.505)","2025-06-03 17:46",2,48.2225254,-102.504608,TRUE,FALSE,TRUE,"S246654536"
"469","lessca","Lesser Scaup","Aythya affinis","L22322455","Kensington Rune Stone Park","2025-06-03 17:31",6,45.8124612,-95.6696682,TRUE,FALSE,FALSE,"S246473802"
"470","lessca","Lesser Scaup","Aythya affinis","L46807685","87th Avenue Northwest, Ross, North Dakota, US (48.232, -102.503)","2025-06-03 17:19",5,48.2319255,-102.5028109,TRUE,FALSE,TRUE,"S246654176"
"471","lessca","Lesser Scaup","Aythya affinis","L3633383","MN Douglas_ Runestone Park","2025-06-03 17:10",6,45.814653,-95.6677437,TRUE,FALSE,TRUE,"S246481491"
"472","lessca","Lesser Scaup","Aythya affinis","L33255628","Minnesota Point (general)","2025-06-03 16:34",2,46.7560386,-92.0758598,TRUE,FALSE,FALSE,"S246443203"
"473","lessca","Lesser Scaup","Aythya affinis","L46764494","US-2 E, Palermo US-ND 48.32742, -102.14914","2025-06-03 15:56",4,48.327424,-102.149143,TRUE,FALSE,TRUE,"S246430969"
"474","lessca","Lesser Scaup","Aythya affinis","L3942996","Shillapoo Lake","2025-06-03 15:56",2,45.6956365,-122.7440187,TRUE,FALSE,FALSE,"S246462365"
"475","lessca","Lesser Scaup","Aythya affinis","L46775893","Mud Lake WMA","2025-06-03 15:45",NA,43.8602798,-112.4159594,TRUE,FALSE,TRUE,"S246491984"
"476","lessca","Lesser Scaup","Aythya affinis","L2426392","Yutan Sewage Ponds","2025-06-03 15:34",1,41.2220678,-96.3867152,TRUE,FALSE,FALSE,"S246409621"
"477","lessca","Lesser Scaup","Aythya affinis","L1335210","Houghton Lake Sewage Ponds (limited access; M-F 8-4 only)","2025-06-03 14:57",3,44.3129628,-84.7989039,TRUE,FALSE,FALSE,"S246487878"
"478","lessca","Lesser Scaup","Aythya affinis","L986224","Grayling Sewage Ponds","2025-06-03 14:55",1,44.6436816,-84.7025299,TRUE,FALSE,FALSE,"S246487925"
"479","lessca","Lesser Scaup","Aythya affinis","L3462481","Yellowstone NP--Arnica Creek Picnic Area","2025-06-03 14:54",7,44.4730677,-110.5260766,TRUE,FALSE,FALSE,"S246504860"
"480","lessca","Lesser Scaup","Aythya affinis","L888872","Baraga Sewage Ponds","2025-06-03 14:34",2,46.7545932,-88.5136485,TRUE,FALSE,FALSE,"S246456978"
"481","lessca","Lesser Scaup","Aythya affinis","L443388","Isle Royale NP","2025-06-03 14:29",NA,47.8684591,-89.0771484,TRUE,FALSE,FALSE,"S246379135"
"482","lessca","Lesser Scaup","Aythya affinis","L4766090","Yellowstone NP--Specimen Ridge Trail, West End","2025-06-03 13:50",2,44.9118446,-110.3873795,TRUE,FALSE,FALSE,"S246482701"
"483","lessca","Lesser Scaup","Aythya affinis","L109181","Kootenai NWR","2025-06-03 13:48",7,48.7166667,-116.4,TRUE,FALSE,FALSE,"S246453112"
"484","lessca","Lesser Scaup","Aythya affinis","L46767018","Clark Canyon Reservoir--Horse Prairie Inlet","2025-06-03 13:41",2,44.9760834,-112.9183384,TRUE,FALSE,TRUE,"S246446583"
"485","lessca","Lesser Scaup","Aythya affinis","L560915","Deadhorse (town)","2025-06-03 13:37",5,70.2002364,-148.4568787,TRUE,FALSE,FALSE,"S246469337"
"486","lessca","Lesser Scaup","Aythya affinis","L46775197","Market Lake WMA","2025-06-03 13:30",NA,43.7429099,-112.1220982,TRUE,FALSE,TRUE,"S246488347"
"487","lessca","Lesser Scaup","Aythya affinis","L632907","FLX Marine (Frontenac marina) (private)","2025-06-03 13:29",2,42.8396606,-76.6973591,TRUE,TRUE,FALSE,"S246440321"
"488","lessca","Lesser Scaup","Aythya affinis","L9191749","Big Muddy Lake West","2025-06-03 13:21",2,46.9279537,-99.7208095,TRUE,FALSE,TRUE,"S246495071"
"489","lessca","Lesser Scaup","Aythya affinis","L30147475","Le Roy WTP","2025-06-03 13:20",3,43.5116209,-92.4840273,TRUE,FALSE,FALSE,"S246402939"
"490","lessca","Lesser Scaup","Aythya affinis","L44662402","Clark Canyon Reservoir--Moose Trail","2025-06-03 13:17",4,44.967661,-112.9119459,TRUE,FALSE,FALSE,"S246402741"
"491","lessca","Lesser Scaup","Aythya affinis","L9155870","21243 Liberty Rd SE, Pine City US-MN (45.7955,-92.9348)","2025-06-03 13:13",1,45.795507,-92.934818,TRUE,FALSE,TRUE,"S246363503"
"492","lessca","Lesser Scaup","Aythya affinis","L46778878","Lost Lake Trail Loop","2025-06-03 13:05",3,44.913861,-110.422974,TRUE,FALSE,TRUE,"S246507242"
"493","lessca","Lesser Scaup","Aythya affinis","L46778768","State Highway 17 N, Coulee City US-WA 47.50155, -119.50702","2025-06-03 13:03",22,47.50155,-119.50702,TRUE,FALSE,TRUE,"S246505888"
"494","lessca","Lesser Scaup","Aythya affinis","L46764751","WWW 19","2025-06-03 13:03",4,42.5630481,-119.8076853,TRUE,FALSE,TRUE,"S246432302"
"495","lessca","Lesser Scaup","Aythya affinis","L906328","Fairbanks Int. Airpt--Float Plane Ponds (possibly restricted)","2025-06-03 13:00",2,64.8246316,-147.8380394,TRUE,FALSE,FALSE,"S246838554"
"496","lessca","Lesser Scaup","Aythya affinis","L299772","Yellowstone NP--Floating Island Lake","2025-06-03 12:40",8,44.9423636,-110.4497081,TRUE,FALSE,FALSE,"S246381091"
"497","lessca","Lesser Scaup","Aythya affinis","L4830353","Denali Hwy.--Seventeen Mile Lake","2025-06-03 12:30",2,63.0417855,-145.8861981,TRUE,FALSE,FALSE,"S248562425"
"498","lessca","Lesser Scaup","Aythya affinis","L754091","Kenny Lake","2025-06-03 12:30",20,61.731924,-144.9402344,TRUE,FALSE,FALSE,"S246517996"
"499","lessca","Lesser Scaup","Aythya affinis","L46778722","Lake Lenore 6.0 miles n of Soap Lake Park","2025-06-03 12:28",4,47.475124,-119.517623,TRUE,FALSE,TRUE,"S246505641"
"500","lessca","Lesser Scaup","Aythya affinis","L4344479","Lee Metcalf NWR--Kenai Trail","2025-06-03 12:12",10,46.5603357,-114.073416,TRUE,FALSE,FALSE,"S246400168"
"501","lessca","Lesser Scaup","Aythya affinis","L3214744","Holy Family Catholic Church","2025-06-03 11:46",1,27.8423017,-82.6338279,TRUE,FALSE,TRUE,"S246315091"
"502","lessca","Lesser Scaup","Aythya affinis","L4512907","Browerville WTP","2025-06-03 11:30",2,46.0736846,-94.8622763,TRUE,FALSE,TRUE,"S246332622"
"503","lessca","Lesser Scaup","Aythya affinis","L1308896","Round Lake","2025-06-03 11:30",9,48.8904552,-104.0612984,TRUE,FALSE,FALSE,"S246359172"
"504","lessca","Lesser Scaup","Aythya affinis","L16557076","Bridger-Teton National Forest, Jackson US-WY 43.79790, -110.36700","2025-06-03 11:30",8,43.797899,-110.367002,TRUE,FALSE,TRUE,"S246402785"
"505","lessca","Lesser Scaup","Aythya affinis","L46764892","Abbot School Land","2025-06-03 11:30",4,46.9881379,-99.7446206,TRUE,FALSE,TRUE,"S246435625"
"506","lessca","Lesser Scaup","Aythya affinis","L18305452","Oneida Nation - ""Where the Water Birds Nest"" (restricted access)","2025-06-03 10:50",2,44.4657829,-88.1903616,TRUE,FALSE,FALSE,"S246355615"
"507","lessca","Lesser Scaup","Aythya affinis","L1560390","Scottsbluff WTP","2025-06-03 10:00",5,41.8389696,-103.6064671,TRUE,TRUE,FALSE,"S246427084"
"508","lessca","Lesser Scaup","Aythya affinis","L598381","Chickahominy Reservoir","2025-06-03 09:29",2,43.5485481,-119.6205139,TRUE,FALSE,FALSE,"S246485992"
"509","lessca","Lesser Scaup","Aythya affinis","L159547","Williston Marsh","2025-06-03 09:15",2,48.1357786,-103.6119,TRUE,FALSE,FALSE,"S246309637"
"510","lessca","Lesser Scaup","Aythya affinis","L46764163","Quartz Ridge Trail, Polebridge US-MT 48.75284, -114.24628","2025-06-03 09:09",1,48.752837,-114.246282,TRUE,FALSE,TRUE,"S246429310"
"511","lessca","Lesser Scaup","Aythya affinis","L9297170","Second Bridge--lagoon & wetlands","2025-06-03 09:04",1,66.8949965,-162.566362,TRUE,FALSE,FALSE,"S246372012"
"512","lessca","Lesser Scaup","Aythya affinis","L2306066","Glacier NP--Hidden Meadow Trail","2025-06-03 08:59",4,48.7571813,-114.2348957,TRUE,FALSE,FALSE,"S246428428"
"513","lessca","Lesser Scaup","Aythya affinis","L770037","Greencastle Reservoir","2025-06-03 08:41",2,39.7922154,-77.6888108,TRUE,TRUE,FALSE,"S246251576"
"514","lessca","Lesser Scaup","Aythya affinis","L155141","Nome--Center Creek Rd.","2025-06-03 08:36",2,64.52735,-165.41586,TRUE,FALSE,FALSE,"S246663461"
"515","lessca","Lesser Scaup","Aythya affinis","L46774805","Camas NWR","2025-06-03 08:25",NA,43.9643916,-112.264659,TRUE,FALSE,TRUE,"S246487113"
"516","lessca","Lesser Scaup","Aythya affinis","L1864864","Bay View Park","2025-06-03 08:22",1,41.6959289,-83.4729141,TRUE,FALSE,FALSE,"S246262970"
"517","lessca","Lesser Scaup","Aythya affinis","L1130613","Nik and Nik Gravel Ponds","2025-06-03 08:16",2,37.4185723,-118.4019756,TRUE,FALSE,FALSE,"S246314428"
"518","lessca","Lesser Scaup","Aythya affinis","L1873962","Yellowstone NP--Grizzly Overlook","2025-06-03 08:04",5,44.6683445,-110.4707959,TRUE,FALSE,FALSE,"S246352718"
"519","lessca","Lesser Scaup","Aythya affinis","L7384043","Galen Ponds","2025-06-03 08:00",9,46.2376837,-112.7566338,TRUE,FALSE,TRUE,"S246717033"
"520","lessca","Lesser Scaup","Aythya affinis","L159273","Tony Knowles Coastal Trail--Chester Creek to Ship Creek","2025-06-03 07:47",3,61.2155506,-149.9119878,TRUE,FALSE,FALSE,"S246364243"
"521","lessca","Lesser Scaup","Aythya affinis","L1384918","Philomath Sewage Ponds--northeast pond","2025-06-03 07:28",1,44.524156,-123.34548,TRUE,FALSE,TRUE,"S246332742"
"522","lessca","Lesser Scaup","Aythya affinis","L1384916","Philomath Sewage Ponds--south pond","2025-06-03 07:18",3,44.519245,-123.3463919,TRUE,FALSE,TRUE,"S246332739"
"523","lessca","Lesser Scaup","Aythya affinis","L158809","Horsehead Lake WMA","2025-06-03 07:07",1,47.0535923,-99.8160667,TRUE,FALSE,FALSE,"S246248986"
"524","lessca","Lesser Scaup","Aythya affinis","L4341099","East Side Road, Stewart Street to Whitetail Picnic Area","2025-06-03 06:53",3,46.1427343,-112.773183,TRUE,FALSE,TRUE,"S246430931"
"525","lessca","Lesser Scaup","Aythya affinis","L130766","Hornsby Bend (HOTE 037)","2025-06-03 06:37",1,30.2181988,-97.6458054,TRUE,FALSE,FALSE,"S246309544"
"526","lessca","Lesser Scaup","Aythya affinis","L354514","Warroad Sewage Lagoons","2025-06-03 06:08",2,48.9506633,-95.4252725,TRUE,FALSE,FALSE,"S246254000"
"527","lessca","Lesser Scaup","Aythya affinis","L383970","Cedar Point NWR (restricted access)","2025-06-03 05:35",1,41.6851559,-83.3239174,TRUE,FALSE,FALSE,"S248533478"
"528","lessca","Lesser Scaup","Aythya affinis","L46658792","112 Gray Wolf Avenue, West Yellowstone, Montana, US (44.655, -111.101)","2025-06-02 20:57",5,44.6549034,-111.1013327,TRUE,FALSE,TRUE,"S246159836"
"529","lessca","Lesser Scaup","Aythya affinis","L7849864","Jamestown Dam--Spillway Trail","2025-06-02 20:43",1,46.9269857,-98.7077851,TRUE,FALSE,FALSE,"S246153079"
"530","lessca","Lesser Scaup","Aythya affinis","L46702140","Leno Lake","2025-06-02 18:52",2,47.233215,-99.967729,TRUE,FALSE,TRUE,"S246122783"
"531","lessca","Lesser Scaup","Aythya affinis","L8833682","Deer Lake (Fayette Co.) (roadside access only)","2025-06-02 18:52",1,39.8518561,-79.5968481,TRUE,TRUE,FALSE,"S246111415"
"532","lessca","Lesser Scaup","Aythya affinis","L19079828","Lakefront Hotel-Lake Spenard","2025-06-02 18:45",5,61.177119,-149.944308,TRUE,FALSE,TRUE,"S246159854"
"533","lessca","Lesser Scaup","Aythya affinis","L11808447","Northaven Trail, N. Dallas","2025-06-02 18:33",1,32.9008464,-96.7996676,TRUE,FALSE,FALSE,"S247866094"
"534","lessca","Lesser Scaup","Aythya affinis","L4665721","Indreland Audubon Wetland Preserve","2025-06-02 18:18",1,45.681485,-111.0178714,TRUE,FALSE,FALSE,"S246136535"
"535","lessca","Lesser Scaup","Aythya affinis","L12494704","Wakefield sewage lagoons","2025-06-02 17:52",3,46.5025126,-89.9278257,TRUE,FALSE,FALSE,"S246135657"
"536","lessca","Lesser Scaup","Aythya affinis","L18565086","West Jefferson Warehouse District and Retention Ponds","2025-06-02 17:50",2,39.9415006,-83.3239595,TRUE,TRUE,FALSE,"S246084447"
"537","lessca","Lesser Scaup","Aythya affinis","L279274","Nature and Raptor Center of Pueblo","2025-06-02 17:31",1,38.2687128,-104.6776485,TRUE,FALSE,FALSE,"S246138089"
"538","lessca","Lesser Scaup","Aythya affinis","L6284665","Voyageurs NP--Kabetogama Lake","2025-06-02 17:16",1,48.4704576,-93.0146435,TRUE,FALSE,FALSE,"S246092285"
"539","lessca","Lesser Scaup","Aythya affinis","L505620","Bear River Meadows--Crawford Mountain Rd.","2025-06-02 16:31",1,41.6956433,-111.1140114,TRUE,FALSE,FALSE,"S246300298"
"540","lessca","Lesser Scaup","Aythya affinis","L3520718","Crosby--Carlson WPA","2025-06-02 16:31",1,48.8871732,-103.3066494,TRUE,FALSE,FALSE,"S246718325"
"541","lessca","Lesser Scaup","Aythya affinis","L1859626","Yellowstone NP--N. Entrance Road (MT)","2025-06-02 16:23",10,44.9983924,-110.6933609,TRUE,FALSE,FALSE,"S246098275"
"542","lessca","Lesser Scaup","Aythya affinis","L353168","Willard Pond (Pond & Trees North of Willard Bay)","2025-06-02 15:44",1,41.4251143,-112.0589121,TRUE,FALSE,FALSE,"S246150826"
"543","lessca","Lesser Scaup","Aythya affinis","L46726691","Auto selected 44.40846, -115.13424","2025-06-02 15:26",7,44.408459,-115.13424,TRUE,FALSE,TRUE,"S246250721"
"544","lessca","Lesser Scaup","Aythya affinis","L46697804","49th Street SE/140th Ave SE, Enderlin US-ND","2025-06-02 15:22",1,46.701896,-97.535446,TRUE,FALSE,TRUE,"S246099153"
"545","lessca","Lesser Scaup","Aythya affinis","L46689962","Clear Lake WPA","2025-06-02 15:19",2,47.868254,-100.133851,TRUE,FALSE,TRUE,"S246058817"
"546","lessca","Lesser Scaup","Aythya affinis","L46707770","26517 254th Street Southwest, Ryder, North Dakota, US (47.963, -101.679)","2025-06-02 15:05",2,47.9626503,-101.6790427,TRUE,FALSE,TRUE,"S246153504"
"547","lessca","Lesser Scaup","Aythya affinis","L46690268","25016–25060 254th St SW, Ryder US-ND 47.96268, -101.67925","2025-06-02 15:05",2,47.96268,-101.679248,TRUE,FALSE,TRUE,"S246060436"
"548","lessca","Lesser Scaup","Aythya affinis","L12295283","Vobejda Lake GPA","2025-06-02 14:55",3,45.8671922,-102.6237595,TRUE,FALSE,FALSE,"S246078261"
"549","lessca","Lesser Scaup","Aythya affinis","L1667663","Nome--East End Park","2025-06-02 14:53",1,64.493702,-165.3742526,TRUE,FALSE,FALSE,"S246174340"
"550","lessca","Lesser Scaup","Aythya affinis","L7636823","Kemmer WPA","2025-06-02 14:36",1,46.7398487,-97.5546844,TRUE,FALSE,FALSE,"S246100229"
"551","lessca","Lesser Scaup","Aythya affinis","L11731288","Dalton Hwy.--Ice Cut","2025-06-02 14:32",NA,69.0157696,-148.8205913,TRUE,FALSE,FALSE,"S246159698"
"552","lessca","Lesser Scaup","Aythya affinis","L15194974","Bog Hot Reservoir","2025-06-02 14:30",8,41.917688,-118.787693,TRUE,FALSE,FALSE,"S246165767"
"553","lessca","Lesser Scaup","Aythya affinis","L870726","Vantage -- Boat Ramp/Marina","2025-06-02 14:16",1,46.9414436,-119.9841356,TRUE,FALSE,FALSE,"S246438237"
"554","lessca","Lesser Scaup","Aythya affinis","L46710393","Alder Creek Ranch Rd.--41.75970, -118.75216","2025-06-02 14:04",1,41.759695,-118.752156,TRUE,FALSE,TRUE,"S246165944"
"555","lessca","Lesser Scaup","Aythya affinis","L46694432","35905 Seward Hwy, Moose Pass US-AK 60.49772, -149.37077","2025-06-02 13:52",3,60.497723,-149.370769,TRUE,FALSE,TRUE,"S246081418"
"556","lessca","Lesser Scaup","Aythya affinis","L46688330","25177–25197 Route 8, Dodson US-MT 48.35291, -108.36499","2025-06-02 13:46",2,48.352911,-108.36499,TRUE,FALSE,TRUE,"S246051100"
"557","lessca","Lesser Scaup","Aythya affinis","L46739856","Grand Loop Road, Yellowstone National Park, Wyoming, US (44.611, -110.406)","2025-06-02 13:10",12,44.6105347,-110.4062914,TRUE,FALSE,TRUE,"S246318327"
"558","lessca","Lesser Scaup","Aythya affinis","L46793830","Hwy 89 pond","2025-06-02 13:05",4,45.0055165,-110.7038188,TRUE,FALSE,TRUE,"S246585181"
"559","lessca","Lesser Scaup","Aythya affinis","L46678684","US-52, Balfour US-ND 47.99732, -100.68991","2025-06-02 13:04",2,47.997324,-100.689907,TRUE,FALSE,TRUE,"S246008229"
"560","lessca","Lesser Scaup","Aythya affinis","L3923245","Warm Springs WMA--Garnet Way Ponds","2025-06-02 13:03",12,46.1856569,-112.7789658,TRUE,FALSE,FALSE,"S246082569"
"561","lessca","Lesser Scaup","Aythya affinis","L490764","Glenn Highway","2025-06-02 13:00",1,62.0888806,-146.2836139,TRUE,FALSE,TRUE,"S246496476"
"562","lessca","Lesser Scaup","Aythya affinis","L6035187","Dalton Hwy.--Pump Station No. 3","2025-06-02 12:59",2,68.8427642,-148.8249636,TRUE,FALSE,FALSE,"S246163891"
"563","lessca","Lesser Scaup","Aythya affinis","L733000","Upper Truckee River--marsh trail and offshore","2025-06-02 12:47",2,38.9389497,-120.0017738,TRUE,FALSE,FALSE,"S246065898"
"564","lessca","Lesser Scaup","Aythya affinis","L9377619","12th St NE, Everett","2025-06-02 12:36",1,48.0077981,-122.1706841,TRUE,FALSE,FALSE,"S246080844"
"565","lessca","Lesser Scaup","Aythya affinis","L5962262","Chugach NF--Crescent Lake Trail","2025-06-02 12:00",2,60.4445455,-149.4817486,TRUE,FALSE,FALSE,"S246657949"
"566","lessca","Lesser Scaup","Aythya affinis","L1532005","Cut Off Rd.","2025-06-02 11:47",4,46.918134,-113.0035627,TRUE,FALSE,FALSE,"S246248731"
"567","lessca","Lesser Scaup","Aythya affinis","L26520313","Clark Canyon Reservoir--Horse Prairie Creek Inlet","2025-06-02 11:33",3,44.9770013,-112.9187636,TRUE,FALSE,TRUE,"S246057465"
"568","lessca","Lesser Scaup","Aythya affinis","L1178219","Lake Osakis--CR 10 SE","2025-06-02 11:10",3,45.8858402,-95.1609564,TRUE,FALSE,FALSE,"S245965327"
"569","lessca","Lesser Scaup","Aythya affinis","L212323","Lee Kay Ponds","2025-06-02 11:02",3,40.7397136,-112.0437241,TRUE,TRUE,FALSE,"S246052402"
"570","lessca","Lesser Scaup","Aythya affinis","L1512917","Ottawa NWR--Crane Creek Estuary Trail","2025-06-02 10:58",3,41.6310555,-83.1958526,TRUE,FALSE,FALSE,"S245972176"
"571","lessca","Lesser Scaup","Aythya affinis","L2418405","Lake Cascade--shore at Old State Rd. South","2025-06-02 10:54",2,44.6299397,-116.068368,TRUE,FALSE,FALSE,"S246051159"
"572","lessca","Lesser Scaup","Aythya affinis","L1571269","Sprague Lake - Boat Launch","2025-06-02 10:43",6,47.2442593,-118.0781749,TRUE,FALSE,TRUE,"S246056869"
"573","lessca","Lesser Scaup","Aythya affinis","L19457736","3501 Lakeshore Drive, Anchorage, Alaska, US (61.18, -149.95)","2025-06-02 10:40",19,61.1801543,-149.9502972,TRUE,FALSE,TRUE,"S246047542"
"574","lessca","Lesser Scaup","Aythya affinis","L511619","Horicon NWR--Hwy. 49 (Dodge Co.)","2025-06-02 10:26",1,43.6319441,-88.6339939,TRUE,FALSE,FALSE,"S246030692"
"575","lessca","Lesser Scaup","Aythya affinis","L19863626","FR 422P","2025-06-02 10:15",3,44.572648,-116.150379,TRUE,FALSE,TRUE,"S245972092"
"576","lessca","Lesser Scaup","Aythya affinis","L11908524","Redmond sewage ponds","2025-06-02 10:10",2,44.3352042,-121.2192706,TRUE,FALSE,TRUE,"S246026141"
"577","lessca","Lesser Scaup","Aythya affinis","L2277898","Boardman Sewage Ponds (restricted access)","2025-06-02 09:47",6,45.8474044,-119.6485174,TRUE,FALSE,FALSE,"S245985299"
"578","lessca","Lesser Scaup","Aythya affinis","L242105","Lake View Terrace","2025-06-02 09:46",3,64.8086108,-147.6835703,TRUE,FALSE,FALSE,"S246073863"
"579","lessca","Lesser Scaup","Aythya affinis","L159723","Ken Euers Wetland Preserve","2025-06-02 09:46",1,44.55768,-88.03675,TRUE,FALSE,FALSE,"S245964153"
"580","lessca","Lesser Scaup","Aythya affinis","L37695557","Hwy 47 (44.423, -99.442)","2025-06-02 09:43",2,44.4233836,-99.4415268,TRUE,FALSE,TRUE,"S245979033"
"581","lessca","Lesser Scaup","Aythya affinis","L811384","McNary NWR--Peninsula Unit","2025-06-02 09:15",4,46.148685,-118.966825,TRUE,FALSE,FALSE,"S246069326"
"582","lessca","Lesser Scaup","Aythya affinis","L164179","Wisconsin Point (general)","2025-06-02 09:00",1,46.6980309,-92.0000148,TRUE,FALSE,FALSE,"S246205726"
"583","lessca","Lesser Scaup","Aythya affinis","L2115228","Laramie Plains Lakes--Blake's Pond","2025-06-02 09:00",10,41.2318879,-105.8230669,TRUE,FALSE,FALSE,"S246020512"
"584","lessca","Lesser Scaup","Aythya affinis","L46680803","Bird Refuge Rd, Brigham City US-UT 41.49369, -112.11676","2025-06-02 08:28",1,41.49369,-112.116764,TRUE,FALSE,TRUE,"S246017545"
"585","lessca","Lesser Scaup","Aythya affinis","L1173410","Ducks Unlimited Warm Springs Ponds","2025-06-02 08:28",2,46.1809001,-112.8020382,TRUE,FALSE,FALSE,"S246146192"
"586","lessca","Lesser Scaup","Aythya affinis","L711361","Black Lake","2025-06-02 08:17",2,37.8154256,-118.578186,TRUE,FALSE,FALSE,"S246144265"
"587","lessca","Lesser Scaup","Aythya affinis","L422541","Leonabelle Turnbull Birding Ctr. (CTC 057)","2025-06-02 08:00",1,27.8275297,-97.0789558,TRUE,TRUE,FALSE,"S245903402"
"588","lessca","Lesser Scaup","Aythya affinis","L483728","Calispell Lake","2025-06-02 07:52",4,48.2758815,-117.3339844,TRUE,FALSE,FALSE,"S246154339"
"589","lessca","Lesser Scaup","Aythya affinis","L269932","Mittry Lake","2025-06-02 07:42",1,32.8268076,-114.4490433,TRUE,FALSE,FALSE,"S245938737"
"590","lessca","Lesser Scaup","Aythya affinis","L2111831","Burns Gravel (Fishing) Pond","2025-06-02 07:34",2,43.5855824,-119.008584,TRUE,FALSE,FALSE,"S245940940"
"591","lessca","Lesser Scaup","Aythya affinis","L31380468","LAKE HOOD NORTH SIDE","2025-06-02 06:50",15,61.180195,-149.954697,TRUE,FALSE,TRUE,"S245963187"
"592","lessca","Lesser Scaup","Aythya affinis","L2440373","Big Alkali Lake","2025-06-02 06:39",3,37.6790653,-118.785553,TRUE,FALSE,FALSE,"S246144189"
"593","lessca","Lesser Scaup","Aythya affinis","L46711469","Bob Blodgett Hwy, Nome US-AK 64.55921, -165.47260","2025-06-02 06:36",6,64.559213,-165.472604,TRUE,FALSE,TRUE,"S246171636"
"594","lessca","Lesser Scaup","Aythya affinis","L46660707","36035 Seward Highway, Moose Pass, Alaska, US (60.499, -149.371)","2025-06-02 06:35",7,60.4994366,-149.3709303,TRUE,FALSE,TRUE,"S245925056"
"595","lessca","Lesser Scaup","Aythya affinis","L169447","Riverlands Migratory Bird Sanctuary","2025-06-02 06:14",1,38.8719313,-90.1843917,TRUE,TRUE,FALSE,"S245932116"
"596","lessca","Lesser Scaup","Aythya affinis","L299364","Pelican Lake","2025-06-02 06:12",1,40.19865,-109.66475,TRUE,FALSE,FALSE,"S245920228"
"597","lessca","Lesser Scaup","Aythya affinis","L578606","Honey Lake Wildlife Area--Fleming Unit","2025-06-02 05:14",6,40.3537678,-120.3021079,TRUE,FALSE,FALSE,"S245954614"
"598","lessca","Lesser Scaup","Aythya affinis","L140452","Whitefish Point","2025-06-02 05:05",1,46.7706876,-84.9569493,TRUE,FALSE,FALSE,"S245848724"
"599","lessca","Lesser Scaup","Aythya affinis","L46709717","Dalton Highway, Alaska, US (68.428, -149.353)","2025-06-01 21:35",8,68.4279926,-149.353414,TRUE,FALSE,TRUE,"S246162851"
"600","lessca","Lesser Scaup","Aythya affinis","L349389","Grand Forks AFB Lagoons","2025-06-01 20:40",18,47.9504585,-97.3337952,TRUE,FALSE,FALSE,"S245762992"
"601","lessca","Lesser Scaup","Aythya affinis","L14641534","Blooming Township--S17 landfill (Berger Contracting)","2025-06-01 20:25",1,47.9775122,-97.3454481,TRUE,FALSE,TRUE,"S245758989"
"602","lessca","Lesser Scaup","Aythya affinis","L2181721","Breitbeck Park","2025-06-01 19:18",4,43.4618906,-76.5238523,TRUE,TRUE,FALSE,"S245718160"
"603","lessca","Lesser Scaup","Aythya affinis","L32401014","Cahill pier 17 Lake St, Oswego US-NY (43.4634,-76.5179)","2025-06-01 19:00",1,43.463405,-76.517929,TRUE,TRUE,TRUE,"S245714573"
"604","lessca","Lesser Scaup","Aythya affinis","L2169526","Albany WTP","2025-06-01 18:58",2,45.6161987,-94.5830154,TRUE,FALSE,FALSE,"S246493319"
"605","lessca","Lesser Scaup","Aythya affinis","L5546573","Sara Park","2025-06-01 18:28",1,45.4727697,-89.7419273,TRUE,TRUE,FALSE,"S245741369"
