"","speciesCode","comName","sciName","locId","locName","obsDt","howMany","lat","lng","obsValid","obsReviewed","locationPrivate","subId"
"1","leabit","Least Bittern","Botaurus exilis","L6505728","Sabine NWR--Hog Island Gully RA","2025-05-12 06:13",1,29.9098218,-93.3836335,TRUE,FALSE,FALSE,"S236799918"
"2","leabit","Least Bittern","Botaurus exilis","L586013","Big Stone Beach","2025-05-12 04:29",1,39.0006968,-75.3286772,TRUE,FALSE,FALSE,"S236755237"
"3","leabit","Least Bittern","Botaurus exilis","L166701","Derby Hill Hawk Watch--North Lookout","2025-05-12 01:29",1,43.527261,-76.2393397,TRUE,FALSE,FALSE,"S236754922"
"4","leabit","Least Bittern","Botaurus exilis","L2176722","Appoquinimink River bridges, Rte. 9","2025-05-12 01:18",1,39.4645874,-75.6154976,TRUE,FALSE,FALSE,"S236727236"
"5","leabit","Least Bittern","Botaurus exilis","L1156197","Greer's Pond","2025-05-12 00:28",1,39.5521863,-75.6022453,TRUE,FALSE,FALSE,"S236721458"
"6","leabit","Least Bittern","Botaurus exilis","L35444088","3011 N Bryan Rd, Mission US-TX 26.23774, -98.30776","2025-05-11 20:55",1,26.237743,-98.307762,TRUE,FALSE,TRUE,"S236705012"
"7","leabit","Least Bittern","Botaurus exilis","L152655","Illinois Beach SP--South Unit","2025-05-11 19:47",1,42.4203,-87.8078,TRUE,FALSE,FALSE,"S236683665"
"8","leabit","Least Bittern","Botaurus exilis","L44782347","Celery Fields Regional Stormwater Facility, Sarasota US-FL 27.32039, -82.43788","2025-05-11 19:31",3,27.32039,-82.43788,TRUE,FALSE,TRUE,"S236657540"
"9","leabit","Least Bittern","Botaurus exilis","L284163","Galveston--Lafitte's Cove (UTC 068)","2025-05-11 19:15",2,29.2169006,-94.9349016,TRUE,FALSE,FALSE,"S236697232"
"10","leabit","Least Bittern","Botaurus exilis","L268512","Standifer Gap Marsh","2025-05-11 18:47",1,35.0644561,-85.1660614,TRUE,FALSE,FALSE,"S236671414"
"11","leabit","Least Bittern","Botaurus exilis","L44786221","Celery Fields Regional Stormwater Facility, Sarasota US-FL 27.32544, -82.43345","2025-05-11 18:28",1,27.32544,-82.433447,TRUE,FALSE,TRUE,"S236681935"
"12","leabit","Least Bittern","Botaurus exilis","L727221","Cameron Prairie NWR","2025-05-11 18:19",3,29.9584693,-93.0886586,TRUE,FALSE,FALSE,"S236670452"
"13","leabit","Least Bittern","Botaurus exilis","L44780263","Gulf State Park - Headquarters, Orange Beach US-AL (30.2684,-87.6230)","2025-05-11 18:18",1,30.268358,-87.622955,TRUE,FALSE,TRUE,"S236644858"
"14","leabit","Least Bittern","Botaurus exilis","L2620730","Sweetwater Wetlands Park","2025-05-11 17:40",2,29.6193055,-82.3285764,TRUE,FALSE,FALSE,"S236670434"
"15","leabit","Least Bittern","Botaurus exilis","L1009347","Roosevelt Wetland","2025-05-11 17:30",2,27.8708722,-82.6895428,TRUE,FALSE,FALSE,"S236619811"
"16","leabit","Least Bittern","Botaurus exilis","L128874","Jocelyn Nungaray NWR  Anahuac, TX (UTC 049)","2025-05-11 17:29",1,29.6148414,-94.5344353,TRUE,FALSE,FALSE,"S236718743"
"17","leabit","Least Bittern","Botaurus exilis","L208678","Vischer Ferry Nature & Historic Preserve","2025-05-11 17:13",1,42.7860031,-73.8023715,TRUE,FALSE,FALSE,"S236628880"
"18","leabit","Least Bittern","Botaurus exilis","L1050601","Everglades NP--Shark Valley: Tram Rd. & Observation Tower","2025-05-11 17:10",1,25.7567969,-80.7660771,TRUE,FALSE,FALSE,"S236609593"
"19","leabit","Least Bittern","Botaurus exilis","L5961829","Uihlein WPA","2025-05-11 17:07",2,43.9641561,-88.7659693,TRUE,FALSE,FALSE,"S236688352"
"20","leabit","Least Bittern","Botaurus exilis","L342592","Shawnee Trail CA","2025-05-11 17:05",1,37.4365778,-94.5682139,TRUE,FALSE,FALSE,"S236713905"
"21","leabit","Least Bittern","Botaurus exilis","L344899","Heron County Park","2025-05-11 16:50",1,40.2077346,-87.650136,TRUE,FALSE,FALSE,"S236675862"
"22","leabit","Least Bittern","Botaurus exilis","L298649","Lake Apopka Wildlife Drive","2025-05-11 16:47",1,28.6691945,-81.5598149,TRUE,FALSE,FALSE,"S236704391"
"23","leabit","Least Bittern","Botaurus exilis","L697419","Paynes Prairie Preserve SP--US-441 observation deck","2025-05-11 16:39",1,29.5740753,-82.3350487,TRUE,FALSE,FALSE,"S236571860"
"24","leabit","Least Bittern","Botaurus exilis","L450139","Savannah NWR--Laurel Hill Wildlife Dr","2025-05-11 15:00",1,32.1655799,-81.1152447,TRUE,FALSE,FALSE,"S236566191"
"25","leabit","Least Bittern","Botaurus exilis","L127331","Boyd Hill Nature Park & Lake Maggiore","2025-05-11 14:57",2,27.7248069,-82.6501069,TRUE,FALSE,FALSE,"S236542072"
"26","leabit","Least Bittern","Botaurus exilis","L44770174","Laurel Hill Wildlife Drive, Hardeeville, South Carolina, US (32.163, -81.114)","2025-05-11 14:39",1,32.1625733,-81.1143245,TRUE,FALSE,TRUE,"S236591303"
"27","leabit","Least Bittern","Botaurus exilis","L246929","Green Cay Wetlands & Nature Center","2025-05-11 14:24",4,26.4861584,-80.1607561,TRUE,FALSE,FALSE,"S236569907"
"28","leabit","Least Bittern","Botaurus exilis","L15185910","Sherrif’s Marsh from 44th","2025-05-11 13:51",1,42.403956,-85.343285,TRUE,FALSE,TRUE,"S236694597"
"29","leabit","Least Bittern","Botaurus exilis","L886816","St. Marks NWR--Mounds Pool 2","2025-05-11 13:31",1,30.1013633,-84.1547585,TRUE,FALSE,FALSE,"S236450474"
"30","leabit","Least Bittern","Botaurus exilis","L1495128","Deere Dike Park and Riverside Road","2025-05-11 13:19",1,42.5749533,-90.6840151,TRUE,FALSE,FALSE,"S236515200"
"31","leabit","Least Bittern","Botaurus exilis","L799384","Big Branch Marsh NWR--Boy Scout Rd.","2025-05-11 12:47",1,30.2819728,-89.9234819,TRUE,FALSE,FALSE,"S236520664"
"32","leabit","Least Bittern","Botaurus exilis","L143084","Wakodahatchee Wetlands","2025-05-11 12:44",1,26.4781984,-80.144738,TRUE,FALSE,FALSE,"S236548124"
"33","leabit","Least Bittern","Botaurus exilis","L109339","IRWD San Joaquin Marsh & Wildlife Sanctuary, Irvine","2025-05-11 12:34",1,33.6637274,-117.8426814,TRUE,FALSE,FALSE,"S236721730"
"34","leabit","Least Bittern","Botaurus exilis","L1076700","Tyrrell Park--Cattail Marsh","2025-05-11 12:34",3,30.0074226,-94.1400433,TRUE,FALSE,FALSE,"S236639017"
"35","leabit","Least Bittern","Botaurus exilis","L210301","Peveto Woods--Baton Rouge Audubon Society Sanctuary","2025-05-11 12:22",1,29.7576119,-93.6022818,TRUE,FALSE,FALSE,"S236569039"
"36","leabit","Least Bittern","Botaurus exilis","L37357984","Laurel Hill Wildlife Dr, Hardeeville US-SC 32.15679, -81.10790","2025-05-11 12:18",1,32.156789,-81.107901,TRUE,FALSE,TRUE,"S236488158"
"37","leabit","Least Bittern","Botaurus exilis","L281801","Pipeline Road--Madison Co.","2025-05-11 12:15",3,32.5295196,-89.9382019,TRUE,FALSE,FALSE,"S236523935"
"38","leabit","Least Bittern","Botaurus exilis","L207016","Chicago Botanic Garden, Glencoe","2025-05-11 11:44",1,42.1470902,-87.7895394,TRUE,FALSE,FALSE,"S236550653"
"39","leabit","Least Bittern","Botaurus exilis","L10233865","Bath Nature Preserve--Beefys Trail and Woods","2025-05-11 11:36",1,41.184042,-81.656964,TRUE,FALSE,FALSE,"S236398216"
"40","leabit","Least Bittern","Botaurus exilis","L16687478","William J. Robertson Nature Preserve","2025-05-11 11:18",1,40.977233,-81.76528,TRUE,FALSE,FALSE,"S236454739"
"41","leabit","Least Bittern","Botaurus exilis","L10647732","Deep Bayou Rd","2025-05-11 11:17",2,29.8049468,-93.7552293,TRUE,FALSE,FALSE,"S236407468"
"42","leabit","Least Bittern","Botaurus exilis","L6471374","Quivira NWR--Big Salt Marsh--Wildlife Drive","2025-05-11 10:55",1,38.1856615,-98.5338718,TRUE,FALSE,FALSE,"S236406035"
"43","leabit","Least Bittern","Botaurus exilis","L20783523","Smith Ridge Rd.","2025-05-11 10:42",2,29.7863648,-93.729155,TRUE,FALSE,TRUE,"S236691350"
"44","leabit","Least Bittern","Botaurus exilis","L691056","Howard Marsh--West Side of Howard Rd.","2025-05-11 10:37",1,41.6500553,-83.278719,TRUE,FALSE,FALSE,"S236391738"
"45","leabit","Least Bittern","Botaurus exilis","L5722264","Hueston Woods SP (Butler Co.)","2025-05-11 10:30",1,39.5640016,-84.7352314,TRUE,FALSE,FALSE,"S236274271"
"46","leabit","Least Bittern","Botaurus exilis","L13304693","The Celery Fields, Sarasota US-FL 27.32011, -82.43722","2025-05-11 10:25",3,27.320107,-82.437221,TRUE,FALSE,TRUE,"S236346185"
"47","leabit","Least Bittern","Botaurus exilis","L492304","Pte. Mouillee SGA--HQ (Wayne County)","2025-05-11 10:20",1,42.0403691,-83.1998062,TRUE,FALSE,FALSE,"S236466740"
"48","leabit","Least Bittern","Botaurus exilis","L484987","Bald Point SP","2025-05-11 10:19",3,29.9377826,-84.3381304,TRUE,FALSE,FALSE,"S236387741"
"49","leabit","Least Bittern","Botaurus exilis","L453000","Glastonbury Meadows (restricted access)","2025-05-11 10:13",1,41.6962442,-72.6185989,TRUE,FALSE,FALSE,"S236352236"
"50","leabit","Least Bittern","Botaurus exilis","L1296469","West Ship Island","2025-05-11 10:11",2,30.2122016,-88.9542389,TRUE,FALSE,FALSE,"S236697543"
"51","leabit","Least Bittern","Botaurus exilis","L10907975","John Paul Landing Park--Environmental Education Center","2025-05-11 09:48",1,29.9121081,-95.7905095,TRUE,FALSE,FALSE,"S236468948"
"52","leabit","Least Bittern","Botaurus exilis","L280700","Arlington Wildlife Area","2025-05-11 09:37",4,33.2711612,-112.7804571,TRUE,FALSE,FALSE,"S236499963"
"53","leabit","Least Bittern","Botaurus exilis","L129046","Parker River NWR","2025-05-11 09:20",1,42.7639008,-70.8022995,TRUE,FALSE,FALSE,"S236535337"
"54","leabit","Least Bittern","Botaurus exilis","L200627","Horseshoe Lake State Park","2025-05-11 09:01",1,38.7039503,-90.0724398,TRUE,TRUE,FALSE,"S236337845"
"55","leabit","Least Bittern","Botaurus exilis","L317582","Magee Marsh (Lucas Co.)","2025-05-11 09:00",1,41.6265199,-83.1889691,TRUE,FALSE,FALSE,"S236525816"
"56","leabit","Least Bittern","Botaurus exilis","L129756","Presque Isle SP (IBA)","2025-05-11 09:00",1,42.15868,-80.0994568,TRUE,FALSE,FALSE,"S236647806"
"57","leabit","Least Bittern","Botaurus exilis","L210242","Miami Whitewater Forest--Shaker Trace Wetlands","2025-05-11 08:51",1,39.2782583,-84.7495461,TRUE,FALSE,FALSE,"S236667214"
"58","leabit","Least Bittern","Botaurus exilis","L200349","Mermet Lake","2025-05-11 08:50",1,37.2554005,-88.8450811,TRUE,FALSE,FALSE,"S236398484"
"59","leabit","Least Bittern","Botaurus exilis","L1083292","East Sandusky Bay MetroPark--Eagle Point","2025-05-11 08:46",1,41.4263658,-82.6426792,TRUE,FALSE,FALSE,"S236287437"
"60","leabit","Least Bittern","Botaurus exilis","L32213772","Hayfields on County Road 1600 W/900 E","2025-05-11 08:43",1,38.908908,-87.240991,TRUE,FALSE,TRUE,"S236271877"
"61","leabit","Least Bittern","Botaurus exilis","L502919","Hall Creek NRMA (Ferry Landing)","2025-05-11 08:36",2,38.7078503,-76.6922522,TRUE,FALSE,FALSE,"S236609224"
"62","leabit","Least Bittern","Botaurus exilis","L21261939","Altamaha WMA--Champney Rd.","2025-05-11 08:34",2,31.3539811,-81.4515483,TRUE,FALSE,FALSE,"S236298534"
"63","leabit","Least Bittern","Botaurus exilis","L4663864","River Styx","2025-05-11 08:34",6,29.5162361,-82.2225595,TRUE,FALSE,FALSE,"S236399130"
"64","leabit","Least Bittern","Botaurus exilis","L160935","Ballona Freshwater Marsh","2025-05-11 08:20",1,33.9701285,-118.4305573,TRUE,FALSE,FALSE,"S236630475"
"65","leabit","Least Bittern","Botaurus exilis","L982486","Bosque del Apache NWR--Boardwalk Lagoon","2025-05-11 08:16",1,33.7724767,-106.9021654,TRUE,FALSE,FALSE,"S236350267"
"66","leabit","Least Bittern","Botaurus exilis","L2035601","ACE Basin NWR--Combahee Unit","2025-05-11 08:08",1,32.6612629,-80.720222,TRUE,FALSE,FALSE,"S236236851"
"67","leabit","Least Bittern","Botaurus exilis","L473126","Turning Point Park","2025-05-11 07:52",1,43.2299768,-77.6170778,TRUE,FALSE,FALSE,"S236222435"
"68","leabit","Least Bittern","Botaurus exilis","L13152499","The Celery Fields, Sarasota US-FL (27.3203,-82.4379)","2025-05-11 07:51",2,27.320256,-82.437851,TRUE,FALSE,TRUE,"S236517195"
"69","leabit","Least Bittern","Botaurus exilis","L422541","Leonabelle Turnbull Birding Ctr. (CTC 057)","2025-05-11 07:48",1,27.8275297,-97.0789558,TRUE,FALSE,FALSE,"S236370253"
"70","leabit","Least Bittern","Botaurus exilis","L8032680","Saint Michael's College Natural Area","2025-05-11 07:45",1,44.4966632,-73.1523212,TRUE,TRUE,FALSE,"S236323633"
"71","leabit","Least Bittern","Botaurus exilis","L27555236","Pirates Wharf Park","2025-05-11 07:34",1,38.3211579,-75.7487823,TRUE,FALSE,FALSE,"S236202951"
"72","leabit","Least Bittern","Botaurus exilis","L126620","Hughes Hollow - McKee Beshers WMA","2025-05-11 07:31",1,39.0803767,-77.4035096,TRUE,FALSE,FALSE,"S236287004"
"73","leabit","Least Bittern","Botaurus exilis","L573127","Horicon NWR--Old Marsh Rd.","2025-05-11 07:28",1,43.6159453,-88.6473083,TRUE,FALSE,FALSE,"S236422576"
"74","leabit","Least Bittern","Botaurus exilis","L6982914","Lake Apopka Wildlife Drive","2025-05-11 07:24",2,28.6692023,-81.5628862,TRUE,FALSE,TRUE,"S236398938"
"75","leabit","Least Bittern","Botaurus exilis","L2457005","River Rd. marshes and RR tracks","2025-05-11 07:24",2,40.6165874,-74.1940534,TRUE,FALSE,FALSE,"S236283831"
"76","leabit","Least Bittern","Botaurus exilis","L3070938","Goose Pond FWA--Main Pool West south bridge (CR1200W)","2025-05-11 07:13",3,38.9598009,-87.1674049,TRUE,FALSE,FALSE,"S236202136"
"77","leabit","Least Bittern","Botaurus exilis","L2428765","Middle Fork River FP--Point Pleasant Wetland","2025-05-11 07:09",1,40.3708742,-87.9704905,TRUE,FALSE,FALSE,"S236262331"
"78","leabit","Least Bittern","Botaurus exilis","L229936","Mission Trails Regional Park--Kumeyaay Lake & campground ONLY","2025-05-11 07:00",2,32.8417935,-117.0320288,TRUE,FALSE,FALSE,"S236446983"
"79","leabit","Least Bittern","Botaurus exilis","L458979","Rutherford Beach Rd.","2025-05-11 06:57",3,29.7789571,-93.1326045,TRUE,FALSE,FALSE,"S236239546"
"80","leabit","Least Bittern","Botaurus exilis","L144858","Riparian Preserve at Gilbert Water Ranch","2025-05-11 06:52",2,33.3614502,-111.7339478,TRUE,FALSE,FALSE,"S236334712"
"81","leabit","Least Bittern","Botaurus exilis","L2093003","Fairview Park Wetlands","2025-05-11 06:33",1,33.6664968,-117.940979,TRUE,FALSE,FALSE,"S236358993"
"82","leabit","Least Bittern","Botaurus exilis","L11413757","Davilla (Private)","2025-05-11 06:30",2,30.7857334,-97.2749983,TRUE,TRUE,TRUE,"S236716019"
"83","leabit","Least Bittern","Botaurus exilis","L12858504","Edwin B. Forsythe NWR--Bristow Trail (formerly Songbird Trail)","2025-05-11 06:16",1,39.4755316,-74.4480687,TRUE,FALSE,FALSE,"S236308780"
"84","leabit","Least Bittern","Botaurus exilis","L127961","Red Slough WMA","2025-05-11 06:12",4,33.739399,-94.6530991,TRUE,FALSE,FALSE,"S236468696"
"85","leabit","Least Bittern","Botaurus exilis","L1802495","Maumee Bay SP--Campground","2025-05-11 06:10",1,41.6840075,-83.3952447,TRUE,FALSE,FALSE,"S236665472"
"86","leabit","Least Bittern","Botaurus exilis","L15171920","Lighthouse Road, Crawfordville, Florida, US (30.107, -84.157)","2025-05-11 06:00",1,30.1072303,-84.1569405,TRUE,FALSE,TRUE,"S236668462"
"87","leabit","Least Bittern","Botaurus exilis","L1865408","IP Wetlands (no public access)","2025-05-11 05:50",13,30.4622915,-87.3852814,TRUE,TRUE,TRUE,"S236359836"
"88","leabit","Least Bittern","Botaurus exilis","L44051293","Goose Pond FWA--Double Ditches","2025-05-11 05:47",1,38.9797505,-87.1859642,TRUE,FALSE,FALSE,"S236144687"
"89","leabit","Least Bittern","Botaurus exilis","L197353","Sandy Hook","2025-05-11 05:20",1,40.4392518,-73.9869263,TRUE,FALSE,FALSE,"S236678665"
"90","leabit","Least Bittern","Botaurus exilis","L1156220","Thousand Acre Marsh","2025-05-11 00:14",1,39.5470076,-75.5847359,TRUE,FALSE,FALSE,"S236055851"
"91","leabit","Least Bittern","Botaurus exilis","L3482228","Killbuck Marsh Wildlife Area--Valley Rd. South","2025-05-10 22:18",1,40.6903032,-81.9808066,TRUE,FALSE,FALSE,"S236026815"
"92","leabit","Least Bittern","Botaurus exilis","L44655740","Doughty Rd, Absecon US-NJ 39.46672, -74.45118","2025-05-10 20:35",1,39.466717,-74.451181,TRUE,FALSE,TRUE,"S235991709"
"93","leabit","Least Bittern","Botaurus exilis","L3122775","Petobego SGA","2025-05-10 20:00",1,44.8521269,-85.4285361,TRUE,FALSE,FALSE,"S236027080"
"94","leabit","Least Bittern","Botaurus exilis","L1211481","Big Branch Marsh NWR--Cane Bayou","2025-05-10 19:47",1,30.3291755,-90.0121021,TRUE,FALSE,FALSE,"S236035139"
"95","leabit","Least Bittern","Botaurus exilis","L275986","Magee Marsh--Boardwalk","2025-05-10 19:40",1,41.6277095,-83.191884,TRUE,FALSE,FALSE,"S236484454"
"96","leabit","Least Bittern","Botaurus exilis","L44659284","CR 621 Impoundment","2025-05-10 19:31",1,27.292506,-81.267278,TRUE,FALSE,TRUE,"S236013067"
"97","leabit","Least Bittern","Botaurus exilis","L207765","Tifft Nature Preserve","2025-05-10 19:17",1,42.8462509,-78.8594553,TRUE,FALSE,FALSE,"S236036004"
"98","leabit","Least Bittern","Botaurus exilis","L336009","National Butterfly Center--General & area North of Levee","2025-05-10 19:14",1,26.1796025,-98.3664483,TRUE,FALSE,FALSE,"S235985562"
"99","leabit","Least Bittern","Botaurus exilis","L44643207","Blue Heron Trail, Lesage US-WV 38.58779, -82.25179","2025-05-10 18:54",1,38.587785,-82.251789,TRUE,FALSE,TRUE,"S235915326"
"100","leabit","Least Bittern","Botaurus exilis","L3101164","LeFurge Woods Nature Preserve","2025-05-10 18:53",1,42.2866173,-83.6031233,TRUE,FALSE,TRUE,"S235948039"
"101","leabit","Least Bittern","Botaurus exilis","L1291193","Green Bottom WMA--Boardwalk","2025-05-10 18:51",1,38.5892647,-82.2499341,TRUE,FALSE,FALSE,"S235915423"
"102","leabit","Least Bittern","Botaurus exilis","L5176809","Kankakee Sands--Bison Viewing Fields (TNC)","2025-05-10 18:16",1,41.04951,-87.4599695,TRUE,FALSE,FALSE,"S235998532"
"103","leabit","Least Bittern","Botaurus exilis","L44649830","229 Deep Bayou Road, Cameron, Louisiana, US (29.771, -93.753)","2025-05-10 18:07",1,29.7705211,-93.7528312,TRUE,FALSE,TRUE,"S235956025"
"104","leabit","Least Bittern","Botaurus exilis","L127945","Bosque del Apache NWR","2025-05-10 18:04",2,33.802,-106.88,TRUE,FALSE,FALSE,"S236023362"
"105","leabit","Least Bittern","Botaurus exilis","L416575","Willow Island","2025-05-10 17:45",1,29.7842689,-93.2224274,TRUE,FALSE,FALSE,"S235978543"
"106","leabit","Least Bittern","Botaurus exilis","L298379","Hammonasset Beach SP","2025-05-10 17:35",1,41.2619859,-72.5548234,TRUE,FALSE,FALSE,"S235932944"
"107","leabit","Least Bittern","Botaurus exilis","L4099917","Kankakee Sands--Unit L (TNC)","2025-05-10 17:25",2,41.0392901,-87.4405718,TRUE,FALSE,FALSE,"S236596102"
"108","leabit","Least Bittern","Botaurus exilis","L3489661","St. Augustine Road Fish Management Area","2025-05-10 17:25",1,30.2696157,-81.6395459,TRUE,FALSE,FALSE,"S235937147"
"109","leabit","Least Bittern","Botaurus exilis","L209616","High Island--Boy Scout Woods (UTC 055)","2025-05-10 17:03",1,29.5613445,-94.3902236,TRUE,FALSE,FALSE,"S235958517"
"110","leabit","Least Bittern","Botaurus exilis","L37776205","Mermentau River Woods","2025-05-10 17:02",1,29.7712968,-93.0149101,TRUE,FALSE,TRUE,"S236134715"
"111","leabit","Least Bittern","Botaurus exilis","L109133","Edwin B. Forsythe NWR (formerly Brig)","2025-05-10 16:46",1,39.465,-74.4477778,TRUE,FALSE,FALSE,"S236005032"
"112","leabit","Least Bittern","Botaurus exilis","L10112001","Potato Creek Hatchery Waterfowl Area","2025-05-10 16:45",1,33.5337784,-80.2690012,TRUE,TRUE,FALSE,"S235933845"
"113","leabit","Least Bittern","Botaurus exilis","L234146","The Celery Fields","2025-05-10 15:55",NA,27.3253186,-82.4336821,TRUE,FALSE,FALSE,"S235849055"
"114","leabit","Least Bittern","Botaurus exilis","L33348152","home","2025-05-10 15:48",1,43.9860725,-83.8992844,TRUE,FALSE,TRUE,"S235867244"
"115","leabit","Least Bittern","Botaurus exilis","L3905925","Elm Grove area","2025-05-10 15:45",6,32.3521878,-93.5559933,TRUE,TRUE,TRUE,"S236042637"
"116","leabit","Least Bittern","Botaurus exilis","L479616","Sloughs WMA, Sauerheber Unit*","2025-05-10 15:42",1,37.8488054,-87.7401166,TRUE,FALSE,FALSE,"S235975488"
"117","leabit","Least Bittern","Botaurus exilis","L1896322","Jocelyn Nungaray NWR-- Shoveler Pond Loop","2025-05-10 15:35",1,29.6138335,-94.5452351,TRUE,FALSE,FALSE,"S235925931"
"118","leabit","Least Bittern","Botaurus exilis","L191760","Bear Island WMA (fall and winter restricted access)","2025-05-10 15:25",3,32.5918043,-80.4641247,TRUE,FALSE,FALSE,"S236391372"
"119","leabit","Least Bittern","Botaurus exilis","L44618988","SR-59, Sandborn US-IN 38.97135, -87.18623","2025-05-10 15:15",1,38.971346,-87.186231,TRUE,FALSE,TRUE,"S235788906"
"120","leabit","Least Bittern","Botaurus exilis","L248057","Pte. Mouillee SGA (permit required Sep 1-Dec 15)","2025-05-10 15:08",1,42.0146112,-83.2001495,TRUE,FALSE,FALSE,"S235883960"
"121","leabit","Least Bittern","Botaurus exilis","L29131712","Oakridge Avenue Pond (restricted access), Green Cove Springs, FL","2025-05-10 14:50",2,29.9715665,-81.6991727,TRUE,FALSE,TRUE,"S235881180"
"122","leabit","Least Bittern","Botaurus exilis","L127258","St. Marks NWR (please consider using a more precise location)","2025-05-10 14:12",1,30.1515653,-84.1473314,TRUE,FALSE,FALSE,"S235850058"
"123","leabit","Least Bittern","Botaurus exilis","L2772868","Newton Park","2025-05-10 14:10",1,28.5772006,-81.5865755,TRUE,FALSE,FALSE,"S235739348"
"124","leabit","Least Bittern","Botaurus exilis","L559416","Lake Apopka North Shore--Orange County section (Please consider using more specific locations)","2025-05-10 13:32",2,28.6893446,-81.5995327,TRUE,FALSE,FALSE,"S235764515"
"125","leabit","Least Bittern","Botaurus exilis","L4419269","Jocelyn Nungaray NWR-- onshore at Frozen Point","2025-05-10 13:29",1,29.5412782,-94.5216894,TRUE,FALSE,FALSE,"S235816365"
"126","leabit","Least Bittern","Botaurus exilis","L1023544","Wellington Environmental Preserve","2025-05-10 13:28",2,26.6293528,-80.3059387,TRUE,FALSE,FALSE,"S235776929"
"127","leabit","Least Bittern","Botaurus exilis","L504403","John Heinz NWR--impoundment (Philadelphia Co.)","2025-05-10 13:14",1,39.8893501,-75.2601457,TRUE,FALSE,FALSE,"S235834772"
"128","leabit","Least Bittern","Botaurus exilis","L211111","Metzger Marsh Wildlife Area","2025-05-10 13:11",1,41.645338,-83.2403183,TRUE,FALSE,FALSE,"S236538001"
"129","leabit","Least Bittern","Botaurus exilis","L1549910","US-MI-Ashley-294-998 E Taft Rd","2025-05-10 13:09",1,43.144939,-84.582934,TRUE,FALSE,TRUE,"S235718661"
"130","leabit","Least Bittern","Botaurus exilis","L339541","Maumee Bay SP--Boardwalk","2025-05-10 13:05",1,41.6841898,-83.3654426,TRUE,FALSE,FALSE,"S235935737"
"131","leabit","Least Bittern","Botaurus exilis","L208284","Great Meadows NWR--Concord Unit","2025-05-10 12:50",1,42.4751409,-71.3295084,TRUE,TRUE,FALSE,"S236034026"
"132","leabit","Least Bittern","Botaurus exilis","L44655579","Great Meadows National Wildlife Refuge, Concord US-MA (42.4754,-71.3296)","2025-05-10 12:50",1,42.475368,-71.329646,TRUE,TRUE,TRUE,"S235990652"
"133","leabit","Least Bittern","Botaurus exilis","L13173041","Litchfield Plantation Pawleys Island (private)","2025-05-10 12:50",1,33.4762898,-79.1378552,TRUE,FALSE,TRUE,"S235698560"
"134","leabit","Least Bittern","Botaurus exilis","L727261","Fresh Water City Road (LA 3147)","2025-05-10 12:48",6,29.5913793,-92.3383364,TRUE,FALSE,FALSE,"S236013602"
"135","leabit","Least Bittern","Botaurus exilis","L899963","LeFurge Woods Nature Preserve","2025-05-10 12:37",1,42.2866593,-83.6015797,TRUE,FALSE,FALSE,"S235742727"
"136","leabit","Least Bittern","Botaurus exilis","L6465176","A-1 Flow Equalization Basin (A-1 FEB) [Open Friday - Sunday]","2025-05-10 12:30",3,26.3984897,-80.5940734,TRUE,FALSE,FALSE,"S235715111"
"137","leabit","Least Bittern","Botaurus exilis","L44599349","Huntington Beach State Park, Murrells Inlet US-SC (33.5056,-79.0693)","2025-05-10 12:28",1,33.505576,-79.069281,TRUE,FALSE,TRUE,"S235692090"
"138","leabit","Least Bittern","Botaurus exilis","L38098393","Bear Creek Nature Preserve","2025-05-10 12:17",1,44.706158,-87.375429,TRUE,FALSE,FALSE,"S236244126"
"139","leabit","Least Bittern","Botaurus exilis","L3594554","Metzger Marsh--Bono Rd. Entrance","2025-05-10 12:01",1,41.6406477,-83.2512563,TRUE,FALSE,FALSE,"S235956244"
"140","leabit","Least Bittern","Botaurus exilis","L44595711","54201, Algoma US-WI (44.7057,-87.3737)","2025-05-10 11:47",1,44.705695,-87.373681,TRUE,FALSE,TRUE,"S235675513"
"141","leabit","Least Bittern","Botaurus exilis","L1597260","Wekiwa Springs SP--Sand Lake Parking","2025-05-10 11:45",1,28.7190353,-81.4740985,TRUE,FALSE,FALSE,"S235919874"
"142","leabit","Least Bittern","Botaurus exilis","L557151","Voice of America Game Land","2025-05-10 11:00",1,35.69718,-77.15866,TRUE,FALSE,FALSE,"S235829686"
"143","leabit","Least Bittern","Botaurus exilis","L152744","Indiana Dunes NP--Cowles Bog","2025-05-10 10:54",1,41.6407,-87.0921,TRUE,FALSE,FALSE,"S235755542"
"144","leabit","Least Bittern","Botaurus exilis","L208918","Sweetwater Wetlands","2025-05-10 10:46",1,32.2790144,-111.0216061,TRUE,TRUE,FALSE,"S235824003"
"145","leabit","Least Bittern","Botaurus exilis","L351857","Ansley","2025-05-10 10:37",2,30.2157255,-89.4878936,TRUE,FALSE,FALSE,"S235698639"
"146","leabit","Least Bittern","Botaurus exilis","L513115","Struble Lake","2025-05-10 10:35",1,40.1119512,-75.862999,TRUE,TRUE,FALSE,"S235560877"
"147","leabit","Least Bittern","Botaurus exilis","L6998174","St.Mark's Lutheran","2025-05-10 10:30",1,42.8682899,-85.6158543,TRUE,FALSE,TRUE,"S236667403"
"148","leabit","Least Bittern","Botaurus exilis","L128974","Galveston Island SP (UTC 070)","2025-05-10 10:09",1,29.1956654,-94.9559069,TRUE,FALSE,FALSE,"S235624344"
"149","leabit","Least Bittern","Botaurus exilis","L3710402","Mud Lake, Ozaukee Co.","2025-05-10 10:07",1,43.3771908,-88.0234319,TRUE,FALSE,FALSE,"S235619690"
"150","leabit","Least Bittern","Botaurus exilis","L44634324","Grand Mere State Park, Stevensville US-MI 41.98577, -86.55340","2025-05-10 10:01",1,41.985765,-86.553402,TRUE,FALSE,TRUE,"S235867257"
"151","leabit","Least Bittern","Botaurus exilis","L265055","BK Leach CA--Bittern Basin Unit","2025-05-10 10:00",1,39.206009,-90.7628775,TRUE,FALSE,FALSE,"S236459053"
"152","leabit","Least Bittern","Botaurus exilis","L6366407","Bayou Sauvage Urban NWR--Ridge Trail","2025-05-10 09:58",1,30.0525807,-89.8798422,TRUE,FALSE,FALSE,"S235725402"
"153","leabit","Least Bittern","Botaurus exilis","L158397","Sabine Woods (UTC 026)","2025-05-10 09:51",1,29.6984073,-93.9481795,TRUE,FALSE,FALSE,"S235655357"
"154","leabit","Least Bittern","Botaurus exilis","L443535","Yolo Bypass Wildlife Area","2025-05-10 09:48",1,38.551789,-121.6208018,TRUE,FALSE,FALSE,"S235656777"
"155","leabit","Least Bittern","Botaurus exilis","L2366605","Boone Creek Conservation Area","2025-05-10 09:47",1,42.342115,-88.3710194,TRUE,FALSE,FALSE,"S235599061"
"156","leabit","Least Bittern","Botaurus exilis","L1011366","Wheeler NWR--Penney Bottoms Impoundment","2025-05-10 09:35",1,34.5907797,-86.8784532,TRUE,FALSE,FALSE,"S235569362"
"157","leabit","Least Bittern","Botaurus exilis","L385337","Bay Area Pk (UTC 082)","2025-05-10 09:28",2,29.5942074,-95.087657,TRUE,FALSE,FALSE,"S235558860"
"158","leabit","Least Bittern","Botaurus exilis","L3281871","Lake Apopka North Shore--Pump House Area","2025-05-10 09:22",2,28.6682,-81.59346,TRUE,FALSE,FALSE,"S235504515"
"159","leabit","Least Bittern","Botaurus exilis","L818738","Mentor Lagoons Nature Preserve","2025-05-10 09:20",1,41.7298817,-81.3397694,TRUE,FALSE,FALSE,"S235710041"
"160","leabit","Least Bittern","Botaurus exilis","L38366180","South Point Road, Ocracoke, North Carolina, US (35.103, -75.973)","2025-05-10 09:15",NA,35.1033833,-75.9730024,TRUE,FALSE,TRUE,"S235621313"
"161","leabit","Least Bittern","Botaurus exilis","L569741","Guadalupe Delta WMA--Calhoun Co. (CTC 036)","2025-05-10 09:06",1,28.5027523,-96.8324876,TRUE,FALSE,FALSE,"S235517684"
"162","leabit","Least Bittern","Botaurus exilis","L1575305","Brazoria NWR--Auto Tour Loop and Discovery Center","2025-05-10 09:03",3,29.0599843,-95.267568,TRUE,FALSE,FALSE,"S235530581"
"163","leabit","Least Bittern","Botaurus exilis","L170028","Loess Bluffs NWR","2025-05-10 09:02",1,40.068893,-95.23534,TRUE,FALSE,FALSE,"S235888370"
"164","leabit","Least Bittern","Botaurus exilis","L3956291","Muscatatuck NWR--Auto Tour Loop Drive","2025-05-10 08:58",1,38.954937,-85.8028901,TRUE,FALSE,FALSE,"S235804151"
"165","leabit","Least Bittern","Botaurus exilis","L376186","""Viera"" Ritch Grissom Memorial Wetlands","2025-05-10 08:58",5,28.228577,-80.7604659,TRUE,FALSE,FALSE,"S235498707"
"166","leabit","Least Bittern","Botaurus exilis","L259855","Estero Llano Grande SP WBC (LTC 054)","2025-05-10 08:55",2,26.1268335,-97.9578167,TRUE,FALSE,FALSE,"S235696160"
"167","leabit","Least Bittern","Botaurus exilis","L1148834","Cibola NWR--Hart Mine Marsh","2025-05-10 08:46",6,33.2811926,-114.666152,TRUE,FALSE,FALSE,"S235679842"
"168","leabit","Least Bittern","Botaurus exilis","L1427599","College of DuPage--Russel R. Kirt Prairie","2025-05-10 08:39",1,41.8402588,-88.0757405,TRUE,FALSE,FALSE,"S236447737"
"169","leabit","Least Bittern","Botaurus exilis","L189812","Boca Ciega Millennium Park","2025-05-10 08:39",1,27.835564,-82.8115,TRUE,FALSE,FALSE,"S235606774"
"170","leabit","Least Bittern","Botaurus exilis","L452007","Orlando Wetlands","2025-05-10 08:36",1,28.5700783,-80.9963373,TRUE,FALSE,FALSE,"S235548653"
"171","leabit","Least Bittern","Botaurus exilis","L1106225","Circle B Bar Reserve","2025-05-10 08:36",1,27.9959173,-81.8652327,TRUE,FALSE,FALSE,"S235702038"
"172","leabit","Least Bittern","Botaurus exilis","L581830","Belle Glade Marina & Torry Island","2025-05-10 08:15",4,26.7063982,-80.7168961,TRUE,FALSE,FALSE,"S235577243"
"173","leabit","Least Bittern","Botaurus exilis","L23824916","48179, South Rockwood US-MI 42.02505, -83.22258","2025-05-10 08:10",1,42.025047,-83.222576,TRUE,FALSE,TRUE,"S235491034"
"174","leabit","Least Bittern","Botaurus exilis","L29170532","Bay Point Resort and Marina, Marblehead US-OH 41.50198, -82.71660","2025-05-10 07:44",1,41.501977,-82.716604,TRUE,FALSE,TRUE,"S235953940"
"175","leabit","Least Bittern","Botaurus exilis","L771287","Savannahs Preserve SP--Hawk's Bluff Trail","2025-05-10 07:43",1,27.2598847,-80.2410614,TRUE,FALSE,FALSE,"S235441056"
"176","leabit","Least Bittern","Botaurus exilis","L673777","Standifer Gap Marsh","2025-05-10 07:40",1,35.0633035,-85.1670456,TRUE,FALSE,TRUE,"S235532135"
"177","leabit","Least Bittern","Botaurus exilis","L830108","Harns Marsh","2025-05-10 07:39",1,26.6496729,-81.6869336,TRUE,FALSE,FALSE,"S235443883"
"178","leabit","Least Bittern","Botaurus exilis","L30841016","Horseshoe Lake","2025-05-10 07:38",1,38.697725,-90.067255,TRUE,TRUE,TRUE,"S235599395"
"179","leabit","Least Bittern","Botaurus exilis","L876716","Bosque del Apache NWR--South Loop (formerly Marsh Loop)","2025-05-10 07:37",1,33.7831424,-106.8928528,TRUE,FALSE,FALSE,"S235759977"
"180","leabit","Least Bittern","Botaurus exilis","L4323171","Lake Apopka North Shore--Lust Rd. Gate Area Only (Not for entire wildlife drive)","2025-05-10 07:10",2,28.671831,-81.559615,TRUE,FALSE,FALSE,"S235980488"
"181","leabit","Least Bittern","Botaurus exilis","L44542265","LA-27, Cameron US-LA (29.8746,-93.4372)","2025-05-10 07:08",1,29.874602,-93.437157,TRUE,FALSE,TRUE,"S235418911"
"182","leabit","Least Bittern","Botaurus exilis","L269735","Mill Creek Wildlife Sanctuary (restricted access)","2025-05-10 07:00",1,40.9738798,-80.6971765,TRUE,FALSE,FALSE,"S235574978"
"183","leabit","Least Bittern","Botaurus exilis","L449788","Currituck Heritage Park","2025-05-10 07:00",1,36.3739667,-75.8328187,TRUE,FALSE,FALSE,"S235401869"
"184","leabit","Least Bittern","Botaurus exilis","L252073","Horicon Marsh SWA--International Education Center","2025-05-10 07:00",1,43.47445,-88.60108,TRUE,FALSE,FALSE,"S235809142"
"185","leabit","Least Bittern","Botaurus exilis","L5643639","Kingston Point Beach","2025-05-10 06:56",1,41.9300672,-73.9652988,TRUE,FALSE,FALSE,"S236015266"
"186","leabit","Least Bittern","Botaurus exilis","L2508694","Cross Creek Ranch wetlands","2025-05-10 06:50",1,29.6986869,-95.8764732,TRUE,FALSE,FALSE,"S235510765"
"187","leabit","Least Bittern","Botaurus exilis","L128926","Brazoria NWR (UTC 108)","2025-05-10 06:49",1,29.0592062,-95.2745684,TRUE,FALSE,FALSE,"S235510090"
"188","leabit","Least Bittern","Botaurus exilis","L216894","Savage Neck Dunes State Natural Area Preserve","2025-05-10 06:41",1,37.3278878,-76.0041663,TRUE,FALSE,FALSE,"S235441026"
"189","leabit","Least Bittern","Botaurus exilis","L1871151","Tres Rios Overbank Wetlands (permit required)","2025-05-10 06:37",3,33.389402,-112.2597653,TRUE,FALSE,FALSE,"S235564805"
"190","leabit","Least Bittern","Botaurus exilis","L12320092","Lakeside Ranch STA","2025-05-10 06:37",2,27.120748,-80.671562,TRUE,FALSE,FALSE,"S235999122"
"191","leabit","Least Bittern","Botaurus exilis","L157681","Cedarburg Bog SNA","2025-05-10 06:36",1,43.3869,-88.0061,TRUE,FALSE,FALSE,"S235842796"
"192","leabit","Least Bittern","Botaurus exilis","L6593640","Martin Dies, Jr. State Park, Jasper US-TX (30.8406,-94.1690)","2025-05-10 06:35",1,30.840648,-94.169006,TRUE,FALSE,TRUE,"S235411011"
"193","leabit","Least Bittern","Botaurus exilis","L899745","Tonawanda WMA--Meadville Marsh","2025-05-10 06:31",1,43.1208458,-78.4629822,TRUE,FALSE,FALSE,"S235374726"
"194","leabit","Least Bittern","Botaurus exilis","L417678","Pilot Station Road (Jetty Rd., S. 1st Ave.)","2025-05-10 06:20",1,29.7016169,-93.8545154,TRUE,FALSE,FALSE,"S235449068"
"195","leabit","Least Bittern","Botaurus exilis","L152119","Iroquois NWR--Cayuga Overlook","2025-05-10 06:11",1,43.1189663,-78.4430695,TRUE,FALSE,FALSE,"S235362612"
"196","leabit","Least Bittern","Botaurus exilis","L42738533","Grand Mere SP - Lake Anne","2025-05-10 06:06",1,41.9855921,-86.5534849,TRUE,FALSE,TRUE,"S235377148"
"197","leabit","Least Bittern","Botaurus exilis","L1138023","Deer Point Lake--North Bayhead Landing","2025-05-10 06:05",1,30.3173619,-85.5776529,TRUE,FALSE,FALSE,"S235864014"
"198","leabit","Least Bittern","Botaurus exilis","L14968833","Tifft Nature Preserve, Buffalo US-NY 42.84656, -78.85877","2025-05-10 06:03",1,42.846563,-78.858767,TRUE,FALSE,TRUE,"S235418726"
"199","leabit","Least Bittern","Botaurus exilis","L6576445","Sudley Rd","2025-05-10 06:00",1,38.8146751,-76.563556,TRUE,FALSE,TRUE,"S235394614"
"200","leabit","Least Bittern","Botaurus exilis","L2740595","Chesapeake Beach Railroad Trail","2025-05-10 06:00",1,38.6903502,-76.5384865,TRUE,FALSE,FALSE,"S235676553"
"201","leabit","Least Bittern","Botaurus exilis","L887511","North Central Michigan College Natural Area","2025-05-10 05:55",1,45.3592999,-84.9489391,TRUE,FALSE,FALSE,"S235391915"
"202","leabit","Least Bittern","Botaurus exilis","L5502113","Lake Anne","2025-05-10 05:43",1,41.985583,-86.55444,TRUE,FALSE,TRUE,"S235459838"
"203","leabit","Least Bittern","Botaurus exilis","L20160624","Grand Mere - Lake Anne","2025-05-10 05:41",1,41.9856787,-86.5541842,TRUE,FALSE,TRUE,"S235926970"
"204","leabit","Least Bittern","Botaurus exilis","L727325","Madisonville--Tchefuncte River Mouth and Environs","2025-05-10 05:39",1,30.3867047,-90.1581216,TRUE,FALSE,FALSE,"S235691350"
"205","leabit","Least Bittern","Botaurus exilis","L18540318","Lake Anne","2025-05-10 05:24",1,41.985422,-86.552362,TRUE,FALSE,TRUE,"S235354221"
"206","leabit","Least Bittern","Botaurus exilis","L11434925","53949, Montello US-WI 43.89204, -89.27286","2025-05-10 05:10",2,43.892039,-89.272859,TRUE,TRUE,TRUE,"S236118553"
"207","leabit","Least Bittern","Botaurus exilis","L153402","Iroquois NWR--Schoolhouse Marsh Overlook","2025-05-10 05:05",1,43.1460569,-78.3751774,TRUE,FALSE,FALSE,"S235340024"
"208","leabit","Least Bittern","Botaurus exilis","L166309","Tonawanda WMA--Bartel Rd.-Owen Rd.","2025-05-10 04:41",1,43.10575,-78.47706,TRUE,FALSE,FALSE,"S235334588"
"209","leabit","Least Bittern","Botaurus exilis","L295687","Wallkill River NWR--Liberty Marsh (Sussex Co.)","2025-05-10 04:22",3,41.2774724,-74.5320937,TRUE,FALSE,FALSE,"S235346499"
"210","leabit","Least Bittern","Botaurus exilis","L285931","Tuckahoe WMA (Cape May Co.)","2025-05-10 04:15",1,39.2855132,-74.7241616,TRUE,FALSE,FALSE,"S235339191"
"211","leabit","Least Bittern","Botaurus exilis","L523951","Stipson Island Rd.","2025-05-10 04:12",1,39.1890256,-74.9109006,TRUE,FALSE,FALSE,"S235419659"
"212","leabit","Least Bittern","Botaurus exilis","L1280474","Montezuma (NMWMA)--Deep Muck and Mitigation Marsh","2025-05-10 04:01",1,43.0737585,-76.7234516,TRUE,FALSE,FALSE,"S235327623"
"213","leabit","Least Bittern","Botaurus exilis","L44748188","SR 520, Black Creek Marsh","2025-05-10 03:00",1,40.5055736,-82.0224269,TRUE,FALSE,TRUE,"S236488608"
"214","leabit","Least Bittern","Botaurus exilis","L724814","Kankakee Sands Nature Preserve (TNC)","2025-05-10 02:55",5,41.0798687,-87.4287701,TRUE,FALSE,FALSE,"S235332710"
"215","leabit","Least Bittern","Botaurus exilis","L2115955","Masker Marsh","2025-05-10 02:22",1,41.2235365,-74.4796658,TRUE,FALSE,FALSE,"S235305609"
"216","leabit","Least Bittern","Botaurus exilis","L572189","Edgemere Drive (1710)","2025-05-10 02:20",1,43.2872722,-77.6685781,TRUE,FALSE,FALSE,"S235303768"
"217","leabit","Least Bittern","Botaurus exilis","L44545833","Sussex County (general)","2025-05-10 02:02",1,41.207828,-74.608747,TRUE,FALSE,TRUE,"S235440206"
"218","leabit","Least Bittern","Botaurus exilis","L44515497","136–148 Tyler Rd, Woodbine US-NJ 39.24967, -74.70421","2025-05-10 01:02",1,39.249667,-74.70421,TRUE,FALSE,TRUE,"S235290365"
"219","leabit","Least Bittern","Botaurus exilis","L44664106","Sussex","2025-05-10 00:00",1,41.078816,-74.715543,TRUE,FALSE,TRUE,"S236041566"
"220","leabit","Least Bittern","Botaurus exilis","L953560","Goose Pond FWA--GP10S","2025-05-09 20:34",1,38.9978413,-87.1936798,TRUE,FALSE,FALSE,"S235257325"
"221","leabit","Least Bittern","Botaurus exilis","L2462278","Loess Bluffs NWR--Cattail Pool and Moist Soil Units","2025-05-09 20:32",12,40.0885458,-95.2302969,TRUE,FALSE,FALSE,"S235635657"
"222","leabit","Least Bittern","Botaurus exilis","L232598","Tuttle Marsh Wildlife Area","2025-05-09 20:04",1,44.36827,-83.4477604,TRUE,FALSE,FALSE,"S235267806"
"223","leabit","Least Bittern","Botaurus exilis","L30912734","Gettysburg NMP--Crawford Ave. Beaver Pond","2025-05-09 19:56",1,39.79472,-77.238445,TRUE,FALSE,FALSE,"S235243975"
"224","leabit","Least Bittern","Botaurus exilis","L324161","Wetzel SP","2025-05-09 19:54",1,42.7397538,-82.8481499,TRUE,FALSE,FALSE,"S235236531"
"225","leabit","Least Bittern","Botaurus exilis","L27188778","Tuttle Marsh Rd, East Tawas US-MI 44.36329, -83.46326","2025-05-09 19:32",1,44.363286,-83.46326,TRUE,FALSE,TRUE,"S235254679"
"226","leabit","Least Bittern","Botaurus exilis","L880154","Goose Pond FWA--Main Pool West","2025-05-09 19:32",1,38.9690189,-87.1820068,TRUE,FALSE,FALSE,"S235249675"
"227","leabit","Least Bittern","Botaurus exilis","L756392","Magee Marsh--Visitor Center and Trails","2025-05-09 19:26",1,41.611913,-83.1872106,TRUE,FALSE,FALSE,"S235283272"
"228","leabit","Least Bittern","Botaurus exilis","L44506337","SR-59, Sandborn US-IN 38.97980, -87.18619","2025-05-09 19:10",1,38.979805,-87.186185,TRUE,FALSE,TRUE,"S235237161"
"229","leabit","Least Bittern","Botaurus exilis","L3109497","St. Marks NWR--East River Pool","2025-05-09 19:04",1,30.1319741,-84.1467762,TRUE,FALSE,FALSE,"S235282332"
"230","leabit","Least Bittern","Botaurus exilis","L1277623","Emiquon Preserve--Visitor's Center","2025-05-09 19:00",1,40.3556689,-90.0816679,TRUE,FALSE,FALSE,"S235249650"
"231","leabit","Least Bittern","Botaurus exilis","L619780","Chincoteague NWR--Marsh Trail","2025-05-09 18:05",1,37.9083824,-75.3471136,TRUE,FALSE,FALSE,"S235210307"
"232","leabit","Least Bittern","Botaurus exilis","L896549","South Padre Is.--Queen Isabella causeway east end","2025-05-09 17:36",1,26.0852396,-97.1698773,TRUE,FALSE,FALSE,"S235216271"
"233","leabit","Least Bittern","Botaurus exilis","L617192","Ottawa NWR--Darby Unit (restricted access)","2025-05-09 17:27",1,41.529399,-82.9914093,TRUE,FALSE,FALSE,"S235238241"
"234","leabit","Least Bittern","Botaurus exilis","L250250","John S. Taylor Park","2025-05-09 16:48",1,27.9023224,-82.8054893,TRUE,FALSE,FALSE,"S235206181"
"235","leabit","Least Bittern","Botaurus exilis","L129090","Sea Rim SP (UTC 027)","2025-05-09 16:24",1,29.6755873,-94.0421026,TRUE,FALSE,FALSE,"S236714833"
"236","leabit","Least Bittern","Botaurus exilis","L44514308","Jocelyn Nungaray National Wildlife Refuge, Anahuac US-TX 29.58323, -94.52176","2025-05-09 16:23",1,29.583234,-94.521757,TRUE,FALSE,TRUE,"S235277720"
"237","leabit","Least Bittern","Botaurus exilis","L677968","St. Andrews SP--Gator Lake","2025-05-09 14:52",2,30.12853,-85.73288,TRUE,FALSE,FALSE,"S235180480"
"238","leabit","Least Bittern","Botaurus exilis","L3594591","Metzger Marsh--Woodlot","2025-05-09 14:32",1,41.6499748,-83.2382423,TRUE,FALSE,FALSE,"S235233480"
"239","leabit","Least Bittern","Botaurus exilis","L3594551","Metzger Marsh--Outer Dike","2025-05-09 14:20",1,41.6487565,-83.2361555,TRUE,FALSE,FALSE,"S235140874"
"240","leabit","Least Bittern","Botaurus exilis","L740425","Ottawa NWR--Visitor Center and Boardwalk","2025-05-09 14:17",1,41.607517,-83.2096338,TRUE,FALSE,FALSE,"S235177899"
"241","leabit","Least Bittern","Botaurus exilis","L14792316","Garrett Mountain Reservation, Woodland Park US-NJ 40.89674, -74.18261","2025-05-09 13:58",1,40.896737,-74.18261,TRUE,FALSE,TRUE,"S235135767"
"242","leabit","Least Bittern","Botaurus exilis","L44486267","Grand Isle State Park, Grand Isle US-LA 29.25833, -89.95262","2025-05-09 13:28",2,29.258332,-89.952616,TRUE,FALSE,TRUE,"S235131842"
"243","leabit","Least Bittern","Botaurus exilis","L280165","Greenbottom WMA","2025-05-09 11:50",2,38.5905877,-82.2325158,TRUE,FALSE,FALSE,"S235216000"
"244","leabit","Least Bittern","Botaurus exilis","L4971040","Howard Marsh Metropark","2025-05-09 11:32",1,41.6450689,-83.2637178,TRUE,FALSE,FALSE,"S235091237"
"245","leabit","Least Bittern","Botaurus exilis","L603712","Mentor Marsh State Nature Preserve--Wake Robin","2025-05-09 10:55",1,41.7297856,-81.3189554,TRUE,FALSE,FALSE,"S235261013"
"246","leabit","Least Bittern","Botaurus exilis","L132605","Faulk Drive Landing","2025-05-09 10:02",1,30.5215893,-84.3238068,TRUE,FALSE,FALSE,"S235025945"
"247","leabit","Least Bittern","Botaurus exilis","L723908","Brookgreen Botanical Gardens (please do not report captive birds)","2025-05-09 09:50",1,33.5188928,-79.0930974,TRUE,FALSE,FALSE,"S235244597"
"248","leabit","Least Bittern","Botaurus exilis","L209818","Garret Mountain Reservation (Park)","2025-05-09 09:39",1,40.8995168,-74.1791808,TRUE,FALSE,FALSE,"S235764114"
"249","leabit","Least Bittern","Botaurus exilis","L11288784","Jefferson Co.—TX87 end of rd. at Clam Lake rd.","2025-05-09 09:30",6,29.6681736,-94.0719798,TRUE,FALSE,FALSE,"S235184625"
"250","leabit","Least Bittern","Botaurus exilis","L1749478","Lake Lindsey Boat Ramp","2025-05-09 09:26",1,28.6287274,-82.3626257,TRUE,FALSE,FALSE,"S235028926"
"251","leabit","Least Bittern","Botaurus exilis","L1107527","Goose Pond FWA--GP5N","2025-05-09 09:03",1,38.989436,-87.161665,TRUE,FALSE,FALSE,"S235034548"
"252","leabit","Least Bittern","Botaurus exilis","L44464970","31525, Brunswick US-GA 31.26068, -81.30195","2025-05-09 08:32",4,31.260685,-81.301946,TRUE,FALSE,TRUE,"S235022302"
"253","leabit","Least Bittern","Botaurus exilis","L623357","Paynes Prairie Preserve SP--La Chua Trail","2025-05-09 08:10",1,29.6068756,-82.3031116,TRUE,FALSE,FALSE,"S234997328"
"254","leabit","Least Bittern","Botaurus exilis","L624720","Emeralda Marsh CA--Wildlife Drive","2025-05-09 07:57",1,28.88672,-81.7909276,TRUE,FALSE,FALSE,"S235025337"
"255","leabit","Least Bittern","Botaurus exilis","L790298","Trimble Park","2025-05-09 07:54",1,28.7672453,-81.6561091,TRUE,FALSE,FALSE,"S235033467"
"256","leabit","Least Bittern","Botaurus exilis","L2038226","George W. Mead SWA--Smoky Hill Rd. (Marathon Co.)","2025-05-09 07:45",1,44.7312475,-89.9253273,TRUE,TRUE,FALSE,"S235165183"
"257","leabit","Least Bittern","Botaurus exilis","L6364505","Masters Tract Stormwater Treatment Facility","2025-05-09 07:32",3,29.686897,-81.4758325,TRUE,FALSE,FALSE,"S235095856"
"258","leabit","Least Bittern","Botaurus exilis","L1512917","Ottawa NWR--Crane Creek Estuary Trail","2025-05-09 07:25",1,41.6310555,-83.1958526,TRUE,FALSE,FALSE,"S235236172"
"259","leabit","Least Bittern","Botaurus exilis","L902217","Havasu NWR, Castle Rock area (AZ)","2025-05-09 07:15",1,34.5636867,-114.3967724,TRUE,FALSE,TRUE,"S235094408"
"260","leabit","Least Bittern","Botaurus exilis","L7086958","Stormwater Treatment Area 1W (Limited Access)","2025-05-09 07:13",4,26.6762842,-80.4273806,TRUE,FALSE,FALSE,"S235020900"
"261","leabit","Least Bittern","Botaurus exilis","L38184774","Loess Bluffs National Wildlife Refuge, Forest City US-MO 40.05988, -95.23695","2025-05-09 07:03",2,40.059884,-95.236945,TRUE,FALSE,TRUE,"S235165451"
"262","leabit","Least Bittern","Botaurus exilis","L605633","Fort Morgan State Historical Park","2025-05-09 06:44",1,30.2305946,-88.015337,TRUE,FALSE,TRUE,"S235145572"
"263","leabit","Least Bittern","Botaurus exilis","L757797","Salton Sea--Schrimpf Rd. Cove","2025-05-09 06:30",1,33.1989437,-115.5902481,TRUE,FALSE,FALSE,"S235862469"
"264","leabit","Least Bittern","Botaurus exilis","L2470260","Noxubee NWR (Noxubee Co.) (please consider using more specific location/hotspot)","2025-05-09 06:20",1,33.268404,-88.7860537,TRUE,FALSE,FALSE,"S235062453"
"265","leabit","Least Bittern","Botaurus exilis","L30998325","NC-12, Cedar Island US-NC (34.9393,-76.3430)","2025-05-09 05:49",1,34.939254,-76.343009,TRUE,FALSE,TRUE,"S235153647"
"266","leabit","Least Bittern","Botaurus exilis","L1092125","Sedona Wetlands Preserve","2025-05-09 05:43",1,34.829,-111.8964,TRUE,TRUE,FALSE,"S235044070"
"267","leabit","Least Bittern","Botaurus exilis","L718307","**Back Bay NWR","2025-05-09 05:36",1,36.672127,-75.915661,TRUE,FALSE,FALSE,"S234911205"
"268","leabit","Least Bittern","Botaurus exilis","L166161","Trustom Pond NWR","2025-05-09 05:21",1,41.372185,-71.58563,TRUE,TRUE,FALSE,"S234892376"
"269","leabit","Least Bittern","Botaurus exilis","L1352120","Lake Havasu--Castle Rock Bay","2025-05-09 05:00",9,34.5635356,-114.3954912,TRUE,FALSE,FALSE,"S235078246"
"270","leabit","Least Bittern","Botaurus exilis","L37653115","Lust Rd","2025-05-09 03:15",1,28.6689536,-81.5751455,TRUE,FALSE,TRUE,"S235185645"
"271","leabit","Least Bittern","Botaurus exilis","L428002","Cape May NWR--Cedar Swamp Creek","2025-05-08 23:20",1,39.2544619,-74.7079511,TRUE,FALSE,FALSE,"S234831564"
"272","leabit","Least Bittern","Botaurus exilis","L36028470","Lost Creek Wolfe","2025-05-08 22:42",1,44.536139,-89.466614,TRUE,TRUE,TRUE,"S235047781"
"273","leabit","Least Bittern","Botaurus exilis","L44425888","Grand Mere State Park, Lake Anne","2025-05-08 19:30",1,41.985584,-86.553268,TRUE,FALSE,TRUE,"S234795191"
"274","leabit","Least Bittern","Botaurus exilis","L1280442","Montezuma NWR--Eaton Marsh","2025-05-08 19:24",1,42.9902666,-76.7351353,TRUE,FALSE,FALSE,"S234789854"
"275","leabit","Least Bittern","Botaurus exilis","L2099614","Abbott Marshlands--John A. Roebling Park","2025-05-08 19:11",1,40.1944134,-74.7327805,TRUE,TRUE,FALSE,"S234798468"
"276","leabit","Least Bittern","Botaurus exilis","L29904684","Vischer ferry","2025-05-08 18:38",1,42.7931786,-73.795639,TRUE,FALSE,TRUE,"S234795328"
"277","leabit","Least Bittern","Botaurus exilis","L109516","Prospect Park","2025-05-08 18:18",1,40.6602841,-73.9689534,TRUE,TRUE,FALSE,"S234763582"
"278","leabit","Least Bittern","Botaurus exilis","L624934","Strayer's Sanctuary","2025-05-08 18:10",1,41.3271309,-85.5203891,TRUE,FALSE,TRUE,"S234829572"
"279","leabit","Least Bittern","Botaurus exilis","L28196200","Horseshoe Lake State Park, Pontoon Beach US-IL 38.69510, -90.07292","2025-05-08 17:43",2,38.695099,-90.072922,TRUE,TRUE,TRUE,"S234784515"
"280","leabit","Least Bittern","Botaurus exilis","L43939492","Legends Fields, Oswego US-NY 43.43454, -76.47449","2025-05-08 17:26",1,43.434542,-76.474492,TRUE,FALSE,TRUE,"S234745195"
"281","leabit","Least Bittern","Botaurus exilis","L33312104","Smoky Hill Rd / N Smoky Hill Flowage","2025-05-08 17:15",2,44.7154092,-89.9262743,TRUE,TRUE,TRUE,"S234825107"
"282","leabit","Least Bittern","Botaurus exilis","L169447","Riverlands Migratory Bird Sanctuary","2025-05-08 16:34",1,38.8719313,-90.1843917,TRUE,FALSE,FALSE,"S234832916"
"283","leabit","Least Bittern","Botaurus exilis","L18761937","65542, Licking US-MO (37.4737,-91.7940)","2025-05-08 16:10",1,37.473738,-91.794035,TRUE,FALSE,TRUE,"S234741083"
"284","leabit","Least Bittern","Botaurus exilis","L143593","Lake Munson Preserve Park & Dam","2025-05-08 15:13",2,30.365942,-84.3001404,TRUE,FALSE,FALSE,"S234709297"
"285","leabit","Least Bittern","Botaurus exilis","L213999","Laguna Niguel Regional Park","2025-05-08 14:50",1,33.5494066,-117.709837,TRUE,FALSE,FALSE,"S234782829"
"286","leabit","Least Bittern","Botaurus exilis","L7756432","Sherburne 4 Corners ag fields & pond","2025-05-08 14:28",1,42.6466873,-75.542576,TRUE,TRUE,FALSE,"S234716179"
"287","leabit","Least Bittern","Botaurus exilis","L42104708","Lady Lake, Grey Eagle US-MN (45.8571,-94.7490)","2025-05-08 14:02",1,45.857124,-94.749043,TRUE,TRUE,TRUE,"S234699354"
"288","leabit","Least Bittern","Botaurus exilis","L44404634","Meadow Rd, Woodbine US-NJ 39.27494, -74.72101","2025-05-08 13:46",1,39.27494,-74.721013,TRUE,FALSE,TRUE,"S234676064"
"289","leabit","Least Bittern","Botaurus exilis","L603705","Lorain Impoundment Lakeside Landing","2025-05-08 12:50",1,41.4759174,-82.1756744,TRUE,FALSE,FALSE,"S234669085"
"290","leabit","Least Bittern","Botaurus exilis","L31866564","Root River WMA- West unit","2025-05-08 12:43",1,43.7674156,-91.4470293,TRUE,FALSE,TRUE,"S234671593"
"291","leabit","Least Bittern","Botaurus exilis","L44398432","9154–9554 Picos Rd, Fort Pierce US-FL 27.43367, -80.41395","2025-05-08 12:31",1,27.433671,-80.413949,TRUE,FALSE,TRUE,"S234644503"
"292","leabit","Least Bittern","Botaurus exilis","L691070","Ottawa NWR--Wildlife Drive (Lucas Co.)","2025-05-08 11:31",1,41.6313741,-83.2283996,TRUE,FALSE,FALSE,"S234790267"
"293","leabit","Least Bittern","Botaurus exilis","L18889183","475–555 Copperton Rd, Rayne US-LA 30.20112, -92.23170","2025-05-08 11:08",1,30.201118,-92.231701,TRUE,FALSE,TRUE,"S234745266"
"294","leabit","Least Bittern","Botaurus exilis","L170030","Four Rivers CA (Vernon Co.)","2025-05-08 11:08",1,38.022,-94.289,TRUE,FALSE,FALSE,"S234654944"
"295","leabit","Least Bittern","Botaurus exilis","L15211597","Heron's Nest Nature Park","2025-05-08 10:51",1,27.4251855,-82.4150777,TRUE,FALSE,FALSE,"S234830079"
"296","leabit","Least Bittern","Botaurus exilis","L17667135","Williford Spring","2025-05-08 10:32",1,30.4405826,-85.5472324,TRUE,FALSE,FALSE,"S234682434"
"297","leabit","Least Bittern","Botaurus exilis","L44390449","Lake Anne, Stevensville US-MI 41.98501, -86.55480","2025-05-08 10:14",1,41.985013,-86.554802,TRUE,FALSE,TRUE,"S234602914"
"298","leabit","Least Bittern","Botaurus exilis","L251282","Calero Reservoir","2025-05-08 10:10",2,37.18776,-121.77645,TRUE,TRUE,FALSE,"S234674078"
"299","leabit","Least Bittern","Botaurus exilis","L279651","Castaic Lagoon","2025-05-08 10:00",1,34.5049298,-118.610158,TRUE,TRUE,FALSE,"S234783801"
"300","leabit","Least Bittern","Botaurus exilis","L1420268","Goose Pond FWA--GP7","2025-05-08 09:43",2,38.9755787,-87.1909763,TRUE,FALSE,FALSE,"S234582714"
"301","leabit","Least Bittern","Botaurus exilis","L340501","Banner Marsh FWA-- East Access (Peoria Co.)","2025-05-08 09:43",1,40.5465358,-89.836145,TRUE,FALSE,FALSE,"S234715821"
"302","leabit","Least Bittern","Botaurus exilis","L42494425","Grand Mere State Park - Lake Anne","2025-05-08 09:36",1,41.9856142,-86.5529155,TRUE,FALSE,TRUE,"S234573161"
"303","leabit","Least Bittern","Botaurus exilis","L356505","Santee Coastal Reserve (fall and winter restricted access)","2025-05-08 09:34",1,33.1477339,-79.3961066,TRUE,FALSE,FALSE,"S234592378"
"304","leabit","Least Bittern","Botaurus exilis","L4268866","Nemours Wildlife Foundation (restricted access)","2025-05-08 09:33",2,32.643089,-80.6853441,TRUE,FALSE,FALSE,"S235968350"
"305","leabit","Least Bittern","Botaurus exilis","L278450","UTRGV Brownsville (campus & resacas)","2025-05-08 09:32",1,25.8954255,-97.4872156,TRUE,FALSE,FALSE,"S234600674"
"306","leabit","Least Bittern","Botaurus exilis","L19241081","New Shoreham Transfer Station & Recycling Center Marsh","2025-05-08 09:20",1,41.209252,-71.577435,TRUE,TRUE,TRUE,"S234625382"
"307","leabit","Least Bittern","Botaurus exilis","L460918","Southwest Area Park","2025-05-08 09:15",1,39.2361091,-76.6265917,TRUE,FALSE,FALSE,"S235105975"
"308","leabit","Least Bittern","Botaurus exilis","L937465","Chickasaw Ponds","2025-05-08 08:42",1,30.7649413,-88.0647862,TRUE,FALSE,FALSE,"S234571069"
"309","leabit","Least Bittern","Botaurus exilis","L109160","Station 43","2025-05-08 08:33",1,41.8338915,-72.6233196,TRUE,FALSE,FALSE,"S234583422"
"310","leabit","Least Bittern","Botaurus exilis","L499383","Humpo Marsh","2025-05-08 08:27",2,41.7389768,-74.1405487,TRUE,FALSE,FALSE,"S235057324"
"311","leabit","Least Bittern","Botaurus exilis","L127320","John Chesnut Sr. Park","2025-05-08 08:18",1,28.0922,-82.7067,TRUE,FALSE,FALSE,"S234742891"
"312","leabit","Least Bittern","Botaurus exilis","L391756","Jocelyn Nungaray NWR--Skillern Tract (UTC 050)","2025-05-08 08:08",1,29.6643945,-94.4222546,TRUE,FALSE,FALSE,"S234722414"
"313","leabit","Least Bittern","Botaurus exilis","L29571785","Waccamaw NWR--Hasty Point","2025-05-08 08:02",1,33.5417625,-79.1754195,TRUE,FALSE,FALSE,"S234728373"
"314","leabit","Least Bittern","Botaurus exilis","L16861269","Celery Fields","2025-05-08 08:02",3,27.320572,-82.4377,TRUE,FALSE,TRUE,"S234588579"
"315","leabit","Least Bittern","Botaurus exilis","L604741","Lajitas (FWTX 37)","2025-05-08 07:48",1,29.2619728,-103.7770593,TRUE,FALSE,FALSE,"S234657172"
"316","leabit","Least Bittern","Botaurus exilis","L984762","Sandy Hook--North End","2025-05-08 07:44",1,40.4769212,-74.0107298,TRUE,FALSE,FALSE,"S234595576"
"317","leabit","Least Bittern","Botaurus exilis","L275524","Seaman Rd Sewage Lagoons (restricted access)","2025-05-08 07:08",1,30.500325,-88.7982038,TRUE,FALSE,FALSE,"S234634214"
"318","leabit","Least Bittern","Botaurus exilis","L261960","White River Lake (PHP 023)","2025-05-08 07:05",2,33.4737991,-101.086116,TRUE,TRUE,FALSE,"S234665260"
"319","leabit","Least Bittern","Botaurus exilis","L13055047","Tower Pond Trail, Florida, US (30.088, -84.164)","2025-05-08 07:01",1,30.0880921,-84.1644375,TRUE,FALSE,TRUE,"S234559118"
"320","leabit","Least Bittern","Botaurus exilis","L11247646","Trustom Pond National Wildlife Refuge, Wakefield US-RI 41.37722, -71.58297","2025-05-08 07:00",1,41.377219,-71.582967,TRUE,TRUE,TRUE,"S234738144"
"321","leabit","Least Bittern","Botaurus exilis","L286004","Deer Island","2025-05-08 06:28",1,30.3847226,-88.8718414,TRUE,FALSE,FALSE,"S234709566"
"322","leabit","Least Bittern","Botaurus exilis","L1107662","MacDill AFB (restricted access)","2025-05-08 06:06",1,27.841171,-82.4837726,TRUE,FALSE,FALSE,"S234491511"
"323","leabit","Least Bittern","Botaurus exilis","L298686","Chagrin River Park","2025-05-08 05:55",1,41.6579483,-81.4059368,TRUE,FALSE,FALSE,"S234680457"
"324","leabit","Least Bittern","Botaurus exilis","L7676135","Big Branch Marsh NWR--Lake Rd.","2025-05-08 05:50",4,30.2781896,-89.9543972,TRUE,FALSE,FALSE,"S234693458"
"325","leabit","Least Bittern","Botaurus exilis","L44401705","Between Crystal Beach and Blanketship Bay","2025-05-08 05:11",2,34.5854233,-114.4214739,TRUE,FALSE,TRUE,"S234661485"
"326","leabit","Least Bittern","Botaurus exilis","L4281125","Wawayanda SP--Vernon Crossing Marsh","2025-05-08 03:56",1,41.2120433,-74.48067,TRUE,FALSE,FALSE,"S236714794"
"327","leabit","Least Bittern","Botaurus exilis","L1557994","Taylor Rd. Marsh","2025-05-08 00:00",1,41.6075349,-76.8677626,TRUE,TRUE,FALSE,"S234453312"
"328","leabit","Least Bittern","Botaurus exilis","L5174571","Danny's Bucket","2025-05-07 19:45",1,38.7601406,-76.69119,TRUE,FALSE,TRUE,"S234419902"
"329","leabit","Least Bittern","Botaurus exilis","L44357663","Horseshoe Park, Pontoon Beach, Illinois, US (38.695, -90.073)","2025-05-07 19:19",2,38.6950965,-90.0725576,TRUE,TRUE,TRUE,"S234410923"
"330","leabit","Least Bittern","Botaurus exilis","L24204621","South Lake Park","2025-05-07 18:41",2,33.115855,-117.165193,TRUE,FALSE,FALSE,"S234440106"
"331","leabit","Least Bittern","Botaurus exilis","L160592","Ottawa NWR (Lucas Co.)","2025-05-07 16:33",2,41.6295579,-83.2261562,TRUE,FALSE,FALSE,"S234766878"
"332","leabit","Least Bittern","Botaurus exilis","L6855472","Laguna Atascosa NWR--West Lake Trail (north of General Brant Rd.)","2025-05-07 16:22",1,26.197853,-97.4020871,TRUE,FALSE,FALSE,"S234426946"
"333","leabit","Least Bittern","Botaurus exilis","L913533","Ottawa NWR--Wildlife Drive (Ottawa Co.)","2025-05-07 16:00",1,41.6113354,-83.213625,TRUE,FALSE,FALSE,"S234396530"
"334","leabit","Least Bittern","Botaurus exilis","L280834","Walsingham Park","2025-05-07 15:59",1,27.8763584,-82.8090332,TRUE,FALSE,FALSE,"S234352119"
"335","leabit","Least Bittern","Botaurus exilis","L21440636","Pine Creek Dike Trail, Trempealeau, Wisconsin, US (44.045, -91.537)","2025-05-07 15:50",1,44.0453792,-91.5367908,TRUE,TRUE,TRUE,"S234354674"
"336","leabit","Least Bittern","Botaurus exilis","L44349913","Auto selected 32.58876, -80.46170","2025-05-07 14:44",1,32.588764,-80.461697,TRUE,FALSE,TRUE,"S234360951"
"337","leabit","Least Bittern","Botaurus exilis","L447759","Morgan's Point","2025-05-07 14:03",2,29.6784474,-94.9826073,TRUE,FALSE,FALSE,"S234351953"
"338","leabit","Least Bittern","Botaurus exilis","L44335478","8814 Ohio River Rd, Lesage US-WV 38.58919, -82.25185","2025-05-07 12:00",1,38.589189,-82.251855,TRUE,FALSE,TRUE,"S234278244"
"339","leabit","Least Bittern","Botaurus exilis","L272172","Missisquoi NWR--Stephen Young Marsh","2025-05-07 11:39",1,44.9537903,-73.2070595,TRUE,TRUE,FALSE,"S234279799"
"340","leabit","Least Bittern","Botaurus exilis","L29631370","Grand Mere State Park, Stevensville US-MI 42.00405, -86.54285","2025-05-07 11:30",2,42.004054,-86.542846,TRUE,FALSE,TRUE,"S234256632"
"341","leabit","Least Bittern","Botaurus exilis","L2174419","Eastmanville Bayou County Park","2025-05-07 11:12",1,43.0138262,-85.9560013,TRUE,FALSE,FALSE,"S234393281"
"342","leabit","Least Bittern","Botaurus exilis","L713205","Meaher SP","2025-05-07 11:11",1,30.6655138,-87.9324138,TRUE,FALSE,FALSE,"S234266014"
"343","leabit","Least Bittern","Botaurus exilis","L424140","Arkansas Post National Memorial","2025-05-07 11:02",2,34.0165265,-91.3466835,TRUE,FALSE,FALSE,"S234380567"
"344","leabit","Least Bittern","Botaurus exilis","L886111","Trempealeau NWR--Pine Creek Dike","2025-05-07 10:24",1,44.0469189,-91.5433216,TRUE,TRUE,FALSE,"S234238586"
"345","leabit","Least Bittern","Botaurus exilis","L6126797","South Bass Island--Massie Cliffside Preserve","2025-05-07 10:17",1,41.6610004,-82.8040838,TRUE,FALSE,FALSE,"S234768048"
"346","leabit","Least Bittern","Botaurus exilis","L3129794","Savannah NWR--Onslow Island (public access on Wednesdays ONLY)","2025-05-07 09:41",3,32.1624028,-81.1453414,TRUE,FALSE,FALSE,"S235085513"
"347","leabit","Least Bittern","Botaurus exilis","L44207469","VFNHP--west trail","2025-05-07 09:31",1,42.7919985,-73.7974582,TRUE,FALSE,TRUE,"S234344193"
"348","leabit","Least Bittern","Botaurus exilis","L127275","Paynes Prairie Preserve SP--East of US 441 (Please consider using a more specific location/hotspot)","2025-05-07 09:30",1,29.5821766,-82.3076009,TRUE,FALSE,FALSE,"S234234436"
"349","leabit","Least Bittern","Botaurus exilis","L2723803","Lake Nanih Waiya","2025-05-07 09:21",1,34.6350723,-95.3036499,TRUE,TRUE,FALSE,"S234199324"
"350","leabit","Least Bittern","Botaurus exilis","L2153527","Messick Point","2025-05-07 09:00",1,37.110145,-76.3212061,TRUE,TRUE,FALSE,"S234493706"
"351","leabit","Least Bittern","Botaurus exilis","L462851","Caw Caw Interpretive Center","2025-05-07 08:45",1,32.7913603,-80.1975989,TRUE,FALSE,FALSE,"S234293833"
"352","leabit","Least Bittern","Botaurus exilis","L27197739","Sweetwater Wetlands Park, Gainesville FL-US","2025-05-07 08:35",2,29.6197288,-82.3296976,TRUE,FALSE,TRUE,"S234380541"
"353","leabit","Least Bittern","Botaurus exilis","L1501583","Eph Pond and Cole Field, Williamstown","2025-05-07 07:57",1,42.7197447,-73.1972525,TRUE,TRUE,FALSE,"S234156692"
"354","leabit","Least Bittern","Botaurus exilis","L109172","Phinizy Swamp Nature Park","2025-05-07 07:45",1,33.3855863,-81.96069,TRUE,FALSE,FALSE,"S234191987"
"355","leabit","Least Bittern","Botaurus exilis","L3771249","Lake Gwyn Park","2025-05-07 07:34",1,27.954033,-81.7189479,TRUE,FALSE,FALSE,"S234178105"
"356","leabit","Least Bittern","Botaurus exilis","L761606","Lacassine NWR--Wildlife Loop only","2025-05-07 07:16",1,30.0011418,-92.8946292,TRUE,FALSE,FALSE,"S234138697"
"357","leabit","Least Bittern","Botaurus exilis","L168438","Willow Slough FWA","2025-05-07 07:12",1,40.9876,-87.50564,TRUE,FALSE,FALSE,"S234192153"
"358","leabit","Least Bittern","Botaurus exilis","L14941025","Parker River National Wildlife Refuge, Newbury US-MA 42.78982, -70.80913","2025-05-07 06:32",1,42.789817,-70.809128,TRUE,FALSE,TRUE,"S234278704"
"359","leabit","Least Bittern","Botaurus exilis","L299639","Big Island Wildlife Area","2025-05-07 06:30",1,40.5687032,-83.2741356,TRUE,FALSE,FALSE,"S234368630"
"360","leabit","Least Bittern","Botaurus exilis","L7658105","Willow Slough FWA--Patrol Road","2025-05-07 05:31",1,40.989171,-87.489914,TRUE,FALSE,FALSE,"S234407368"
"361","leabit","Least Bittern","Botaurus exilis","L2759848","Heislerville WMA--South Impoundment","2025-05-07 02:00",1,39.223909,-75.0034475,TRUE,FALSE,FALSE,"S234446592"
"362","leabit","Least Bittern","Botaurus exilis","L283551","Glades Wildlife Refuge--Turkey Pt.","2025-05-07 00:00",1,39.2462567,-75.1306433,TRUE,FALSE,FALSE,"S234444645"
"363","leabit","Least Bittern","Botaurus exilis","L740465","Magee Marsh--Causeway Marshes (Ottawa Co.)","2025-05-06 20:08",2,41.6183298,-83.1824684,TRUE,FALSE,FALSE,"S234025858"
"364","leabit","Least Bittern","Botaurus exilis","L44228391","Magee","2025-05-06 19:30",3,41.52047,-82.975912,TRUE,FALSE,TRUE,"S234033359"
"365","leabit","Least Bittern","Botaurus exilis","L4032552","Edina Park, Zion","2025-05-06 19:18",1,42.4470531,-87.8193855,TRUE,FALSE,FALSE,"S234154359"
"366","leabit","Least Bittern","Botaurus exilis","L372174","Simsbury Meadows","2025-05-06 16:30",1,41.8777734,-72.7962041,TRUE,FALSE,FALSE,"S234027638"
"367","leabit","Least Bittern","Botaurus exilis","L342578","BK Leach CA","2025-05-06 16:30",1,39.1392667,-90.7373444,TRUE,FALSE,FALSE,"S234434260"
"368","leabit","Least Bittern","Botaurus exilis","L7780762","Island Lake SRA","2025-05-06 15:40",1,42.502731,-83.7519699,TRUE,FALSE,TRUE,"S235230612"
"369","leabit","Least Bittern","Botaurus exilis","L3862038","James Hill Park and Boardwalk","2025-05-06 14:37",1,30.4079004,-89.0154241,TRUE,FALSE,FALSE,"S233939657"
"370","leabit","Least Bittern","Botaurus exilis","L283726","South Padre Is.--WBC/Conv. Center/Laguna Madre Trail (LTC 035)","2025-05-06 14:01",1,26.1400912,-97.1748233,TRUE,FALSE,FALSE,"S233965768"
"371","leabit","Least Bittern","Botaurus exilis","L3817456","Goose Pond FWA--GP16","2025-05-06 13:47",1,38.9900364,-87.1908474,TRUE,FALSE,FALSE,"S233900936"
"372","leabit","Least Bittern","Botaurus exilis","L1449122","South Pier","2025-05-06 11:50",1,42.1511165,-80.0792088,TRUE,FALSE,FALSE,"S233872008"
"373","leabit","Least Bittern","Botaurus exilis","L127256","Wakulla Springs SP","2025-05-06 11:00",1,30.2335,-84.3037,TRUE,FALSE,FALSE,"S233991091"
"374","leabit","Least Bittern","Botaurus exilis","L387879","Morgan City Wash","2025-05-06 10:53",1,33.8349181,-112.276926,TRUE,FALSE,FALSE,"S234015410"
"375","leabit","Least Bittern","Botaurus exilis","L2734414","Yawkey Wildlife Center--South Island ISS Site (Restricted Access)","2025-05-06 10:18",1,33.1899105,-79.2112541,TRUE,FALSE,FALSE,"S234528630"
"376","leabit","Least Bittern","Botaurus exilis","L1178498","Goose Pond FWA--GP10N","2025-05-06 10:00",1,39.0051785,-87.2006321,TRUE,FALSE,FALSE,"S233798014"
"377","leabit","Least Bittern","Botaurus exilis","L40590869","John Chestnut Park Palm Harbor FL","2025-05-06 09:30",1,28.0886403,-82.7014732,TRUE,FALSE,TRUE,"S233968915"
"378","leabit","Least Bittern","Botaurus exilis","L319816","Goose Pond FWA (Please consider using a more specific location.)","2025-05-06 09:10",3,38.9873,-87.1865,TRUE,FALSE,FALSE,"S234279375"
"379","leabit","Least Bittern","Botaurus exilis","L24562625","Tifft Nature Preserve, Buffalo US-NY (42.8468,-78.8560)","2025-05-06 08:42",1,42.846814,-78.856012,TRUE,FALSE,TRUE,"S233920099"
"380","leabit","Least Bittern","Botaurus exilis","L374001","Tiocano Lake (LTC 017)","2025-05-06 08:40",1,26.2116649,-97.8146911,TRUE,FALSE,FALSE,"S233820784"
"381","leabit","Least Bittern","Botaurus exilis","L22853667","Lake Forest Rookery","2025-05-06 08:15",1,28.0843998,-82.4209571,TRUE,FALSE,FALSE,"S233809651"
"382","leabit","Least Bittern","Botaurus exilis","L29974205","The Ocean Course at Kiawah Island Golf Resort, Kiawah Island US-SC (32.6120,-80.0233)","2025-05-06 08:09",3,32.611972,-80.023334,TRUE,FALSE,TRUE,"S233790058"
"383","leabit","Least Bittern","Botaurus exilis","L44245830","Kiawah Island Golf Resort - The Ocean Course, Kiawah Island US-SC 32.61259, -80.02335","2025-05-06 08:09",3,32.61259,-80.023354,TRUE,FALSE,TRUE,"S233760751"
"384","leabit","Least Bittern","Botaurus exilis","L32867064","1515 Fuhrmann Blvd, Buffalo US-NY 42.84003, -78.85884","2025-05-06 08:00",1,42.840034,-78.858838,TRUE,FALSE,TRUE,"S233854562"
"385","leabit","Least Bittern","Botaurus exilis","L24791854","My yard","2025-05-06 07:51",1,35.2783203,-76.6589661,TRUE,FALSE,TRUE,"S233788807"
"386","leabit","Least Bittern","Botaurus exilis","L1873907","Bayou Caddy","2025-05-06 07:42",2,30.2379149,-89.4244111,TRUE,FALSE,FALSE,"S233934012"
"387","leabit","Least Bittern","Botaurus exilis","L1236295","Quivira NWR--Little Salt Marsh","2025-05-06 07:25",1,38.0914717,-98.4908438,TRUE,FALSE,FALSE,"S233769836"
"388","leabit","Least Bittern","Botaurus exilis","L498357","Huntington Beach SP--Mullet Pond","2025-05-06 07:15",1,33.5075867,-79.0691809,TRUE,FALSE,FALSE,"S234756488"
"389","leabit","Least Bittern","Botaurus exilis","L20715402","3434–3492 NY-31, Savannah US-NY 43.02127, -76.73494","2025-05-06 06:38",2,43.021269,-76.734939,TRUE,FALSE,TRUE,"S233764254"
"390","leabit","Least Bittern","Botaurus exilis","L368647","Deal Island--Game Reserve Rd.","2025-05-06 06:00",1,38.175447,-75.877643,TRUE,FALSE,FALSE,"S233780816"
"391","leabit","Least Bittern","Botaurus exilis","L7514832","Peabody WMA, Sinclair Unit--Muck Lake","2025-05-06 01:48",2,37.235924,-87.002238,TRUE,TRUE,FALSE,"S233694863"
"392","leabit","Least Bittern","Botaurus exilis","L207664","Las Gallinas Valley Sanitary District","2025-05-05 18:48",1,38.0274109,-122.515583,TRUE,TRUE,FALSE,"S233668346"
"393","leabit","Least Bittern","Botaurus exilis","L44219047","Auto selected 29.81321, -84.57855","2025-05-05 17:56",1,29.813209,-84.578554,TRUE,FALSE,TRUE,"S233604793"
"394","leabit","Least Bittern","Botaurus exilis","L899751","Tonawanda WMA--Paddy 1","2025-05-05 16:53",1,43.128927,-78.4933662,TRUE,FALSE,FALSE,"S233673665"
"395","leabit","Least Bittern","Botaurus exilis","L34867605","Hog Walla","2025-05-05 16:00",2,33.2235477,-91.5950132,TRUE,FALSE,TRUE,"S234733172"
"396","leabit","Least Bittern","Botaurus exilis","L3618730","Sabine Pass--S. 8th Avenue","2025-05-05 15:51",1,29.7247651,-93.8798226,TRUE,FALSE,FALSE,"S233595538"
"397","leabit","Least Bittern","Botaurus exilis","L1291189","Green Bottom WMA--Hoeft Marsh","2025-05-05 14:14",1,38.5897049,-82.2615695,TRUE,FALSE,FALSE,"S233534060"
"398","leabit","Least Bittern","Botaurus exilis","L44247732","SW 8 Street and Krome Avenue","2025-05-05 13:50",1,25.7603436,-80.4758653,TRUE,FALSE,TRUE,"S233776088"
"399","leabit","Least Bittern","Botaurus exilis","L209342","Henderson Bird Viewing Preserve","2025-05-05 12:24",2,36.0749791,-115.0021416,TRUE,FALSE,FALSE,"S233602033"
"400","leabit","Least Bittern","Botaurus exilis","L44197408","33030, Homestead US-FL (25.7654,-80.8106)","2025-05-05 11:48",2,25.765352,-80.810553,TRUE,FALSE,TRUE,"S233488381"
"401","leabit","Least Bittern","Botaurus exilis","L32164134","Bosque Draw","2025-05-05 11:37",1,33.7644249,-104.306633,TRUE,FALSE,TRUE,"S233571033"
"402","leabit","Least Bittern","Botaurus exilis","L10647925","Manasquan River WMA (Monmouth Co)","2025-05-05 11:18",1,40.1368253,-74.1042164,TRUE,FALSE,FALSE,"S233528512"
"403","leabit","Least Bittern","Botaurus exilis","L691081","Ottawa NWR--Walking Trail Pools","2025-05-05 11:17",1,41.6148718,-83.2053364,TRUE,FALSE,FALSE,"S233484286"
"404","leabit","Least Bittern","Botaurus exilis","L4792086","Dominguez Gap Wetlands","2025-05-05 11:01",1,33.8393561,-118.2025695,TRUE,FALSE,FALSE,"S233564634"
"405","leabit","Least Bittern","Botaurus exilis","L28781691","Celery Fields Wetlands","2025-05-05 09:37",1,27.324551,-82.434421,TRUE,FALSE,TRUE,"S233451855"
"406","leabit","Least Bittern","Botaurus exilis","L1322059","Santa Ana NWR--Willow Lakes","2025-05-05 09:07",1,26.0799512,-98.1399679,TRUE,FALSE,FALSE,"S234788926"
"407","leabit","Least Bittern","Botaurus exilis","L446585","Magnolia Plantation & Gardens","2025-05-05 07:54",1,32.8746855,-80.0863409,TRUE,FALSE,FALSE,"S233546066"
"408","leabit","Least Bittern","Botaurus exilis","L124353","Huntington Beach SP","2025-05-05 07:44",1,33.5083,-79.0659,TRUE,FALSE,FALSE,"S233421949"
"409","leabit","Least Bittern","Botaurus exilis","L3983910","Lillian Anderson Arboretum","2025-05-05 07:43",1,42.2937547,-85.6997108,TRUE,FALSE,FALSE,"S233526906"
"410","leabit","Least Bittern","Botaurus exilis","L11214324","Goree's Pond","2025-05-05 07:05",1,32.904224,-111.4675815,TRUE,TRUE,FALSE,"S233632418"
"411","leabit","Least Bittern","Botaurus exilis","L4813759","121 Reynolds Circle","2025-05-05 06:45",1,30.4037633,-88.7709984,TRUE,FALSE,TRUE,"S233466584"
"412","leabit","Least Bittern","Botaurus exilis","L40437905","SW 67th Dr, Okeechobee US-FL (27.2359,-80.8961)","2025-05-05 06:40",1,27.23586,-80.896056,TRUE,FALSE,TRUE,"S233431198"
"413","leabit","Least Bittern","Botaurus exilis","L267814","Montezuma NWR--Wildlife Drive","2025-05-05 06:22",1,42.9817483,-76.7353284,TRUE,FALSE,FALSE,"S233356438"
"414","leabit","Least Bittern","Botaurus exilis","L358658","Fig Lagoon","2025-05-05 05:38",2,32.764037,-115.7021713,TRUE,FALSE,FALSE,"S233448970"
"415","leabit","Least Bittern","Botaurus exilis","L31205559","Anne all","2025-05-05 05:33",1,41.985603,-86.553616,TRUE,FALSE,TRUE,"S233344315"
"416","leabit","Least Bittern","Botaurus exilis","L729090","Lake Rebecca Park","2025-05-05 05:27",1,44.75084,-92.8678157,TRUE,FALSE,FALSE,"S233625666"
"417","leabit","Least Bittern","Botaurus exilis","L3577681","Burrs Mill Road","2025-05-05 05:12",1,39.9067735,-74.6623135,TRUE,TRUE,FALSE,"S233395845"
"418","leabit","Least Bittern","Botaurus exilis","L1007732","Magothy Bay Natural Area Preserve","2025-05-04 19:13",1,37.1524498,-75.9502029,TRUE,FALSE,FALSE,"S233255101"
"419","leabit","Least Bittern","Botaurus exilis","L231604","Discovery Lake","2025-05-04 17:23",1,33.1232599,-117.178321,TRUE,FALSE,FALSE,"S233288574"
"420","leabit","Least Bittern","Botaurus exilis","L24325299","J&SHome","2025-05-04 17:20",1,27.2581186,-81.3299306,TRUE,FALSE,TRUE,"S233247773"
"421","leabit","Least Bittern","Botaurus exilis","L265951","Lake Artemesia","2025-05-04 16:34",1,38.9875613,-76.9223213,TRUE,FALSE,FALSE,"S233180016"
"422","leabit","Least Bittern","Botaurus exilis","L348334","Oakland Nature Preserve","2025-05-04 16:19",1,28.5548116,-81.6396299,TRUE,FALSE,FALSE,"S233262145"
"423","leabit","Least Bittern","Botaurus exilis","L5866322","Gale Ave. Swamp (restricted access)","2025-05-04 14:35",1,42.4470243,-73.3139509,TRUE,TRUE,FALSE,"S233135686"
"424","leabit","Least Bittern","Botaurus exilis","L12140954","Gale avenue","2025-05-04 14:22",1,42.4475117,-73.3125705,TRUE,TRUE,TRUE,"S233125221"
"425","leabit","Least Bittern","Botaurus exilis","L3494381","Mead / North Smoky Hill Flowage","2025-05-04 13:43",2,44.71647,-89.922712,TRUE,TRUE,TRUE,"S233149964"
"426","leabit","Least Bittern","Botaurus exilis","L712381","Chambers Co.--Jenkins Rd Ponds","2025-05-04 13:42",1,29.845337,-94.5408979,TRUE,FALSE,FALSE,"S233130944"
"427","leabit","Least Bittern","Botaurus exilis","L2798608","Perry Memorial CA (Pettis Co.)","2025-05-04 13:16",1,38.9196733,-93.4855843,TRUE,FALSE,FALSE,"S233172618"
"428","leabit","Least Bittern","Botaurus exilis","L2428454","Lake Apopka North Shore--Jones Ave. Basin Stormwater Park","2025-05-04 13:00",4,28.7305605,-81.6236329,TRUE,FALSE,FALSE,"S233113506"
"429","leabit","Least Bittern","Botaurus exilis","L126637","Bombay Hook National Wildlife Refuge","2025-05-04 12:32",1,39.2670818,-75.4695511,TRUE,FALSE,FALSE,"S233533248"
"430","leabit","Least Bittern","Botaurus exilis","L44117501","Lark Dr, Placida US-FL 26.86845, -82.22732","2025-05-04 12:26",1,26.868448,-82.227322,TRUE,FALSE,TRUE,"S233065807"
"431","leabit","Least Bittern","Botaurus exilis","L275885","Braunig Lake (HOTE 101)","2025-05-04 12:21",2,29.2488196,-98.3939707,TRUE,FALSE,FALSE,"S233091193"
"432","leabit","Least Bittern","Botaurus exilis","L129098","High Island--Smith Oaks Sanctuary (UTC 052)","2025-05-04 11:58",1,29.573681,-94.3898535,TRUE,FALSE,FALSE,"S234340456"
"433","leabit","Least Bittern","Botaurus exilis","L2423907","Bahia Beach Nature Preserve","2025-05-04 10:52",1,27.7214102,-82.463159,TRUE,FALSE,FALSE,"S233287875"
"434","leabit","Least Bittern","Botaurus exilis","L898742","Bosque del Apache NWR--Seasonal Tour Road (closed Oct. 1 - Mar. 31)","2025-05-04 10:48",1,33.8071442,-106.8775535,TRUE,FALSE,FALSE,"S233156794"
"435","leabit","Least Bittern","Botaurus exilis","L44109904","238–256 Gulf Beach Hwy, Cameron US-LA 29.76911, -93.36285","2025-05-04 10:30",1,29.769105,-93.362855,TRUE,FALSE,TRUE,"S233027078"
"436","leabit","Least Bittern","Botaurus exilis","L199454","Nine Springs Natural Area","2025-05-04 09:59",1,43.0333593,-89.3513775,TRUE,TRUE,FALSE,"S233208509"
"437","leabit","Least Bittern","Botaurus exilis","L281494","Kyker Bottoms Refuge","2025-05-04 09:46",1,35.6062971,-84.1150428,TRUE,TRUE,FALSE,"S233110525"
"438","leabit","Least Bittern","Botaurus exilis","L267984","Cape Romain NWR--Bulls Island","2025-05-04 09:38",5,32.90017,-79.62438,TRUE,FALSE,FALSE,"S233181769"
"439","leabit","Least Bittern","Botaurus exilis","L5124889","Starkey Ranch Development","2025-05-04 08:53",2,28.1968392,-82.6105866,TRUE,FALSE,FALSE,"S233002539"
"440","leabit","Least Bittern","Botaurus exilis","L1799761","Goose Pond FWA--GP11S","2025-05-04 08:38",1,39.0099485,-87.1999566,TRUE,FALSE,FALSE,"S232904155"
"441","leabit","Least Bittern","Botaurus exilis","L6048064","Spring Lake Eco Park","2025-05-04 08:36",2,27.4537129,-81.3137412,TRUE,FALSE,FALSE,"S232937171"
"442","leabit","Least Bittern","Botaurus exilis","L1552663","Ken Malloy Harbor Regional Park","2025-05-04 08:25",1,33.7874582,-118.2939363,TRUE,FALSE,FALSE,"S233133643"
"443","leabit","Least Bittern","Botaurus exilis","L10707040","East End Lagoon Nature Preserve","2025-05-04 08:02",1,29.333603,-94.7454326,TRUE,FALSE,FALSE,"S233006559"
"444","leabit","Least Bittern","Botaurus exilis","L40734690","Celery Fields Regional Stormwater Facility, Sarasota US-FL 27.32469, -82.43452","2025-05-04 08:00",2,27.324686,-82.434524,TRUE,FALSE,TRUE,"S233000898"
"445","leabit","Least Bittern","Botaurus exilis","L1445403","Great Vly WMA--West Camp Rd.","2025-05-04 08:00",2,42.1330671,-73.9396956,TRUE,FALSE,FALSE,"S233134555"
"446","leabit","Least Bittern","Botaurus exilis","L740657","Post Farm Marsh, Lenox","2025-05-04 07:55",1,42.3621352,-73.2440042,TRUE,TRUE,FALSE,"S233007238"
"447","leabit","Least Bittern","Botaurus exilis","L11329728","Tamarac Rd Bus garage, Troy US-NY","2025-05-04 07:53",1,42.757057,-73.566547,TRUE,FALSE,TRUE,"S232896870"
"448","leabit","Least Bittern","Botaurus exilis","L383838","Holden Arboretum--Garden and Collections","2025-05-04 07:50",1,41.6113996,-81.3003731,TRUE,FALSE,FALSE,"S232999638"
"449","leabit","Least Bittern","Botaurus exilis","L472577","Lake Istokpoga Park","2025-05-04 07:42",4,27.4433159,-81.2864685,TRUE,FALSE,FALSE,"S233248888"
"450","leabit","Least Bittern","Botaurus exilis","L41807689","8814 Ohio River Rd, Lesage US-WV 38.58706, -82.24821","2025-05-04 07:19",1,38.58706,-82.248211,TRUE,FALSE,TRUE,"S232880900"
"451","leabit","Least Bittern","Botaurus exilis","L753597","Navarre Beach Park","2025-05-04 07:10",1,30.3836119,-86.8492413,TRUE,TRUE,FALSE,"S233306816"
"452","leabit","Least Bittern","Botaurus exilis","L1150226","Iroquois NWR--Kumpf Marsh","2025-05-04 06:57",1,43.1184025,-78.4346581,TRUE,FALSE,FALSE,"S232857126"
"453","leabit","Least Bittern","Botaurus exilis","L44182094","Grass Island, Gulf Shores US-AL (30.2334,-87.9697)","2025-05-04 06:45",1,30.233431,-87.96967,TRUE,FALSE,TRUE,"S233404371"
"454","leabit","Least Bittern","Botaurus exilis","L762952","Navarre Beach  -  Public Access","2025-05-04 06:34",1,30.3769167,-86.8842833,TRUE,TRUE,FALSE,"S232956157"
"455","leabit","Least Bittern","Botaurus exilis","L389757","Old Port Isabel Rd","2025-05-04 06:30",3,26.0057269,-97.4183462,TRUE,FALSE,FALSE,"S232917842"
"456","leabit","Least Bittern","Botaurus exilis","L446446","Swan Harbor Farm Park","2025-05-04 06:27",1,39.522482,-76.11444,TRUE,FALSE,FALSE,"S232960356"
"457","leabit","Least Bittern","Botaurus exilis","L41042572","Goodyear Butte Marsh Bird Survey Route","2025-05-04 06:18",3,33.384394,-112.36272,TRUE,FALSE,TRUE,"S233251998"
"458","leabit","Least Bittern","Botaurus exilis","L199461","Lake Woodruff NWR","2025-05-04 06:15",1,29.1092685,-81.3752445,TRUE,FALSE,FALSE,"S233059571"
"459","leabit","Least Bittern","Botaurus exilis","L835625","Eufaula NWR--Kennedy Unit","2025-05-04 06:15",1,31.9590077,-85.1005697,TRUE,FALSE,FALSE,"S232991332"
"460","leabit","Least Bittern","Botaurus exilis","L44060703","W Creole Hwy, Grand Chenier","2025-05-03 18:06",2,29.856529,-93.093155,TRUE,FALSE,TRUE,"S232769579"
"461","leabit","Least Bittern","Botaurus exilis","L2113042","Macomb Corners Park","2025-05-03 17:53",1,42.7041209,-82.9325938,TRUE,FALSE,FALSE,"S232766713"
"462","leabit","Least Bittern","Botaurus exilis","L1391102","Edward Medard Regional Park","2025-05-03 17:03",1,27.9232189,-82.1697656,TRUE,FALSE,FALSE,"S232715278"
"463","leabit","Least Bittern","Botaurus exilis","L654530","Cypress Pond","2025-05-03 16:55",2,33.0724477,-87.6296997,TRUE,TRUE,FALSE,"S232757007"
"464","leabit","Least Bittern","Botaurus exilis","L44020625","47578, Sandborn US-IN 38.97982, -87.18531","2025-05-03 16:45",1,38.979818,-87.185311,TRUE,FALSE,TRUE,"S232680884"
"465","leabit","Least Bittern","Botaurus exilis","L8077009","Peanut Island Park","2025-05-03 16:11",1,26.7729337,-80.0464976,TRUE,FALSE,FALSE,"S232684914"
"466","leabit","Least Bittern","Botaurus exilis","L25265799","MPW 1","2025-05-03 15:23",1,38.984354,-87.186378,TRUE,FALSE,TRUE,"S232642836"
"467","leabit","Least Bittern","Botaurus exilis","L6627752","Laguna Atascosa NWR--Prairie Trail (south of General Brant Rd.)","2025-05-03 15:02",1,26.1943568,-97.4026126,TRUE,FALSE,FALSE,"S232673576"
"468","leabit","Least Bittern","Botaurus exilis","L224113","Cullinan Park, Sugar Land (UTC 095)","2025-05-03 15:00",1,29.6355459,-95.6603193,TRUE,FALSE,FALSE,"S232857031"
"469","leabit","Least Bittern","Botaurus exilis","L319287","Meadowlands IBA--Kearny Marsh","2025-05-03 14:35",1,40.7602209,-74.1326919,TRUE,FALSE,FALSE,"S232661603"
"470","leabit","Least Bittern","Botaurus exilis","L8957295","Rotunda Meadows Prairie","2025-05-03 14:06",1,26.8573451,-82.2223281,TRUE,FALSE,FALSE,"S232623738"
"471","leabit","Least Bittern","Botaurus exilis","L1228560","Chickasaw Ponds - Viaduct Road","2025-05-03 13:50",1,30.7633003,-88.065033,TRUE,FALSE,TRUE,"S232732622"
"472","leabit","Least Bittern","Botaurus exilis","L4565206","Camp Adventure","2025-05-03 12:56",1,41.3116048,-85.6524537,TRUE,FALSE,TRUE,"S232596636"
"473","leabit","Least Bittern","Botaurus exilis","L1049642","St. Andrews SP","2025-05-03 12:41",1,30.1351363,-85.7413387,TRUE,FALSE,FALSE,"S232626190"
"474","leabit","Least Bittern","Botaurus exilis","L1047416","16th Street N wetlands","2025-05-03 12:31",1,27.8705118,-82.6551676,TRUE,FALSE,FALSE,"S232585505"
"475","leabit","Least Bittern","Botaurus exilis","L770565","South Padre Is.--Birding and Nature Center","2025-05-03 12:21",2,26.1374628,-97.1739367,TRUE,FALSE,FALSE,"S232643087"
"476","leabit","Least Bittern","Botaurus exilis","L847309","Middle Hooper's Island","2025-05-03 11:55",1,38.2593707,-76.1793709,TRUE,FALSE,FALSE,"S232530456"
"477","leabit","Least Bittern","Botaurus exilis","L43474240","Venice rookery","2025-05-03 11:50",1,27.0462792,-82.4008253,TRUE,FALSE,TRUE,"S233102252"
"478","leabit","Least Bittern","Botaurus exilis","L44060048","Alligator Lake Park","2025-05-03 11:30",2,30.1683784,-82.6173708,TRUE,FALSE,TRUE,"S232767399"
"479","leabit","Least Bittern","Botaurus exilis","L11025601","Whalen Lake Rd, Oceanside US-CA 33.24466, -117.33135","2025-05-03 10:56",1,33.244656,-117.331346,TRUE,FALSE,TRUE,"S232696787"
"480","leabit","Least Bittern","Botaurus exilis","L569908","Invista Wetlands (CTC 026)","2025-05-03 10:27",3,28.664985,-96.9452477,TRUE,TRUE,FALSE,"S232576499"
"481","leabit","Least Bittern","Botaurus exilis","L260205","Tillman Rd. WMA","2025-05-03 09:23",1,42.9656289,-78.6090731,TRUE,FALSE,FALSE,"S232617960"
"482","leabit","Least Bittern","Botaurus exilis","L30182184","6315 Pepper Road, Immokalee, Florida, US (26.437, -81.489)","2025-05-03 09:15",1,26.4373464,-81.4891959,TRUE,FALSE,TRUE,"S232434804"
"483","leabit","Least Bittern","Botaurus exilis","L350765","Villas--Cox Hall Creek WMA","2025-05-03 09:14",1,39.0015934,-74.9446321,TRUE,FALSE,FALSE,"S232504906"
"484","leabit","Least Bittern","Botaurus exilis","L127257","St. Marks NWR--Mounds Trail & Tower Pond","2025-05-03 09:08",1,30.0879518,-84.1609812,TRUE,FALSE,FALSE,"S232510127"
"485","leabit","Least Bittern","Botaurus exilis","L42485763","Lake Anne","2025-05-03 09:02",1,41.984632,-86.552543,TRUE,FALSE,TRUE,"S232447786"
"486","leabit","Least Bittern","Botaurus exilis","L6484177","Marrington Plantation--Restricted Access","2025-05-03 08:55",1,32.96345,-79.956547,TRUE,FALSE,FALSE,"S232499754"
"487","leabit","Least Bittern","Botaurus exilis","L284289","Lake Davis","2025-05-03 08:50",2,28.5316075,-81.3669591,TRUE,FALSE,FALSE,"S232414600"
"488","leabit","Least Bittern","Botaurus exilis","L866201","Clark County Wetlands Park--Duck Creek Area","2025-05-03 08:49",1,36.0951639,-115.0187445,TRUE,FALSE,FALSE,"S232607846"
"489","leabit","Least Bittern","Botaurus exilis","L43865530","Clam Lake Rd. In McFadden NWR Sabine Pass US-TX 29.66954, -94.07506","2025-05-03 08:41",5,29.669544,-94.075059,TRUE,FALSE,TRUE,"S232767115"
"490","leabit","Least Bittern","Botaurus exilis","L10989499","Lakes Regional Park, Fort Myers US-FL 26.52848, -81.87577","2025-05-03 08:25",2,26.528477,-81.875767,TRUE,FALSE,TRUE,"S232690623"
"491","leabit","Least Bittern","Botaurus exilis","L10266251","Island Walk","2025-05-03 08:24",1,27.0373003,-82.3455633,TRUE,FALSE,TRUE,"S232500535"
"492","leabit","Least Bittern","Botaurus exilis","L305312","Lakes Park","2025-05-03 08:23",2,26.5271649,-81.8765643,TRUE,FALSE,FALSE,"S232507779"
"493","leabit","Least Bittern","Botaurus exilis","L43998323","Bog Meadow Brook Nature Trail","2025-05-03 08:10",2,43.0852203,-73.7314224,TRUE,FALSE,TRUE,"S232667947"
"494","leabit","Least Bittern","Botaurus exilis","L2305808","Lakes Regional Park Bird Tour","2025-05-03 08:00",2,26.5284165,-81.8768549,TRUE,FALSE,TRUE,"S232601920"
"495","leabit","Least Bittern","Botaurus exilis","L871543","Elliott Island Rd.--Moorhen Pond","2025-05-03 07:59",1,38.3778985,-75.9159136,TRUE,FALSE,FALSE,"S232390999"
"496","leabit","Least Bittern","Botaurus exilis","L2726529","Winding Waters Natural area","2025-05-03 07:55",1,26.773047,-80.1249647,TRUE,FALSE,FALSE,"S232435165"
"497","leabit","Least Bittern","Botaurus exilis","L18431355","Leger and Copperton Roads","2025-05-03 07:36",1,30.205936,-92.231035,TRUE,FALSE,TRUE,"S232518132"
"498","leabit","Least Bittern","Botaurus exilis","L468464","Yawkey Wildlife Center (restricted access)","2025-05-03 07:30",NA,33.2168612,-79.2176056,TRUE,FALSE,FALSE,"S232616490"
"499","leabit","Least Bittern","Botaurus exilis","L165792","Fort Morgan State Historic Site","2025-05-03 07:25",1,30.2294449,-88.0180432,TRUE,FALSE,FALSE,"S232760227"
"500","leabit","Least Bittern","Botaurus exilis","L960072","Bombay Hook NWR--Finis Pool","2025-05-03 07:20",1,39.2738595,-75.4912663,TRUE,FALSE,FALSE,"S232623331"
"501","leabit","Least Bittern","Botaurus exilis","L511813","Mad Island Marsh Preserve / WMA (CTC 007)","2025-05-03 07:00",1,28.6475113,-96.0950947,TRUE,FALSE,FALSE,"S232660916"
"502","leabit","Least Bittern","Botaurus exilis","L585567","West Regional WTF Wetlands","2025-05-03 07:00",2,27.6131434,-80.5052376,TRUE,FALSE,FALSE,"S232405300"
"503","leabit","Least Bittern","Botaurus exilis","L192625","Santee Lakes","2025-05-03 06:49",1,32.8570948,-117.0071411,TRUE,FALSE,FALSE,"S232492612"
"504","leabit","Least Bittern","Botaurus exilis","L869957","Jug Bay Wetland Sanctuary","2025-05-03 06:45",1,38.7842642,-76.704762,TRUE,FALSE,TRUE,"S232459360"
"505","leabit","Least Bittern","Botaurus exilis","L1333848","Murrieta Hot Springs, Pond Park","2025-05-03 06:40",1,33.5568209,-117.1637591,TRUE,TRUE,FALSE,"S232742611"
"506","leabit","Least Bittern","Botaurus exilis","L5815636","Park Private Residence","2025-05-03 06:37",1,28.1776039,-80.604316,TRUE,FALSE,TRUE,"S232554616"
"507","leabit","Least Bittern","Botaurus exilis","L8486622","Swamp Rd. (view from roadside only)","2025-05-03 06:23",1,39.9501814,-82.5707484,TRUE,FALSE,FALSE,"S232352042"
"508","leabit","Least Bittern","Botaurus exilis","L152654","Illinois Beach SP--North Unit/Camp Logan","2025-05-03 06:15",1,42.4667,-87.8015,TRUE,FALSE,FALSE,"S232470607"
"509","leabit","Least Bittern","Botaurus exilis","L9120237","Jocelyn Nungaray NWR-- East Bay Boat Ramp","2025-05-03 06:12",4,29.5755845,-94.5558286,TRUE,FALSE,FALSE,"S232524431"
"510","leabit","Least Bittern","Botaurus exilis","L42031655","4064 Willow Drive, Stevensville, Michigan, US (41.985, -86.553)","2025-05-03 06:01",1,41.9854863,-86.5534791,TRUE,FALSE,TRUE,"S232362270"
"511","leabit","Least Bittern","Botaurus exilis","L3004961","Clark County Wetlands Park--Pabco Area","2025-05-03 06:01",1,36.0877316,-114.9838436,TRUE,FALSE,FALSE,"S232445528"
"512","leabit","Least Bittern","Botaurus exilis","L159345","Elizabeth Hartwell Mason Neck NWR","2025-05-03 05:46",1,38.6406123,-77.1636772,TRUE,FALSE,FALSE,"S232335912"
"513","leabit","Least Bittern","Botaurus exilis","L1280066","Lost Creek Wetland (Stevens Point)","2025-05-03 05:13",1,44.5334556,-89.4655323,TRUE,TRUE,FALSE,"S232331589"
"514","leabit","Least Bittern","Botaurus exilis","L13399500","Izaak Walton Way (bird from road only)","2025-05-03 03:50",1,39.0938129,-77.4242505,TRUE,FALSE,FALSE,"S233259376"
"515","leabit","Least Bittern","Botaurus exilis","L1102021","Home Base","2025-05-03 03:30",NA,40.1048861,-75.2697051,TRUE,TRUE,TRUE,"S232664501"
"516","leabit","Least Bittern","Botaurus exilis","L9192316","JBNHS Big Sit Kingston Point Lenape Trail","2025-05-03 03:30",1,41.9253418,-73.9648262,TRUE,FALSE,TRUE,"S232713874"
"517","leabit","Least Bittern","Botaurus exilis","L36626263","Woodside","2025-05-03 00:00",NA,40.044534,-75.437364,TRUE,TRUE,TRUE,"S233190546"
"518","leabit","Least Bittern","Botaurus exilis","L441896","Freddie Black Choctaw Island WMA Deer Research Area West Unit","2025-05-02 21:49",2,33.6127608,-91.2522912,TRUE,FALSE,FALSE,"S232255988"
"519","leabit","Least Bittern","Botaurus exilis","L13131753","Fort Sumner Gravel Quarry Hidden Ponds (outside fence only)","2025-05-02 18:42",1,34.424899,-104.201034,TRUE,FALSE,FALSE,"S232248278"
"520","leabit","Least Bittern","Botaurus exilis","L11044429","Grange Hall Loop Road","2025-05-02 18:08",1,27.692236,-82.191152,TRUE,FALSE,FALSE,"S232202194"
"521","leabit","Least Bittern","Botaurus exilis","L43943894","SR-59, Sandborn US-IN 38.97973, -87.18612","2025-05-02 17:32",1,38.979733,-87.186118,TRUE,FALSE,TRUE,"S232176999"
"522","leabit","Least Bittern","Botaurus exilis","L43957978","Not Precise Location, Glenview, Cook, Illinois","2025-05-02 17:11",1,42.086473,-87.820475,TRUE,FALSE,TRUE,"S232255280"
"523","leabit","Least Bittern","Botaurus exilis","L6586010","Everglades NP--Gate 13/Hidden Lake","2025-05-02 16:58",2,25.3845337,-80.6221088,TRUE,FALSE,FALSE,"S232261630"
"524","leabit","Least Bittern","Botaurus exilis","L1896574","Jocelyn Nungaray NWR-- Yellow Rail Prairie","2025-05-02 13:24",1,29.5715489,-94.5350069,TRUE,FALSE,FALSE,"S232118237"
"525","leabit","Least Bittern","Botaurus exilis","L129028","McFaddin NWR (UTC 028)","2025-05-02 13:09",2,29.6896815,-94.0934926,TRUE,FALSE,FALSE,"S232247043"
"526","leabit","Least Bittern","Botaurus exilis","L864414","Caernarvon Diversion--levee and canal","2025-05-02 13:08",1,29.8614299,-89.9115843,TRUE,FALSE,FALSE,"S232156067"
"527","leabit","Least Bittern","Botaurus exilis","L43931477","Lost Creek Wetland","2025-05-02 13:05",1,44.535263,-89.466735,TRUE,TRUE,TRUE,"S232134050"
"528","leabit","Least Bittern","Botaurus exilis","L458126","South Texas Botanical Gardens (CTC 067)","2025-05-02 13:04",1,27.6525275,-97.4068666,TRUE,FALSE,FALSE,"S232122295"
