"","speciesCode","comName","sciName","locId","locName","obsDt","howMany","lat","lng","obsValid","obsReviewed","locationPrivate","subId"
"1","nstspa","Nelson's Sparrow","Ammospiza nelsoni","L479571","Wharton Point, Brunswick","2025-05-25 12:00",3,43.8675956,-69.9933701,TRUE,FALSE,FALSE,"S242551347"
"2","nstspa","Nelson's Sparrow","Ammospiza nelsoni","L2894033","Salt Marsh off Pollock Dr., Rye","2025-05-25 10:00",1,43.0376855,-70.7203138,TRUE,FALSE,FALSE,"S242435401"
"3","nstspa","Nelson's Sparrow","Ammospiza nelsoni","L7926219","Jamaica Bay, Elder's Point Marsh (West)","2025-05-25 09:42",1,40.6316358,-73.8554435,TRUE,TRUE,FALSE,"S242451619"
"4","nstspa","Nelson's Sparrow","Ammospiza nelsoni","L109233","Sandy Point","2025-05-25 07:30",1,41.2645658,-72.9312372,TRUE,TRUE,FALSE,"S242684108"
"5","nstspa","Nelson's Sparrow","Ammospiza nelsoni","L45889269","13053 Norway Road, Avon, Minnesota, US (45.609, -94.371)","2025-05-24 22:50",1,45.6086758,-94.3709878,TRUE,FALSE,TRUE,"S242263962"
"6","nstspa","Nelson's Sparrow","Ammospiza nelsoni","L7622448","Medicine Lake NWR--E Lake Hwy crossing","2025-05-24 20:18",1,48.5020635,-104.2924592,TRUE,FALSE,FALSE,"S242263863"
"7","nstspa","Nelson's Sparrow","Ammospiza nelsoni","L1130357","Heislerville WMA--North impoundment","2025-05-24 15:54",1,39.2340482,-75.0064945,TRUE,FALSE,FALSE,"S242145901"
"8","nstspa","Nelson's Sparrow","Ammospiza nelsoni","L9022401","Spurwink Marsh at Sawyer Road","2025-05-24 12:33",2,43.5879076,-70.2631695,TRUE,FALSE,FALSE,"S242134684"
"9","nstspa","Nelson's Sparrow","Ammospiza nelsoni","L450156","Weskeag Marsh","2025-05-24 12:28",2,44.0790304,-69.1416943,TRUE,FALSE,FALSE,"S242075426"
"10","nstspa","Nelson's Sparrow","Ammospiza nelsoni","L448189","Scarborough Marsh--Eastern Trail","2025-05-24 08:54",1,43.5649691,-70.3639502,TRUE,FALSE,FALSE,"S241962802"
"11","nstspa","Nelson's Sparrow","Ammospiza nelsoni","L3446157","US-ND-Berthold - 48.3270x-101.9118 - Feb 28, 2015, 5:03 PM","2025-05-24 08:10",1,48.327013,-101.911841,TRUE,FALSE,TRUE,"S241899112"
"12","nstspa","Nelson's Sparrow","Ammospiza nelsoni","L446548","North Beach--marsh","2025-05-24 06:50",1,38.7119023,-76.5312767,TRUE,TRUE,FALSE,"S241892749"
"13","nstspa","Nelson's Sparrow","Ammospiza nelsoni","L3105465","Cloudmarch","2025-05-24 05:14",1,44.0671599,-69.5879066,TRUE,FALSE,TRUE,"S241818050"
"14","nstspa","Nelson's Sparrow","Ammospiza nelsoni","L382230","Swamp Lake","2025-05-24 01:24",1,47.2253973,-94.6346855,TRUE,FALSE,FALSE,"S241781159"
"15","nstspa","Nelson's Sparrow","Ammospiza nelsoni","L470628","Thompson's Beach and Road","2025-05-23 07:01",1,39.1928839,-74.9945641,TRUE,FALSE,FALSE,"S241460666"
"16","nstspa","Nelson's Sparrow","Ammospiza nelsoni","L31704562","Flowing Well Road","2025-05-23 05:10",1,48.8990399,-104.0497347,TRUE,FALSE,TRUE,"S241615737"
"17","nstspa","Nelson's Sparrow","Ammospiza nelsoni","L1476588","Wight Heath, Blue Hill","2025-05-21 18:24",1,44.4506036,-68.6663472,TRUE,FALSE,FALSE,"S241061206"
"18","nstspa","Nelson's Sparrow","Ammospiza nelsoni","L387182","Stewart B. McKinney NWR--Railroad Track Tr.","2025-05-20 15:35",1,41.1626415,-73.1512515,TRUE,TRUE,FALSE,"S240893494"
"19","nstspa","Nelson's Sparrow","Ammospiza nelsoni","L600062","Mason Inlet Waterbird Management Area","2025-05-20 06:01",2,34.2371024,-77.7735901,TRUE,FALSE,FALSE,"S240517926"
"20","nstspa","Nelson's Sparrow","Ammospiza nelsoni","L444485","Plumb Beach","2025-05-19 10:56",1,40.5823284,-73.9153746,TRUE,TRUE,FALSE,"S240263597"
"21","nstspa","Nelson's Sparrow","Ammospiza nelsoni","L2428765","Middle Fork River FP--Point Pleasant Wetland","2025-05-18 19:07",1,40.3708742,-87.9704905,TRUE,TRUE,FALSE,"S240442491"
"22","nstspa","Nelson's Sparrow","Ammospiza nelsoni","L340595","Wells Reserve at Laudholm","2025-05-18 17:01",1,43.3377737,-70.5497131,TRUE,FALSE,FALSE,"S239962725"
"23","nstspa","Nelson's Sparrow","Ammospiza nelsoni","L609130","Magnolia Cemetery","2025-05-18 08:30",1,32.8176113,-79.9449348,TRUE,FALSE,FALSE,"S239676431"
"24","nstspa","Nelson's Sparrow","Ammospiza nelsoni","L2019023","Elkton Marsh","2025-05-18 07:02",1,39.58159,-75.85236,TRUE,TRUE,TRUE,"S239702122"
"25","nstspa","Nelson's Sparrow","Ammospiza nelsoni","L5291127","Guinea Marsh--Maryus Road","2025-05-18 06:09",1,37.2812069,-76.391598,TRUE,TRUE,FALSE,"S239590148"
"26","nstspa","Nelson's Sparrow","Ammospiza nelsoni","L592872","Ocean Drive--Two Mile Landing","2025-05-18 06:00",1,38.9595423,-74.866333,TRUE,FALSE,FALSE,"S239613352"
"27","nstspa","Nelson's Sparrow","Ammospiza nelsoni","L1676092","Rachel Carson NWR--Timber Point Trail","2025-05-18 05:27",1,43.4012099,-70.3969941,TRUE,FALSE,FALSE,"S239754909"
"28","nstspa","Nelson's Sparrow","Ammospiza nelsoni","L45250176","11374-11380 County Highway 10, Veblen, South Dakota, US (45.736, -97.255)","2025-05-17 09:48",2,45.7360157,-97.2547411,TRUE,FALSE,TRUE,"S239208505"
"29","nstspa","Nelson's Sparrow","Ammospiza nelsoni","L45258649","Thompsons Beach Rd, Heislerville US-NJ 39.20293, -74.99381","2025-05-17 08:39",2,39.202925,-74.993807,TRUE,FALSE,TRUE,"S239247008"
"30","nstspa","Nelson's Sparrow","Ammospiza nelsoni","L1298840","Niawathe Prairie CA","2025-05-16 06:02",1,37.510679,-93.9715576,TRUE,TRUE,FALSE,"S238740283"
"31","nstspa","Nelson's Sparrow","Ammospiza nelsoni","L152637","Fermilab (DuPage Co.)","2025-05-16 05:38",1,41.8395126,-88.2190218,TRUE,TRUE,FALSE,"S238604003"
