"","speciesCode","comName","sciName","locId","locName","obsDt","howMany","lat","lng","obsValid","obsReviewed","locationPrivate","subId"
"1","foxspa","Fox Sparrow","Passerella iliaca","L31323628","1220 Great View Ln, Fairbanks US-AK 64.91478, -147.52978","2025-05-15 15:27",1,64.914782,-147.529785,TRUE,FALSE,TRUE,"S238415871"
"2","foxspa","Fox Sparrow","Passerella iliaca","L1271058","Bull Gap Sno Park West","2025-05-15 14:21",2,42.0714686,-122.6984882,TRUE,FALSE,TRUE,"S238401643"
"3","foxspa","Fox Sparrow","Passerella iliaca","L45084410","Beckwourth Peak Trail North Side 39.77826, -120.44585","2025-05-15 13:58",2,39.778261,-120.44585,TRUE,FALSE,TRUE,"S238402176"
"4","foxspa","Fox Sparrow","Passerella iliaca","L913613","Crystal Basin--Big Hill Lookout","2025-05-15 13:49",2,38.8423754,-120.4078559,TRUE,FALSE,FALSE,"S238366617"
"5","foxspa","Fox Sparrow","Passerella iliaca","L248232","Hulls Gulch Reserve","2025-05-15 13:42",1,43.6378792,-116.1965719,TRUE,FALSE,FALSE,"S238356107"
"6","foxspa","Fox Sparrow","Passerella iliaca","L8091612","Ward Cove - Grassy Knoll","2025-05-15 13:05",1,55.4015136,-131.7396456,TRUE,FALSE,TRUE,"S238408097"
"7","foxspa","Fox Sparrow","Passerella iliaca","L7420843","Fivemile Butte","2025-05-15 13:04",1,45.4102311,-121.469264,TRUE,FALSE,FALSE,"S238381880"
"8","foxspa","Fox Sparrow","Passerella iliaca","L16651473","Bethel--Lion's Club River Walk","2025-05-15 12:24",3,60.7885012,-161.7720547,TRUE,FALSE,FALSE,"S238363760"
"9","foxspa","Fox Sparrow","Passerella iliaca","L671746","Cold Springs Campground","2025-05-15 12:15",1,44.3099309,-121.6329217,TRUE,FALSE,FALSE,"S238419823"
"10","foxspa","Fox Sparrow","Passerella iliaca","L1545636","Anchorage Coastal WR--Clitheroe flats","2025-05-15 12:05",1,61.178193,-150.0367842,TRUE,FALSE,FALSE,"S238373214"
"11","foxspa","Fox Sparrow","Passerella iliaca","L1528742","Valdez--Dock Point","2025-05-15 11:31",2,61.1282181,-146.3303329,TRUE,FALSE,FALSE,"S238355210"
"12","foxspa","Fox Sparrow","Passerella iliaca","L1479497","Sequoia NP--General Sherman Tree Trail","2025-05-15 11:25",1,36.5848435,-118.7496931,TRUE,FALSE,FALSE,"S238313741"
"13","foxspa","Fox Sparrow","Passerella iliaca","L661970","Kodiak Is.--Fort Abercrombie State Historical Park","2025-05-15 11:15",2,57.8326893,-152.3559093,TRUE,FALSE,FALSE,"S238373154"
"14","foxspa","Fox Sparrow","Passerella iliaca","L45075308","451 S Pine St, Telluride US-CO 37.93466, -107.81197BEAR CREEK TRAIL TO FALLS","2025-05-15 10:19",1,37.934657,-107.811975,TRUE,FALSE,TRUE,"S238350215"
"15","foxspa","Fox Sparrow","Passerella iliaca","L7561289","Evergreen Rd.","2025-05-15 10:07",1,37.8745146,-119.8578358,TRUE,FALSE,FALSE,"S238375185"
"16","foxspa","Fox Sparrow","Passerella iliaca","L36276957","Homer - West Kachemak drive beach","2025-05-15 10:07",11,59.638836,-151.481723,TRUE,FALSE,TRUE,"S238321523"
"17","foxspa","Fox Sparrow","Passerella iliaca","L1215734","Gray Jay Lava Rock Bowl","2025-05-15 10:06",2,40.366031,-121.4156467,TRUE,FALSE,TRUE,"S238319794"
"18","foxspa","Fox Sparrow","Passerella iliaca","L1172319","Gold Creek Flume Trail","2025-05-15 10:00",1,58.3056109,-134.4166946,TRUE,FALSE,FALSE,"S238317430"
"19","foxspa","Fox Sparrow","Passerella iliaca","L6500076","Cleveland Corral Picnic Area","2025-05-15 09:53",1,38.781057,-120.424844,TRUE,FALSE,FALSE,"S238293314"
"20","foxspa","Fox Sparrow","Passerella iliaca","L45079858","Big Oak Flat Road, Groveland, California, US (37.783, -119.869)","2025-05-15 09:39",NA,37.7830001,-119.8694644,TRUE,FALSE,TRUE,"S238375135"
"21","foxspa","Fox Sparrow","Passerella iliaca","L45073321","Amaknak Island Park, unisea, S curves","2025-05-15 09:38",1,53.882667,-166.550182,TRUE,FALSE,TRUE,"S238339331"
"22","foxspa","Fox Sparrow","Passerella iliaca","L5122897","Kodiak Is.--inner Anton Larsen Bay","2025-05-15 09:37",3,57.8480613,-152.6313275,TRUE,FALSE,FALSE,"S238402840"
"23","foxspa","Fox Sparrow","Passerella iliaca","L45081788","Icehouse Lake, Lesnoi US-AK (57.7822,-152.3540)","2025-05-15 09:30",4,57.782192,-152.354022,TRUE,FALSE,TRUE,"S238386323"
"24","foxspa","Fox Sparrow","Passerella iliaca","L32211520","Cave Lake SP--West Steptoe Creek Trailhead area","2025-05-15 09:28",2,39.1830724,-114.7215027,TRUE,FALSE,FALSE,"S238403630"
"25","foxspa","Fox Sparrow","Passerella iliaca","L31545764","Upper Atigun Shrub Patch","2025-05-15 08:55",1,68.1707624,-149.4335098,TRUE,FALSE,TRUE,"S238289384"
"26","foxspa","Fox Sparrow","Passerella iliaca","L15589344","Spring Creek Campground","2025-05-15 08:51",3,40.6697791,-115.5250565,TRUE,FALSE,FALSE,"S238296873"
"27","foxspa","Fox Sparrow","Passerella iliaca","L280497","Cherry Springs","2025-05-15 08:33",1,42.7510336,-112.3943382,TRUE,FALSE,FALSE,"S238318110"
"28","foxspa","Fox Sparrow","Passerella iliaca","L28789992","Wolf Track Rd","2025-05-15 08:29",1,62.270912,-150.09464,TRUE,FALSE,TRUE,"S238216216"
"29","foxspa","Fox Sparrow","Passerella iliaca","L45078616","Wrangell, Alaska, US (56.472, -132.387)","2025-05-15 08:25",3,56.4715535,-132.3872876,TRUE,FALSE,TRUE,"S238368259"
"30","foxspa","Fox Sparrow","Passerella iliaca","L3604626","Shaver Lake--Nevins Peninsula","2025-05-15 08:10",11,37.106223,-119.299262,TRUE,FALSE,FALSE,"S238414601"
"31","foxspa","Fox Sparrow","Passerella iliaca","L30879493","Koyukuk (village)","2025-05-15 07:58",3,64.881532,-157.704332,TRUE,FALSE,TRUE,"S238199205"
"32","foxspa","Fox Sparrow","Passerella iliaca","L523501","Anchorage Coastal WR--Carr-Gottstein Park to Campbell Creek","2025-05-15 07:53",1,61.1151712,-149.9404769,TRUE,FALSE,FALSE,"S238337927"
"33","foxspa","Fox Sparrow","Passerella iliaca","L18287537","Behrend's avalanche area","2025-05-15 07:34",1,58.309082,-134.429635,TRUE,FALSE,TRUE,"S238197682"
"34","foxspa","Fox Sparrow","Passerella iliaca","L794452","Logan Canyon--Third Dam/Spring Hollow CG","2025-05-15 07:18",6,41.7536896,-111.7166984,TRUE,FALSE,FALSE,"S238186392"
"35","foxspa","Fox Sparrow","Passerella iliaca","L452854","Jordanelle Reclamation Area","2025-05-15 07:14",1,40.5784986,-111.429863,TRUE,FALSE,FALSE,"S238333245"
"36","foxspa","Fox Sparrow","Passerella iliaca","L526888","Tanana Lakes Recreation Area","2025-05-15 06:23",2,64.7966492,-147.7180481,TRUE,FALSE,FALSE,"S238186764"
"37","foxspa","Fox Sparrow","Passerella iliaca","L45046222","60892–60896 Rancheria Rd, Wofford Heights US-CA 35.73027, -118.55866","2025-05-15 06:20",2,35.730273,-118.558659,TRUE,FALSE,TRUE,"S238202198"
"38","foxspa","Fox Sparrow","Passerella iliaca","L4491511","Copper River Hwy.--Pavilion","2025-05-15 05:55",3,60.5014816,-145.5113786,TRUE,FALSE,FALSE,"S238289701"
"39","foxspa","Fox Sparrow","Passerella iliaca","L43646688","33145 Peace Avenue, Seward, Alaska, Kyle's house","2025-05-14 21:48",2,60.1866903,-149.3845536,TRUE,FALSE,TRUE,"S238018932"
"40","foxspa","Fox Sparrow","Passerella iliaca","L26378574","Rustic Rd, Pinecrest US-CA (38.1898,-119.9904)","2025-05-14 19:50",1,38.189827,-119.990375,TRUE,FALSE,TRUE,"S238309280"
"41","foxspa","Fox Sparrow","Passerella iliaca","L21120246","Bethel- Blueberry Subdivision","2025-05-14 19:47",2,60.7895133,-161.8075488,TRUE,FALSE,TRUE,"S238009403"
"42","foxspa","Fox Sparrow","Passerella iliaca","L45011159","Tahoe East Shore Trail, Incline Village US-NV 39.23386, -119.93092","2025-05-14 18:10",1,39.233861,-119.930917,TRUE,FALSE,TRUE,"S237998538"
"43","foxspa","Fox Sparrow","Passerella iliaca","L6101041","Aspen Grove US-California-Pollock Pines-9000 Ice House Road - 38.81x-120.378","2025-05-14 17:31",1,38.8104411,-120.3780274,TRUE,FALSE,TRUE,"S237990219"
"44","foxspa","Fox Sparrow","Passerella iliaca","L9434494","Girdwood to Bird--Bike Path","2025-05-14 16:48",1,60.945048,-149.176858,TRUE,FALSE,TRUE,"S237993801"
"45","foxspa","Fox Sparrow","Passerella iliaca","L45013480","Yosemite trip: Sequoia General Sherman Tree","2025-05-14 16:43",4,36.564079,-118.767144,TRUE,FALSE,TRUE,"S238010930"
"46","foxspa","Fox Sparrow","Passerella iliaca","L19301375","Avalanche meadow sit spot (Juneau)","2025-05-14 16:02",2,58.307961,-134.428609,TRUE,FALSE,TRUE,"S237976203"
"47","foxspa","Fox Sparrow","Passerella iliaca","L423097","Yosemite NP--Mono Meadow Trail at Glacier Point Rd.","2025-05-14 15:50",3,37.6688071,-119.5859241,TRUE,FALSE,FALSE,"S237979630"
"48","foxspa","Fox Sparrow","Passerella iliaca","L45016460","415 Bullion Dr, Fairbanks US-AK 64.92951, -147.61139","2025-05-14 14:39",1,64.92951,-147.611392,TRUE,FALSE,TRUE,"S238026251"
"49","foxspa","Fox Sparrow","Passerella iliaca","L11684217","Sylvan Bay","2025-05-14 14:09",1,42.95189,-109.781986,TRUE,FALSE,TRUE,"S237922586"
"50","foxspa","Fox Sparrow","Passerella iliaca","L1130056","Kodiak Is.--Kalsin Pond and Olds River Estuary","2025-05-14 14:01",1,57.584638,-152.4485207,TRUE,FALSE,FALSE,"S237933936"
"51","foxspa","Fox Sparrow","Passerella iliaca","L6714159","Yosemite NP--Taft Point Trail","2025-05-14 13:30",5,37.7112234,-119.5991421,TRUE,FALSE,FALSE,"S237980774"
"52","foxspa","Fox Sparrow","Passerella iliaca","L953070","Madora Lake","2025-05-14 13:19",1,39.7817204,-120.6717467,TRUE,FALSE,FALSE,"S238417994"
"53","foxspa","Fox Sparrow","Passerella iliaca","L6474575","Galena Creek County Park--Nature Trail and Bitterbrush Trail","2025-05-14 13:16",1,39.3548129,-119.8585546,TRUE,FALSE,FALSE,"S237927620"
"54","foxspa","Fox Sparrow","Passerella iliaca","L8085093","Kodiak Is.--Thumbs Up public access","2025-05-14 12:49",2,57.6178572,-152.370212,TRUE,FALSE,FALSE,"S237910043"
"55","foxspa","Fox Sparrow","Passerella iliaca","L1266870","Canyon Dam Peregrine Falcon Eyrie","2025-05-14 12:38",2,40.1508659,-121.0983467,TRUE,FALSE,TRUE,"S237909334"
"56","foxspa","Fox Sparrow","Passerella iliaca","L24482897","Masonic Mountain","2025-05-14 12:02",5,38.336226,-119.166393,TRUE,FALSE,FALSE,"S237897489"
"57","foxspa","Fox Sparrow","Passerella iliaca","L2125641","Yosemite NP--Upper Yosemite Falls","2025-05-14 11:45",1,37.7580942,-119.5990562,TRUE,FALSE,FALSE,"S238185256"
"58","foxspa","Fox Sparrow","Passerella iliaca","L798203","Nebo Creek","2025-05-14 11:33",1,39.8686417,-111.5922546,TRUE,FALSE,TRUE,"S237871014"
"59","foxspa","Fox Sparrow","Passerella iliaca","L15003445","Bethel kasayuli pit","2025-05-14 11:20",4,60.7663134,-161.8478478,TRUE,FALSE,TRUE,"S237901429"
"60","foxspa","Fox Sparrow","Passerella iliaca","L823675","Arctic Valley Rd.","2025-05-14 11:18",1,61.2350621,-149.569931,TRUE,FALSE,FALSE,"S237906432"
"61","foxspa","Fox Sparrow","Passerella iliaca","L13255513","12831 Michael Road, Anchorage, Alaska, US (61.104, -149.729)","2025-05-14 11:18",2,61.1042594,-149.7287385,TRUE,FALSE,TRUE,"S237879001"
"62","foxspa","Fox Sparrow","Passerella iliaca","L2161814","South Park Wildlife Habitat Management Area","2025-05-14 11:12",1,43.3965039,-110.7767773,TRUE,FALSE,FALSE,"S237867723"
"63","foxspa","Fox Sparrow","Passerella iliaca","L3921352","Yosemite NP--Sentinel Dome Trail","2025-05-14 10:48",5,37.7175612,-119.5831025,TRUE,FALSE,FALSE,"S237980878"
"64","foxspa","Fox Sparrow","Passerella iliaca","L45000049","Boise National Forest, Boise US-ID (43.5233,-115.9228)","2025-05-14 10:34",1,43.523325,-115.922812,TRUE,FALSE,TRUE,"S237930183"
"65","foxspa","Fox Sparrow","Passerella iliaca","L1195999","Mt. Roberts Trail","2025-05-14 10:34",1,58.2967719,-134.3866096,TRUE,FALSE,FALSE,"S237881719"
"66","foxspa","Fox Sparrow","Passerella iliaca","L44984395","National Forest Road 29, Paisley, Oregon, US (42.721, -120.755)","2025-05-14 10:24",2,42.7209866,-120.7547819,TRUE,FALSE,TRUE,"S237846565"
"67","foxspa","Fox Sparrow","Passerella iliaca","L45067714","Pinecrest Lake National Recreation Trail, Long Barn US-CA 38.19060, -119.98989","2025-05-14 10:08",1,38.190596,-119.989889,TRUE,FALSE,TRUE,"S238309419"
"68","foxspa","Fox Sparrow","Passerella iliaca","L45079078","Sentinel Cg, Miramonte US-CA 36.79248, -118.67275","2025-05-14 09:56",1,36.792485,-118.672747,TRUE,FALSE,TRUE,"S238370786"
"69","foxspa","Fox Sparrow","Passerella iliaca","L9173007","Copper River Hwy.--Scott River Trail","2025-05-14 09:55",1,60.5094441,-145.5437454,TRUE,FALSE,FALSE,"S237991300"
"70","foxspa","Fox Sparrow","Passerella iliaca","L4405073","Glenn Hwy.--Gunsight Mountain Hawkwatch (MP 121)","2025-05-14 09:54",1,61.8818663,-147.3362625,TRUE,FALSE,FALSE,"S238001463"
"71","foxspa","Fox Sparrow","Passerella iliaca","L5250282","Naef Farm, Saxon Road","2025-05-14 09:40",1,48.6860875,-122.1933746,TRUE,FALSE,TRUE,"S237991006"
"72","foxspa","Fox Sparrow","Passerella iliaca","L18018854","Sashin Lake","2025-05-14 09:36",2,56.3655618,-134.6787555,TRUE,FALSE,TRUE,"S237894235"
"73","foxspa","Fox Sparrow","Passerella iliaca","L491769","Unalaska Is.--Dutch Harbor","2025-05-14 09:34",1,53.8891656,-166.5398598,TRUE,FALSE,FALSE,"S237864112"
"74","foxspa","Fox Sparrow","Passerella iliaca","L767765","Sequoia NF--Trail of 100 Giants/Redwood Mdw","2025-05-14 09:32",12,35.9769383,-118.5962641,TRUE,FALSE,FALSE,"S238013930"
"75","foxspa","Fox Sparrow","Passerella iliaca","L4699766","Trout Creek Hillside","2025-05-14 09:19",3,44.2666802,-121.6924567,TRUE,FALSE,FALSE,"S237815573"
"76","foxspa","Fox Sparrow","Passerella iliaca","L728569","Homer--Beluga Lake","2025-05-14 09:15",3,59.643545,-151.5092754,TRUE,FALSE,FALSE,"S238030968"
"77","foxspa","Fox Sparrow","Passerella iliaca","L339869","Jawbone DWP","2025-05-14 09:06",1,35.3158522,-118.0470222,TRUE,FALSE,FALSE,"S237810342"
"78","foxspa","Fox Sparrow","Passerella iliaca","L12226900","Stateline Fire Lookout (CA)","2025-05-14 09:05",3,39.2316215,-120.0089407,TRUE,FALSE,FALSE,"S237823495"
"79","foxspa","Fox Sparrow","Passerella iliaca","L44981903","Glacier Point Rd, Coulterville US-CA 37.67546, -119.58772","2025-05-14 09:00",1,37.675458,-119.587722,TRUE,FALSE,TRUE,"S237833833"
"80","foxspa","Fox Sparrow","Passerella iliaca","L4356161","East Fork Little Bear River WMA","2025-05-14 08:58",4,41.5181535,-111.7660511,TRUE,FALSE,FALSE,"S237799910"
"81","foxspa","Fox Sparrow","Passerella iliaca","L3199085","Green Valley Campground","2025-05-14 08:56",1,34.2449206,-117.0638497,TRUE,FALSE,FALSE,"S237855339"
"82","foxspa","Fox Sparrow","Passerella iliaca","L45005843","Bob Blodgett Hwy, Nome US-AK (64.6879,-165.7585)","2025-05-14 08:55",1,64.6879,-165.758531,TRUE,FALSE,TRUE,"S237965822"
"83","foxspa","Fox Sparrow","Passerella iliaca","L779785","Greenhorn Mtns.--Rancheria Rd. (FS 25S15)","2025-05-14 08:45",15,35.7108901,-118.5608053,TRUE,FALSE,FALSE,"S237911116"
"84","foxspa","Fox Sparrow","Passerella iliaca","L270121","Angeles NF--Buckhorn Campground","2025-05-14 08:28",4,34.3457038,-117.915262,TRUE,FALSE,FALSE,"S237891007"
"85","foxspa","Fox Sparrow","Passerella iliaca","L3881355","Gastineau Channel","2025-05-14 08:24",1,58.293704,-134.4118452,TRUE,FALSE,FALSE,"S237955716"
"86","foxspa","Fox Sparrow","Passerella iliaca","L902913","Angeles NF--Islip Saddle","2025-05-14 08:15",2,34.3569707,-117.8511357,TRUE,FALSE,FALSE,"S237901181"
"87","foxspa","Fox Sparrow","Passerella iliaca","L1425825","Home","2025-05-14 08:00",1,44.9573137,-116.2246686,TRUE,FALSE,TRUE,"S238180459"
"88","foxspa","Fox Sparrow","Passerella iliaca","L44976771","Sitka Spruce Park","2025-05-14 07:53",1,53.888066,-166.544405,TRUE,FALSE,TRUE,"S237807216"
"89","foxspa","Fox Sparrow","Passerella iliaca","L1128812","Homer--Alaska Islands & Oceans Visitor Center & Trails","2025-05-14 07:45",1,59.641132,-151.5389299,TRUE,FALSE,FALSE,"S237796428"
"90","foxspa","Fox Sparrow","Passerella iliaca","L354230","Saticoy Spreading Ponds","2025-05-14 07:39",1,34.2733696,-119.1251398,TRUE,FALSE,FALSE,"S237819022"
"91","foxspa","Fox Sparrow","Passerella iliaca","L33652094","Rush Creek Lodge and Spa","2025-05-14 07:21",2,37.8126658,-119.8817182,TRUE,FALSE,FALSE,"S237795151"
"92","foxspa","Fox Sparrow","Passerella iliaca","L2335446","Lake Valley Rd.","2025-05-14 07:09",4,39.3057287,-120.6099701,TRUE,FALSE,FALSE,"S237823821"
"93","foxspa","Fox Sparrow","Passerella iliaca","L5692146","Old Jackson Highway between Victor and Teton Pass","2025-05-14 07:03",3,43.5800954,-111.0791137,TRUE,FALSE,FALSE,"S237768564"
"94","foxspa","Fox Sparrow","Passerella iliaca","L44971388","Swiss Chalet, W Hill Rd, Homer US-AK","2025-05-14 06:46",1,59.656613,-151.572378,TRUE,FALSE,TRUE,"S237778378"
"95","foxspa","Fox Sparrow","Passerella iliaca","L44969941","Turnaround","2025-05-14 06:46",1,57.05872,-135.348673,TRUE,FALSE,TRUE,"S237770331"
"96","foxspa","Fox Sparrow","Passerella iliaca","L5061008","Homer - Jim Herbert's House","2025-05-14 06:40",8,59.6974631,-151.3616145,TRUE,FALSE,TRUE,"S238029026"
"97","foxspa","Fox Sparrow","Passerella iliaca","L905195","Gold Run Yard List","2025-05-14 06:35",1,40.3673593,-120.670073,TRUE,FALSE,TRUE,"S237938940"
"98","foxspa","Fox Sparrow","Passerella iliaca","L1312792","Ketchikan Airport Perimeter","2025-05-14 06:15",2,55.3612831,-131.7197227,TRUE,FALSE,FALSE,"S237955182"
"99","foxspa","Fox Sparrow","Passerella iliaca","L724744","Arctic Valley Ski Area","2025-05-14 06:01",2,61.2467075,-149.535234,TRUE,FALSE,FALSE,"S237747585"
"100","foxspa","Fox Sparrow","Passerella iliaca","L1417596","Sierra Valley--Lemon Canyon Rd.","2025-05-14 05:33",3,39.5818306,-120.3332543,TRUE,FALSE,FALSE,"S237768225"
"101","foxspa","Fox Sparrow","Passerella iliaca","L10939364","Homer--Beluga Slough Trail","2025-05-13 20:30",2,59.637732,-151.5404749,TRUE,FALSE,FALSE,"S238027532"
"102","foxspa","Fox Sparrow","Passerella iliaca","L24402858","ONC Subdivision","2025-05-13 20:23",1,60.7877439,-161.7980678,TRUE,FALSE,TRUE,"S237612462"
"103","foxspa","Fox Sparrow","Passerella iliaca","L2884275","Kodiak Is.--White Sands Beach","2025-05-13 20:08",1,57.8402226,-152.4452859,TRUE,FALSE,FALSE,"S237616873"
"104","foxspa","Fox Sparrow","Passerella iliaca","L2725332","Beluga--Threemile Creek Mouth","2025-05-13 18:24",1,61.1428624,-151.0732877,TRUE,FALSE,FALSE,"S237614905"
"105","foxspa","Fox Sparrow","Passerella iliaca","L1161518","Glenn Hwy.--Tahneta Lake & Startup Creek","2025-05-13 18:08",1,61.9056665,-147.2992434,TRUE,FALSE,FALSE,"S237600364"
"106","foxspa","Fox Sparrow","Passerella iliaca","L5810161","Kotzebue (town)","2025-05-13 17:49",1,66.8983909,-162.5873995,TRUE,FALSE,FALSE,"S237602155"
"107","foxspa","Fox Sparrow","Passerella iliaca","L9187205","My Haven","2025-05-13 17:41",1,59.72982,-151.763797,TRUE,FALSE,TRUE,"S237728033"
"108","foxspa","Fox Sparrow","Passerella iliaca","L6673152","Lost Creek Reservoir SP","2025-05-13 17:30",1,41.1853289,-111.3834286,TRUE,FALSE,FALSE,"S237579468"
"109","foxspa","Fox Sparrow","Passerella iliaca","L949315","Glacier NP--Polebridge","2025-05-13 16:12",1,48.7648632,-114.2848974,TRUE,FALSE,FALSE,"S237578942"
"110","foxspa","Fox Sparrow","Passerella iliaca","L7650379","Denali SP--Curry Ridge Trail","2025-05-13 14:13",1,62.5923986,-150.2231048,TRUE,FALSE,FALSE,"S237530955"
"111","foxspa","Fox Sparrow","Passerella iliaca","L17670807","Bethel--Sand Pits","2025-05-13 13:27",7,60.7888168,-161.8550263,TRUE,FALSE,FALSE,"S237572814"
"112","foxspa","Fox Sparrow","Passerella iliaca","L1176452","Agate Pond Preserve (restricted access)","2025-05-13 13:12",1,48.7755442,-122.3559916,TRUE,FALSE,FALSE,"S237604838"
"113","foxspa","Fox Sparrow","Passerella iliaca","L595393","Yosemite NP--Glacier Pt.","2025-05-13 13:07",6,37.7277555,-119.5751953,TRUE,FALSE,FALSE,"S237494068"
"114","foxspa","Fox Sparrow","Passerella iliaca","L1601822","Kings Canyon NP--Panoramic Pt.","2025-05-13 13:06",6,36.7557241,-118.946601,TRUE,FALSE,FALSE,"S237583495"
"115","foxspa","Fox Sparrow","Passerella iliaca","L878486","Plumas Eureka SP","2025-05-13 13:05",4,39.7520733,-120.7006073,TRUE,FALSE,FALSE,"S237481609"
"116","foxspa","Fox Sparrow","Passerella iliaca","L588692","Seldovia (town)","2025-05-13 12:45",2,59.4415843,-151.7160416,TRUE,FALSE,FALSE,"S237582415"
"117","foxspa","Fox Sparrow","Passerella iliaca","L11464746","Greenhorn Mtns.--FS 25S11","2025-05-13 12:38",1,35.7559848,-118.554989,TRUE,FALSE,TRUE,"S237525159"
"118","foxspa","Fox Sparrow","Passerella iliaca","L41718201","Stewart Trail","2025-05-13 12:32",3,61.056182,-149.75401,TRUE,FALSE,TRUE,"S237489480"
"119","foxspa","Fox Sparrow","Passerella iliaca","L9319334","Chugach NF--Crown Point Mine Rd.","2025-05-13 12:31",1,60.43183,-149.359964,TRUE,FALSE,FALSE,"S237491085"
"120","foxspa","Fox Sparrow","Passerella iliaca","L44973744","road mapping","2025-05-13 12:30",3,38.553572,-120.435217,TRUE,FALSE,TRUE,"S237802768"
"121","foxspa","Fox Sparrow","Passerella iliaca","L5981710","Alpha Omega Rest Stop","2025-05-13 12:15",1,39.3146442,-120.7532001,TRUE,FALSE,TRUE,"S237533788"
"122","foxspa","Fox Sparrow","Passerella iliaca","L44934153","N Beaver Creek Rd","2025-05-13 12:11",1,44.5248773,-123.9804598,TRUE,FALSE,TRUE,"S237551085"
"123","foxspa","Fox Sparrow","Passerella iliaca","L11618137","Denali SP--Veterans Memorial","2025-05-13 11:51",2,62.7467184,-150.1288897,TRUE,FALSE,FALSE,"S237607036"
"124","foxspa","Fox Sparrow","Passerella iliaca","L21220197","Los Padres NF—Mt. Pinos Summit Trail (KER Co)","2025-05-13 11:50",5,34.815639,-119.131402,TRUE,FALSE,FALSE,"S237592506"
"125","foxspa","Fox Sparrow","Passerella iliaca","L902023","Cordova--Odiak Pond","2025-05-13 11:50",1,60.540017,-145.751523,TRUE,FALSE,FALSE,"S237473225"
"126","foxspa","Fox Sparrow","Passerella iliaca","L3590464","School Canyon Trail","2025-05-13 11:35",1,45.2997465,-121.3660097,TRUE,FALSE,FALSE,"S237512109"
"127","foxspa","Fox Sparrow","Passerella iliaca","L22747057","Banner Creek","2025-05-13 11:18",3,64.6410029,-165.3001999,TRUE,FALSE,TRUE,"S237489539"
"128","foxspa","Fox Sparrow","Passerella iliaca","L2587568","Chugach SP--McHugh Creek Trailhead","2025-05-13 11:12",2,61.0173635,-149.7328108,TRUE,FALSE,FALSE,"S237530074"
"129","foxspa","Fox Sparrow","Passerella iliaca","L44919700","61374 Ohlson Mountain Road, Homer, Alaska, US (59.711, -151.511) Ohlson Mtn Rd Residence Cabin","2025-05-13 11:11",4,59.7105808,-151.5107069,TRUE,FALSE,TRUE,"S237460339"
"130","foxspa","Fox Sparrow","Passerella iliaca","L1574003","Glacier NP--Beaver Pond Loop Trail","2025-05-13 10:50",2,48.7353764,-113.4377469,TRUE,FALSE,FALSE,"S237438236"
"131","foxspa","Fox Sparrow","Passerella iliaca","L8024465","40813 Morning Star Road, Homer, Alaska, US (59.681, -151.415)","2025-05-13 10:44",11,59.6809758,-151.4147614,TRUE,FALSE,TRUE,"S237478152"
"132","foxspa","Fox Sparrow","Passerella iliaca","L1122288","Kodiak Is.--Buskin River SRS","2025-05-13 10:41",6,57.7560906,-152.4844837,TRUE,FALSE,FALSE,"S238008003"
"133","foxspa","Fox Sparrow","Passerella iliaca","L44932543","84108, Salt Lake City US-UT (40.7540,-111.7022)Parleys Mitigation","2025-05-13 10:31",2,40.754016,-111.702204,TRUE,FALSE,TRUE,"S237537484"
"134","foxspa","Fox Sparrow","Passerella iliaca","L44925990","Beam Rd, Nome US-AK 64.90544, -165.07986","2025-05-13 10:30",2,64.905444,-165.079861,TRUE,FALSE,TRUE,"S237495399"
"135","foxspa","Fox Sparrow","Passerella iliaca","L24680143","Kings Canyon NP - General Grant Tree Trail","2025-05-13 10:22",2,36.7472117,-118.9734553,TRUE,FALSE,FALSE,"S237470686"
"136","foxspa","Fox Sparrow","Passerella iliaca","L612025","Stu Visser Trails","2025-05-13 10:09",1,42.7983922,-86.1432195,TRUE,FALSE,FALSE,"S237354721"
"137","foxspa","Fox Sparrow","Passerella iliaca","L44916763","PKICC","2025-05-13 10:05",1,57.7995305,-152.3758682,TRUE,FALSE,TRUE,"S237444403"
"138","foxspa","Fox Sparrow","Passerella iliaca","L1137107","Glenn Hwy.--Gunsight Mountain Hawkwatch (MP 120)","2025-05-13 10:00",3,61.8659447,-147.3493195,TRUE,FALSE,FALSE,"S237592989"
"139","foxspa","Fox Sparrow","Passerella iliaca","L950264","Homer--Wynn Nature Center","2025-05-13 09:59",1,59.6847928,-151.4733553,TRUE,FALSE,FALSE,"S237444570"
"140","foxspa","Fox Sparrow","Passerella iliaca","L44914050","Hope Hwy, Hope US-AK 60.93074, -149.66243","2025-05-13 09:55",2,60.930735,-149.662432,TRUE,FALSE,TRUE,"S237429772"
"141","foxspa","Fox Sparrow","Passerella iliaca","L3786956","Glass Mtns.--Wildrose Canyon","2025-05-13 09:50",3,37.7223244,-118.6100507,TRUE,FALSE,FALSE,"S237574951"
"142","foxspa","Fox Sparrow","Passerella iliaca","L1598847","Chugach NF--Moose Flats Picnic Area","2025-05-13 09:49",2,60.81231,-148.94282,TRUE,FALSE,FALSE,"S237590486"
"143","foxspa","Fox Sparrow","Passerella iliaca","L18726044","Sportsman`s Landing","2025-05-13 09:47",1,60.4866666,-150.0027171,TRUE,FALSE,FALSE,"S237433362"
"144","foxspa","Fox Sparrow","Passerella iliaca","L44940604","Southwest Green Ridge Road, Camp Sherman US-OR (44.5372,-121.5927)","2025-05-13 09:36",4,44.5372,-121.592695,TRUE,FALSE,TRUE,"S237597934"
"145","foxspa","Fox Sparrow","Passerella iliaca","L1634426","Pineview Reservoir--Jefferson Hunt CG & Winter's Grove Nature Trail","2025-05-13 09:35",1,41.2523135,-111.7690899,TRUE,FALSE,FALSE,"S237401173"
"146","foxspa","Fox Sparrow","Passerella iliaca","L41530377","The Gap","2025-05-13 09:27",4,44.420017,-121.489617,TRUE,FALSE,TRUE,"S237460468"
"147","foxspa","Fox Sparrow","Passerella iliaca","L44912087","Skilak Lake Rd, Cooper Landing US-AK 60.48305, -150.11436","2025-05-13 09:24",1,60.483054,-150.114363,TRUE,FALSE,TRUE,"S237419996"
"148","foxspa","Fox Sparrow","Passerella iliaca","L44912968","Mariposa Grove Trail, Coulterville US-CA 37.50349, -119.60698","2025-05-13 09:10",3,37.503493,-119.606984,TRUE,FALSE,TRUE,"S237424328"
"149","foxspa","Fox Sparrow","Passerella iliaca","L1313069","Grand Teton NP--Elk Ranch Flats Turnout","2025-05-13 09:09",1,43.8108325,-110.5271065,TRUE,FALSE,FALSE,"S237604116"
"150","foxspa","Fox Sparrow","Passerella iliaca","L30059558","Murdock Rd, Sherwood Or 97140","2025-05-13 08:52",1,45.357199,-122.826372,TRUE,FALSE,TRUE,"S237416646"
"151","foxspa","Fox Sparrow","Passerella iliaca","L44964164","Captains Bay Shaishnikoff River walk","2025-05-13 08:45",1,53.827144,-166.607768,TRUE,FALSE,TRUE,"S237737359"
"152","foxspa","Fox Sparrow","Passerella iliaca","L489469","Mt. Rainier NP--Paradise","2025-05-13 08:40",1,46.7871318,-121.7340088,TRUE,FALSE,FALSE,"S237445924"
"153","foxspa","Fox Sparrow","Passerella iliaca","L588673","Whiteface River SF","2025-05-13 08:19",1,47.1897125,-92.1011353,TRUE,FALSE,FALSE,"S237323949"
"154","foxspa","Fox Sparrow","Passerella iliaca","L353655","City Creek Canyon--Above Bonneville Blvd","2025-05-13 08:19",1,40.8046493,-111.8645096,TRUE,FALSE,FALSE,"S237406348"
"155","foxspa","Fox Sparrow","Passerella iliaca","L44896703","John D Rockefeller Jr Pkwy, Moran US-WY 44.00060, -110.67788","2025-05-13 08:04",1,44.000602,-110.677882,TRUE,FALSE,TRUE,"S237334261"
"156","foxspa","Fox Sparrow","Passerella iliaca","L1582077","Los Padres NF--Mt. Pinos Summit Trail (VEN)","2025-05-13 08:02",3,34.8122086,-119.1418871,TRUE,FALSE,FALSE,"S237531695"
"157","foxspa","Fox Sparrow","Passerella iliaca","L1667253","Homer--Calvin and Coyle Nature Trail","2025-05-13 07:53",1,59.6521849,-151.4987182,TRUE,FALSE,FALSE,"S237390378"
"158","foxspa","Fox Sparrow","Passerella iliaca","L6136876","Rocky Mountain NP--Endovalley Picnic Area","2025-05-13 07:53",1,40.4133327,-105.6588435,TRUE,FALSE,FALSE,"S237372466"
"159","foxspa","Fox Sparrow","Passerella iliaca","L44664325","Anton Larsen Island","2025-05-13 07:47",11,57.872282,-152.650829,TRUE,FALSE,TRUE,"S237470149"
"160","foxspa","Fox Sparrow","Passerella iliaca","L2837007","Mount Pisgah dune boardwalk/Lake Macatawa CG","2025-05-13 07:46",1,42.7776152,-86.203769,TRUE,FALSE,FALSE,"S237320079"
"161","foxspa","Fox Sparrow","Passerella iliaca","L28098764","Lookout Mountain","2025-05-13 07:36",2,43.8011548,-121.695588,TRUE,FALSE,TRUE,"S237354388"
"162","foxspa","Fox Sparrow","Passerella iliaca","L44902259","KBNERR","2025-05-13 07:28",1,59.639319,-151.483786,TRUE,FALSE,TRUE,"S237367194"
"163","foxspa","Fox Sparrow","Passerella iliaca","L4584160","West Fork Mink Creek at South Mink Creek Rd.","2025-05-13 07:23",1,42.7225831,-112.4193621,TRUE,FALSE,FALSE,"S237562054"
"164","foxspa","Fox Sparrow","Passerella iliaca","L3069982","Dakota Nature Park","2025-05-13 07:20",1,44.2705818,-96.7748318,TRUE,FALSE,FALSE,"S237567658"
"165","foxspa","Fox Sparrow","Passerella iliaca","L44894658","Sun Valley Trails","2025-05-13 07:13",1,43.713155,-114.33729,TRUE,FALSE,TRUE,"S237320847"
"166","foxspa","Fox Sparrow","Passerella iliaca","L767320","Anchor Point","2025-05-13 07:10",8,59.7790573,-151.8633485,TRUE,FALSE,FALSE,"S238023425"
"167","foxspa","Fox Sparrow","Passerella iliaca","L1216296","Yosemite NP--Henness Ridge","2025-05-13 07:00",3,37.6466668,-119.7056272,TRUE,FALSE,FALSE,"S237578655"
"168","foxspa","Fox Sparrow","Passerella iliaca","L10502324","Logan Canyon--Forest Trail 013","2025-05-13 06:46",5,41.772721,-111.604433,TRUE,FALSE,FALSE,"S237484857"
"169","foxspa","Fox Sparrow","Passerella iliaca","L25847156","China Poot Bay","2025-05-13 06:43",1,59.5607145,-151.3010958,TRUE,FALSE,FALSE,"S237864418"
"170","foxspa","Fox Sparrow","Passerella iliaca","L6060782","Chugach NF--Power Creek outlet","2025-05-13 05:40",2,60.587157,-145.6450868,TRUE,FALSE,FALSE,"S237404388"
"171","foxspa","Fox Sparrow","Passerella iliaca","L7443774","White Mt. NF--AMC Greenleaf Hut, Franconia","2025-05-13 04:56",2,44.1604453,-71.6603315,TRUE,TRUE,FALSE,"S237213988"
"172","foxspa","Fox Sparrow","Passerella iliaca","L10040821","Kodiak Is.--Potatopatch Lake","2025-05-13",1,57.7977524,-152.3767774,TRUE,FALSE,FALSE,"S237619068"
"173","foxspa","Fox Sparrow","Passerella iliaca","L11604825","Park Street to Swan Lake","2025-05-13",NA,57.0554719,-135.335133,TRUE,FALSE,TRUE,"S237624603"
"174","foxspa","Fox Sparrow","Passerella iliaca","L998890","Bethel--Hanger Lake","2025-05-12 20:06",1,60.8037385,-161.7179775,TRUE,FALSE,FALSE,"S237181087"
"175","foxspa","Fox Sparrow","Passerella iliaca","L4702202","Bethel--Sewage Ponds","2025-05-12 18:52",3,60.8098089,-161.7706561,TRUE,FALSE,FALSE,"S237174732"
"176","foxspa","Fox Sparrow","Passerella iliaca","L16695932","Bethel--Mission Lake","2025-05-12 18:33",1,60.7918468,-161.764819,TRUE,FALSE,FALSE,"S237167425"
"177","foxspa","Fox Sparrow","Passerella iliaca","L588962","Shaver Lake","2025-05-12 18:27",1,37.1168,-119.2899799,TRUE,FALSE,FALSE,"S237164504"
"178","foxspa","Fox Sparrow","Passerella iliaca","L14931203","Bethel--Arthur Dall Lake","2025-05-12 18:18",2,60.7939369,-161.7743237,TRUE,FALSE,FALSE,"S237165037"
"179","foxspa","Fox Sparrow","Passerella iliaca","L3249450","I-5--Yreka Vista Point","2025-05-12 17:30",1,41.7772206,-122.5833732,TRUE,FALSE,FALSE,"S237606927"
"180","foxspa","Fox Sparrow","Passerella iliaca","L866939","Sand Harbor SP","2025-05-12 17:30",1,39.1958773,-119.9298048,TRUE,FALSE,FALSE,"S237145187"
"181","foxspa","Fox Sparrow","Passerella iliaca","L35802530","222 Glacier Avenue, Fairbanks, Alaska, US (64.844, -147.684)","2025-05-12 17:23",1,64.8439621,-147.6842269,TRUE,FALSE,TRUE,"S237153414"
"182","foxspa","Fox Sparrow","Passerella iliaca","L299576","Little Dell Reservoir","2025-05-12 17:11",1,40.776814,-111.68722,TRUE,FALSE,FALSE,"S237155766"
"183","foxspa","Fox Sparrow","Passerella iliaca","L30648606","2700–2762 S Fork Russell Creek Rd, Walla Walla US-WA 46.02657, -118.18624","2025-05-12 15:58",1,46.026572,-118.186238,TRUE,FALSE,TRUE,"S237139898"
"184","foxspa","Fox Sparrow","Passerella iliaca","L11543008","Kodiak Is.--Cape Chiniak","2025-05-12 15:22",1,57.6205,-152.1579,TRUE,FALSE,FALSE,"S237121751"
"185","foxspa","Fox Sparrow","Passerella iliaca","L464529","Nome-Council Rd--Cape Nome","2025-05-12 14:10",3,64.4360032,-165.0108719,TRUE,FALSE,FALSE,"S237175074"
"186","foxspa","Fox Sparrow","Passerella iliaca","L3691252","Kodiak Is.--Chiniak Lake and vicinity","2025-05-12 14:04",2,57.6203161,-152.1791346,TRUE,FALSE,FALSE,"S237094238"
"187","foxspa","Fox Sparrow","Passerella iliaca","L9795892","San Miguel River Trail","2025-05-12 13:50",1,37.9374753,-107.8189271,TRUE,FALSE,FALSE,"S237078300"
"188","foxspa","Fox Sparrow","Passerella iliaca","L16061967","Nome--Belmont Point Cemetery","2025-05-12 13:25",1,64.5049929,-165.4201192,TRUE,FALSE,FALSE,"S237175090"
"189","foxspa","Fox Sparrow","Passerella iliaca","L750599","Sequoia NP--Giant Forest (Museum/Beetle Rock/Big Trees Trail)","2025-05-12 12:48",2,36.5660125,-118.7729788,TRUE,FALSE,FALSE,"S237405869"
"190","foxspa","Fox Sparrow","Passerella iliaca","L19436379","Nome--Icy View","2025-05-12 12:31",2,64.5193554,-165.3754683,TRUE,FALSE,FALSE,"S237052944"
"191","foxspa","Fox Sparrow","Passerella iliaca","L7052930","Volcanic Legacy Scenic Byway, McCloud, California, US (41.257, -122.028)","2025-05-12 12:03",2,41.2568591,-122.0281491,TRUE,FALSE,TRUE,"S237014022"
"192","foxspa","Fox Sparrow","Passerella iliaca","L21498336","Savikko Park, Juneau US-AK 58.27344, -134.38711","2025-05-12 11:59",1,58.273437,-134.387109,TRUE,FALSE,TRUE,"S237040248"
"193","foxspa","Fox Sparrow","Passerella iliaca","L6123494","Kodiak Is.--Pillar Mountain","2025-05-12 11:53",3,57.788,-152.4378,TRUE,FALSE,FALSE,"S237059509"
"194","foxspa","Fox Sparrow","Passerella iliaca","L36142098","Waldron Island - Seversons Bay area","2025-05-12 11:53",1,48.7155417,-123.0291917,TRUE,FALSE,TRUE,"S237044949"
"195","foxspa","Fox Sparrow","Passerella iliaca","L44848991","Volcano View CG, Ninilchik, Alaska, US (60.027, -151.7)","2025-05-12 11:50",1,60.0273294,-151.6999478,TRUE,FALSE,TRUE,"S237038939"
"196","foxspa","Fox Sparrow","Passerella iliaca","L32994142","Homer - Stream Hill Park","2025-05-12 11:49",5,59.660781,-151.503448,TRUE,FALSE,TRUE,"S237058698"
"197","foxspa","Fox Sparrow","Passerella iliaca","L1130061","Kodiak Is.--bight off of Brookers Lagoon (Kalsin Bay)","2025-05-12 11:45",2,57.6201747,-152.3463821,TRUE,FALSE,FALSE,"S237078674"
"198","foxspa","Fox Sparrow","Passerella iliaca","L743049","Indian Ford Campground","2025-05-12 11:30",1,44.357242,-121.6104126,TRUE,FALSE,FALSE,"S237001679"
"199","foxspa","Fox Sparrow","Passerella iliaca","L1128803","Homer--Seaside Farm (private)","2025-05-12 10:56",3,59.6761323,-151.4123833,TRUE,FALSE,FALSE,"S237045628"
"200","foxspa","Fox Sparrow","Passerella iliaca","L1206720","Tally Lake Campground","2025-05-12 10:47",2,48.4128526,-114.5826817,TRUE,FALSE,FALSE,"S237598761"
"201","foxspa","Fox Sparrow","Passerella iliaca","L24860509","6S40, Oakhurst, California, US (37.409, -119.565)","2025-05-12 10:47",1,37.4088852,-119.5648696,TRUE,FALSE,TRUE,"S238360460"
"202","foxspa","Fox Sparrow","Passerella iliaca","L7577469","Kings Canyon NP--Grant Grove Village","2025-05-12 10:32",2,36.7400706,-118.9627719,TRUE,FALSE,FALSE,"S236979934"
"203","foxspa","Fox Sparrow","Passerella iliaca","L2655926","Banner Creek home","2025-05-12 10:31",1,64.6384396,-165.2850151,TRUE,FALSE,TRUE,"S237007130"
"204","foxspa","Fox Sparrow","Passerella iliaca","L3522405","San Antonio Falls Rd.","2025-05-12 10:09",1,34.2686999,-117.6320744,TRUE,FALSE,FALSE,"S237001201"
"205","foxspa","Fox Sparrow","Passerella iliaca","L7409997","Beach Acess Rd, Naknek US-AK (58.7256,-157.0502)","2025-05-12 10:00",1,58.725592,-157.050182,TRUE,FALSE,TRUE,"S237410565"
"206","foxspa","Fox Sparrow","Passerella iliaca","L18453216","Kodiak Is.--Mill Bay","2025-05-12 09:47",1,57.820806,-152.3544646,TRUE,FALSE,FALSE,"S236978990"
"207","foxspa","Fox Sparrow","Passerella iliaca","L9960727","Camp Keola","2025-05-12 09:30",15,37.2165749,-119.2375392,TRUE,FALSE,FALSE,"S237153227"
"208","foxspa","Fox Sparrow","Passerella iliaca","L618902","Cleveland Lakefront Nature Preserve","2025-05-12 09:16",1,41.5445933,-81.6327095,TRUE,TRUE,FALSE,"S236938482"
"209","foxspa","Fox Sparrow","Passerella iliaca","L44847798","Pacific Creek Road, Moran, Wyoming, US (43.871, -110.48)","2025-05-12 09:13",1,43.871125,-110.4795309,TRUE,FALSE,TRUE,"S237032219"
"210","foxspa","Fox Sparrow","Passerella iliaca","L2939789","Clear Creek Park","2025-05-12 09:00",1,40.3012452,-121.0481358,TRUE,FALSE,FALSE,"S236979009"
"211","foxspa","Fox Sparrow","Passerella iliaca","L32330883","White Mountains- Wyman Canyon","2025-05-12 08:30",2,37.4317806,-118.0958223,TRUE,FALSE,TRUE,"S237075608"
"212","foxspa","Fox Sparrow","Passerella iliaca","L10299844","south sea lion cove","2025-05-12 08:29",1,57.2946886,-135.8348075,TRUE,FALSE,TRUE,"S237580905"
"213","foxspa","Fox Sparrow","Passerella iliaca","L11807434","Huntington Lake, Idylwilde Dock","2025-05-12 08:21",6,37.2361458,-119.2324018,TRUE,FALSE,FALSE,"S237020940"
"214","foxspa","Fox Sparrow","Passerella iliaca","L5840262","Anton Larsen Bay Rd. Warbler Spot","2025-05-12 08:19",7,57.7843738,-152.5439805,TRUE,FALSE,TRUE,"S237402973"
"215","foxspa","Fox Sparrow","Passerella iliaca","L916518","CO-Routt Emerald Mtn Blackmer Dr","2025-05-12 08:18",1,40.4797123,-106.8424487,TRUE,FALSE,TRUE,"S237073818"
"216","foxspa","Fox Sparrow","Passerella iliaca","L383284","Juneau (town)","2025-05-12 08:12",2,58.3022738,-134.4198704,TRUE,FALSE,FALSE,"S237060270"
"217","foxspa","Fox Sparrow","Passerella iliaca","L44840296","Anton Larsen Bay Rd","2025-05-12 08:05",17,57.764513,-152.5195524,TRUE,FALSE,TRUE,"S236994294"
"218","foxspa","Fox Sparrow","Passerella iliaca","L3016024","Shoshone NF--Falls Campground","2025-05-12 08:03",2,43.7066008,-109.9709558,TRUE,FALSE,FALSE,"S237037321"
"219","foxspa","Fox Sparrow","Passerella iliaca","L4012502","Fulford Cave area","2025-05-12 07:58",4,39.4923841,-106.6588354,TRUE,FALSE,FALSE,"S236969495"
"220","foxspa","Fox Sparrow","Passerella iliaca","L6771667","Little Jackson Hole (Restricted Access), Bondurant, Wyoming, US (43.106, -110.449)","2025-05-12 07:20",2,43.1060037,-110.4493332,TRUE,FALSE,TRUE,"S236861836"
"221","foxspa","Fox Sparrow","Passerella iliaca","L19625024","Moose Creek Campground","2025-05-12 07:05",1,61.6817701,-149.05054,TRUE,FALSE,FALSE,"S236984058"
"222","foxspa","Fox Sparrow","Passerella iliaca","L41946577","422 Calhoun Ave, Juneau US-AK 58.30177, -134.41250","2025-05-12 07:00",1,58.301773,-134.412496,TRUE,FALSE,TRUE,"S237054902"
"223","foxspa","Fox Sparrow","Passerella iliaca","L30941857","Vista Gold Neighborhood","2025-05-12 06:36",2,64.9536325,-147.8487843,TRUE,FALSE,TRUE,"S236893884"
"224","foxspa","Fox Sparrow","Passerella iliaca","L610504","Homer AK - Bishop's Beach","2025-05-12 06:30",2,59.6393155,-151.5558386,TRUE,FALSE,TRUE,"S236913010"
"225","foxspa","Fox Sparrow","Passerella iliaca","L3171894","Auke Mountain home","2025-05-12 06:20",1,58.402122,-134.7534513,TRUE,FALSE,TRUE,"S236918795"
"226","foxspa","Fox Sparrow","Passerella iliaca","L3631645","Sitka--Indian River-East Tidal Flat","2025-05-12 06:17",NA,57.044769,-135.3130417,TRUE,FALSE,FALSE,"S236899801"
"227","foxspa","Fox Sparrow","Passerella iliaca","L1783363","Alaska Wildlife Conservation Center","2025-05-11 20:48",2,60.8215092,-148.9844546,TRUE,FALSE,FALSE,"S236732187"
"228","foxspa","Fox Sparrow","Passerella iliaca","L44734291","Kings Canyon","2025-05-11 17:55",1,36.741153,-118.961755,TRUE,FALSE,TRUE,"S236860417"
"229","foxspa","Fox Sparrow","Passerella iliaca","L974630","South Lake (INY Co.)","2025-05-11 16:54",1,37.1668214,-118.5703068,TRUE,FALSE,FALSE,"S236661871"
"230","foxspa","Fox Sparrow","Passerella iliaca","L24369222","Beaver Butte Rd, Maupin US-OR (45.1057,-121.5321)","2025-05-11 16:39",1,45.105681,-121.532058,TRUE,FALSE,TRUE,"S236701469"
"231","foxspa","Fox Sparrow","Passerella iliaca","L996128","Yosemite NP--Mariposa Grove","2025-05-11 16:02",4,37.51,-119.603,TRUE,FALSE,FALSE,"S236680837"
"232","foxspa","Fox Sparrow","Passerella iliaca","L22058754","Bethel- Tundra south of Wildlife Ln","2025-05-11 15:39",3,60.77887,-161.805663,TRUE,FALSE,TRUE,"S236702550"
"233","foxspa","Fox Sparrow","Passerella iliaca","L16062624","Middleton Island (restricted)--Shipwreck","2025-05-11 15:32",5,59.4270462,-146.3573399,TRUE,FALSE,FALSE,"S236750706"
"234","foxspa","Fox Sparrow","Passerella iliaca","L1542324","Valdez--City Dock & Ferry Terminal","2025-05-11 15:14",2,61.1243397,-146.3630078,TRUE,FALSE,FALSE,"S237018581"
"235","foxspa","Fox Sparrow","Passerella iliaca","L17618710","7743 12th Ave NW, Seattle US-WA 47.68637, -122.37179","2025-05-11 15:10",1,47.686373,-122.371789,TRUE,TRUE,TRUE,"S236729621"
"236","foxspa","Fox Sparrow","Passerella iliaca","L44839378","Cottonwoods","2025-05-11 14:58",4,44.3500636,-121.7441403,TRUE,FALSE,TRUE,"S236644847"
"237","foxspa","Fox Sparrow","Passerella iliaca","L44777241","15340 Sterling Highway, Ninilchik, Alaska, US (60.049, -151.654)","2025-05-11 14:24",1,60.0486887,-151.6539583,TRUE,FALSE,TRUE,"S236627967"
"238","foxspa","Fox Sparrow","Passerella iliaca","L691081","Ottawa NWR--Walking Trail Pools","2025-05-11 14:24",1,41.6148718,-83.2053364,TRUE,FALSE,FALSE,"S237885283"
"239","foxspa","Fox Sparrow","Passerella iliaca","L233489","Powderhorn Ski Area","2025-05-11 14:15",1,39.0737609,-108.1446719,TRUE,FALSE,FALSE,"S236621281"
"240","foxspa","Fox Sparrow","Passerella iliaca","L562342","Biscuit Ridge Road","2025-05-11 13:57",1,46.0822806,-118.0446625,TRUE,FALSE,FALSE,"S236685678"
"241","foxspa","Fox Sparrow","Passerella iliaca","L10248168","Chugach SP--Powerline Trail","2025-05-11 13:44",1,61.09988,-149.664341,TRUE,FALSE,FALSE,"S236721892"
"242","foxspa","Fox Sparrow","Passerella iliaca","L1363011","Huntington Lake--boat ramp","2025-05-11 13:37",1,37.2504632,-119.1732478,TRUE,FALSE,FALSE,"S236619427"
"243","foxspa","Fox Sparrow","Passerella iliaca","L1027783","Iris Meadow (KER Co)","2025-05-11 13:30",1,34.8139461,-119.1257713,TRUE,FALSE,FALSE,"S236685210"
"244","foxspa","Fox Sparrow","Passerella iliaca","L44793294","Auto selected 60.84503, -161.60644","2025-05-11 13:29",3,60.845029,-161.606443,TRUE,FALSE,TRUE,"S236721084"
"245","foxspa","Fox Sparrow","Passerella iliaca","L34083198","Wahkiacus Heights Rd","2025-05-11 12:55",1,45.830397,-121.0931177,TRUE,TRUE,FALSE,"S236677592"
"246","foxspa","Fox Sparrow","Passerella iliaca","L737323","Eklutna Tailrace","2025-05-11 12:43",1,61.4758628,-149.1500232,TRUE,FALSE,FALSE,"S236652859"
"247","foxspa","Fox Sparrow","Passerella iliaca","L12164979","Stampede Rd. (Parks Hwy. to Eightmile Lake)","2025-05-11 12:42",1,63.8783749,-149.1876737,TRUE,FALSE,FALSE,"S236633592"
"248","foxspa","Fox Sparrow","Passerella iliaca","L5812269","Hardin Flat Rd, Tuolumne-CA-US","2025-05-11 12:42",1,37.8084277,-119.8872757,TRUE,FALSE,TRUE,"S236594875"
"249","foxspa","Fox Sparrow","Passerella iliaca","L43356688","Eleven Pines Road, Georgetown, California, US (38.918, -120.506)","2025-05-11 12:23",7,38.9175653,-120.505743,TRUE,FALSE,TRUE,"S236651050"
"250","foxspa","Fox Sparrow","Passerella iliaca","L1067143","Ninilchik (town)","2025-05-11 12:23",2,60.0485606,-151.6710663,TRUE,FALSE,FALSE,"S236565951"
"251","foxspa","Fox Sparrow","Passerella iliaca","L44828080","Old McKenzie Highway, Oregon, US (44.31, -121.703)","2025-05-11 12:21",1,44.3102921,-121.7026823,TRUE,FALSE,TRUE,"S236926034"
"252","foxspa","Fox Sparrow","Passerella iliaca","L44774018","10300 E Shaw Mountain Rd, Boise US-ID 43.64016, -116.06129","2025-05-11 12:18",1,43.640165,-116.061289,TRUE,FALSE,TRUE,"S236610450"
"253","foxspa","Fox Sparrow","Passerella iliaca","L1230188","Whiskey Springs","2025-05-11 12:13",3,44.470222,-121.573111,TRUE,FALSE,FALSE,"S236572016"
"254","foxspa","Fox Sparrow","Passerella iliaca","L694889","Kodiak Is.--Womens Bay-Head","2025-05-11 12:12",2,57.7059242,-152.5714839,TRUE,FALSE,FALSE,"S236725914"
"255","foxspa","Fox Sparrow","Passerella iliaca","L3110397","Anchor River SRA--Mawalli Rock Day Use Area","2025-05-11 12:10",1,59.7709987,-151.8374276,TRUE,FALSE,FALSE,"S236557731"
"256","foxspa","Fox Sparrow","Passerella iliaca","L7975762","Jacobs Point Park, Anderson Island","2025-05-11 12:07",1,47.1401979,-122.7034664,TRUE,FALSE,FALSE,"S237176202"
"257","foxspa","Fox Sparrow","Passerella iliaca","L1047351","Kincaid Park--Pt. Campbell","2025-05-11 12:01",3,61.156426,-150.0722873,TRUE,FALSE,FALSE,"S236596491"
"258","foxspa","Fox Sparrow","Passerella iliaca","L27401099","601–629 Gold Vein Rd, Fairbanks US-AK (64.9297,-147.5902)","2025-05-11 11:56",1,64.929665,-147.590202,TRUE,FALSE,TRUE,"S236615776"
"259","foxspa","Fox Sparrow","Passerella iliaca","L27633238","Turnagain Trail- Potter to McHugh","2025-05-11 11:53",1,61.031497,-149.759552,TRUE,FALSE,TRUE,"S236588159"
"260","foxspa","Fox Sparrow","Passerella iliaca","L1003279","Lake Erie Metropark--Detroit River Hawk Watch","2025-05-11 11:50",1,42.0796233,-83.1939483,TRUE,FALSE,FALSE,"S236371183"
"261","foxspa","Fox Sparrow","Passerella iliaca","L8476895","Shevlin Park--Western Larch Trail (east upper ridge of park)","2025-05-11 11:42",1,44.068532,-121.383545,TRUE,FALSE,FALSE,"S236576134"
"262","foxspa","Fox Sparrow","Passerella iliaca","L44763494","Glacier Lake Trail, Homer US-AK 59.62261, -151.19613","2025-05-11 11:34",1,59.622607,-151.196125,TRUE,FALSE,TRUE,"S236558803"
"263","foxspa","Fox Sparrow","Passerella iliaca","L8501594","Wolverine Trail, Anchorage, Alaska, US (61.139, -149.711)","2025-05-11 11:33",1,61.1389108,-149.7111714,TRUE,FALSE,TRUE,"S236613717"
"264","foxspa","Fox Sparrow","Passerella iliaca","L3738869","Kachemak Bay SP--Grewingk Creek/Lake","2025-05-11 11:27",2,59.6269709,-151.1631846,TRUE,FALSE,FALSE,"S236674050"
"265","foxspa","Fox Sparrow","Passerella iliaca","L1550406","Denali NP&P--Savage River Loop Trail","2025-05-11 11:17",1,63.7457751,-149.2919011,TRUE,FALSE,FALSE,"S236713163"
"266","foxspa","Fox Sparrow","Passerella iliaca","L1225678","Mt. Roberts Trail--Alpine","2025-05-11 11:06",5,58.2951702,-134.377691,TRUE,FALSE,FALSE,"S236578202"
"267","foxspa","Fox Sparrow","Passerella iliaca","L8910590","Twenty Mile River Mouth","2025-05-11 10:59",1,60.845838,-148.990241,TRUE,FALSE,FALSE,"S236611724"
"268","foxspa","Fox Sparrow","Passerella iliaca","L7431915","Sawmill Hollow Campground","2025-05-11 10:47",1,40.141173,-111.341027,TRUE,FALSE,TRUE,"S236436077"
"269","foxspa","Fox Sparrow","Passerella iliaca","L2349095","Jack Creek Campground","2025-05-11 10:40",1,44.48297,-121.70192,TRUE,FALSE,FALSE,"S236926305"
"270","foxspa","Fox Sparrow","Passerella iliaca","L18537733","238 Transfer Station - Ruane Rd, Anchorage US-AK 60.94908, -149.15937","2025-05-11 10:26",1,60.949083,-149.159373,TRUE,FALSE,TRUE,"S236488838"
"271","foxspa","Fox Sparrow","Passerella iliaca","L44769392","Turnagain Arm Trail, Anchorage US-AK 61.00748, -149.67788","2025-05-11 10:23",1,61.007477,-149.677884,TRUE,FALSE,TRUE,"S236587227"
"272","foxspa","Fox Sparrow","Passerella iliaca","L1121614","Kodiak Is.--Middle Bay (NW)","2025-05-11 10:15",1,57.6592909,-152.5080007,TRUE,FALSE,FALSE,"S236488356"
"273","foxspa","Fox Sparrow","Passerella iliaca","L788284","Homer--Beluga Slough & Bishops Beach","2025-05-11 10:14",4,59.6385129,-151.5362263,TRUE,FALSE,FALSE,"S236575221"
"274","foxspa","Fox Sparrow","Passerella iliaca","L292324","Homer Spit","2025-05-11 10:08",5,59.6130805,-151.4467049,TRUE,FALSE,FALSE,"S236486792"
"275","foxspa","Fox Sparrow","Passerella iliaca","L23966995","Bay View Hollis","2025-05-11 10:00",1,55.4946338,-132.607412,TRUE,FALSE,TRUE,"S237114860"
"276","foxspa","Fox Sparrow","Passerella iliaca","L1169742","Homer--Pratt Museum Trail","2025-05-11 09:58",2,59.6449845,-151.5503132,TRUE,FALSE,FALSE,"S236711609"
"277","foxspa","Fox Sparrow","Passerella iliaca","L7431885","Red Ledges Picnic Area","2025-05-11 09:52",1,40.080013,-111.403545,TRUE,FALSE,TRUE,"S236397150"
"278","foxspa","Fox Sparrow","Passerella iliaca","L6801484","Kodiak Is.--Spruce Cape","2025-05-11 09:50",8,57.8219561,-152.329289,TRUE,FALSE,FALSE,"S236538177"
"279","foxspa","Fox Sparrow","Passerella iliaca","L13524090","My Backyard","2025-05-11 09:49",1,46.1800652,-123.8542099,TRUE,FALSE,TRUE,"S236442597"
"280","foxspa","Fox Sparrow","Passerella iliaca","L11445622","Mount Haven FS Loop (40.647, -111.652)","2025-05-11 09:42",1,40.6467912,-111.6524843,TRUE,FALSE,TRUE,"S236385961"
"281","foxspa","Fox Sparrow","Passerella iliaca","L30370295","118 Trident Way, Kodiak US-AK 57.78373, -152.39474","2025-05-11 09:42",1,57.783726,-152.394745,TRUE,FALSE,TRUE,"S236725844"
"282","foxspa","Fox Sparrow","Passerella iliaca","L24176720","Island Lake","2025-05-11 09:38",1,57.817692,-152.367382,TRUE,FALSE,TRUE,"S237417811"
"283","foxspa","Fox Sparrow","Passerella iliaca","L8609213","Horsetail Falls","2025-05-11 09:36",1,38.8137191,-120.1196883,TRUE,FALSE,FALSE,"S236550031"
"284","foxspa","Fox Sparrow","Passerella iliaca","L3763641","Lolo Creek Campground","2025-05-11 09:30",2,46.7758763,-114.3851423,TRUE,FALSE,FALSE,"S236543626"
"285","foxspa","Fox Sparrow","Passerella iliaca","L21729648","HOME SE Fircrest St, Portland US-OR 45.46395, -122.51961","2025-05-11 09:28",1,45.463951,-122.519612,TRUE,FALSE,TRUE,"S236413734"
"286","foxspa","Fox Sparrow","Passerella iliaca","L6874125","Parker Lake","2025-05-11 09:24",5,37.8357508,-119.1557515,TRUE,FALSE,FALSE,"S236638636"
"287","foxspa","Fox Sparrow","Passerella iliaca","L475860","Icehouse Canyon","2025-05-11 09:17",2,34.2484193,-117.626152,TRUE,FALSE,FALSE,"S236605193"
"288","foxspa","Fox Sparrow","Passerella iliaca","L4627002","Salmon Creek Campground","2025-05-11 09:12",2,39.6211053,-120.6046555,TRUE,FALSE,FALSE,"S237187704"
"289","foxspa","Fox Sparrow","Passerella iliaca","L559390","Middleton Island (restricted access)","2025-05-11 09:10",66,59.4278983,-146.33008,TRUE,FALSE,FALSE,"S236707359"
"290","foxspa","Fox Sparrow","Passerella iliaca","L11045506","Girdwood--Lower Glacier Creek Trail","2025-05-11 09:08",3,60.956247,-149.144251,TRUE,FALSE,FALSE,"S236478686"
"291","foxspa","Fox Sparrow","Passerella iliaca","L342181","Echo Lake & Lodge (not to include Mt. Blue Sky Rd)","2025-05-11 08:58",1,39.6597731,-105.6046221,TRUE,FALSE,FALSE,"S236389676"
"292","foxspa","Fox Sparrow","Passerella iliaca","L1130071","Kodiak Is.--Myrtle Creek mouth (Kalsin Bay)","2025-05-11 08:50",3,57.6045893,-152.4078798,TRUE,FALSE,FALSE,"S236489502"
"293","foxspa","Fox Sparrow","Passerella iliaca","L44774617","Seward Hwy.--mm77","2025-05-11 08:50",2,60.8276152,-149.018624,TRUE,FALSE,FALSE,"S236608423"
"294","foxspa","Fox Sparrow","Passerella iliaca","L8487781","South Canyon RD - Avon","2025-05-11 08:42",4,41.5110711,-111.8110699,TRUE,FALSE,TRUE,"S236363873"
"295","foxspa","Fox Sparrow","Passerella iliaca","L44773272","Placer River roadside pond east","2025-05-11 08:28",2,60.817464,-148.995204,TRUE,FALSE,TRUE,"S236606836"
"296","foxspa","Fox Sparrow","Passerella iliaca","L44729472","42025 Lookout Drive, Homer, Alaska, US (59.663, -151.68)","2025-05-11 08:27",2,59.6630774,-151.6802699,TRUE,FALSE,TRUE,"S236400839"
"297","foxspa","Fox Sparrow","Passerella iliaca","L9252839","Game Creek Trail","2025-05-11 08:23",1,43.394243,-110.715223,TRUE,FALSE,FALSE,"S237959533"
"298","foxspa","Fox Sparrow","Passerella iliaca","L391299","Upper Las Virgenes Canyon OSP","2025-05-11 08:20",1,34.1712279,-118.7033486,TRUE,FALSE,FALSE,"S236513664"
"299","foxspa","Fox Sparrow","Passerella iliaca","L19111598","Kachemak Heritage Land Trust--Poopdeck Trail","2025-05-11 08:12",1,59.6450124,-151.5376731,TRUE,FALSE,FALSE,"S236390150"
"300","foxspa","Fox Sparrow","Passerella iliaca","L22520705","Brewer Maine","2025-05-11 08:09",2,44.776533,-68.764104,TRUE,FALSE,TRUE,"S236193495"
"301","foxspa","Fox Sparrow","Passerella iliaca","L3645591","Fall Fire Burn Area","2025-05-11 08:09",8,39.3791812,-120.676851,TRUE,FALSE,FALSE,"S236714247"
"302","foxspa","Fox Sparrow","Passerella iliaca","L2376984","Homer--Beluga Lake (east end & overlook)","2025-05-11 08:02",1,59.6446348,-151.4919913,TRUE,FALSE,FALSE,"S236437341"
"303","foxspa","Fox Sparrow","Passerella iliaca","L3969925","Molas Pass Summit","2025-05-11 07:57",1,37.7374498,-107.6973331,TRUE,FALSE,FALSE,"S236286875"
"304","foxspa","Fox Sparrow","Passerella iliaca","L445199","Presidio--El Polin Springs & Inspiration Point","2025-05-11 07:55",1,37.7926519,-122.4564643,TRUE,TRUE,FALSE,"S236356092"
"305","foxspa","Fox Sparrow","Passerella iliaca","L955862","Grand Teton NP--Oxbow Bend","2025-05-11 07:53",1,43.8665429,-110.5501413,TRUE,FALSE,FALSE,"S236632972"
"306","foxspa","Fox Sparrow","Passerella iliaca","L31543173","60280 Bench Cir, Homer US-AK 59.67162, -151.46486","2025-05-11 07:52",2,59.671616,-151.464864,TRUE,FALSE,TRUE,"S236407746"
"307","foxspa","Fox Sparrow","Passerella iliaca","L5993100","Mt. McKinley Princess Wilderness Lodge","2025-05-11 07:52",2,62.5584721,-150.2295613,TRUE,FALSE,FALSE,"S236375217"
"308","foxspa","Fox Sparrow","Passerella iliaca","L44628001","3466 Main St, Homer US-AK 59.64038, -151.54415 Main St.","2025-05-11 07:42",2,59.640379,-151.544154,TRUE,FALSE,TRUE,"S236370032"
"309","foxspa","Fox Sparrow","Passerella iliaca","L31318631","64525 Wagon Rd, Hope US-AK 60.91351, -149.63685","2025-05-11 07:42",3,60.913512,-149.636853,TRUE,FALSE,TRUE,"S236402213"
"310","foxspa","Fox Sparrow","Passerella iliaca","L10125144","My Feeder","2025-05-11 07:36",1,57.063566,-135.355046,TRUE,FALSE,TRUE,"S236365386"
"311","foxspa","Fox Sparrow","Passerella iliaca","L6019765","Emerald Bay SP","2025-05-11 07:35",NA,38.956154,-120.108515,TRUE,FALSE,FALSE,"S236389567"
"312","foxspa","Fox Sparrow","Passerella iliaca","L16430157","Quinn Lake","2025-05-11 07:33",1,47.0549416,-121.4590607,TRUE,FALSE,FALSE,"S236638302"
"313","foxspa","Fox Sparrow","Passerella iliaca","L1611368","Upper Falls Park","2025-05-11 07:27",1,40.3464617,-111.5939272,TRUE,FALSE,FALSE,"S236303605"
"314","foxspa","Fox Sparrow","Passerella iliaca","L31471880","Wedtwind Cabins 1205 Carriage Ct, Homer US-AK 59.64441, -151.57827","2025-05-11 07:24",1,59.644415,-151.578273,TRUE,FALSE,TRUE,"S236349048"
"315","foxspa","Fox Sparrow","Passerella iliaca","L1414981","Parley's Mitigation Area","2025-05-11 07:15",2,40.7558031,-111.6888202,TRUE,FALSE,FALSE,"S236501617"
"316","foxspa","Fox Sparrow","Passerella iliaca","L44707265","Canoe Trail Return, Seeley Lake US-MT 47.21383, -113.52084","2025-05-11 07:13",1,47.213826,-113.52084,TRUE,FALSE,TRUE,"S236287534"
"317","foxspa","Fox Sparrow","Passerella iliaca","L3962530","811 Ocean Drive Loop, Homer, AK","2025-05-11 07:02",1,59.6346542,-151.5233798,TRUE,FALSE,TRUE,"S236346729"
"318","foxspa","Fox Sparrow","Passerella iliaca","L555865","Grand Teton NP--Teton Science School","2025-05-11 07:00",2,43.6700291,-110.5983031,TRUE,FALSE,FALSE,"S236307401"
"319","foxspa","Fox Sparrow","Passerella iliaca","L372956","Killdeer Plains Wildlife Area (Wyandot Co.)","2025-05-11 07:00",1,40.7138257,-83.3016014,TRUE,FALSE,FALSE,"S236618229"
"320","foxspa","Fox Sparrow","Passerella iliaca","L44921634","Crag Point","2025-05-11 06:58",4,57.878376,-152.678395,TRUE,FALSE,TRUE,"S237470511"
"321","foxspa","Fox Sparrow","Passerella iliaca","L1766904","McCabe Lane Wetlands","2025-05-11 06:44",2,38.5157289,-106.9935485,TRUE,FALSE,FALSE,"S236345151"
"322","foxspa","Fox Sparrow","Passerella iliaca","L2218330","My House - Eagle, Colorado","2025-05-11 06:42",1,39.629002,-106.790726,TRUE,FALSE,TRUE,"S236389259"
"323","foxspa","Fox Sparrow","Passerella iliaca","L3064549","Shaver Lake Dam walk","2025-05-11 06:30",2,37.140443,-119.3045497,TRUE,FALSE,TRUE,"S237179947"
"324","foxspa","Fox Sparrow","Passerella iliaca","L589444","Yosemite NP--Hodgdon Meadow","2025-05-11 06:10",2,37.7955424,-119.8623848,TRUE,FALSE,FALSE,"S236946573"
"325","foxspa","Fox Sparrow","Passerella iliaca","L1124219","Crystal Lake Rec Area","2025-05-11 06:08",1,34.3242464,-117.8353643,TRUE,FALSE,FALSE,"S236482465"
"326","foxspa","Fox Sparrow","Passerella iliaca","L2375772","Eagle Falls","2025-05-11 05:58",NA,38.9506975,-120.1151905,TRUE,FALSE,FALSE,"S236305233"
"327","foxspa","Fox Sparrow","Passerella iliaca","L7521908","Homer Baycrest Overlook Point","2025-05-11 05:44",1,59.6542103,-151.627661,TRUE,FALSE,FALSE,"S236676073"
"328","foxspa","Fox Sparrow","Passerella iliaca","L443195","Sitka (town)","2025-05-11",1,57.049881,-135.3335381,TRUE,FALSE,FALSE,"S236552004"
"329","foxspa","Fox Sparrow","Passerella iliaca","L593153","Denali NP&P--Savage River Camp","2025-05-10 23:50",1,63.7141505,-149.2544174,TRUE,FALSE,FALSE,"S236092454"
"330","foxspa","Fox Sparrow","Passerella iliaca","L109298","Gunnison (town)","2025-05-10 20:48",1,38.5476405,-106.9269473,TRUE,FALSE,FALSE,"S236037580"
"331","foxspa","Fox Sparrow","Passerella iliaca","L18457009","Snowbasin Ski Resort--Base (Parking Lot Area)","2025-05-10 20:41",1,41.2170816,-111.85961,TRUE,FALSE,FALSE,"S236050749"
"332","foxspa","Fox Sparrow","Passerella iliaca","L44665722","Maple Trail","2025-05-10 20:41",1,41.220097,-111.862754,TRUE,FALSE,TRUE,"S236050748"
"333","foxspa","Fox Sparrow","Passerella iliaca","L15378702","Oil Spill Road","2025-05-10 20:00",1,60.787498,-161.879031,TRUE,FALSE,TRUE,"S236070126"
"334","foxspa","Fox Sparrow","Passerella iliaca","L755300","Kougarok Rd.--Nome River","2025-05-10 19:50",2,64.6469307,-165.2924824,TRUE,FALSE,FALSE,"S236090049"
"335","foxspa","Fox Sparrow","Passerella iliaca","L1305371","Balsam Meadows Sno-Park","2025-05-10 19:49",2,37.1594102,-119.2434061,TRUE,FALSE,FALSE,"S236040241"
"336","foxspa","Fox Sparrow","Passerella iliaca","L3015768","NF-290--north end","2025-05-10 19:24",1,43.0117734,-120.8060932,TRUE,FALSE,FALSE,"S236048404"
"337","foxspa","Fox Sparrow","Passerella iliaca","L299577","Mountain Dell Reservoir","2025-05-10 18:55",1,40.7560664,-111.7150048,TRUE,FALSE,FALSE,"S236006187"
"338","foxspa","Fox Sparrow","Passerella iliaca","L434312","Fahey Meadow","2025-05-10 18:13",5,38.0428188,-120.111208,TRUE,FALSE,FALSE,"S236047424"
"339","foxspa","Fox Sparrow","Passerella iliaca","L1210512","River Front Park","2025-05-10 18:09",2,44.89161,-116.10959,TRUE,FALSE,FALSE,"S235983313"
"340","foxspa","Fox Sparrow","Passerella iliaca","L40370784","23621 S Spangler Rd, Beaver Creek US-OR 45.26355, -122.53548","2025-05-10 17:57",1,45.263548,-122.535478,TRUE,FALSE,TRUE,"S236003933"
"341","foxspa","Fox Sparrow","Passerella iliaca","L589327","Seward--Tonsina Creek/Caines Head Trail","2025-05-10 17:57",1,60.062656,-149.4459915,TRUE,FALSE,FALSE,"S236080111"
"342","foxspa","Fox Sparrow","Passerella iliaca","L562340","Coppei Creek","2025-05-10 17:52",6,46.1905266,-118.1098938,TRUE,FALSE,FALSE,"S236020890"
"343","foxspa","Fox Sparrow","Passerella iliaca","L34570517","Clarks Creek Park (South), Puyallup US-WA 47.18513, -122.32166","2025-05-10 17:28",2,47.185128,-122.321656,TRUE,FALSE,TRUE,"S236005616"
"344","foxspa","Fox Sparrow","Passerella iliaca","L29225446","Little Cottonwood Canyon--Alta's Albion Base","2025-05-10 17:20",2,40.5903919,-111.6286684,TRUE,FALSE,FALSE,"S236027867"
"345","foxspa","Fox Sparrow","Passerella iliaca","L44669064","Generals Highway, Sequoia National Park, California, US (36.607, -118.748)","2025-05-10 17:05",2,36.6067742,-118.7479482,TRUE,FALSE,TRUE,"S236069455"
"346","foxspa","Fox Sparrow","Passerella iliaca","L18507997","Little Cottonwood Canyon--White Pine Trailhead","2025-05-10 17:03",4,40.57535,-111.681193,TRUE,FALSE,FALSE,"S235936045"
"347","foxspa","Fox Sparrow","Passerella iliaca","L11738174","Pasagshak Pass","2025-05-10 17:00",1,57.5181615,-152.479122,TRUE,FALSE,TRUE,"S236492292"
"348","foxspa","Fox Sparrow","Passerella iliaca","L2357080","Horse Meadows Rd.","2025-05-10 16:54",2,37.9321482,-119.121623,TRUE,FALSE,FALSE,"S236014908"
"349","foxspa","Fox Sparrow","Passerella iliaca","L7436798","Dinkey Creek Road Rest Area","2025-05-10 16:48",3,37.1051384,-119.3093473,TRUE,FALSE,FALSE,"S236007102"
"350","foxspa","Fox Sparrow","Passerella iliaca","L44663524","Sierra National Forest, Bass Lake US-CA 37.27966, -119.46039","2025-05-10 16:45",2,37.279663,-119.460395,TRUE,FALSE,TRUE,"S236038238"
"351","foxspa","Fox Sparrow","Passerella iliaca","L44658221","Auto selected 59.51294, -151.48725","2025-05-10 16:30",1,59.512943,-151.487248,TRUE,FALSE,TRUE,"S236006465"
"352","foxspa","Fox Sparrow","Passerella iliaca","L6020236","Kachemak Bay--Hesketh Island","2025-05-10 16:23",1,59.5035802,-151.5270853,TRUE,FALSE,FALSE,"S236012282"
"353","foxspa","Fox Sparrow","Passerella iliaca","L40758729","76–98 Grimes Creek Rd, Idaho City US-ID 43.74766, -115.96965","2025-05-10 16:23",1,43.747662,-115.969648,TRUE,FALSE,TRUE,"S236041729"
"354","foxspa","Fox Sparrow","Passerella iliaca","L44661597","E Little Cottonwood Canyon Rd, Sandy US-UT 40.57268, -111.77646","2025-05-10 16:09",1,40.572677,-111.77646,TRUE,FALSE,TRUE,"S236027439"
"355","foxspa","Fox Sparrow","Passerella iliaca","L381890","Bluff Lake","2025-05-10 15:57",4,34.2198934,-116.968689,TRUE,FALSE,FALSE,"S236018330"
"356","foxspa","Fox Sparrow","Passerella iliaca","L4846321","Sierra Cedars Meadow","2025-05-10 15:28",2,37.0822457,-119.3100897,TRUE,FALSE,FALSE,"S235942403"
"357","foxspa","Fox Sparrow","Passerella iliaca","L44643241","Castle Rock Trail, Big Bear Lake US-CA 34.23080, -116.96063","2025-05-10 15:09",1,34.230803,-116.960631,TRUE,FALSE,TRUE,"S235915623"
"358","foxspa","Fox Sparrow","Passerella iliaca","L35255160","Canoe Trail Return, Seeley Lake US-MT 47.22590, -113.53579","2025-05-10 14:48",1,47.225896,-113.535788,TRUE,FALSE,TRUE,"S235888871"
"359","foxspa","Fox Sparrow","Passerella iliaca","L37367710","Kings Canyon NP--Kings Canyon Overlook","2025-05-10 14:36",1,36.7194196,-118.8972321,TRUE,FALSE,FALSE,"S236071553"
"360","foxspa","Fox Sparrow","Passerella iliaca","L1527541","Veit's Woods (Central Michigan University)","2025-05-10 14:29",1,43.5886591,-84.7934118,TRUE,FALSE,FALSE,"S235737717"
"361","foxspa","Fox Sparrow","Passerella iliaca","L23725659","Lake Tapps Backyard","2025-05-10 14:20",NA,47.2366729,-122.1790298,TRUE,FALSE,TRUE,"S236052298"
"362","foxspa","Fox Sparrow","Passerella iliaca","L1217461","Ketchikan--Ward Lake","2025-05-10 14:07",2,55.4123536,-131.7011833,TRUE,FALSE,FALSE,"S235982955"
"363","foxspa","Fox Sparrow","Passerella iliaca","L25468708","Taylor Creek rainbow trail","2025-05-10 14:01",1,38.9340853,-120.0555981,TRUE,FALSE,TRUE,"S235865327"
"364","foxspa","Fox Sparrow","Passerella iliaca","L40351998","12236 Bear Meadow Ct, Truckee US-CA 39.35809, -120.26061","2025-05-10 14:00",6,39.358086,-120.260611,TRUE,FALSE,TRUE,"S236057683"
"365","foxspa","Fox Sparrow","Passerella iliaca","L33769123","Big Sandy Openings","2025-05-10 13:38",1,42.688124,-109.270925,TRUE,FALSE,TRUE,"S236017255"
"366","foxspa","Fox Sparrow","Passerella iliaca","L44654400","Forest Route 21S09, Springville, California, US (36.092, -118.544)","2025-05-10 13:36",2,36.0922613,-118.5435175,TRUE,FALSE,TRUE,"S235983652"
"367","foxspa","Fox Sparrow","Passerella iliaca","L44636841","Prairie Road, Mountain Home, Idaho, US (43.305, -115.558)","2025-05-10 13:30",1,43.305226,-115.5576572,TRUE,FALSE,TRUE,"S235880565"
"368","foxspa","Fox Sparrow","Passerella iliaca","L1130079","Kodiak Is.--Chiniak Creek mouth","2025-05-10 13:25",2,57.6182582,-152.2056628,TRUE,FALSE,FALSE,"S235856362"
"369","foxspa","Fox Sparrow","Passerella iliaca","L44049539","Williwaw Nature Trail Spur, Anchorage US-AK 60.78802, -148.86725","2025-05-10 13:19",1,60.788018,-148.867248,TRUE,FALSE,TRUE,"S236619174"
"370","foxspa","Fox Sparrow","Passerella iliaca","L2900278","Jersey Jim Flats Area","2025-05-10 13:19",1,37.4971971,-108.184154,TRUE,FALSE,FALSE,"S235790400"
"371","foxspa","Fox Sparrow","Passerella iliaca","L35774454","763 Oriole Rd, Wrightwood US-CA (34.3609,-117.6454)","2025-05-10 13:14",1,34.360885,-117.645437,TRUE,FALSE,TRUE,"S236007703"
"372","foxspa","Fox Sparrow","Passerella iliaca","L159580","Kronenberg County Park--Coquille Point","2025-05-10 12:57",NA,43.1147,-124.4353,TRUE,FALSE,FALSE,"S235935162"
"373","foxspa","Fox Sparrow","Passerella iliaca","L44612549","4114 US-93, Darby US-MT 45.97956, -114.15537","2025-05-10 12:52",1,45.979559,-114.155368,TRUE,FALSE,TRUE,"S235756877"
"374","foxspa","Fox Sparrow","Passerella iliaca","L3956253","Passage Canal (Whittier)","2025-05-10 12:50",1,60.8127808,-148.5804749,TRUE,FALSE,FALSE,"S236075439"
"375","foxspa","Fox Sparrow","Passerella iliaca","L859526","Raven Lane","2025-05-10 12:49",2,60.1485867,-149.4220769,TRUE,FALSE,TRUE,"S236736085"
"376","foxspa","Fox Sparrow","Passerella iliaca","L10216419","Homer Spit--Green Timbers","2025-05-10 12:46",1,59.6277719,-151.4729304,TRUE,FALSE,FALSE,"S235830892"
"377","foxspa","Fox Sparrow","Passerella iliaca","L15155512","Triangle Rd, Murphy US-ID 42.86418, -116.59309","2025-05-10 12:38",2,42.86418,-116.593088,TRUE,FALSE,TRUE,"S235832762"
"378","foxspa","Fox Sparrow","Passerella iliaca","L5001877","Chugach NF--Williwaw Campground","2025-05-10 12:35",2,60.78724,-148.8781971,TRUE,FALSE,FALSE,"S236619403"
"379","foxspa","Fox Sparrow","Passerella iliaca","L1129610","Kodiak Is.--Lake Rose Tead and Pasagshak River","2025-05-10 12:32",6,57.4756505,-152.4627686,TRUE,FALSE,FALSE,"S236071964"
"380","foxspa","Fox Sparrow","Passerella iliaca","L2254201","S. Fork Russell Creek Rd","2025-05-10 12:30",2,46.0185421,-118.1809616,TRUE,FALSE,FALSE,"S235830238"
"381","foxspa","Fox Sparrow","Passerella iliaca","L16120213","Rodney Palmer Environmental Study Area, Cornish","2025-05-10 12:29",1,43.4640739,-72.3324532,TRUE,TRUE,FALSE,"S235695883"
"382","foxspa","Fox Sparrow","Passerella iliaca","L32142022","42.35445_-121.98608","2025-05-10 11:52",2,42.35445,-121.98608,TRUE,FALSE,TRUE,"S236472948"
"383","foxspa","Fox Sparrow","Passerella iliaca","L32257626","Glacier Pullout/ Trail Of Blue Ice, Portage","2025-05-10 11:50",NA,60.8004831,-148.9188763,TRUE,FALSE,TRUE,"S235869159"
"384","foxspa","Fox Sparrow","Passerella iliaca","L612034","Shelldrake Campground area","2025-05-10 11:49",1,46.7121783,-85.0650358,TRUE,FALSE,FALSE,"S235681683"
"385","foxspa","Fox Sparrow","Passerella iliaca","L7663266","Diamond Creek trail (59.673, -151.688)","2025-05-10 11:47",1,59.6728194,-151.687653,TRUE,FALSE,TRUE,"S235816191"
"386","foxspa","Fox Sparrow","Passerella iliaca","L14829600","Spencer yard","2025-05-10 11:45",1,43.0992847,-124.4269967,TRUE,FALSE,TRUE,"S235820563"
"387","foxspa","Fox Sparrow","Passerella iliaca","L44627779","Mallory’s","2025-05-10 11:38",1,59.716845,-151.314917,TRUE,FALSE,TRUE,"S235833761"
"388","foxspa","Fox Sparrow","Passerella iliaca","L44340553","Home 17520 Snow Crest Lane","2025-05-10 11:37",1,61.062347,-149.758677,TRUE,FALSE,TRUE,"S235786611"
"389","foxspa","Fox Sparrow","Passerella iliaca","L44734238","Divide Road, Olathe US-CO 38.42783, -108.38316","2025-05-10 11:37",1,38.427832,-108.383161,TRUE,FALSE,TRUE,"S236423907"
"390","foxspa","Fox Sparrow","Passerella iliaca","L9343875","Solomon to East Fork Bridge(64.5840,-164.4127)","2025-05-10 11:36",1,64.584029,-164.412705,TRUE,FALSE,TRUE,"S236026654"
"391","foxspa","Fox Sparrow","Passerella iliaca","L11432186","Nome-TLA-Penny R to/including Cripple R","2025-05-10 11:34",3,64.6468609,-165.7259582,TRUE,FALSE,TRUE,"S236524407"
"392","foxspa","Fox Sparrow","Passerella iliaca","L1219978","Ketchikan--Ward Lake-Grassy Point Picnic Ground","2025-05-10 11:28",11,55.4109894,-131.6970634,TRUE,FALSE,FALSE,"S235822303"
"393","foxspa","Fox Sparrow","Passerella iliaca","L784322","Yosemite NP--Glacier Point Rd.","2025-05-10 11:27",6,37.6699621,-119.6090984,TRUE,FALSE,FALSE,"S236599242"
"394","foxspa","Fox Sparrow","Passerella iliaca","L44626785","83312, Almo US-ID 42.11098, -113.69284","2025-05-10 11:20",1,42.110978,-113.692837,TRUE,FALSE,TRUE,"S235836179"
"395","foxspa","Fox Sparrow","Passerella iliaca","L840172","Whittier (town)","2025-05-10 11:19",1,60.777602,-148.7033844,TRUE,FALSE,FALSE,"S236274793"
"396","foxspa","Fox Sparrow","Passerella iliaca","L10042430","King Salmon--Paradise Point","2025-05-10 11:15",2,58.6662606,-156.6218407,TRUE,FALSE,FALSE,"S236517437"
"397","foxspa","Fox Sparrow","Passerella iliaca","L6321210","Wildrose Canyon ","2025-05-10 11:15",2,37.722057,-118.6083,TRUE,FALSE,TRUE,"S236025129"
"398","foxspa","Fox Sparrow","Passerella iliaca","L17355500","Base Of Chair 4","2025-05-10 11:14",2,60.9585776,-149.1104729,TRUE,FALSE,TRUE,"S235786544"
"399","foxspa","Fox Sparrow","Passerella iliaca","L3053327","Kings Canyon NP--Big Stump Grove","2025-05-10 11:11",1,36.7209492,-118.9708655,TRUE,FALSE,FALSE,"S236071848"
"400","foxspa","Fox Sparrow","Passerella iliaca","L13878863","Unalakleet","2025-05-10 11:10",1,63.8737063,-160.7927264,TRUE,FALSE,TRUE,"S236121783"
"401","foxspa","Fox Sparrow","Passerella iliaca","L44854692","Beach Access Rd, Naknek US-AK (58.7255,-157.0501)","2025-05-10 11:02",1,58.725538,-157.050055,TRUE,FALSE,TRUE,"S237071269"
"402","foxspa","Fox Sparrow","Passerella iliaca","L30561752","Hayden Ponds","2025-05-10 11:01",1,39.1648,-106.319413,TRUE,FALSE,TRUE,"S235705803"
"403","foxspa","Fox Sparrow","Passerella iliaca","L1161099","Suttle Lake","2025-05-10 10:58",2,44.4225937,-121.7367554,TRUE,FALSE,FALSE,"S235837874"
"404","foxspa","Fox Sparrow","Passerella iliaca","L5987829","Bethel--H-Marker Lake","2025-05-10 10:57",2,60.7976747,-161.8251157,TRUE,FALSE,FALSE,"S235778916"
"405","foxspa","Fox Sparrow","Passerella iliaca","L36549699","Captains Bay Rd, Unalaska US-AK 53.86798, -166.54614","2025-05-10 10:47",4,53.867977,-166.54614,TRUE,FALSE,TRUE,"S235848649"
"406","foxspa","Fox Sparrow","Passerella iliaca","L44634576","Red Shirt Lake Trail","2025-05-10 10:47",2,61.667267,-150.141583,TRUE,FALSE,TRUE,"S235868581"
"407","foxspa","Fox Sparrow","Passerella iliaca","L43939599","24223–24329 Bachman Grade Rd, Murphy US-ID 42.91206, -116.53193","2025-05-10 10:47",1,42.91206,-116.531926,TRUE,FALSE,TRUE,"S235831538"
"408","foxspa","Fox Sparrow","Passerella iliaca","L15873803","Anchor River SRA","2025-05-10 10:38",1,59.7739031,-151.8658974,TRUE,FALSE,FALSE,"S235773596"
"409","foxspa","Fox Sparrow","Passerella iliaca","L44606916","Pollard Camp","2025-05-10 10:37",3,37.089348,-119.225704,TRUE,FALSE,TRUE,"S235729166"
"410","foxspa","Fox Sparrow","Passerella iliaca","L44854463","Beach Access Rd, Naknek US-AK (58.7374,-157.0642)","2025-05-10 10:35",1,58.737404,-157.064152,TRUE,FALSE,TRUE,"S237069861"
"411","foxspa","Fox Sparrow","Passerella iliaca","L10109781","65335 Corabin Road, Anchor Point, Alaska, US (59.784, -151.635)","2025-05-10 10:30",1,59.784355,-151.6352169,TRUE,FALSE,TRUE,"S236083048"
"412","foxspa","Fox Sparrow","Passerella iliaca","L1364956","Kachemak Bay--Halibut Cove","2025-05-10 10:30",1,59.5936678,-151.2371063,TRUE,FALSE,FALSE,"S235818104"
"413","foxspa","Fox Sparrow","Passerella iliaca","L15378059","ONC Subdivision","2025-05-10 10:30",1,60.789029,-161.798112,TRUE,FALSE,TRUE,"S235777916"
"414","foxspa","Fox Sparrow","Passerella iliaca","L27693052","Potlatch Park","2025-05-10 10:25",1,55.4196994,-131.7707026,TRUE,FALSE,TRUE,"S235901325"
"415","foxspa","Fox Sparrow","Passerella iliaca","L11432181","Nome-TLA-Snake R to/including Penny R","2025-05-10 10:19",1,64.5679856,-165.6126597,TRUE,FALSE,TRUE,"S236522574"
"416","foxspa","Fox Sparrow","Passerella iliaca","L28294881","Homer- Mattox / Beluga CT area KE","2025-05-10 10:19",1,59.6483507,-151.5119494,TRUE,FALSE,TRUE,"S235746774"
"417","foxspa","Fox Sparrow","Passerella iliaca","L44430156","Wynn Nature Center Lutz Fireweed South Loop","2025-05-10 10:16",6,59.683727,-151.479664,TRUE,FALSE,TRUE,"S235846220"
"418","foxspa","Fox Sparrow","Passerella iliaca","L44577027","Oakwood Lakes State Park, Bruce US-SD 44.45495, -96.99095","2025-05-10 10:12",2,44.45495,-96.990945,TRUE,FALSE,TRUE,"S235598045"
"419","foxspa","Fox Sparrow","Passerella iliaca","L44655710","NFD Rd 1012, Sisters US-OR 44.31303, -121.62679","2025-05-10 10:11",8,44.31303,-121.626786,TRUE,FALSE,TRUE,"S235991530"
"420","foxspa","Fox Sparrow","Passerella iliaca","L44854028","Eddie Rd, Naknek US-AK (58.7383,-156.9001)","2025-05-10 10:10",1,58.7383,-156.900098,TRUE,FALSE,TRUE,"S237067247"
"421","foxspa","Fox Sparrow","Passerella iliaca","L5566875","Angeles NF--Buckhorn Day Use Area","2025-05-10 10:08",2,34.3459517,-117.920352,TRUE,FALSE,FALSE,"S235926728"
"422","foxspa","Fox Sparrow","Passerella iliaca","L7771010","Provo River drop in","2025-05-10 10:07",2,40.400912,-111.530722,TRUE,FALSE,TRUE,"S235674342"
"423","foxspa","Fox Sparrow","Passerella iliaca","L2882345","Grand Teton NP--North Jackson Lake","2025-05-10 10:04",3,43.9876274,-110.6838226,TRUE,FALSE,FALSE,"S235840316"
"424","foxspa","Fox Sparrow","Passerella iliaca","L586881","Seward--Airport Mudflats","2025-05-10 10:02",1,60.1253055,-149.4220018,TRUE,FALSE,FALSE,"S236080351"
"425","foxspa","Fox Sparrow","Passerella iliaca","L7204361","Kodiak Is.--Middle Bay-Head of bay","2025-05-10 10:00",2,57.6479906,-152.5133186,TRUE,FALSE,FALSE,"S236479097"
"426","foxspa","Fox Sparrow","Passerella iliaca","L31268863","Mount Emily Road, La Grande, Oregon, US (45.394, -118.106)","2025-05-10 09:57",2,45.3938043,-118.1057622,TRUE,TRUE,TRUE,"S236251617"
"427","foxspa","Fox Sparrow","Passerella iliaca","L44594543","B-210 Rd, Camp Sherman US-OR 44.82410, -121.54326","2025-05-10 09:55",1,44.824099,-121.543264,TRUE,FALSE,TRUE,"S235670019"
"428","foxspa","Fox Sparrow","Passerella iliaca","L44637829","Girdwood--Timberline Dr. & Alpina Way","2025-05-10 09:51",1,60.9573488,-149.1239005,TRUE,FALSE,TRUE,"S235885718"
"429","foxspa","Fox Sparrow","Passerella iliaca","L14877166","Nome-TLA-Downtown to NBHS","2025-05-10 09:51",1,64.5209385,-165.4202147,TRUE,FALSE,TRUE,"S236727652"
"430","foxspa","Fox Sparrow","Passerella iliaca","L44853775","King Salmon, King Salmon US-AK (58.6919,-156.6642)","2025-05-10 09:50",1,58.691949,-156.664194,TRUE,FALSE,TRUE,"S237065969"
"431","foxspa","Fox Sparrow","Passerella iliaca","L5980353","Bridge Creek Reservoir","2025-05-10 09:46",2,59.678553,-151.5487517,TRUE,FALSE,FALSE,"S235846660"
"432","foxspa","Fox Sparrow","Passerella iliaca","L44637749","Girdwood--Alpine Meadows Ave. & Loveland Rd.","2025-05-10 09:45",1,60.9572154,-149.1194694,TRUE,FALSE,TRUE,"S235885277"
"433","foxspa","Fox Sparrow","Passerella iliaca","L1129599","Kodiak Is.--Mayflower Beach (outer Kalsin Bay)","2025-05-10 09:38",2,57.6480704,-152.4404955,TRUE,FALSE,FALSE,"S235894167"
"434","foxspa","Fox Sparrow","Passerella iliaca","L44853603","Jensen Rd, King Salmon US-AK (58.6881,-156.6656)","2025-05-10 09:35",2,58.688104,-156.665606,TRUE,FALSE,TRUE,"S237064968"
"435","foxspa","Fox Sparrow","Passerella iliaca","L12716615","Going-to-the-Sun Road","2025-05-10 09:35",1,48.7152735,-113.7787962,TRUE,FALSE,TRUE,"S236684745"
"436","foxspa","Fox Sparrow","Passerella iliaca","L11608141","Bethel--Small Boat Harbor","2025-05-10 09:33",1,60.7931625,-161.7369959,TRUE,FALSE,FALSE,"S235777061"
"437","foxspa","Fox Sparrow","Passerella iliaca","L2956308","Donner Summit--Donner Pass Rd.","2025-05-10 09:31",1,39.3193061,-120.3209299,TRUE,FALSE,FALSE,"S236706001"
"438","foxspa","Fox Sparrow","Passerella iliaca","L3870544","Ketchikan Int. Airport--floatplane base","2025-05-10 09:26",1,55.3585752,-131.7118864,TRUE,FALSE,FALSE,"S235923504"
"439","foxspa","Fox Sparrow","Passerella iliaca","L44608930","Independence Pass, west side, valley floor below upper lost man curve","2025-05-10 09:24",3,39.119981,-106.576877,TRUE,FALSE,TRUE,"S235738965"
"440","foxspa","Fox Sparrow","Passerella iliaca","L7521522","South Fork Canyon","2025-05-10 09:16",6,40.343191,-111.539785,TRUE,FALSE,FALSE,"S235976978"
"441","foxspa","Fox Sparrow","Passerella iliaca","L387519","Rose Canyon Road","2025-05-10 09:16",1,40.4701261,-112.0780114,TRUE,FALSE,FALSE,"S235709310"
"442","foxspa","Fox Sparrow","Passerella iliaca","L15263770","Stanislaus National Forest, Long Barn US-CA 38.16356, -120.07078","2025-05-10 09:16",5,38.163558,-120.070782,TRUE,FALSE,TRUE,"S235772726"
"443","foxspa","Fox Sparrow","Passerella iliaca","L1414629","Callahan Park","2025-05-10 09:16",1,39.3620207,-119.821328,TRUE,FALSE,FALSE,"S235697448"
"444","foxspa","Fox Sparrow","Passerella iliaca","L7529587","Jeremy Ranch Rd--Quaking Asp Creek","2025-05-10 09:13",1,40.842074,-111.586391,TRUE,FALSE,FALSE,"S235663422"
"445","foxspa","Fox Sparrow","Passerella iliaca","L1129547","Kodiak Is.--Womens Bay (South)","2025-05-10 09:10",3,57.6946131,-152.5404453,TRUE,FALSE,FALSE,"S236472692"
"446","foxspa","Fox Sparrow","Passerella iliaca","L44738745","Wortman Mills Road, Badger, California, US (36.684, -118.95)","2025-05-10 09:06",8,36.6838592,-118.9496307,TRUE,FALSE,TRUE,"S236444751"
"447","foxspa","Fox Sparrow","Passerella iliaca","L1311915","Ketchikan--North Point Higgins School","2025-05-10 09:05",3,55.4696554,-131.8199247,TRUE,FALSE,FALSE,"S235906732"
"448","foxspa","Fox Sparrow","Passerella iliaca","L447381","Mt. Tabor Park","2025-05-10 09:04",1,45.5114597,-122.5940323,TRUE,FALSE,FALSE,"S235681671"
"449","foxspa","Fox Sparrow","Passerella iliaca","L44666109","Malheur National Forest, Burns US-OR 43.89772, -118.72118","2025-05-10 09:02",1,43.897723,-118.721181,TRUE,FALSE,TRUE,"S236052934"
"450","foxspa","Fox Sparrow","Passerella iliaca","L32460856","Trail of Blue Ice, Anchorage, Alaska, US (60.783, -148.867)","2025-05-10 09:01",5,60.782775,-148.8670883,TRUE,FALSE,TRUE,"S236915515"
"451","foxspa","Fox Sparrow","Passerella iliaca","L2155797","Homer Spit--Boat Harbor entrance","2025-05-10 08:58",2,59.6038316,-151.415205,TRUE,FALSE,FALSE,"S235826237"
"452","foxspa","Fox Sparrow","Passerella iliaca","L44612833","Richardson Highway, Copper Center, Alaska, US (61.704, -145.167)","2025-05-10 08:56",1,61.7037655,-145.1671712,TRUE,FALSE,TRUE,"S235758209"
"453","foxspa","Fox Sparrow","Passerella iliaca","L44733380","Diamond Fork Rd, Mapleton US-UT 40.12955, -111.33880","2025-05-10 08:55",1,40.129551,-111.338797,TRUE,FALSE,TRUE,"S236419772"
"454","foxspa","Fox Sparrow","Passerella iliaca","L1121612","Kodiak Is.--Middle Bay (east side)","2025-05-10 08:54",6,57.6502262,-152.4708501,TRUE,FALSE,FALSE,"S235681773"
"455","foxspa","Fox Sparrow","Passerella iliaca","L2281679","Anchor River--South Fork","2025-05-10 08:53",2,59.7168153,-151.647141,TRUE,FALSE,FALSE,"S235673470"
"456","foxspa","Fox Sparrow","Passerella iliaca","L32853003","hdm","2025-05-10 08:51",1,43.9658737,-121.3402634,TRUE,FALSE,TRUE,"S235637808"
"457","foxspa","Fox Sparrow","Passerella iliaca","L11432208","Pippin Lake","2025-05-10 08:49",1,61.7075472,-145.1699639,TRUE,FALSE,TRUE,"S236402894"
"458","foxspa","Fox Sparrow","Passerella iliaca","L2216165","Granite Springs Rd.","2025-05-10 08:46",1,38.8003332,-120.3753176,TRUE,FALSE,FALSE,"S235868002"
"459","foxspa","Fox Sparrow","Passerella iliaca","L20943562","Seward Hwy.--mm88.2","2025-05-10 08:44",3,60.9230738,-149.1398841,TRUE,FALSE,FALSE,"S235882761"
"460","foxspa","Fox Sparrow","Passerella iliaca","L300493","Sturgeon Point","2025-05-10 08:42",1,42.6911725,-79.047849,TRUE,TRUE,FALSE,"S235549320"
"461","foxspa","Fox Sparrow","Passerella iliaca","L1105273","Homer Spit--Boat Harbor","2025-05-10 08:41",1,59.6047001,-151.425848,TRUE,FALSE,FALSE,"S235680965"
"462","foxspa","Fox Sparrow","Passerella iliaca","L159271","Kincaid Park","2025-05-10 08:40",1,61.1530512,-150.0387812,TRUE,FALSE,FALSE,"S235770773"
"463","foxspa","Fox Sparrow","Passerella iliaca","L3924595","Kalsin Beach West of Olds River","2025-05-10 08:35",3,57.5935973,-152.4582195,TRUE,FALSE,TRUE,"S236055213"
"464","foxspa","Fox Sparrow","Passerella iliaca","L12563036","Seward Hwy.--mm87.5","2025-05-10 08:32",3,60.9171278,-149.1173043,TRUE,FALSE,FALSE,"S235882588"
"465","foxspa","Fox Sparrow","Passerella iliaca","L16694561","Across the Slough from Alligator Acres","2025-05-10 08:31",1,60.8028955,-161.7565087,TRUE,FALSE,TRUE,"S235776161"
"466","foxspa","Fox Sparrow","Passerella iliaca","L44825524","N Jeremy Ranch Rd, Park City US-UT 40.77001, -111.58496","2025-05-10 08:31",1,40.770014,-111.584964,TRUE,FALSE,TRUE,"S236912435"
"467","foxspa","Fox Sparrow","Passerella iliaca","L743334","Yampa River Preserve","2025-05-10 08:30",4,40.4851146,-107.1533844,TRUE,FALSE,FALSE,"S236039899"
"468","foxspa","Fox Sparrow","Passerella iliaca","L11718221","Buskin River Beaver Pond","2025-05-10 08:30",2,57.7665994,-152.5185878,TRUE,FALSE,TRUE,"S236466897"
"469","foxspa","Fox Sparrow","Passerella iliaca","L24388005","Calypso Farm and Ecology Center","2025-05-10 08:28",2,64.8396705,-148.1338523,TRUE,FALSE,FALSE,"S235996606"
"470","foxspa","Fox Sparrow","Passerella iliaca","L33470550","Glacier Point Rd, Yosemite National Park US-CA 37.67154, -119.70070","2025-05-10 08:28",8,37.671538,-119.700698,TRUE,FALSE,TRUE,"S236034155"
"471","foxspa","Fox Sparrow","Passerella iliaca","L3811321","Grand Teton NP--Moose Wilson Rd. wetlands overlook","2025-05-10 08:28",1,43.65416,-110.73764,TRUE,FALSE,FALSE,"S235988338"
"472","foxspa","Fox Sparrow","Passerella iliaca","L5809527","Witcher Canyon","2025-05-10 08:22",3,37.522932,-118.644201,TRUE,TRUE,TRUE,"S235705950"
"473","foxspa","Fox Sparrow","Passerella iliaca","L14927991","Homer--Bishops Beach","2025-05-10 08:17",2,59.637564,-151.540142,TRUE,FALSE,FALSE,"S235665214"
"474","foxspa","Fox Sparrow","Passerella iliaca","L1225688","Ant Flat Rd","2025-05-10 08:16",1,41.5093998,-111.5726866,TRUE,FALSE,FALSE,"S236043453"
"475","foxspa","Fox Sparrow","Passerella iliaca","L7196603","Kodiak Is.--City of Kodiak-Pier 2","2025-05-10 08:15",1,57.7837618,-152.4261671,TRUE,FALSE,FALSE,"S235658031"
"476","foxspa","Fox Sparrow","Passerella iliaca","L25545162","Deer Camp Road, Yosemite National Park US-CA 37.64738, -119.70266","2025-05-10 08:14",4,37.647381,-119.702664,TRUE,FALSE,TRUE,"S236034054"
"477","foxspa","Fox Sparrow","Passerella iliaca","L30944419","Honey Bear Lane, Anchorage US-AK (61.0734,-149.7073)","2025-05-10 08:13",2,61.073399,-149.70727,TRUE,FALSE,TRUE,"S235629119"
"478","foxspa","Fox Sparrow","Passerella iliaca","L1128506","Homer--Crittenden Dr.","2025-05-10 08:11",1,59.6403702,-151.555506,TRUE,FALSE,FALSE,"S235665581"
"479","foxspa","Fox Sparrow","Passerella iliaca","L1239142","Diamond Creek Gulch","2025-05-10 08:09",4,59.6738502,-151.6924262,TRUE,FALSE,FALSE,"S235849266"
"480","foxspa","Fox Sparrow","Passerella iliaca","L16350761","98620, Goldendale US-WA 45.99867, -120.65040","2025-05-10 08:06",1,45.998666,-120.650397,TRUE,FALSE,TRUE,"S235599858"
"481","foxspa","Fox Sparrow","Passerella iliaca","L31631817","Council Road, Nome to Cape Nome","2025-05-10 08:05",6,64.4733312,-165.191997,TRUE,FALSE,TRUE,"S236020371"
"482","foxspa","Fox Sparrow","Passerella iliaca","L44872032","Camping near Castle Lake","2025-05-10 08:05",8,41.243555,-122.382954,TRUE,FALSE,TRUE,"S237179887"
"483","foxspa","Fox Sparrow","Passerella iliaca","L14854357","Burn above Grove’s Prairie","2025-05-10 08:04",14,40.976005,-123.48535,TRUE,FALSE,TRUE,"S237806144"
"484","foxspa","Fox Sparrow","Passerella iliaca","L31963361","City Subdivision","2025-05-10 08:03",1,60.7939203,-161.7872998,TRUE,FALSE,TRUE,"S235743848"
"485","foxspa","Fox Sparrow","Passerella iliaca","L14886602","MP 4-7 River Overlook","2025-05-10 08:00",2,61.5224807,-144.3401556,TRUE,FALSE,TRUE,"S235666151"
"486","foxspa","Fox Sparrow","Passerella iliaca","L13686692","123 Kings Row, Petersburg US-AK 56.79288, -132.97705","2025-05-10 08:00",1,56.792881,-132.977048,TRUE,FALSE,TRUE,"S236032294"
"487","foxspa","Fox Sparrow","Passerella iliaca","L44589779","11490–11498 Willow Fishhook Rd, Willow US-AK 61.77643, -149.21168","2025-05-10 07:58",1,61.776426,-149.211678,TRUE,FALSE,TRUE,"S235646530"
"488","foxspa","Fox Sparrow","Passerella iliaca","L3106819","Whites Creek Canyon","2025-05-10 07:57",2,39.3818286,-119.845916,TRUE,FALSE,FALSE,"S235667863"
"489","foxspa","Fox Sparrow","Passerella iliaca","L3647656","Jones Creek Loop Trail","2025-05-10 07:55",1,39.3614056,-119.8607719,TRUE,FALSE,FALSE,"S235813376"
"490","foxspa","Fox Sparrow","Passerella iliaca","L44622947","Bear Creek Trail, Dolores US-CO 37.49980, -108.08144","2025-05-10 07:51",6,37.499797,-108.081436,TRUE,FALSE,TRUE,"S235809544"
"491","foxspa","Fox Sparrow","Passerella iliaca","L612544","Galena Creek County Park","2025-05-10 07:49",2,39.3540167,-119.8565765,TRUE,FALSE,FALSE,"S235591524"
"492","foxspa","Fox Sparrow","Passerella iliaca","L34009767","Kodiak Is.--Saltery Cove Rd-American River","2025-05-10 07:48",8,57.6329941,-152.5361311,TRUE,FALSE,FALSE,"S235682010"
"493","foxspa","Fox Sparrow","Passerella iliaca","L44578498","11490–11498 Willow Fishhook Rd, Willow US-AK 61.77416, -149.22104","2025-05-10 07:48",2,61.774164,-149.221036,TRUE,FALSE,TRUE,"S235605207"
"494","foxspa","Fox Sparrow","Passerella iliaca","L7333381","Kodiak Is.--Town Channel and Docks","2025-05-10 07:47",1,57.7860725,-152.4025798,TRUE,FALSE,FALSE,"S235642592"
"495","foxspa","Fox Sparrow","Passerella iliaca","L44576790","Willow Fishhook Rd, Willow US-AK 61.77064, -149.23238","2025-05-10 07:38",1,61.770639,-149.232383,TRUE,FALSE,TRUE,"S235597073"
"496","foxspa","Fox Sparrow","Passerella iliaca","L2888840","Mill Creek","2025-05-10 07:35",1,38.6937166,-107.066102,TRUE,FALSE,FALSE,"S236704590"
"497","foxspa","Fox Sparrow","Passerella iliaca","L9949167","Grand Teton NP--Beaver Creek","2025-05-10 07:34",1,43.686512,-110.735127,TRUE,FALSE,FALSE,"S235988223"
"498","foxspa","Fox Sparrow","Passerella iliaca","L2211290","Alpha Omega Rest Stop and Overlook","2025-05-10 07:34",1,39.3147831,-120.753389,TRUE,FALSE,FALSE,"S236706426"
"499","foxspa","Fox Sparrow","Passerella iliaca","L1122282","Kodiak Is.--Gibson Cove","2025-05-10 07:32",4,57.7786102,-152.448286,TRUE,FALSE,FALSE,"S235894546"
"500","foxspa","Fox Sparrow","Passerella iliaca","L11072374","Fort Abercrombie","2025-05-10 07:30",1,57.8340488,-152.3572397,TRUE,FALSE,TRUE,"S236454072"
"501","foxspa","Fox Sparrow","Passerella iliaca","L44574558","Willow Fishhook Rd, Willow US-AK 61.76792, -149.24250","2025-05-10 07:30",1,61.767922,-149.242501,TRUE,FALSE,TRUE,"S235586261"
"502","foxspa","Fox Sparrow","Passerella iliaca","L1417266","Lower Echo Lake","2025-05-10 07:28",NA,38.8346655,-120.0447913,TRUE,FALSE,FALSE,"S235796978"
"503","foxspa","Fox Sparrow","Passerella iliaca","L27934504","910 Ranch  & Jeremy Ranch Road","2025-05-10 07:27",2,40.770558,-111.586219,TRUE,FALSE,TRUE,"S235585850"
"504","foxspa","Fox Sparrow","Passerella iliaca","L2468026","Lake Creek Village Wetlands","2025-05-10 07:27",2,39.654073,-106.6236663,TRUE,FALSE,FALSE,"S235658028"
"505","foxspa","Fox Sparrow","Passerella iliaca","L44576801","10063 N Jeremy Ranch Rd, Park City US-UT 40.77775, -111.59048","2025-05-10 07:26",2,40.777746,-111.59048,TRUE,FALSE,TRUE,"S235597213"
"506","foxspa","Fox Sparrow","Passerella iliaca","L44613859","National Forest Development Road 700, Oregon, US (43.316, -122.152)","2025-05-10 07:23",1,43.3162302,-122.1521875,TRUE,FALSE,TRUE,"S235763244"
"507","foxspa","Fox Sparrow","Passerella iliaca","L44572740","945 Ben Walters Ln, Homer US-AK 59.64578, -151.52031","2025-05-10 07:23",1,59.645778,-151.520313,TRUE,FALSE,TRUE,"S235577517"
"508","foxspa","Fox Sparrow","Passerella iliaca","L5408959","Ute Pass Rd--lower (Summit Co)","2025-05-10 07:23",1,39.7941609,-106.1395168,TRUE,FALSE,FALSE,"S235608731"
"509","foxspa","Fox Sparrow","Passerella iliaca","L44573110","Willow Fishhook Rd, Willow US-AK 61.76434, -149.25319","2025-05-10 07:17",1,61.764341,-149.25319,TRUE,FALSE,TRUE,"S235579428"
"510","foxspa","Fox Sparrow","Passerella iliaca","L19279200","Lassen Volcanic NP-Park Road Tehama Co. portion from boundary to Diamond Point","2025-05-10 07:16",1,40.429284,-121.534311,TRUE,FALSE,TRUE,"S235601283"
"511","foxspa","Fox Sparrow","Passerella iliaca","L728130","Sandy River Delta Park","2025-05-10 07:12",1,45.5473441,-122.3731899,TRUE,FALSE,FALSE,"S235676535"
"512","foxspa","Fox Sparrow","Passerella iliaca","L16245947","Ryan’s cabin","2025-05-10 07:08",6,37.491058,-108.0613,TRUE,FALSE,TRUE,"S235809697"
"513","foxspa","Fox Sparrow","Passerella iliaca","L3766433","Willard Bay State Park -- campground","2025-05-10 07:06",1,41.4163254,-112.0542973,TRUE,FALSE,TRUE,"S236464592"
"514","foxspa","Fox Sparrow","Passerella iliaca","L17811618","My backyard in bratenahl","2025-05-10 07:05",1,41.5522952,-81.6057459,TRUE,FALSE,TRUE,"S235406265"
"515","foxspa","Fox Sparrow","Passerella iliaca","L44568755","Rush Creek Trail, June Lake US-CA 37.78078, -119.13019","2025-05-10 07:04",2,37.780783,-119.130189,TRUE,FALSE,TRUE,"S235557926"
"516","foxspa","Fox Sparrow","Passerella iliaca","L3329973","Mt Rose Ski Area--Winters Creek Lodge Area","2025-05-10 07:03",2,39.3192,-119.87064,TRUE,FALSE,FALSE,"S235520163"
"517","foxspa","Fox Sparrow","Passerella iliaca","L44659691","193 Charles Way, Homer, Alaska, US (59.637, -151.538)","2025-05-10 07:00",1,59.6365629,-151.5380396,TRUE,FALSE,TRUE,"S236015732"
"518","foxspa","Fox Sparrow","Passerella iliaca","L11139010","Stacy and Mike's house","2025-05-10 07:00",1,57.8263202,-152.3514385,TRUE,FALSE,TRUE,"S236450176"
"519","foxspa","Fox Sparrow","Passerella iliaca","L2363423","Prophetstown SP--Pond","2025-05-10 06:59",1,40.516344,-86.8076348,TRUE,TRUE,FALSE,"S235583922"
"520","foxspa","Fox Sparrow","Passerella iliaca","L251458","Homer Spit--Mud Bay","2025-05-10 06:54",2,59.635823,-151.4965296,TRUE,FALSE,FALSE,"S235842218"
"521","foxspa","Fox Sparrow","Passerella iliaca","L5070186","Gustavus (town)","2025-05-10 06:50",1,58.4137425,-135.7313045,TRUE,FALSE,FALSE,"S236060574"
"522","foxspa","Fox Sparrow","Passerella iliaca","L754091","Kenny Lake","2025-05-10 06:41",1,61.731924,-144.9402344,TRUE,FALSE,FALSE,"S236423021"
"523","foxspa","Fox Sparrow","Passerella iliaca","L44706617","Tahoe National Forest, Nevada City US-CA 39.37972, -120.68235","2025-05-10 06:40",9,39.379722,-120.682347,TRUE,FALSE,TRUE,"S236283629"
"524","foxspa","Fox Sparrow","Passerella iliaca","L18692590","El Sarino Ct","2025-05-10 06:36",1,59.648628,-151.5423602,TRUE,FALSE,TRUE,"S235546082"
"525","foxspa","Fox Sparrow","Passerella iliaca","L504757","Hobble Creek Canyon -- Right Fork","2025-05-10 06:27",1,40.2004777,-111.4144886,TRUE,FALSE,FALSE,"S235748156"
"526","foxspa","Fox Sparrow","Passerella iliaca","L17499084","Tony Knowles Coastal Trail--Clitheroe flats","2025-05-10 06:21",5,61.177475,-150.03981,TRUE,FALSE,TRUE,"S235623275"
"527","foxspa","Fox Sparrow","Passerella iliaca","L2220944","Leadville National Fish Hatchery","2025-05-10 06:11",1,39.2254549,-106.3901344,TRUE,FALSE,FALSE,"S235472044"
"528","foxspa","Fox Sparrow","Passerella iliaca","L125288","Tahoe Meadows","2025-05-10 06:10",2,39.3038595,-119.9141857,TRUE,FALSE,FALSE,"S235499464"
"529","foxspa","Fox Sparrow","Passerella iliaca","L7524636","North Ogden Divide TH","2025-05-10 06:04",1,41.320223,-111.899184,TRUE,FALSE,FALSE,"S235522900"
"530","foxspa","Fox Sparrow","Passerella iliaca","L44777225","Pacific Crest National Scenic Trail, Green Valley Lake US-CA 34.27728, -117.07559","2025-05-10 06:00",2,34.277284,-117.075586,TRUE,FALSE,TRUE,"S236628243"
"531","foxspa","Fox Sparrow","Passerella iliaca","L42059691","Broad Mouth Canyon","2025-05-10 05:58",1,42.64202,-112.81035,TRUE,FALSE,TRUE,"S235466345"
"532","foxspa","Fox Sparrow","Passerella iliaca","L12806317","Kodiak Isl.--Pyle residence","2025-05-10 05:57",8,57.8211997,-152.360566,TRUE,FALSE,TRUE,"S235516707"
"533","foxspa","Fox Sparrow","Passerella iliaca","L7375489","Dakota Ridge and Nearby","2025-05-10 05:35",1,40.4417476,-106.8390884,TRUE,FALSE,TRUE,"S236020127"
"534","foxspa","Fox Sparrow","Passerella iliaca","L4723972","Chitina (town)","2025-05-10 05:30",4,61.5153775,-144.440732,TRUE,FALSE,FALSE,"S235662743"
"535","foxspa","Fox Sparrow","Passerella iliaca","L11436937","607 Bullion Dr, Fairbanks US-AK 64.92908, -147.59027","2025-05-10 05:21",2,64.929081,-147.590271,TRUE,FALSE,TRUE,"S235495085"
"536","foxspa","Fox Sparrow","Passerella iliaca","L1242826","Metcalf Meadow--2N10 at 2N17","2025-05-10 05:18",4,34.2238322,-116.9383693,TRUE,FALSE,FALSE,"S235674735"
"537","foxspa","Fox Sparrow","Passerella iliaca","L610483","Peavine Campground","2025-05-10 05:00",3,38.6177423,-117.3044264,TRUE,FALSE,TRUE,"S235611540"
"538","foxspa","Fox Sparrow","Passerella iliaca","L9847543","Kachemak Bay--Gull Island","2025-05-10 04:48",1,59.5850521,-151.3284206,TRUE,FALSE,FALSE,"S235538031"
"539","foxspa","Fox Sparrow","Passerella iliaca","L9042354","Kodiak Is.--cabin near Brooker's Lagoon","2025-05-10",1,57.619233,-152.344406,TRUE,FALSE,TRUE,"S236053434"
"540","foxspa","Fox Sparrow","Passerella iliaca","L7627900","Black Lassic","2025-05-09 21:45",2,40.3396425,-123.5413885,TRUE,FALSE,FALSE,"S237998184"
"541","foxspa","Fox Sparrow","Passerella iliaca","L506735","American Fork Canyon--Granite Flat CG","2025-05-09 19:02",1,40.4905978,-111.6554475,TRUE,FALSE,FALSE,"S235269137"
"542","foxspa","Fox Sparrow","Passerella iliaca","L44622994","Bear Creek Trail, Dolores US-CO 37.50478, -108.08996","2025-05-09 18:16",1,37.50478,-108.089958,TRUE,FALSE,TRUE,"S235809784"
"543","foxspa","Fox Sparrow","Passerella iliaca","L2672833","Cromwell Park","2025-05-09 16:51",1,41.4581791,-82.1464705,TRUE,FALSE,FALSE,"S235188435"
"544","foxspa","Fox Sparrow","Passerella iliaca","L18799938","Spayde Road Charlevoix Mi","2025-05-09 16:30",1,45.2413612,-85.3251873,TRUE,FALSE,TRUE,"S237573186"
"545","foxspa","Fox Sparrow","Passerella iliaca","L32515325","8255 Meeks Bay Ave, Tahoma US-CA 39.03401, -120.11713","2025-05-09 16:16",1,39.034009,-120.117127,TRUE,FALSE,TRUE,"S235225190"
"546","foxspa","Fox Sparrow","Passerella iliaca","L505441","White Mtns.--Schulman Grove and nearby trails","2025-05-09 15:48",3,37.3855716,-118.1782258,TRUE,FALSE,FALSE,"S235278917"
"547","foxspa","Fox Sparrow","Passerella iliaca","L44507000","Walk From KuC To ONC Subdivision","2025-05-09 15:39",2,60.789739,-161.7721869,TRUE,FALSE,TRUE,"S235240977"
"548","foxspa","Fox Sparrow","Passerella iliaca","L286248","Findley SP","2025-05-09 14:14",1,41.123587,-82.2136213,TRUE,FALSE,FALSE,"S235136481"
"549","foxspa","Fox Sparrow","Passerella iliaca","L19457082","Rio Lado Wetland and Trail","2025-05-09 13:58",2,37.5917209,-108.1334895,TRUE,FALSE,FALSE,"S235171566"
"550","foxspa","Fox Sparrow","Passerella iliaca","L333765","Killdeer Plains Wildlife Area--Pond 3","2025-05-09 13:34",1,40.7171518,-83.3399385,TRUE,FALSE,FALSE,"S235146983"
"551","foxspa","Fox Sparrow","Passerella iliaca","L26623311","My barn","2025-05-09 13:26",NA,44.3225327,-71.9571915,TRUE,TRUE,TRUE,"S235114476"
"552","foxspa","Fox Sparrow","Passerella iliaca","L44505179","USFS Rd 43:  USFS Rd 4304 intersection - USFS boundary/Sno-Park","2025-05-09 13:23",1,46.130618,-117.351347,TRUE,FALSE,TRUE,"S235184004"
"553","foxspa","Fox Sparrow","Passerella iliaca","L247778","Curecanti NRA--Neversink Trail","2025-05-09 13:17",1,38.5150059,-107.0179891,TRUE,FALSE,FALSE,"S235156036"
"554","foxspa","Fox Sparrow","Passerella iliaca","L36850028","Castle Rock Loop Trail and Vista (including portions of Tahoe Rim Trail)","2025-05-09 12:55",2,38.9937426,-119.90299,TRUE,FALSE,FALSE,"S235178581"
"555","foxspa","Fox Sparrow","Passerella iliaca","L7049056","Russ Garaman Park","2025-05-09 12:49",1,43.4658464,-110.7879782,TRUE,FALSE,FALSE,"S235266713"
"556","foxspa","Fox Sparrow","Passerella iliaca","L33704855","Willow Creek Trail","2025-05-09 12:46",1,43.536029,-115.811754,TRUE,FALSE,FALSE,"S235179815"
"557","foxspa","Fox Sparrow","Passerella iliaca","L714392","Avimor--Spring Valley Creek Trail","2025-05-09 12:27",1,43.7788717,-116.2532473,TRUE,FALSE,FALSE,"S238014548"
"558","foxspa","Fox Sparrow","Passerella iliaca","L4818997","Talkeetna--Talkeetna River outlet","2025-05-09 12:22",1,62.3257305,-150.1173055,TRUE,FALSE,FALSE,"S235177945"
"559","foxspa","Fox Sparrow","Passerella iliaca","L21113880","Pioneer Campground","2025-05-09 12:22",2,41.628472,-111.692991,TRUE,FALSE,TRUE,"S236607294"
"560","foxspa","Fox Sparrow","Passerella iliaca","L12295261","Concow Rd.--Camalot Ln. to Flea Valley","2025-05-09 12:03",1,39.7988764,-121.4928293,TRUE,FALSE,FALSE,"S235199003"
"561","foxspa","Fox Sparrow","Passerella iliaca","L19125675","Doug Cardwell community trail","2025-05-09 12:00",1,37.1011987,-119.3205986,TRUE,FALSE,TRUE,"S235212097"
"562","foxspa","Fox Sparrow","Passerella iliaca","L1452870","Kodiak Is.--City of Kodiak (includes Near Island)","2025-05-09 11:14",7,57.7909656,-152.3988976,TRUE,FALSE,FALSE,"S235202725"
"563","foxspa","Fox Sparrow","Passerella iliaca","L9433862","Third Fork Road, Gem County","2025-05-09 11:14",2,44.244764,-116.302935,TRUE,FALSE,TRUE,"S235199665"
"564","foxspa","Fox Sparrow","Passerella iliaca","L14384031","Magee Marsh--Goosehaven Trail (seasonal)","2025-05-09 10:57",1,41.6264212,-83.1921858,TRUE,FALSE,FALSE,"S235080236"
"565","foxspa","Fox Sparrow","Passerella iliaca","L5269657","Avon Pass Rd (Weber Co.)","2025-05-09 10:51",2,41.3867263,-111.8634367,TRUE,FALSE,FALSE,"S235139717"
"566","foxspa","Fox Sparrow","Passerella iliaca","L44779969","Haceta Head Lighthouse","2025-05-09 10:48",1,44.1373774,-124.1281271,TRUE,FALSE,TRUE,"S236650779"
"567","foxspa","Fox Sparrow","Passerella iliaca","L44492453","3998 Old Valdez Trail, North Pole, Alaska, US (64.708, -147.289)","2025-05-09 10:44",4,64.70761,-147.2891367,TRUE,FALSE,TRUE,"S235162203"
"568","foxspa","Fox Sparrow","Passerella iliaca","L9239113","Caribou Lodge Alaska","2025-05-09 10:40",2,62.2437306,-149.7136185,TRUE,FALSE,TRUE,"S236056816"
"569","foxspa","Fox Sparrow","Passerella iliaca","L44484895","4185 Number Two Canyon Road, Wenatchee US-WA 47.39082, -120.40930","2025-05-09 10:38",1,47.390819,-120.409296,TRUE,FALSE,TRUE,"S235124940"
"570","foxspa","Fox Sparrow","Passerella iliaca","L1168838","Ottawa NWR--Ottawa-Lucas Co. Rd. (Ottawa Co.)","2025-05-09 10:24",1,41.6228213,-83.2538098,TRUE,FALSE,FALSE,"S235171528"
"571","foxspa","Fox Sparrow","Passerella iliaca","L1219283","Santiago Rd. boardwalk","2025-05-09 10:24",1,43.9992052,-83.7062287,TRUE,FALSE,FALSE,"S235056954"
"572","foxspa","Fox Sparrow","Passerella iliaca","L961319","Beluga--North Bog","2025-05-09 10:15",1,61.2094437,-151.0248041,TRUE,FALSE,FALSE,"S235294371"
"573","foxspa","Fox Sparrow","Passerella iliaca","L5928803","Nome-Council Rd--Nome River to Cape Nome","2025-05-09 10:14",1,64.4477456,-165.0624213,TRUE,FALSE,FALSE,"S235286112"
"574","foxspa","Fox Sparrow","Passerella iliaca","L44856390","Synergy Gardens","2025-05-09 10:00",1,59.714424,-151.297455,TRUE,FALSE,TRUE,"S237081922"
"575","foxspa","Fox Sparrow","Passerella iliaca","L44493578","65195 Nearly Level Rd, Homer US-AK 59.67420, -151.60147","2025-05-09 09:57",1,59.674199,-151.601473,TRUE,FALSE,TRUE,"S235167794"
"576","foxspa","Fox Sparrow","Passerella iliaca","L1569546","Shumsky Rd.","2025-05-09 09:50",1,44.6533091,-85.5898549,TRUE,FALSE,FALSE,"S235160552"
"577","foxspa","Fox Sparrow","Passerella iliaca","L26987490","SC bird route, Maumee US-OH 41.54809, -83.68245","2025-05-09 09:47",1,41.548094,-83.682445,TRUE,FALSE,TRUE,"S235028575"
"578","foxspa","Fox Sparrow","Passerella iliaca","L44544180","Head Of Canyon","2025-05-09 09:45",1,46.0241934,-116.0715041,TRUE,FALSE,TRUE,"S235429633"
"579","foxspa","Fox Sparrow","Passerella iliaca","L22384159","Weaver Bally Road, to lookout","2025-05-09 09:45",15,40.7580705,-122.9503618,TRUE,FALSE,TRUE,"S235308759"
"580","foxspa","Fox Sparrow","Passerella iliaca","L14975980","Boise National Forest, Boise US-ID 43.52473, -115.87982","2025-05-09 09:27",3,43.524725,-115.87982,TRUE,FALSE,TRUE,"S235153983"
"581","foxspa","Fox Sparrow","Passerella iliaca","L11697494","Fowler Public Camp Road","2025-05-09 09:24",6,41.2557664,-122.030751,TRUE,FALSE,TRUE,"S235100827"
"582","foxspa","Fox Sparrow","Passerella iliaca","L18880221","Canyon Glen Park","2025-05-09 09:21",1,40.330849,-111.621719,TRUE,FALSE,TRUE,"S235065986"
"583","foxspa","Fox Sparrow","Passerella iliaca","L4950325","Black Canyon of the Gunnison NP--South Rim Campground","2025-05-09 09:20",2,38.5433993,-107.6890182,TRUE,FALSE,FALSE,"S235560279"
"584","foxspa","Fox Sparrow","Passerella iliaca","L232479","Juanita Bay Park","2025-05-09 09:19",2,47.6981686,-122.2101878,TRUE,FALSE,FALSE,"S235116867"
"585","foxspa","Fox Sparrow","Passerella iliaca","L42137426","496 Majestic Pines Dr, Mammoth Lakes US-CA 37.63406, -118.98292","2025-05-09 09:17",1,37.634058,-118.982921,TRUE,FALSE,TRUE,"S235078604"
"586","foxspa","Fox Sparrow","Passerella iliaca","L44506046","Spooner Summit Area","2025-05-09 09:15",1,39.1182642,-119.906736,TRUE,FALSE,TRUE,"S235248804"
"587","foxspa","Fox Sparrow","Passerella iliaca","L19592844","16776–16798 E Blacks Creek Rd, Boise US-ID 43.48529, -115.95058","2025-05-09 09:14",1,43.485288,-115.950581,TRUE,FALSE,TRUE,"S235131560"
"588","foxspa","Fox Sparrow","Passerella iliaca","L268377","Long Lake Regional Park","2025-05-09 09:05",1,45.0781268,-93.1908555,TRUE,FALSE,FALSE,"S237330845"
"589","foxspa","Fox Sparrow","Passerella iliaca","L44478547","Bidarka Inn","2025-05-09 08:56",1,59.641941,-151.557853,TRUE,FALSE,TRUE,"S235092850"
"590","foxspa","Fox Sparrow","Passerella iliaca","L1026774","Lundy Canyon","2025-05-09 08:54",5,38.0256812,-119.2441034,TRUE,FALSE,FALSE,"S235279329"
