"","speciesCode","comName","sciName","locId","locName","obsDt","howMany","lat","lng","obsValid","obsReviewed","locationPrivate","subId"
"1","vauswi","Vaux's Swift","Chaetura vauxi","L4045955","Oregon State Capitol State Park and grounds","2025-06-22 16:19",1,44.938363,-123.030201,TRUE,FALSE,FALSE,"S253273162"
"2","vauswi","Vaux's Swift","Chaetura vauxi","L48276675","Colt Killed Creek area, Lolo US-ID","2025-06-22 16:16",1,46.508639,-114.679114,TRUE,FALSE,TRUE,"S253282468"
"3","vauswi","Vaux's Swift","Chaetura vauxi","L1413967","Whitaker Ponds Nature Park","2025-06-22 15:50",5,45.5733692,-122.6113719,TRUE,FALSE,FALSE,"S253278367"
"4","vauswi","Vaux's Swift","Chaetura vauxi","L18752082","Rogers Landing County Park","2025-06-22 15:23",1,45.2867357,-122.9661854,TRUE,FALSE,FALSE,"S253271540"
"5","vauswi","Vaux's Swift","Chaetura vauxi","L1875949","Errol Heights City Park","2025-06-22 15:16",1,45.4638568,-122.6125419,TRUE,FALSE,FALSE,"S253279255"
"6","vauswi","Vaux's Swift","Chaetura vauxi","L729088","Teanaway River Bridge","2025-06-22 15:14",1,47.1685759,-120.8346083,TRUE,FALSE,FALSE,"S253262704"
"7","vauswi","Vaux's Swift","Chaetura vauxi","L6556199","Broadmoor Wetlands & Riparian (restricted access)","2025-06-22 15:00",1,45.5833198,-122.6281393,TRUE,FALSE,FALSE,"S253273166"
"8","vauswi","Vaux's Swift","Chaetura vauxi","L1254749","Browns Lake","2025-06-22 14:58",NA,46.9576129,-113.0110359,TRUE,FALSE,FALSE,"S253256519"
"9","vauswi","Vaux's Swift","Chaetura vauxi","L7436708","Wild Rose day use site","2025-06-22 14:47",2,46.6744761,-121.0481277,TRUE,FALSE,FALSE,"S253261701"
"10","vauswi","Vaux's Swift","Chaetura vauxi","L677723","Three Creeks Natural Area","2025-06-22 14:31",1,45.430383,-122.5866508,TRUE,FALSE,FALSE,"S253264229"
"11","vauswi","Vaux's Swift","Chaetura vauxi","L24321264","SE 74th & Ash, Portland, OR","2025-06-22 14:28",1,45.5211747,-122.5867987,TRUE,FALSE,TRUE,"S253250986"
"12","vauswi","Vaux's Swift","Chaetura vauxi","L150417","Steigerwald Lake NWR","2025-06-22 13:05",2,45.5676572,-122.3147392,TRUE,FALSE,FALSE,"S253269883"
"13","vauswi","Vaux's Swift","Chaetura vauxi","L4470673","Duckabush Oxbow Jeff Co Land Trust","2025-06-22 12:53",1,47.656835,-122.952175,TRUE,FALSE,TRUE,"S253251705"
"14","vauswi","Vaux's Swift","Chaetura vauxi","L607744","Los Capitancillos Ponds","2025-06-22 12:07",2,37.238187,-121.8899632,TRUE,FALSE,FALSE,"S253210492"
"15","vauswi","Vaux's Swift","Chaetura vauxi","L2446013","Silver Lake County Park","2025-06-22 11:56",1,48.9732264,-122.0710771,TRUE,FALSE,FALSE,"S253247699"
"16","vauswi","Vaux's Swift","Chaetura vauxi","L895538","Navarro River Redwoods SP--Paul M. Dimmick Campground","2025-06-22 11:54",2,39.1572197,-123.6391926,TRUE,FALSE,FALSE,"S253229728"
"17","vauswi","Vaux's Swift","Chaetura vauxi","L14090996","SW Trail Place","2025-06-22 11:22",1,45.4562955,-122.8022813,TRUE,FALSE,TRUE,"S253246050"
"18","vauswi","Vaux's Swift","Chaetura vauxi","L8079335","Collins Campground","2025-06-22 11:13",3,47.6824717,-123.0214952,TRUE,FALSE,FALSE,"S253251974"
"19","vauswi","Vaux's Swift","Chaetura vauxi","L1027161","Fort Vancouver NHS","2025-06-22 11:04",1,45.6265628,-122.6594396,TRUE,FALSE,FALSE,"S253191416"
"20","vauswi","Vaux's Swift","Chaetura vauxi","L487048","Fern Ridge WMA--Royal Ave. area (general)","2025-06-22 10:59",2,44.0705825,-123.2574606,TRUE,FALSE,FALSE,"S253247846"
"21","vauswi","Vaux's Swift","Chaetura vauxi","L741088","Wildwood Recreation Site Area","2025-06-22 10:58",2,45.3553771,-121.9866171,TRUE,FALSE,FALSE,"S253240982"
"22","vauswi","Vaux's Swift","Chaetura vauxi","L10080623","Wild Horse Renewable Energy Center","2025-06-22 10:58",1,47.0123618,-120.2015448,TRUE,FALSE,FALSE,"S253205855"
"23","vauswi","Vaux's Swift","Chaetura vauxi","L4016057","Ivor Davies Park","2025-06-22 10:56",2,45.136353,-122.570065,TRUE,FALSE,FALSE,"S253263523"
"24","vauswi","Vaux's Swift","Chaetura vauxi","L48252745","Midge Cramer Path, Corvallis, Oregon, US (44.567, -123.328)","2025-06-22 10:55",1,44.566566,-123.3280132,TRUE,FALSE,TRUE,"S253183520"
"25","vauswi","Vaux's Swift","Chaetura vauxi","L4672934","Hyak Sewage Lagoons","2025-06-22 10:54",5,47.3868705,-121.3928466,TRUE,FALSE,FALSE,"S253181549"
"26","vauswi","Vaux's Swift","Chaetura vauxi","L1225604","Colonial Creek Campground/Thunder Arm","2025-06-22 10:48",1,48.6901448,-121.0959492,TRUE,FALSE,FALSE,"S253240112"
"27","vauswi","Vaux's Swift","Chaetura vauxi","L7217099","The Lakes","2025-06-22 10:42",1,48.3823498,-114.3191063,TRUE,FALSE,FALSE,"S253271063"
"28","vauswi","Vaux's Swift","Chaetura vauxi","L457092","Fort Steilacoom Park","2025-06-22 10:40",2,47.1734947,-122.5604081,TRUE,FALSE,FALSE,"S253211479"
"29","vauswi","Vaux's Swift","Chaetura vauxi","L989543","Trillium Lake","2025-06-22 10:32",6,45.2737086,-121.7377853,TRUE,FALSE,FALSE,"S253265305"
"30","vauswi","Vaux's Swift","Chaetura vauxi","L1494998","Chinook Landing Marine Park","2025-06-22 10:32",2,45.5611264,-122.4368138,TRUE,FALSE,FALSE,"S253283064"
"31","vauswi","Vaux's Swift","Chaetura vauxi","L15483063","Sandy River Oxbow Regional Park","2025-06-22 09:58",2,45.5011434,-122.3061562,TRUE,FALSE,FALSE,"S253182514"
"32","vauswi","Vaux's Swift","Chaetura vauxi","L2242479","Stayton Riverfront Park","2025-06-22 09:47",1,44.7960009,-122.7853054,TRUE,FALSE,FALSE,"S253169421"
"33","vauswi","Vaux's Swift","Chaetura vauxi","L3541514","NE Sundial Rd.--Company Lake","2025-06-22 09:45",2,45.5615042,-122.40696,TRUE,FALSE,FALSE,"S253212741"
"34","vauswi","Vaux's Swift","Chaetura vauxi","L45501913","Three Lynx Meadow","2025-06-22 09:41",6,45.1253889,-122.0710905,TRUE,FALSE,FALSE,"S253240527"
"35","vauswi","Vaux's Swift","Chaetura vauxi","L3132848","Tussing Park/Reinhart Volunteer Park","2025-06-22 09:35",2,42.4285133,-123.3475668,TRUE,FALSE,FALSE,"S253217161"
"36","vauswi","Vaux's Swift","Chaetura vauxi","L48243521","352 S Shore Rd, Quinault US-WA (47.4673,-123.8469)","2025-06-22 09:22",3,47.46728,-123.846904,TRUE,FALSE,TRUE,"S253148475"
"37","vauswi","Vaux's Swift","Chaetura vauxi","L279617","Rancho del Oso","2025-06-22 09:17",5,37.0995174,-122.279972,TRUE,FALSE,FALSE,"S253246706"
"38","vauswi","Vaux's Swift","Chaetura vauxi","L3780450","Marymoor Park--Rowing Club","2025-06-22 09:10",1,47.6537387,-122.1152258,TRUE,FALSE,FALSE,"S253162377"
"39","vauswi","Vaux's Swift","Chaetura vauxi","L792565","Crystal Springs Rhododendron Garden","2025-06-22 09:10",2,45.4779708,-122.6364702,TRUE,FALSE,FALSE,"S253183941"
"40","vauswi","Vaux's Swift","Chaetura vauxi","L950776","Big Four Ice Caves","2025-06-22 09:02",5,48.0651548,-121.5151566,TRUE,FALSE,FALSE,"S253223172"
"41","vauswi","Vaux's Swift","Chaetura vauxi","L742977","Willow Creek Nature Preserve","2025-06-22 09:01",1,44.03664,-123.170042,TRUE,FALSE,FALSE,"S253164983"
"42","vauswi","Vaux's Swift","Chaetura vauxi","L3261429","Clark Park","2025-06-22 08:54",1,45.150833,-122.565422,TRUE,FALSE,FALSE,"S253142856"
"43","vauswi","Vaux's Swift","Chaetura vauxi","L40376790","The House of Johnny Wilson's Warbler, Johnny Wilson.","2025-06-22 08:53",1,45.4893548,-122.6280907,TRUE,FALSE,TRUE,"S253158135"
"44","vauswi","Vaux's Swift","Chaetura vauxi","L1584881","Island Park","2025-06-22 08:45",1,44.0473107,-123.0275202,TRUE,FALSE,FALSE,"S253149915"
"45","vauswi","Vaux's Swift","Chaetura vauxi","L558237","Stampede Pass Exit (I-90)","2025-06-22 08:42",2,47.3084523,-121.3143826,TRUE,FALSE,FALSE,"S253140692"
"46","vauswi","Vaux's Swift","Chaetura vauxi","L41822357","2960 Post Siding Rd, Missoula US-MT 46.84147, -114.05381","2025-06-22 08:24",1,46.841473,-114.05381,TRUE,FALSE,TRUE,"S253123287"
"47","vauswi","Vaux's Swift","Chaetura vauxi","L26503902","North Emerson Street Neighborhood","2025-06-22 08:15",1,47.844105,-120.016609,TRUE,FALSE,TRUE,"S253143302"
"48","vauswi","Vaux's Swift","Chaetura vauxi","L35766047","Casa Bergtree","2025-06-22 08:07",1,45.4647369,-122.6822682,TRUE,FALSE,TRUE,"S253155081"
"49","vauswi","Vaux's Swift","Chaetura vauxi","L7061852","Rocky Butte Park","2025-06-22 08:05",2,45.545942,-122.566361,TRUE,FALSE,FALSE,"S253156535"
"50","vauswi","Vaux's Swift","Chaetura vauxi","L594031","Ackerson Meadow","2025-06-22 07:58",2,37.835,-119.847,TRUE,FALSE,FALSE,"S253182055"
"51","vauswi","Vaux's Swift","Chaetura vauxi","L742994","Hills Creek Dam & Reservoir","2025-06-22 07:57",2,43.706966,-122.4286537,TRUE,FALSE,FALSE,"S253136990"
"52","vauswi","Vaux's Swift","Chaetura vauxi","L11990768","Marys Woods","2025-06-22 07:54",11,45.4016028,-122.6497377,TRUE,FALSE,TRUE,"S253184716"
"53","vauswi","Vaux's Swift","Chaetura vauxi","L333876","Ukiah WWTP","2025-06-22 07:42",3,39.1124073,-123.1889513,TRUE,FALSE,FALSE,"S253140639"
"54","vauswi","Vaux's Swift","Chaetura vauxi","L294186","Willamette Park--South Side","2025-06-22 07:41",1,44.5373738,-123.2487487,TRUE,FALSE,FALSE,"S253161848"
"55","vauswi","Vaux's Swift","Chaetura vauxi","L7947850","Dry Lake","2025-06-22 07:39",3,47.914825,-120.1788098,TRUE,FALSE,FALSE,"S253233019"
"56","vauswi","Vaux's Swift","Chaetura vauxi","L447381","Mt. Tabor Park","2025-06-22 07:39",1,45.5114597,-122.5940323,TRUE,FALSE,FALSE,"S253135525"
"57","vauswi","Vaux's Swift","Chaetura vauxi","L285637","Calliope Crossing","2025-06-22 07:22",1,44.3507699,-121.5526056,TRUE,FALSE,FALSE,"S253163268"
"58","vauswi","Vaux's Swift","Chaetura vauxi","L1758282","Sun Mountain Lodge--Beaver Pond Trail","2025-06-22 07:15",1,48.4756984,-120.2519503,TRUE,FALSE,FALSE,"S253154291"
"59","vauswi","Vaux's Swift","Chaetura vauxi","L3858879","Baskett Slough NWR--South Slough transect path","2025-06-22 07:15",6,44.9562801,-123.2571548,TRUE,FALSE,FALSE,"S253282953"
"60","vauswi","Vaux's Swift","Chaetura vauxi","L9821184","Sauvie Island--JL Access Rd.","2025-06-22 07:02",3,45.723516,-122.7821719,TRUE,FALSE,FALSE,"S253144597"
"61","vauswi","Vaux's Swift","Chaetura vauxi","L13784754","Orchards Home","2025-06-22 07:00",2,45.6714721,-122.5631674,TRUE,FALSE,TRUE,"S253180629"
"62","vauswi","Vaux's Swift","Chaetura vauxi","L590483","Olympic NP--Headquarters","2025-06-22 07:00",1,48.09955,-123.42641,TRUE,FALSE,FALSE,"S253116339"
"63","vauswi","Vaux's Swift","Chaetura vauxi","L470113","Atascadero Lake","2025-06-22 06:24",2,35.4646547,-120.6667256,TRUE,TRUE,FALSE,"S253098906"
"64","vauswi","Vaux's Swift","Chaetura vauxi","L48194171","100 Timberline Dr W, Packwood US-WA 46.64886, -121.61695","2025-06-22 06:22",3,46.648865,-121.616954,TRUE,FALSE,TRUE,"S253107497"
"65","vauswi","Vaux's Swift","Chaetura vauxi","L48253253","26568–26610 S Bolland Rd, Canby US-OR 45.22010, -122.69033","2025-06-22 06:07",1,45.220101,-122.690326,TRUE,FALSE,TRUE,"S253185454"
"66","vauswi","Vaux's Swift","Chaetura vauxi","L48199215","Melita Island","2025-06-22 05:58",5,47.8205433,-114.2323198,TRUE,FALSE,TRUE,"S253086635"
"67","vauswi","Vaux's Swift","Chaetura vauxi","L2672311","Salem Riverfront Park","2025-06-22 05:48",1,44.9425669,-123.0432057,TRUE,FALSE,FALSE,"S253112904"
"68","vauswi","Vaux's Swift","Chaetura vauxi","L12864930","Mirror Lake Trail #664","2025-06-22 01:36",6,45.297778,-121.791667,TRUE,FALSE,FALSE,"S253264397"
"69","vauswi","Vaux's Swift","Chaetura vauxi","L48200084","Dorman Road Goldbar","2025-06-21 21:12",4,47.846648,-121.691006,TRUE,FALSE,TRUE,"S252946410"
"70","vauswi","Vaux's Swift","Chaetura vauxi","L39382159","118 Massey Wills Lane, Twisp, Washington, US (48.367, -120.121)","2025-06-21 20:50",6,48.3669441,-120.1213696,TRUE,FALSE,TRUE,"S252942819"
"71","vauswi","Vaux's Swift","Chaetura vauxi","L9955160","Skokomish Valley Farms","2025-06-21 20:29",4,47.3267418,-123.2391792,TRUE,FALSE,FALSE,"S252942721"
"72","vauswi","Vaux's Swift","Chaetura vauxi","L6545562","Ti Bar Flat","2025-06-21 19:54",6,41.5292544,-123.5276341,TRUE,FALSE,FALSE,"S253259801"
"73","vauswi","Vaux's Swift","Chaetura vauxi","L500365","Jedediah Smith Redwoods SP--Hiouchi Visitor Center & campground","2025-06-21 19:19",3,41.796624,-124.0848051,TRUE,FALSE,FALSE,"S252934511"
"74","vauswi","Vaux's Swift","Chaetura vauxi","L7283106","Cattail Corner","2025-06-21 19:03",2,46.8350954,-114.0173846,TRUE,FALSE,FALSE,"S252927889"
"75","vauswi","Vaux's Swift","Chaetura vauxi","L2324035","Hood River--Powerdale Corridor","2025-06-21 18:32",4,45.695734,-121.5082741,TRUE,FALSE,FALSE,"S252935520"
"76","vauswi","Vaux's Swift","Chaetura vauxi","L285645","Deschutes River State Recreation Area","2025-06-21 18:13",1,45.6306103,-120.9078884,TRUE,FALSE,FALSE,"S252934492"
"77","vauswi","Vaux's Swift","Chaetura vauxi","L48199970","Grace's Wedding","2025-06-21 17:54",2,43.2873025,-123.4601464,TRUE,FALSE,TRUE,"S252945856"
"78","vauswi","Vaux's Swift","Chaetura vauxi","L7158052","Conboy Lake NWR--Lake Rd.","2025-06-21 17:43",1,45.9788826,-121.3236932,TRUE,FALSE,FALSE,"S253153621"
"79","vauswi","Vaux's Swift","Chaetura vauxi","L273687","Roger Lake","2025-06-21 17:35",1,48.6474774,-119.9691343,TRUE,FALSE,FALSE,"S253085074"
"80","vauswi","Vaux's Swift","Chaetura vauxi","L48199661","1425 Pipeline Dr, Goldendale US-WA (45.8356,-120.8126)","2025-06-21 16:51",1,45.835552,-120.812577,TRUE,FALSE,TRUE,"S252944482"
"81","vauswi","Vaux's Swift","Chaetura vauxi","L29543289","Riverfront Park, Spokane US-WA 47.66418, -117.42086","2025-06-21 16:37",1,47.664178,-117.42086,TRUE,FALSE,TRUE,"S252902989"
"82","vauswi","Vaux's Swift","Chaetura vauxi","L3893264","D&D cabin","2025-06-21 16:27",1,48.822152,-122.1352458,TRUE,FALSE,TRUE,"S252926709"
"83","vauswi","Vaux's Swift","Chaetura vauxi","L14236328","158th Marsh","2025-06-21 16:18",1,45.5577297,-122.5034468,TRUE,FALSE,FALSE,"S252904750"
"84","vauswi","Vaux's Swift","Chaetura vauxi","L27544816","Sandy Riverfront RV","2025-06-21 16:17",2,45.5388805,-122.3795918,TRUE,FALSE,TRUE,"S252901295"
"85","vauswi","Vaux's Swift","Chaetura vauxi","L48187751","US-20 BR ramp to southbound US-97","2025-06-21 16:15",3,44.0769022,-121.3044014,TRUE,FALSE,TRUE,"S252895129"
"86","vauswi","Vaux's Swift","Chaetura vauxi","L768076","I-5--Collier Rest Area","2025-06-21 16:02",1,41.8521735,-122.5722313,TRUE,FALSE,FALSE,"S252897201"
"87","vauswi","Vaux's Swift","Chaetura vauxi","L48186076","372 South Alder Street, Pilot Rock, Oregon, US (45.48, -118.833)","2025-06-21 15:49",1,45.4799494,-118.8330157,TRUE,FALSE,TRUE,"S252888196"
"88","vauswi","Vaux's Swift","Chaetura vauxi","L742900","Hills Creek Pond","2025-06-21 15:36",2,43.7133789,-122.4286473,TRUE,FALSE,FALSE,"S252966376"
"89","vauswi","Vaux's Swift","Chaetura vauxi","L48184544","33401 State Route 530 Northeast, Arlington, Washington, US (48.282, -121.776)","2025-06-21 15:24",1,48.2817548,-121.7763273,TRUE,FALSE,TRUE,"S252882167"
"90","vauswi","Vaux's Swift","Chaetura vauxi","L48184437","33401 State Route 530 Northeast, Arlington, Washington, US (48.282, -121.776)","2025-06-21 15:15",1,48.2818676,-121.7761709,TRUE,FALSE,TRUE,"S252881712"
"91","vauswi","Vaux's Swift","Chaetura vauxi","L25995045","13880 Washington 410, Naches, Washington, US (46.871, -120.972)","2025-06-21 15:14",5,46.8709876,-120.972409,TRUE,FALSE,TRUE,"S252900084"
"92","vauswi","Vaux's Swift","Chaetura vauxi","L1454820","Rooster Rock SP","2025-06-21 15:13",4,45.5472947,-122.2349514,TRUE,FALSE,FALSE,"S252884039"
"93","vauswi","Vaux's Swift","Chaetura vauxi","L48237527","56675 McKenzie Highway, McKenzie Bridge, Oregon, US (44.177, -122.152)","2025-06-21 15:04",6,44.1768685,-122.1524538,TRUE,FALSE,TRUE,"S253124827"
"94","vauswi","Vaux's Swift","Chaetura vauxi","L48185823","Bird House - Bellingham","2025-06-21 15:00",15,48.7474645,-122.4154518,TRUE,FALSE,TRUE,"S252887470"
"95","vauswi","Vaux's Swift","Chaetura vauxi","L690873","Pacific Union College campus","2025-06-21 14:45",1,38.5716392,-122.4356747,TRUE,FALSE,FALSE,"S253106979"
"96","vauswi","Vaux's Swift","Chaetura vauxi","L14890870","home 203 Canal Road, Toutle, Washington, US (46.296, -122.729)","2025-06-21 14:44",1,46.2959415,-122.7289582,TRUE,FALSE,TRUE,"S252872855"
"97","vauswi","Vaux's Swift","Chaetura vauxi","L3723247","Paisley--Lovers Lane","2025-06-21 14:37",2,42.6888005,-120.5208349,TRUE,FALSE,FALSE,"S252879611"
"98","vauswi","Vaux's Swift","Chaetura vauxi","L12129679","Stopka dom na kopci","2025-06-21 14:28",2,47.550811,-121.8873453,TRUE,FALSE,TRUE,"S252872970"
"99","vauswi","Vaux's Swift","Chaetura vauxi","L4839404","Copperfield (town)","2025-06-21 14:13",1,44.97611,-116.8580927,TRUE,FALSE,FALSE,"S252876702"
"100","vauswi","Vaux's Swift","Chaetura vauxi","L2944493","Robinson Marsh","2025-06-21 14:05",1,47.493141,-116.554688,TRUE,FALSE,FALSE,"S252899111"
"101","vauswi","Vaux's Swift","Chaetura vauxi","L269461","Magnuson Park","2025-06-21 13:22",3,47.6815336,-122.2505453,TRUE,FALSE,FALSE,"S252931261"
"102","vauswi","Vaux's Swift","Chaetura vauxi","L3960147","US-CA-Guerneville-14520 Solaridge Rd - 38.5005x-123.0100","2025-06-21 13:11",2,38.500533,-123.00998,TRUE,FALSE,TRUE,"S252890491"
"103","vauswi","Vaux's Swift","Chaetura vauxi","L46517593","Shelton Farmers Market","2025-06-21 13:09",3,47.212299,-123.104681,TRUE,FALSE,TRUE,"S252940756"
"104","vauswi","Vaux's Swift","Chaetura vauxi","L12625801","Olex","2025-06-21 13:04",1,45.4999,-120.1755,TRUE,FALSE,FALSE,"S252865435"
"105","vauswi","Vaux's Swift","Chaetura vauxi","L2694334","Warm Springs Boat Ramp","2025-06-21 12:51",2,44.7592218,-121.2277039,TRUE,FALSE,FALSE,"S252857050"
"106","vauswi","Vaux's Swift","Chaetura vauxi","L48174767","Mosquito Lake Road And Middle Fork","2025-06-21 12:45",2,48.7942482,-122.1166096,TRUE,FALSE,TRUE,"S252845062"
"107","vauswi","Vaux's Swift","Chaetura vauxi","L469613","SE 19th Way, Fall City","2025-06-21 12:37",4,47.5940106,-121.9191746,TRUE,FALSE,FALSE,"S252899572"
"108","vauswi","Vaux's Swift","Chaetura vauxi","L2757327","Pole Creek Spring Trail","2025-06-21 12:23",1,44.1878664,-121.7007065,TRUE,FALSE,FALSE,"S252944435"
"109","vauswi","Vaux's Swift","Chaetura vauxi","L564147","Smith Rock SP","2025-06-21 12:20",1,44.3669375,-121.1371851,TRUE,FALSE,FALSE,"S252861973"
"110","vauswi","Vaux's Swift","Chaetura vauxi","L4708719","Caras Park","2025-06-21 12:17",3,46.8692608,-113.9971675,TRUE,FALSE,TRUE,"S252868618"
"111","vauswi","Vaux's Swift","Chaetura vauxi","L15205181","Piano Ranch","2025-06-21 12:02",5,47.5808976,-121.9082414,TRUE,FALSE,FALSE,"S252899442"
"112","vauswi","Vaux's Swift","Chaetura vauxi","L30018016","Lee Metcalf NWR-- Riparian Way Trail","2025-06-21 11:57",1,46.5381544,-114.09632,TRUE,FALSE,FALSE,"S252831191"
"113","vauswi","Vaux's Swift","Chaetura vauxi","L740288","Olympic NP--Beach 4","2025-06-21 11:54",3,47.6515416,-124.3880975,TRUE,FALSE,FALSE,"S252903534"
"114","vauswi","Vaux's Swift","Chaetura vauxi","L27296636","Prairie Creek Redwoods SP--Visitor Center Trails","2025-06-21 11:43",1,41.3646005,-124.0214418,TRUE,FALSE,FALSE,"S252925788"
"115","vauswi","Vaux's Swift","Chaetura vauxi","L162766","Union Bay Natural Area/Montlake Fill","2025-06-21 11:37",7,47.65424,-122.29137,TRUE,FALSE,FALSE,"S252861319"
"116","vauswi","Vaux's Swift","Chaetura vauxi","L3154333","Martial Cottle Park","2025-06-21 11:27",2,37.261923,-121.839499,TRUE,FALSE,FALSE,"S252825473"
"117","vauswi","Vaux's Swift","Chaetura vauxi","L48168788","Revel","2025-06-21 11:21",2,47.551734,-122.075271,TRUE,FALSE,TRUE,"S252822850"
"118","vauswi","Vaux's Swift","Chaetura vauxi","L9216302","Spruce Railroad Trail","2025-06-21 11:06",6,48.0932483,-123.802634,TRUE,FALSE,FALSE,"S252867928"
"119","vauswi","Vaux's Swift","Chaetura vauxi","L48163536","Sonoma Hwy, Agua Caliente US-CA 38.31806, -122.48456","2025-06-21 11:00",1,38.318063,-122.484559,TRUE,FALSE,TRUE,"S252802751"
"120","vauswi","Vaux's Swift","Chaetura vauxi","L1569757","Methow Valley--Big Valley Trail","2025-06-21 10:56",3,48.5288485,-120.304551,TRUE,FALSE,FALSE,"S252923957"
"121","vauswi","Vaux's Swift","Chaetura vauxi","L8847238","Ladd Marsh WMA Auto Tour Road","2025-06-21 10:55",1,45.2604995,-117.9527951,TRUE,FALSE,TRUE,"S252886087"
"122","vauswi","Vaux's Swift","Chaetura vauxi","L33449000","Washington, US (46.842, -122.365)","2025-06-21 10:49",NA,46.8418531,-122.3647917,TRUE,FALSE,TRUE,"S253120197"
"123","vauswi","Vaux's Swift","Chaetura vauxi","L507717","Snow Mountain Ranch","2025-06-21 10:43",2,46.6568448,-120.7548952,TRUE,FALSE,FALSE,"S252876156"
"124","vauswi","Vaux's Swift","Chaetura vauxi","L43791054","Camp Wawona - Cafeteria","2025-06-21 10:34",2,37.542558,-119.629229,TRUE,FALSE,TRUE,"S252837748"
"125","vauswi","Vaux's Swift","Chaetura vauxi","L40517940","Lost Creek Lake--Rogue River Trail West Shore","2025-06-21 10:30",1,42.687036,-122.670984,TRUE,FALSE,FALSE,"S252897851"
"126","vauswi","Vaux's Swift","Chaetura vauxi","L847498","Vance Creek Park","2025-06-21 10:19",2,46.9964705,-123.4151316,TRUE,FALSE,FALSE,"S252817053"
"127","vauswi","Vaux's Swift","Chaetura vauxi","L48168948","98014, Carnation US-WA 47.68137, -121.94674","2025-06-21 10:09",11,47.68137,-121.94674,TRUE,FALSE,TRUE,"S252823359"
"128","vauswi","Vaux's Swift","Chaetura vauxi","L558239","Robinson Canyon","2025-06-21 10:04",1,47.014688,-120.7160568,TRUE,FALSE,FALSE,"S252809152"
"129","vauswi","Vaux's Swift","Chaetura vauxi","L5037903","Swan River Nature Trail","2025-06-21 10:03",16,48.0634275,-114.069039,TRUE,FALSE,FALSE,"S252783850"
"130","vauswi","Vaux's Swift","Chaetura vauxi","L48171848","Kendall Skyline Rd. — north of Goldman CG","2025-06-21 10:02",2,46.148474,-117.767307,TRUE,FALSE,TRUE,"S252900100"
"131","vauswi","Vaux's Swift","Chaetura vauxi","L452553","Andrew Molera SP--old BSOL/Discovery Ctr vicinity (do not use for coast)","2025-06-21 10:00",3,36.2852005,-121.8425149,TRUE,FALSE,FALSE,"S252841958"
"132","vauswi","Vaux's Swift","Chaetura vauxi","L844420","Hansen Creek Restoration Project","2025-06-21 09:55",5,48.5237107,-122.198782,TRUE,FALSE,FALSE,"S252811261"
"133","vauswi","Vaux's Swift","Chaetura vauxi","L4113087","Walla Walla - Mojonnier Hill","2025-06-21 09:50",2,46.0280537,-118.419809,TRUE,FALSE,TRUE,"S252833949"
"134","vauswi","Vaux's Swift","Chaetura vauxi","L44019727","Fremont-Winema National Forests, Klamath Falls US-OR 42.49786, -122.08076","2025-06-21 09:44",2,42.497856,-122.080758,TRUE,FALSE,TRUE,"S252775850"
"135","vauswi","Vaux's Swift","Chaetura vauxi","L8405215","Trochlell home","2025-06-21 09:30",4,45.3236213,-118.073326,TRUE,FALSE,TRUE,"S252922824"
"136","vauswi","Vaux's Swift","Chaetura vauxi","L2068686","Sunriver Marina","2025-06-21 09:16",3,43.8873155,-121.4572048,TRUE,FALSE,FALSE,"S252769018"
"137","vauswi","Vaux's Swift","Chaetura vauxi","L2990483","Travelers Rest SP","2025-06-21 09:12",3,46.7496534,-114.0872455,TRUE,FALSE,FALSE,"S252765328"
"138","vauswi","Vaux's Swift","Chaetura vauxi","L48101430","117 Mill Street, Leavenworth, Washington, US (47.591, -120.674)","2025-06-21 09:10",2,47.59103,-120.6736128,TRUE,FALSE,TRUE,"S252830374"
"139","vauswi","Vaux's Swift","Chaetura vauxi","L522791","Breazeale Interpretive Center","2025-06-21 09:09",30,48.4949666,-122.4804783,TRUE,FALSE,FALSE,"S252892514"
"140","vauswi","Vaux's Swift","Chaetura vauxi","L935839","Beaver Pond Trail (Okanogan Co.)","2025-06-21 09:06",2,48.4673444,-120.2625275,TRUE,FALSE,FALSE,"S252923895"
"141","vauswi","Vaux's Swift","Chaetura vauxi","L11652948","Upper Indian Ford Creek","2025-06-21 09:06",2,44.3598066,-121.6216815,TRUE,FALSE,FALSE,"S252825385"
"142","vauswi","Vaux's Swift","Chaetura vauxi","L716214","Swanton Road near Last Chance Road","2025-06-21 09:00",1,37.0829735,-122.2577155,TRUE,FALSE,FALSE,"S252838069"
"143","vauswi","Vaux's Swift","Chaetura vauxi","L3381737","Dunbar Road farm","2025-06-21 09:00",2,48.4274926,-122.3880105,TRUE,FALSE,TRUE,"S253172859"
"144","vauswi","Vaux's Swift","Chaetura vauxi","L351484","Marymoor Park","2025-06-21 09:00",1,47.662576,-122.12052,TRUE,FALSE,FALSE,"S252899064"
"145","vauswi","Vaux's Swift","Chaetura vauxi","L682670","Yakima Area Arboretum","2025-06-21 08:33",4,46.5887299,-120.4712677,TRUE,FALSE,FALSE,"S252774738"
"146","vauswi","Vaux's Swift","Chaetura vauxi","L5634583","Henry Cowell Redwoods SP--observation deck and sandhills","2025-06-21 08:30",1,37.0261495,-122.046076,TRUE,FALSE,FALSE,"S252865060"
"147","vauswi","Vaux's Swift","Chaetura vauxi","L22019326","Eschbach Nature Area","2025-06-21 08:26",1,46.6756496,-120.654623,TRUE,FALSE,FALSE,"S252822372"
"148","vauswi","Vaux's Swift","Chaetura vauxi","L351272","Arroyo Seco Rec Area--lakes and gorge","2025-06-21 08:15",1,36.232132,-121.4846122,TRUE,FALSE,FALSE,"S252875803"
"149","vauswi","Vaux's Swift","Chaetura vauxi","L1425825","Home","2025-06-21 08:00",2,44.9573137,-116.2246686,TRUE,FALSE,TRUE,"S253134416"
"150","vauswi","Vaux's Swift","Chaetura vauxi","L1312587","Ketchikan--Brown Mountain Road","2025-06-21 07:50",2,55.4330677,-131.6133356,TRUE,FALSE,FALSE,"S252841565"
"151","vauswi","Vaux's Swift","Chaetura vauxi","L10057074","Lost Creek Lake--Riversedge Park","2025-06-21 07:45",4,42.6692721,-122.6828026,TRUE,FALSE,FALSE,"S252825554"
"152","vauswi","Vaux's Swift","Chaetura vauxi","L5988406","Fern Ridge WMA--Fisher Butte Unit north (dikes around Pond 4, 5, 6, and west edge of 3)","2025-06-21 07:45",NA,44.0667313,-123.263855,TRUE,FALSE,FALSE,"S252804478"
"153","vauswi","Vaux's Swift","Chaetura vauxi","L109487","Andrew Molera SP--Big Sur River mouth","2025-06-21 07:30",1,36.2819875,-121.8595805,TRUE,FALSE,FALSE,"S252906839"
"154","vauswi","Vaux's Swift","Chaetura vauxi","L1158042","Marys River Natural Area","2025-06-21 07:30",3,44.5385194,-123.2853556,TRUE,FALSE,FALSE,"S252746226"
"155","vauswi","Vaux's Swift","Chaetura vauxi","L1852120","Philomath Sewage Ponds--south edge","2025-06-21 07:11",4,44.5178604,-123.3458608,TRUE,FALSE,TRUE,"S252774460"
"156","vauswi","Vaux's Swift","Chaetura vauxi","L37226419","N Touchet Rd.","2025-06-21 07:07",1,46.172247,-117.817516,TRUE,FALSE,TRUE,"S252751887"
"157","vauswi","Vaux's Swift","Chaetura vauxi","L804045","Yakima Greenway","2025-06-21 06:48",1,46.5999802,-120.4732418,TRUE,FALSE,FALSE,"S253228752"
"158","vauswi","Vaux's Swift","Chaetura vauxi","L4598372","Philomath Sewage Ponds--nw corner","2025-06-21 06:40",1,44.52618,-123.34864,TRUE,FALSE,TRUE,"S252774558"
"159","vauswi","Vaux's Swift","Chaetura vauxi","L1384916","Philomath Sewage Ponds--south pond","2025-06-21 06:05",3,44.519245,-123.3463919,TRUE,FALSE,TRUE,"S252774452"
"160","vauswi","Vaux's Swift","Chaetura vauxi","L634615","Commonwealth Lake Park","2025-06-21 06:00",5,45.5119108,-122.8098106,TRUE,FALSE,FALSE,"S252689067"
"161","vauswi","Vaux's Swift","Chaetura vauxi","L672630","Minto-Brown Island Park","2025-06-21 05:57",2,44.924703,-123.0618095,TRUE,FALSE,FALSE,"S252727809"
"162","vauswi","Vaux's Swift","Chaetura vauxi","L1499624","Leino Lane","2025-06-21 05:56",2,40.0957823,-123.7998123,TRUE,FALSE,TRUE,"S252793281"
"163","vauswi","Vaux's Swift","Chaetura vauxi","L1131857","Lassen Volcanic NP--Warner Creek Meadows","2025-06-21 05:05",2,40.4196234,-121.3352895,TRUE,FALSE,FALSE,"S253088441"
"164","vauswi","Vaux's Swift","Chaetura vauxi","L1232973","Little Crater Lake","2025-06-21 02:25",10,45.1482952,-121.7507833,TRUE,FALSE,FALSE,"S253266979"
"165","vauswi","Vaux's Swift","Chaetura vauxi","L2707713","Clark Fork River Trail","2025-06-20 20:38",2,46.8694301,-114.0008769,TRUE,FALSE,FALSE,"S252551099"
"166","vauswi","Vaux's Swift","Chaetura vauxi","L579586","Arcata Marsh--Klopp Lake","2025-06-20 20:20",1,40.855284,-124.095567,TRUE,FALSE,FALSE,"S252558890"
"167","vauswi","Vaux's Swift","Chaetura vauxi","L38308328","Chinook Bend Pond","2025-06-20 20:20",3,47.668231,-121.927509,TRUE,FALSE,TRUE,"S252548736"
"168","vauswi","Vaux's Swift","Chaetura vauxi","L589493","Cape Lookout SP--Day Use Area/Campground","2025-06-20 20:11",3,45.3604533,-123.9708745,TRUE,FALSE,FALSE,"S252807975"
"169","vauswi","Vaux's Swift","Chaetura vauxi","L6540195","Dusty Campground","2025-06-20 18:45",5,41.0154782,-121.610831,TRUE,FALSE,FALSE,"S252562626"
"170","vauswi","Vaux's Swift","Chaetura vauxi","L8718459","SW Moline Ct","2025-06-20 18:26",1,45.51638,-122.891953,TRUE,FALSE,TRUE,"S252534260"
"171","vauswi","Vaux's Swift","Chaetura vauxi","L2150022","Anderson Rd. Swale","2025-06-20 18:18",2,45.240578,-122.746159,TRUE,FALSE,FALSE,"S252541908"
"172","vauswi","Vaux's Swift","Chaetura vauxi","L299860","McClellan Ranch Preserve","2025-06-20 18:10",1,37.3140655,-122.0630121,TRUE,FALSE,FALSE,"S252538810"
"173","vauswi","Vaux's Swift","Chaetura vauxi","L48235967","S Highway 3, Cataldo US-ID 47.49812, -116.54703","2025-06-20 17:58",4,47.498121,-116.547033,TRUE,FALSE,TRUE,"S253118486"
"174","vauswi","Vaux's Swift","Chaetura vauxi","L342054","Yakima Sportman State Park","2025-06-20 17:55",2,46.5917164,-120.4564838,TRUE,FALSE,FALSE,"S252550108"
"175","vauswi","Vaux's Swift","Chaetura vauxi","L18859789","3211 North Walnut Street, La Grande, Oregon, US (45.342, -118.104)","2025-06-20 17:31",2,45.3418322,-118.1042063,TRUE,FALSE,TRUE,"S252532559"
"176","vauswi","Vaux's Swift","Chaetura vauxi","L13095984","Woodlawn City Park","2025-06-20 17:30",2,45.5726069,-122.6539002,TRUE,FALSE,FALSE,"S252546464"
"177","vauswi","Vaux's Swift","Chaetura vauxi","L48099739","SH-97, Saint Maries US-ID 47.44256, -116.74943","2025-06-20 17:30",1,47.442555,-116.749428,TRUE,FALSE,TRUE,"S252521897"
"178","vauswi","Vaux's Swift","Chaetura vauxi","L452011","Lassen Volcanic NP--Manzanita Lake","2025-06-20 17:19",3,40.5316108,-121.5663815,TRUE,FALSE,FALSE,"S252932664"
"179","vauswi","Vaux's Swift","Chaetura vauxi","L7771228","Verlot Public Service Center","2025-06-20 17:13",3,48.0915918,-121.7810322,TRUE,FALSE,FALSE,"S252541395"
"180","vauswi","Vaux's Swift","Chaetura vauxi","L3738808","Camp Growden Heritage Site","2025-06-20 16:55",2,48.5853587,-118.3046919,TRUE,FALSE,FALSE,"S252530261"
"181","vauswi","Vaux's Swift","Chaetura vauxi","L48104473","412 South Granite Avenue, Granite Falls, Washington, US (48.079, -121.97)","2025-06-20 16:53",5,48.0791621,-121.9695638,TRUE,FALSE,TRUE,"S252541288"
"182","vauswi","Vaux's Swift","Chaetura vauxi","L3870517","Toole Riverfront Park","2025-06-20 16:39",20,46.8662264,-113.9903533,TRUE,FALSE,FALSE,"S252498302"
"183","vauswi","Vaux's Swift","Chaetura vauxi","L9838904","Lost Creek Lake--McGregor Park","2025-06-20 16:00",4,42.6597252,-122.6886443,TRUE,FALSE,FALSE,"S252551372"
"184","vauswi","Vaux's Swift","Chaetura vauxi","L48094263","30630–30884 Rocky Point Rd, Klamath Falls US-OR (42.5053,-122.0807)","2025-06-20 15:54",2,42.505257,-122.080718,TRUE,FALSE,TRUE,"S252497793"
"185","vauswi","Vaux's Swift","Chaetura vauxi","L10749584","Silverton, Idaho, US","2025-06-20 15:19",1,47.4948419,-115.9558911,TRUE,FALSE,TRUE,"S252489980"
"186","vauswi","Vaux's Swift","Chaetura vauxi","L11595718","2801–2823 N Sunnyside Rd, Shelton US-WA 47.31681, -123.18764","2025-06-20 15:15",4,47.316813,-123.18764,TRUE,FALSE,TRUE,"S252492530"
"187","vauswi","Vaux's Swift","Chaetura vauxi","L10052807","Dayville (town)","2025-06-20 15:04",1,44.466673,-119.534252,TRUE,FALSE,FALSE,"S252486460"
"188","vauswi","Vaux's Swift","Chaetura vauxi","L469136","Burney Falls","2025-06-20 14:49",1,41.0121469,-121.6522604,TRUE,FALSE,FALSE,"S252926927"
"189","vauswi","Vaux's Swift","Chaetura vauxi","L48152041","U.S. Highway 26, Mitchell, Oregon, US (44.521, -119.706)","2025-06-20 14:49",2,44.520929,-119.7060209,TRUE,FALSE,TRUE,"S252758794"
"190","vauswi","Vaux's Swift","Chaetura vauxi","L1121406","407th Ave NE, Darrington","2025-06-20 14:42",5,48.2685508,-121.6815287,TRUE,FALSE,FALSE,"S252487960"
"191","vauswi","Vaux's Swift","Chaetura vauxi","L3997737","In-Laws' Cabin","2025-06-20 14:00",1,44.545557,-116.0561711,TRUE,FALSE,TRUE,"S252925773"
"192","vauswi","Vaux's Swift","Chaetura vauxi","L19114032","Elwha River--Madison Falls Trailhead","2025-06-20 13:40",10,48.0430693,-123.5913821,TRUE,FALSE,FALSE,"S252489633"
"193","vauswi","Vaux's Swift","Chaetura vauxi","L5876738","Darrington - Sauk Prairie Rd. (Skagit Co)","2025-06-20 13:27",3,48.300439,-121.523173,TRUE,FALSE,TRUE,"S252475489"
"194","vauswi","Vaux's Swift","Chaetura vauxi","L18978265","Northpointe Park","2025-06-20 13:25",1,48.0600591,-122.1324866,TRUE,FALSE,FALSE,"S252824128"
"195","vauswi","Vaux's Swift","Chaetura vauxi","L320409","Leavenworth National Fish Hatchery","2025-06-20 13:23",1,47.5577099,-120.6697478,TRUE,FALSE,FALSE,"S252739222"
"196","vauswi","Vaux's Swift","Chaetura vauxi","L2862924","Olympic NP--Staircase","2025-06-20 12:32",1,47.51534,-123.32944,TRUE,FALSE,FALSE,"S252942762"
"197","vauswi","Vaux's Swift","Chaetura vauxi","L1522641","Whitehorse Park","2025-06-20 11:55",4,48.2713287,-121.6035296,TRUE,FALSE,FALSE,"S252452678"
"198","vauswi","Vaux's Swift","Chaetura vauxi","L9536135","Bear Gulch, Joseph, Oregon, US (45.489, -116.898)","2025-06-20 11:49",2,45.4889516,-116.8980115,TRUE,FALSE,TRUE,"S252521409"
"199","vauswi","Vaux's Swift","Chaetura vauxi","L493044","Philomath Sewage Ponds (restricted access)","2025-06-20 11:35",10,44.5185755,-123.3444586,TRUE,FALSE,FALSE,"S252455128"
"200","vauswi","Vaux's Swift","Chaetura vauxi","L14735981","Cle Elum Boat Launch","2025-06-20 11:25",5,47.1714526,-120.8576775,TRUE,FALSE,FALSE,"S252477851"
"201","vauswi","Vaux's Swift","Chaetura vauxi","L463083","Bear Creek Greenway--Ashland","2025-06-20 11:05",1,42.2147144,-122.7162798,TRUE,FALSE,FALSE,"S252442782"
"202","vauswi","Vaux's Swift","Chaetura vauxi","L3503228","Centralia--Roswell Road","2025-06-20 10:57",2,46.7224468,-122.9445648,TRUE,FALSE,FALSE,"S252423331"
"203","vauswi","Vaux's Swift","Chaetura vauxi","L31953807","Pioneer Cemetery, Emigrant Lake, Ashland, OR (42.144, -122.621)","2025-06-20 10:53",2,42.144015,-122.6214149,TRUE,FALSE,TRUE,"S252424500"
"204","vauswi","Vaux's Swift","Chaetura vauxi","L48098167","Frontage Road, Cascade Locks, Oregon, US (45.672, -121.875)","2025-06-20 10:23",4,45.6720713,-121.8745705,TRUE,FALSE,TRUE,"S252515209"
"205","vauswi","Vaux's Swift","Chaetura vauxi","L14138467","Saltese Flats","2025-06-20 10:23",1,47.6402533,-117.1261561,TRUE,FALSE,FALSE,"S252416539"
"206","vauswi","Vaux's Swift","Chaetura vauxi","L252795","Powell Butte Nature Park","2025-06-20 10:21",3,45.487,-122.503,TRUE,FALSE,FALSE,"S252430346"
"207","vauswi","Vaux's Swift","Chaetura vauxi","L918282","Sleeping Lady Mountain Resort","2025-06-20 10:14",4,47.5511658,-120.6811774,TRUE,FALSE,FALSE,"S252524710"
"208","vauswi","Vaux's Swift","Chaetura vauxi","L11925627","Chambers Creek Regional Park, Lakewood US-WA 47.19454, -122.56046","2025-06-20 10:00",1,47.19454,-122.560463,TRUE,FALSE,TRUE,"S252437563"
"209","vauswi","Vaux's Swift","Chaetura vauxi","L885481","Heyburn SP--Hawley's Landing Area","2025-06-20 09:50",1,47.3552224,-116.769948,TRUE,FALSE,FALSE,"S252523995"
"210","vauswi","Vaux's Swift","Chaetura vauxi","L15737837","Lodgepole Campground","2025-06-20 09:39",2,46.9149702,-121.3843258,TRUE,FALSE,FALSE,"S252459222"
"211","vauswi","Vaux's Swift","Chaetura vauxi","L15759514","Stikine River","2025-06-20 09:23",2,56.6841364,-132.2554298,TRUE,FALSE,TRUE,"S252949843"
"212","vauswi","Vaux's Swift","Chaetura vauxi","L25400629","Silverton","2025-06-20 09:18",3,48.0790883,-121.5713023,TRUE,FALSE,FALSE,"S252761548"
"213","vauswi","Vaux's Swift","Chaetura vauxi","L48075102","Powell Butte Nature Park, Portland US-OR 45.49009, -122.49757","2025-06-20 09:17",5,45.490092,-122.497574,TRUE,FALSE,TRUE,"S252420784"
"214","vauswi","Vaux's Swift","Chaetura vauxi","L915256","Methow Community Trail","2025-06-20 09:10",3,48.5577645,-120.3535938,TRUE,FALSE,FALSE,"S252416463"
"215","vauswi","Vaux's Swift","Chaetura vauxi","L48144975","Upper Rogue River Trail, Prospect US-OR 42.75720, -122.49783","2025-06-20 08:33",2,42.757205,-122.497831,TRUE,FALSE,TRUE,"S252731456"
"216","vauswi","Vaux's Swift","Chaetura vauxi","L489469","Mt. Rainier NP--Paradise","2025-06-20 08:28",1,46.7871318,-121.7340088,TRUE,FALSE,FALSE,"S252939776"
"217","vauswi","Vaux's Swift","Chaetura vauxi","L23815018","Wapato Lake NWR (Yamhill County)","2025-06-20 08:23",1,45.4146078,-123.1249733,TRUE,FALSE,FALSE,"S252379655"
"218","vauswi","Vaux's Swift","Chaetura vauxi","L48027449","615 Main St, Orofino US-ID 46.47584, -116.25353","2025-06-20 07:56",1,46.475836,-116.253531,TRUE,FALSE,TRUE,"S252536663"
"219","vauswi","Vaux's Swift","Chaetura vauxi","L318143","Spring Valley Reservoir","2025-06-20 07:52",3,46.7849434,-116.7572961,TRUE,FALSE,FALSE,"S252398020"
"220","vauswi","Vaux's Swift","Chaetura vauxi","L2429404","Harbor View Park","2025-06-20 07:43",3,45.5782586,-122.7419293,TRUE,FALSE,FALSE,"S252387210"
"221","vauswi","Vaux's Swift","Chaetura vauxi","L9414360","Mad River--Pump Station 4 Park","2025-06-20 07:41",1,40.9037663,-124.0388632,TRUE,FALSE,FALSE,"S252376747"
"222","vauswi","Vaux's Swift","Chaetura vauxi","L588041","Waterfront Park and Eastbank Esplanade","2025-06-20 07:30",1,45.5175943,-122.6720095,TRUE,FALSE,FALSE,"S252379527"
"223","vauswi","Vaux's Swift","Chaetura vauxi","L1087170","Lake Earl Wildlife Area--Coastal Lagoon Trail","2025-06-20 07:28",1,41.8190319,-124.1678667,TRUE,FALSE,FALSE,"S252363097"
"224","vauswi","Vaux's Swift","Chaetura vauxi","L4167881","Olympic NP--Sweet's Field","2025-06-20 07:25",7,48.0385531,-123.5906124,TRUE,FALSE,FALSE,"S252407086"
"225","vauswi","Vaux's Swift","Chaetura vauxi","L6104780","Mill Race Path--Booth Kelly Trailhead & ponds","2025-06-20 07:25",1,44.0426035,-123.0117509,TRUE,FALSE,FALSE,"S252366890"
"226","vauswi","Vaux's Swift","Chaetura vauxi","L40546060","Backyard CA 37.06259, -122.12022","2025-06-20 07:05",5,37.062595,-122.120217,TRUE,FALSE,TRUE,"S252393880"
"227","vauswi","Vaux's Swift","Chaetura vauxi","L425042","Smith River--Bailey Road riparian","2025-06-20 06:46",1,41.8875871,-124.1499478,TRUE,FALSE,FALSE,"S252386437"
"228","vauswi","Vaux's Swift","Chaetura vauxi","L23265958","Willamette Landing path above side channel","2025-06-20 06:35",1,44.528024,-123.255716,TRUE,FALSE,TRUE,"S252337394"
"229","vauswi","Vaux's Swift","Chaetura vauxi","L47824024","Hyatt Regency, Lake Washington Blvd N, Renton US-WA 47.50320, -122.20544","2025-06-20 06:20",1,47.503198,-122.205438,TRUE,FALSE,TRUE,"S252423405"
"230","vauswi","Vaux's Swift","Chaetura vauxi","L979378","Reed Lake","2025-06-20 06:07",3,45.4817872,-122.6290512,TRUE,FALSE,FALSE,"S252347844"
"231","vauswi","Vaux's Swift","Chaetura vauxi","L9892754","Calliope Corner (Private Yard)","2025-06-20 06:03",1,44.091925,-123.1374,TRUE,FALSE,TRUE,"S252691737"
"232","vauswi","Vaux's Swift","Chaetura vauxi","L48030375","762 Riverside Drive, Washougal, Washington, US (45.587, -122.163)","2025-06-20 06:01",1,45.5865084,-122.1626516,TRUE,FALSE,TRUE,"S252354493"
"233","vauswi","Vaux's Swift","Chaetura vauxi","L34390355","Carnation BBS","2025-06-20 04:42",6,47.747544,-121.980987,TRUE,FALSE,TRUE,"S252764779"
"234","vauswi","Vaux's Swift","Chaetura vauxi","L43674532","Log Cabin Lane","2025-06-19 21:38",2,46.610764,-114.04157,TRUE,FALSE,TRUE,"S252214784"
"235","vauswi","Vaux's Swift","Chaetura vauxi","L19978237","River Access Rd.","2025-06-19 20:45",1,42.4675302,-122.8586698,TRUE,FALSE,TRUE,"S252214937"
"236","vauswi","Vaux's Swift","Chaetura vauxi","L25495942","7521 Hyatt Prairie Rd, Ashland US-OR 42.19739, -122.45987","2025-06-19 20:03",2,42.197386,-122.45987,TRUE,FALSE,TRUE,"S252214407"
"237","vauswi","Vaux's Swift","Chaetura vauxi","L40150643","Little Bird Landing","2025-06-19 19:42",4,47.375154,-121.8756014,TRUE,FALSE,TRUE,"S252222971"
"238","vauswi","Vaux's Swift","Chaetura vauxi","L1133945","Laurelhurst Park","2025-06-19 19:32",2,45.5210223,-122.6255322,TRUE,FALSE,FALSE,"S252206889"
"239","vauswi","Vaux's Swift","Chaetura vauxi","L807500","Koll Center Wetlands Area","2025-06-19 19:22",NA,45.4561652,-122.7919064,TRUE,FALSE,FALSE,"S252350684"
"240","vauswi","Vaux's Swift","Chaetura vauxi","L30931488","Fremont Older Open Space Preserve (please use a more specific hotspot where possible)","2025-06-19 19:09",1,37.2891114,-122.0641136,TRUE,FALSE,FALSE,"S252218652"
"241","vauswi","Vaux's Swift","Chaetura vauxi","L17644075","fort museum area","2025-06-19 18:58",1,46.8413326,-114.0645185,TRUE,FALSE,TRUE,"S252198942"
"242","vauswi","Vaux's Swift","Chaetura vauxi","L2347008","Wild Iris Ridge Park","2025-06-19 18:12",1,44.0227201,-123.1568684,TRUE,FALSE,FALSE,"S252204781"
"243","vauswi","Vaux's Swift","Chaetura vauxi","L1125152","Denny Creek","2025-06-19 18:11",3,47.4154564,-121.4395666,TRUE,FALSE,FALSE,"S252196150"
"244","vauswi","Vaux's Swift","Chaetura vauxi","L47992597","17703 Todd Ln, Bend US-OR (43.8906,-121.4412)","2025-06-19 18:09",1,43.890604,-121.441249,TRUE,FALSE,TRUE,"S252324218"
"245","vauswi","Vaux's Swift","Chaetura vauxi","L28695976","Mill Creek, Walla Walla US-WA (46.0736,-118.2916)","2025-06-19 18:02",3,46.073582,-118.291609,TRUE,FALSE,TRUE,"S252204476"
"246","vauswi","Vaux's Swift","Chaetura vauxi","L3561822","Naches Trail Preserve (Clover Creek)","2025-06-19 17:58",1,47.1050984,-122.3716664,TRUE,FALSE,FALSE,"S252218182"
"247","vauswi","Vaux's Swift","Chaetura vauxi","L3865109","Mad River Estuary--Hammond Bridge","2025-06-19 17:51",1,40.9240241,-124.1203862,TRUE,FALSE,FALSE,"S252207282"
"248","vauswi","Vaux's Swift","Chaetura vauxi","L592967","Ridgefield NWR--River 'S' Unit","2025-06-19 16:30",2,45.7990694,-122.7490082,TRUE,FALSE,FALSE,"S252858959"
"249","vauswi","Vaux's Swift","Chaetura vauxi","L48020469","Big Creek Trailhead Rd, Victor US-MT (46.4650,-114.2130)","2025-06-19 15:15",2,46.464989,-114.212974,TRUE,FALSE,TRUE,"S252172803"
"250","vauswi","Vaux's Swift","Chaetura vauxi","L483728","Calispell Lake","2025-06-19 13:54",2,48.2758815,-117.3339844,TRUE,FALSE,FALSE,"S252374280"
"251","vauswi","Vaux's Swift","Chaetura vauxi","L48023383","Wonderland Trail, Ashford, Washington, US (46.756, -121.806)","2025-06-19 13:42",2,46.7559059,-121.8059997,TRUE,FALSE,TRUE,"S252186961"
"252","vauswi","Vaux's Swift","Chaetura vauxi","L48023242","Mosquito Lake Road, DNR Land","2025-06-19 13:20",8,48.7164324,-122.1775633,TRUE,FALSE,TRUE,"S252185930"
"253","vauswi","Vaux's Swift","Chaetura vauxi","L515629","Blackbird Island, Leavenworth","2025-06-19 13:10",3,47.5924463,-120.6634426,TRUE,FALSE,FALSE,"S252126288"
"254","vauswi","Vaux's Swift","Chaetura vauxi","L48027294","Bald Mountain (Hood River County)","2025-06-19 13:00",3,45.403198,-121.7754,TRUE,FALSE,TRUE,"S252202983"
"255","vauswi","Vaux's Swift","Chaetura vauxi","L48017297","Quail Run Golf Course, La Pine US-OR 43.75636, -121.49903","2025-06-19 13:00",3,43.756361,-121.499032,TRUE,FALSE,TRUE,"S252158500"
"256","vauswi","Vaux's Swift","Chaetura vauxi","L20761009","Backyard - Meadow Glade","2025-06-19 13:00",1,45.7507644,-122.558129,TRUE,FALSE,TRUE,"S252175568"
"257","vauswi","Vaux's Swift","Chaetura vauxi","L3694049","Eel River--Fernbridge/Singley gravel bar","2025-06-19 13:00",6,40.6121225,-124.2065599,TRUE,FALSE,FALSE,"S252117384"
"258","vauswi","Vaux's Swift","Chaetura vauxi","L1247628","Snoqualmie Pass--Snow Lake trail","2025-06-19 12:27",1,47.4548197,-121.4393306,TRUE,FALSE,FALSE,"S252149218"
"259","vauswi","Vaux's Swift","Chaetura vauxi","L4720040","US-Washington-Winthrop-Lucky Jim Bluff - 48.533x-120.326","2025-06-19 12:19",3,48.5330932,-120.326464,TRUE,FALSE,TRUE,"S252117054"
"260","vauswi","Vaux's Swift","Chaetura vauxi","L15232431","Skyline Road stop","2025-06-19 12:15",2,45.780323,-118.0540203,TRUE,FALSE,TRUE,"S252202735"
"261","vauswi","Vaux's Swift","Chaetura vauxi","L2499891","Rose City Golf Course","2025-06-19 12:12",2,45.5399432,-122.589376,TRUE,FALSE,FALSE,"S252110778"
"262","vauswi","Vaux's Swift","Chaetura vauxi","L6165162","Top Spur Trailhead & Trail","2025-06-19 11:59",1,45.407694,-121.786073,TRUE,FALSE,FALSE,"S252202614"
"263","vauswi","Vaux's Swift","Chaetura vauxi","L20472238","Olympic National Park--Mount Storm King","2025-06-19 11:07",3,48.054729,-123.786215,TRUE,FALSE,FALSE,"S252107202"
"264","vauswi","Vaux's Swift","Chaetura vauxi","L580373","Tualatin River NWR","2025-06-19 11:05",1,45.3811203,-122.8353667,TRUE,FALSE,FALSE,"S252137410"
"265","vauswi","Vaux's Swift","Chaetura vauxi","L972410","Pete Lake Trail","2025-06-19 11:01",3,47.4340967,-121.1868167,TRUE,FALSE,FALSE,"S252917256"
"266","vauswi","Vaux's Swift","Chaetura vauxi","L579978","Packwood","2025-06-19 10:56",2,46.6055824,-121.6756439,TRUE,FALSE,FALSE,"S252134844"
"267","vauswi","Vaux's Swift","Chaetura vauxi","L19660946","Millside park","2025-06-19 10:46",1,43.022153,-123.295088,TRUE,FALSE,TRUE,"S252104160"
"268","vauswi","Vaux's Swift","Chaetura vauxi","L808602","Hendy Woods SP","2025-06-19 10:23",2,39.0742439,-123.4661525,TRUE,FALSE,FALSE,"S252113713"
"269","vauswi","Vaux's Swift","Chaetura vauxi","L9329481","Sherrard Point","2025-06-19 10:22",2,45.53289,-122.087717,TRUE,FALSE,FALSE,"S252179178"
"270","vauswi","Vaux's Swift","Chaetura vauxi","L33624154","Gifford Pinchot NF--FR 1270","2025-06-19 10:13",1,46.6634789,-121.6005127,TRUE,FALSE,TRUE,"S252135061"
"271","vauswi","Vaux's Swift","Chaetura vauxi","L159584","Jackson Bottom Wetlands Preserve","2025-06-19 09:30",3,45.505,-122.9889,TRUE,FALSE,FALSE,"S252082621"
"272","vauswi","Vaux's Swift","Chaetura vauxi","L5831781","Klickitat Trail--MP 4 to MP 6","2025-06-19 09:22",4,45.7299969,-121.2307346,TRUE,FALSE,FALSE,"S252115836"
"273","vauswi","Vaux's Swift","Chaetura vauxi","L47731120","bessemer","2025-06-19 09:04",1,47.5181267,-121.6138355,TRUE,FALSE,TRUE,"S252115567"
"274","vauswi","Vaux's Swift","Chaetura vauxi","L11871143","Mt. Baker/Snoqualmie NF--Tonga Ridge/Sawyer Mt. Trailhead","2025-06-19 09:03",5,47.6781026,-121.263485,TRUE,FALSE,FALSE,"S252197339"
"275","vauswi","Vaux's Swift","Chaetura vauxi","L447386","Larch Mountain","2025-06-19 08:52",2,45.5295611,-122.088232,TRUE,FALSE,FALSE,"S252113549"
"276","vauswi","Vaux's Swift","Chaetura vauxi","L1824886","Wrights Lake--vicinity","2025-06-19 08:35",1,38.8452808,-120.2358606,TRUE,FALSE,FALSE,"S252545046"
"277","vauswi","Vaux's Swift","Chaetura vauxi","L815296","Broughton Beach","2025-06-19 08:34",1,45.6003622,-122.6152539,TRUE,FALSE,FALSE,"S252085273"
"278","vauswi","Vaux's Swift","Chaetura vauxi","L8707054","Hawks Prairie Beach Trail","2025-06-19 08:30",1,47.1091217,-122.7668458,TRUE,FALSE,TRUE,"S252080606"
"279","vauswi","Vaux's Swift","Chaetura vauxi","L279044","Sauvie Island--Rentenaar Rd.","2025-06-19 08:02",2,45.7574596,-122.776551,TRUE,FALSE,FALSE,"S252069130"
"280","vauswi","Vaux's Swift","Chaetura vauxi","L3787274","Twin Lakes Rd (FR 3065)","2025-06-19 08:00",5,48.9387955,-121.6698933,TRUE,FALSE,FALSE,"S252042151"
"281","vauswi","Vaux's Swift","Chaetura vauxi","L389848","Emigrant Lake","2025-06-19 08:00",1,42.1433778,-122.6209306,TRUE,FALSE,FALSE,"S252096244"
"282","vauswi","Vaux's Swift","Chaetura vauxi","L761016","Santa Rosa Creek Trail - Fulton Road to Willowside Road","2025-06-19 08:00",2,38.4449847,-122.7946186,TRUE,FALSE,FALSE,"S252111329"
"283","vauswi","Vaux's Swift","Chaetura vauxi","L498314","Tualatin River NWR--Atfálat'i Unit","2025-06-19 07:58",2,45.3817834,-122.8312254,TRUE,FALSE,FALSE,"S252098115"
"284","vauswi","Vaux's Swift","Chaetura vauxi","L847770","Davis Lake","2025-06-19 07:58",1,43.5882401,-121.8540215,TRUE,FALSE,FALSE,"S252060588"
"285","vauswi","Vaux's Swift","Chaetura vauxi","L48097689","BRiv BBS 26","2025-06-19 07:54",2,44.223676,-122.268036,TRUE,FALSE,TRUE,"S252513148"
"286","vauswi","Vaux's Swift","Chaetura vauxi","L3685015","JBLM--Muck Creek wildlife restoration site (restricted access)","2025-06-19 07:54",1,47.006148,-122.556997,TRUE,FALSE,FALSE,"S252035914"
"287","vauswi","Vaux's Swift","Chaetura vauxi","L33230931","Zion Lutheran Cemetery Habitat Meadow Corvallis, Oregon, US (44.599, -123.263)","2025-06-19 07:45",2,44.5985706,-123.2632507,TRUE,FALSE,TRUE,"S252026131"
"288","vauswi","Vaux's Swift","Chaetura vauxi","L279302","Santa Clara Valley Water District","2025-06-19 07:41",1,37.2480176,-121.8728828,TRUE,FALSE,FALSE,"S252041818"
"289","vauswi","Vaux's Swift","Chaetura vauxi","L2894731","Barclay Lake","2025-06-19 07:31",6,47.7847881,-121.4277649,TRUE,FALSE,FALSE,"S252090944"
"290","vauswi","Vaux's Swift","Chaetura vauxi","L570845","Bandon Marsh NWR--Ni-Les'tun Overlook","2025-06-19 07:30",1,43.1573123,-124.3791604,TRUE,FALSE,FALSE,"S252022579"
"291","vauswi","Vaux's Swift","Chaetura vauxi","L189487","Arcata Marsh and Wildlife Sanctuary","2025-06-19 07:30",1,40.857361,-124.094612,TRUE,FALSE,FALSE,"S252083456"
"292","vauswi","Vaux's Swift","Chaetura vauxi","L19402351","Alder sp rd","2025-06-19 07:18",1,45.7073335,-121.2385434,TRUE,FALSE,TRUE,"S252058204"
"293","vauswi","Vaux's Swift","Chaetura vauxi","L9152053","Trillium Cottage","2025-06-19 07:15",1,44.9875427,-123.9988424,TRUE,FALSE,TRUE,"S252661527"
"294","vauswi","Vaux's Swift","Chaetura vauxi","L2837729","Taylor Lake","2025-06-19 07:05",1,45.6408078,-121.2058067,TRUE,FALSE,FALSE,"S252942053"
"295","vauswi","Vaux's Swift","Chaetura vauxi","L509262","Point Wilson","2025-06-19 06:30",1,48.1442626,-122.7539778,TRUE,FALSE,FALSE,"S252015399"
"296","vauswi","Vaux's Swift","Chaetura vauxi","L9719016","Frain Ranch Campground","2025-06-19 06:01",5,42.026544,-122.10065,TRUE,FALSE,FALSE,"S252729907"
"297","vauswi","Vaux's Swift","Chaetura vauxi","L321279","Marymoor Park--Interpretive Trail","2025-06-19 06:00",3,47.6545148,-122.1077304,TRUE,FALSE,FALSE,"S252051712"
"298","vauswi","Vaux's Swift","Chaetura vauxi","L453974","Oaks Bottom Wildlife Refuge","2025-06-19 05:51",6,45.4776166,-122.6553154,TRUE,FALSE,FALSE,"S252059269"
"299","vauswi","Vaux's Swift","Chaetura vauxi","L1082724","Winthrop","2025-06-18 20:50",NA,48.4779285,-120.1876831,TRUE,FALSE,FALSE,"S251903124"
"300","vauswi","Vaux's Swift","Chaetura vauxi","L2260329","Selleck Old School House","2025-06-18 20:37",74,47.3761799,-121.8685484,TRUE,FALSE,FALSE,"S252206694"
"301","vauswi","Vaux's Swift","Chaetura vauxi","L27655073","Hoh River Trail--lower section","2025-06-18 20:10",2,47.8659185,-123.8712624,TRUE,FALSE,FALSE,"S252521178"
"302","vauswi","Vaux's Swift","Chaetura vauxi","L2177411","Heyburn SP--Plummer Marsh Area","2025-06-18 19:58",1,47.3553969,-116.7803979,TRUE,FALSE,FALSE,"S251897448"
"303","vauswi","Vaux's Swift","Chaetura vauxi","L2497437","Lassen Volcanic NP--Employee Campground (employees only)","2025-06-18 19:41",3,40.345755,-121.614098,TRUE,FALSE,FALSE,"S251889859"
"304","vauswi","Vaux's Swift","Chaetura vauxi","L1309888","Patterson Lake","2025-06-18 19:31",3,48.4584657,-120.245533,TRUE,FALSE,FALSE,"S251919676"
"305","vauswi","Vaux's Swift","Chaetura vauxi","L2240937","A 71st Tualatin","2025-06-18 19:05",1,45.3734516,-122.7497198,TRUE,FALSE,TRUE,"S251897395"
"306","vauswi","Vaux's Swift","Chaetura vauxi","L9551046","3509 Northwest 3rd Avenue, Camas, Washington, US (45.582, -122.446)","2025-06-18 19:04",1,45.582145,-122.4456584,TRUE,FALSE,TRUE,"S251877555"
"307","vauswi","Vaux's Swift","Chaetura vauxi","L19412294","Home","2025-06-18 17:10",10,44.955484,-123.100828,TRUE,FALSE,TRUE,"S251871928"
"308","vauswi","Vaux's Swift","Chaetura vauxi","L9504829","Poland-McClain neighborhood","2025-06-18 16:42",1,45.560002,-122.662941,TRUE,FALSE,TRUE,"S251856413"
"309","vauswi","Vaux's Swift","Chaetura vauxi","L7659369","International Rose Test Garden","2025-06-18 15:53",1,45.518855,-122.706183,TRUE,FALSE,FALSE,"S251847109"
"310","vauswi","Vaux's Swift","Chaetura vauxi","L1063817","Hyder--Fish Creek","2025-06-18 15:35",5,55.9609605,-130.0618708,TRUE,FALSE,FALSE,"S252081130"
"311","vauswi","Vaux's Swift","Chaetura vauxi","L13157232","Rest Haven Cemetery","2025-06-18 15:00",3,44.01188,-123.096593,TRUE,FALSE,FALSE,"S251873087"
"312","vauswi","Vaux's Swift","Chaetura vauxi","L11749474","Lookingglass Viewpoint, Skyline Road, FSR 64","2025-06-18 13:48",1,45.7744603,-118.0436724,TRUE,FALSE,TRUE,"S251833656"
"313","vauswi","Vaux's Swift","Chaetura vauxi","L988619","Bumping Lake","2025-06-18 13:31",1,46.8655462,-121.2957573,TRUE,FALSE,FALSE,"S251874375"
"314","vauswi","Vaux's Swift","Chaetura vauxi","L252669","Whatcom Falls Park","2025-06-18 13:31",3,48.7535711,-122.4259262,TRUE,FALSE,FALSE,"S251843706"
"315","vauswi","Vaux's Swift","Chaetura vauxi","L10149497","Sams Walker Day Use/Picnic Area","2025-06-18 13:27",1,45.610461,-122.0518635,TRUE,FALSE,FALSE,"S251849891"
"316","vauswi","Vaux's Swift","Chaetura vauxi","L278966","Liberty Lake County Park","2025-06-18 13:04",1,47.6368969,-117.0610428,TRUE,FALSE,FALSE,"S251828477"
"317","vauswi","Vaux's Swift","Chaetura vauxi","L2818442","Redwood NP--Thomas H Kuchel Visitor Center","2025-06-18 12:15",6,41.2862881,-124.0901899,TRUE,FALSE,FALSE,"S252091766"
"318","vauswi","Vaux's Swift","Chaetura vauxi","L47934266","Horne Rd.","2025-06-18 12:08",1,46.2849229,-119.4940954,TRUE,FALSE,TRUE,"S251788915"
"319","vauswi","Vaux's Swift","Chaetura vauxi","L1307055","Thunder Creek trail","2025-06-18 11:38",1,48.6764424,-121.0770607,TRUE,FALSE,FALSE,"S252691847"
"320","vauswi","Vaux's Swift","Chaetura vauxi","L1326460","Graham Oaks Nature Park","2025-06-18 11:17",1,45.299367,-122.8000865,TRUE,FALSE,FALSE,"S251798271"
"321","vauswi","Vaux's Swift","Chaetura vauxi","L27518309","My Yard Corvallis, OR","2025-06-18 10:56",2,44.5715662,-123.2918518,TRUE,FALSE,TRUE,"S252024093"
"322","vauswi","Vaux's Swift","Chaetura vauxi","L20230595","Private Mountain Residence","2025-06-18 10:51",1,39.3462009,-120.0914104,TRUE,FALSE,TRUE,"S251783811"
"323","vauswi","Vaux's Swift","Chaetura vauxi","L18542570","Washougal yard list","2025-06-18 10:36",1,45.5787727,-122.3231485,TRUE,FALSE,TRUE,"S251761409"
"324","vauswi","Vaux's Swift","Chaetura vauxi","L2130918","Milwaukie Riverfront Park (previously Jefferson St. Boat Launch)","2025-06-18 10:35",1,45.4412963,-122.642827,TRUE,FALSE,FALSE,"S251788807"
"325","vauswi","Vaux's Swift","Chaetura vauxi","L42106881","Firstenburg Community Center","2025-06-18 10:26",1,45.6264059,-122.5356889,TRUE,FALSE,TRUE,"S251761716"
"326","vauswi","Vaux's Swift","Chaetura vauxi","L25875369","Lassen Volcanic NP-Juniper Lake Loop Trail (LAS Co)","2025-06-18 10:21",4,40.455216,-121.298916,TRUE,FALSE,TRUE,"S252216635"
"327","vauswi","Vaux's Swift","Chaetura vauxi","L158595","Grizzly Gulch","2025-06-18 10:14",3,46.5667,-112.0849,TRUE,FALSE,FALSE,"S251745973"
"328","vauswi","Vaux's Swift","Chaetura vauxi","L1810473","Olympic NP--Hoh Rain Forest Visitor Center","2025-06-18 09:58",4,47.8605193,-123.9344484,TRUE,FALSE,FALSE,"S252065811"
"329","vauswi","Vaux's Swift","Chaetura vauxi","L37089171","Backyard","2025-06-18 09:37",1,44.0314563,-123.1246186,TRUE,FALSE,TRUE,"S251743929"
"330","vauswi","Vaux's Swift","Chaetura vauxi","L14790681","Palo Alto Flood Control Basin--E. Bayshore Rd. ponds","2025-06-18 09:36",1,37.4357271,-122.1061825,TRUE,FALSE,FALSE,"S251745656"
"331","vauswi","Vaux's Swift","Chaetura vauxi","L5125288","Deverell Rd.","2025-06-18 09:09",1,45.504971,-122.204159,TRUE,FALSE,FALSE,"S251761952"
"332","vauswi","Vaux's Swift","Chaetura vauxi","L38225979","West Hills neighborhoods [general]","2025-06-18 08:46",1,45.4942576,-122.7653806,TRUE,FALSE,TRUE,"S251732041"
"333","vauswi","Vaux's Swift","Chaetura vauxi","L47933933","Pipeline Rd Wetland","2025-06-18 08:31",2,45.1016271,-122.0527574,TRUE,FALSE,TRUE,"S251787036"
"334","vauswi","Vaux's Swift","Chaetura vauxi","L1172318","Garland Ranch Regional Park--Mesa and/or West Garzas Trails (also Mesa Pond)","2025-06-18 08:20",1,36.4917929,-121.7590284,TRUE,FALSE,FALSE,"S251799053"
"335","vauswi","Vaux's Swift","Chaetura vauxi","L6214094","Herman Cr Rd, Cascade Locks US-OR (45.6896,-121.8338)","2025-06-18 08:17",2,45.689578,-121.833821,TRUE,FALSE,TRUE,"S251768963"
"336","vauswi","Vaux's Swift","Chaetura vauxi","L4612251","Columbia Mountain Trailhead","2025-06-18 08:17",2,48.3817216,-114.1151421,TRUE,FALSE,FALSE,"S251699366"
"337","vauswi","Vaux's Swift","Chaetura vauxi","L3655140","Raleigh Park","2025-06-18 08:10",2,45.4948977,-122.7566171,TRUE,FALSE,FALSE,"S251724065"
"338","vauswi","Vaux's Swift","Chaetura vauxi","L1075732","Irish Bend Covered Bridge (Campus Way)","2025-06-18 07:58",3,44.5668686,-123.3005047,TRUE,FALSE,FALSE,"S251716153"
"339","vauswi","Vaux's Swift","Chaetura vauxi","L20712265","FS RO Ft Missoula","2025-06-18 07:58",1,46.8417465,-114.0565244,TRUE,FALSE,TRUE,"S251691653"
"340","vauswi","Vaux's Swift","Chaetura vauxi","L728130","Sandy River Delta Park","2025-06-18 07:48",2,45.5473441,-122.3731899,TRUE,FALSE,FALSE,"S251766667"
"341","vauswi","Vaux's Swift","Chaetura vauxi","L10997860","13704 84th Street NE, Tiny's Lane, Lake Stevens, WA 98258","2025-06-18 07:45",1,48.0690422,-122.0452082,TRUE,FALSE,TRUE,"S251888248"
"342","vauswi","Vaux's Swift","Chaetura vauxi","L163529","Fernhill Wetlands (general)","2025-06-18 06:54",1,45.5064875,-123.0851855,TRUE,FALSE,FALSE,"S251726848"
"343","vauswi","Vaux's Swift","Chaetura vauxi","L389873","Ashland Pond","2025-06-18 06:49",1,42.2151297,-122.7198815,TRUE,FALSE,FALSE,"S251724060"
"344","vauswi","Vaux's Swift","Chaetura vauxi","L440108","Redwood NP--Redwood Creek Trail","2025-06-18 06:38",2,41.2992584,-124.0334451,TRUE,FALSE,FALSE,"S252112513"
"345","vauswi","Vaux's Swift","Chaetura vauxi","L156866","Skinner Butte Park","2025-06-18 06:19",4,44.0580243,-123.0927828,TRUE,FALSE,FALSE,"S251900657"
"346","vauswi","Vaux's Swift","Chaetura vauxi","L27888736","Greenbriar feeder","2025-06-18 06:02",2,44.597687,-123.289613,TRUE,FALSE,TRUE,"S251702989"
"347","vauswi","Vaux's Swift","Chaetura vauxi","L35177019","Tuscany Equestrian and Hiking Trail","2025-06-18 05:55",3,47.7102824,-122.0831343,TRUE,FALSE,FALSE,"S251731617"
"348","vauswi","Vaux's Swift","Chaetura vauxi","L12523128","Pete's Hut","2025-06-18 05:47",2,45.5671886,-122.6958278,TRUE,FALSE,TRUE,"S251668043"
"349","vauswi","Vaux's Swift","Chaetura vauxi","L39633866","Alder Creek restoration site (restricted access)","2025-06-18 05:30",1,45.6219985,-122.7992451,TRUE,FALSE,TRUE,"S251890829"
"350","vauswi","Vaux's Swift","Chaetura vauxi","L26258780","Lake Sutherland","2025-06-17 21:20",14,48.0789998,-123.7117705,TRUE,FALSE,FALSE,"S251569445"
"351","vauswi","Vaux's Swift","Chaetura vauxi","L23532145","15739 Southeast Arista Drive, Milwaukie, Oregon, US (45.408, -122.637)","2025-06-17 20:24",4,45.4081619,-122.6370789,TRUE,FALSE,TRUE,"S251566512"
"352","vauswi","Vaux's Swift","Chaetura vauxi","L6310432","Yard","2025-06-17 20:10",1,47.5230297,-120.4728515,TRUE,FALSE,TRUE,"S251562112"
"353","vauswi","Vaux's Swift","Chaetura vauxi","L39078477","52 Silva Ridge Rd, Lyle US-WA 45.73603, -121.27755","2025-06-17 19:52",3,45.736031,-121.277549,TRUE,FALSE,TRUE,"S251560491"
"354","vauswi","Vaux's Swift","Chaetura vauxi","L1148142","Los Gatos Creek Trail--north of Camden Ave.","2025-06-17 19:14",2,37.2736533,-121.9474697,TRUE,FALSE,FALSE,"S251575356"
"355","vauswi","Vaux's Swift","Chaetura vauxi","L740948","Wickersham area of Samish River","2025-06-17 18:28",3,48.6530746,-122.2054918,TRUE,FALSE,FALSE,"S251566175"
"356","vauswi","Vaux's Swift","Chaetura vauxi","L1373808","Bryson Rd., Darrington (Skagit Co.)","2025-06-17 18:28",3,48.3116209,-121.5478903,TRUE,FALSE,FALSE,"S251572736"
"357","vauswi","Vaux's Swift","Chaetura vauxi","L742929","Salt Creek Falls","2025-06-17 17:20",1,43.61179,-122.12861,TRUE,FALSE,FALSE,"S251540218"
"358","vauswi","Vaux's Swift","Chaetura vauxi","L11181601","Liberty","2025-06-17 16:43",1,45.5704852,-122.6466078,TRUE,FALSE,TRUE,"S251540887"
"359","vauswi","Vaux's Swift","Chaetura vauxi","L3983498","Swan Lake","2025-06-17 16:14",1,47.9474173,-113.8797283,TRUE,FALSE,FALSE,"S251507265"
"360","vauswi","Vaux's Swift","Chaetura vauxi","L4749633","Sandy Cove Park","2025-06-17 15:18",2,47.5294304,-121.8243456,TRUE,FALSE,FALSE,"S251522814"
"361","vauswi","Vaux's Swift","Chaetura vauxi","L32083271","Crystal Mountain Trail, Enumclaw US-WA 46.96077, -121.48109","2025-06-17 15:15",1,46.960768,-121.481088,TRUE,FALSE,TRUE,"S251874351"
"362","vauswi","Vaux's Swift","Chaetura vauxi","L47927890","Electric Creek Road","2025-06-17 14:35",1,45.5457606,-123.883924,TRUE,FALSE,TRUE,"S251760710"
"363","vauswi","Vaux's Swift","Chaetura vauxi","L47877160","National Forest Development Road 4440, Winthrop, Washington, US (48.439, -120.531)","2025-06-17 14:26",2,48.4391524,-120.5311423,TRUE,FALSE,TRUE,"S251512030"
"364","vauswi","Vaux's Swift","Chaetura vauxi","L3545525","Mendenhall Glacier--E. Glacier Trail","2025-06-17 14:19",1,58.4207409,-134.5365143,TRUE,FALSE,FALSE,"S252208068"
"365","vauswi","Vaux's Swift","Chaetura vauxi","L47875612","22626 87th Avenue Southeast, Woodinville, Washington, US (47.791, -122.119)","2025-06-17 14:15",1,47.790578,-122.1191734,TRUE,FALSE,TRUE,"S251505091"
"366","vauswi","Vaux's Swift","Chaetura vauxi","L210404","Tillamook Bay--Hobsonville Point","2025-06-17 14:00",5,45.5472239,-123.9065552,TRUE,FALSE,FALSE,"S251558707"
"367","vauswi","Vaux's Swift","Chaetura vauxi","L47869325","Donahue Road, Chehalis, Washington, US (46.662, -122.993)","2025-06-17 12:41",2,46.662267,-122.9926273,TRUE,FALSE,TRUE,"S251477513"
"368","vauswi","Vaux's Swift","Chaetura vauxi","L457111","UC Santa Cruz--campus","2025-06-17 12:28",5,36.9982342,-122.0611954,TRUE,FALSE,FALSE,"S251499199"
"369","vauswi","Vaux's Swift","Chaetura vauxi","L7143268","Krause Basin","2025-06-17 12:04",2,48.1684039,-114.028945,TRUE,FALSE,TRUE,"S251480156"
"370","vauswi","Vaux's Swift","Chaetura vauxi","L7682349","Olympic NF--Hamma Hamma Beaver Pond","2025-06-17 11:27",2,47.589168,-123.1919289,TRUE,FALSE,FALSE,"S251478709"
"371","vauswi","Vaux's Swift","Chaetura vauxi","L6932946","McGary Grade Home","2025-06-17 11:10",2,46.5730867,-116.7019111,TRUE,FALSE,TRUE,"S251521830"
"372","vauswi","Vaux's Swift","Chaetura vauxi","L917200","Timber Lake","2025-06-17 11:04",1,45.091667,-122.063889,TRUE,FALSE,FALSE,"S251477694"
"373","vauswi","Vaux's Swift","Chaetura vauxi","L726695","Northern State Recreation Area","2025-06-17 10:22",1,48.5309012,-122.1971512,TRUE,FALSE,FALSE,"S251821503"
"374","vauswi","Vaux's Swift","Chaetura vauxi","L1270087","Glacier NP--Avalanche Lake Trail","2025-06-17 10:11",3,48.6602988,-113.7902927,TRUE,FALSE,FALSE,"S252178068"
"375","vauswi","Vaux's Swift","Chaetura vauxi","L609508","Mt. Baker--Heather Meadows","2025-06-17 10:02",6,48.8617786,-121.6835403,TRUE,FALSE,FALSE,"S251536484"
"376","vauswi","Vaux's Swift","Chaetura vauxi","L3746626","@Arcata FWO","2025-06-17 09:33",1,40.9021039,-124.0881114,TRUE,FALSE,TRUE,"S252912471"
"377","vauswi","Vaux's Swift","Chaetura vauxi","L47878715","Big Four-Ice Caves, Granite Falls US-WA 48.06828, -121.51424","2025-06-17 09:29",6,48.068276,-121.514237,TRUE,FALSE,TRUE,"S251519722"
"378","vauswi","Vaux's Swift","Chaetura vauxi","L500052","Nestucca Bay NWR","2025-06-17 09:27",2,45.1634665,-123.951399,TRUE,FALSE,FALSE,"S251449604"
"379","vauswi","Vaux's Swift","Chaetura vauxi","L47853842","I-90 E, Ellensburg US-WA 46.95493, -120.29588","2025-06-17 09:27",1,46.954934,-120.295881,TRUE,FALSE,TRUE,"S251413297"
"380","vauswi","Vaux's Swift","Chaetura vauxi","L4415961","Heintz Open Space","2025-06-17 09:24",1,37.230241,-121.927821,TRUE,FALSE,FALSE,"S251815671"
"381","vauswi","Vaux's Swift","Chaetura vauxi","L2870504","Hwy 36--Battle Creek Canyon Overlook","2025-06-17 09:10",1,40.35158,-121.77918,TRUE,FALSE,FALSE,"S251414662"
"382","vauswi","Vaux's Swift","Chaetura vauxi","L11646480","Los Alamitos Creek Trail","2025-06-17 09:05",1,37.2210423,-121.8483887,TRUE,FALSE,TRUE,"S252457787"
"383","vauswi","Vaux's Swift","Chaetura vauxi","L1158281","Mountain View Cemetery Marsh","2025-06-17 08:48",1,47.1800437,-122.4956918,TRUE,FALSE,FALSE,"S251437542"
"384","vauswi","Vaux's Swift","Chaetura vauxi","L47850612","The Grand Lodge","2025-06-17 08:11",1,45.521892,-123.086785,TRUE,FALSE,TRUE,"S251399744"
"385","vauswi","Vaux's Swift","Chaetura vauxi","L9771502","The Reserve at Gearhart","2025-06-17 07:44",1,46.045791,-123.923106,TRUE,FALSE,FALSE,"S251398942"
"386","vauswi","Vaux's Swift","Chaetura vauxi","L7194495","Los Alamitos Creek Trail--Singer Park area to McKean Rd.","2025-06-17 07:35",2,37.2092428,-121.8326926,TRUE,FALSE,FALSE,"S251399006"
"387","vauswi","Vaux's Swift","Chaetura vauxi","L299709","Glacier NP--Fish Creek Campground","2025-06-17 07:32",3,48.5488687,-113.983656,TRUE,FALSE,FALSE,"S251527846"
"388","vauswi","Vaux's Swift","Chaetura vauxi","L25359002","Hoonah Area with Guide","2025-06-17 07:22",4,58.1207112,-135.4600753,TRUE,FALSE,TRUE,"S252932206"
"389","vauswi","Vaux's Swift","Chaetura vauxi","L11429501","Frog Springs","2025-06-17 07:06",3,44.7951345,-121.1249041,TRUE,FALSE,FALSE,"S252897059"
"390","vauswi","Vaux's Swift","Chaetura vauxi","L47875606","Lena Creek Campground, Washington, US","2025-06-17 06:41",2,47.5981134,-123.1527106,TRUE,FALSE,TRUE,"S251505075"
"391","vauswi","Vaux's Swift","Chaetura vauxi","L47877492","National Forest Development Road 5400, Mazama, Washington, US (48.66, -120.546)","2025-06-17 06:33",2,48.6595812,-120.5457744,TRUE,FALSE,TRUE,"S251513486"
"392","vauswi","Vaux's Swift","Chaetura vauxi","L12936302","Ashland Transect A","2025-06-17 06:30",3,42.214743,-122.71397,TRUE,FALSE,TRUE,"S251367129"
"393","vauswi","Vaux's Swift","Chaetura vauxi","L3565964","MPG Ranch--Clubhouse Floodplain (restricted access)","2025-06-17 06:15",1,46.6929895,-114.0447164,TRUE,FALSE,FALSE,"S251442626"
"394","vauswi","Vaux's Swift","Chaetura vauxi","L905195","Gold Run Yard List","2025-06-17 06:10",1,40.3673593,-120.670073,TRUE,FALSE,TRUE,"S251743191"
"395","vauswi","Vaux's Swift","Chaetura vauxi","L35916829","Domicile Newberg 45.31995, -122.97864","2025-06-17 06:06",1,45.319948,-122.978638,TRUE,FALSE,TRUE,"S251366193"
"396","vauswi","Vaux's Swift","Chaetura vauxi","L4663211","Tawlks-Foster suspension bridge","2025-06-17 05:57",2,48.5715528,-120.368464,TRUE,FALSE,FALSE,"S251372209"
"397","vauswi","Vaux's Swift","Chaetura vauxi","L47431846","Longview Loop","2025-06-17 05:45",1,45.608012,-123.937167,TRUE,FALSE,TRUE,"S251397211"
"398","vauswi","Vaux's Swift","Chaetura vauxi","L3759595","301 Fircrest Dr.","2025-06-17 05:22",4,47.5164581,-120.4664272,TRUE,FALSE,TRUE,"S251370521"
"399","vauswi","Vaux's Swift","Chaetura vauxi","L280576","Big Basin Redwoods SP (inland only)--please consider using more specific locations","2025-06-17 05:03",2,37.168643,-122.2213799,TRUE,FALSE,FALSE,"S252118043"
"400","vauswi","Vaux's Swift","Chaetura vauxi","L30690035","TJ's","2025-06-16 20:42",1,45.45475,-122.615373,TRUE,FALSE,TRUE,"S251254207"
"401","vauswi","Vaux's Swift","Chaetura vauxi","L814866","Jenkins Estate","2025-06-16 20:13",2,45.4610061,-122.8922939,TRUE,FALSE,FALSE,"S251253851"
"402","vauswi","Vaux's Swift","Chaetura vauxi","L47819757","204 W Marine Dr, Astoria US-OR 46.19049, -123.84851","2025-06-16 20:09",NA,46.190485,-123.848511,TRUE,FALSE,TRUE,"S251249819"
"403","vauswi","Vaux's Swift","Chaetura vauxi","L47820347","La Crosse neighborhood","2025-06-16 20:07",NA,38.468793,-122.651373,TRUE,FALSE,TRUE,"S251252410"
"404","vauswi","Vaux's Swift","Chaetura vauxi","L1060686","Rock Creek Mill Pond","2025-06-16 19:23",1,45.6909827,-121.8940616,TRUE,FALSE,FALSE,"S251248248"
"405","vauswi","Vaux's Swift","Chaetura vauxi","L4772879","Yard","2025-06-16 19:20",2,45.533059,-122.7095094,TRUE,FALSE,TRUE,"S251455419"
"406","vauswi","Vaux's Swift","Chaetura vauxi","L879916","Friday Harbor -- Harbor area","2025-06-16 19:02",2,48.5365066,-123.014828,TRUE,FALSE,FALSE,"S251240427"
"407","vauswi","Vaux's Swift","Chaetura vauxi","L753291","Mt. Rainier NP--Longmire","2025-06-16 18:55",1,46.750859,-121.813488,TRUE,FALSE,FALSE,"S251247540"
"408","vauswi","Vaux's Swift","Chaetura vauxi","L47821992","Jurgens Park","2025-06-16 18:35",2,45.396673,-122.784151,TRUE,FALSE,TRUE,"S251260051"
"409","vauswi","Vaux's Swift","Chaetura vauxi","L2438502","Riverview Park (Polk Co.)","2025-06-16 18:00",2,44.8539218,-123.1827235,TRUE,FALSE,FALSE,"S251232502"
"410","vauswi","Vaux's Swift","Chaetura vauxi","L10091482","Sawmill Creek burn","2025-06-16 17:40",2,47.1798941,-121.4325238,TRUE,FALSE,FALSE,"S252890006"
"411","vauswi","Vaux's Swift","Chaetura vauxi","L1173301","Deming Homestead Eagle Park","2025-06-16 17:14",6,48.8235365,-122.1821684,TRUE,FALSE,FALSE,"S251246081"
"412","vauswi","Vaux's Swift","Chaetura vauxi","L832329","Fort Humboldt SHP","2025-06-16 17:04",2,40.7770967,-124.1878223,TRUE,FALSE,FALSE,"S251216977"
"413","vauswi","Vaux's Swift","Chaetura vauxi","L1145914","Cannon Beach Settling Ponds","2025-06-16 16:50",3,45.8972364,-123.9574099,TRUE,FALSE,FALSE,"S251215454"
"414","vauswi","Vaux's Swift","Chaetura vauxi","L2319316","Sequoia NP--Little Baldy Trail","2025-06-16 16:24",1,36.6144528,-118.8078582,TRUE,FALSE,FALSE,"S251289590"
"415","vauswi","Vaux's Swift","Chaetura vauxi","L2215712","Skagway--Ore Dock ","2025-06-16 15:40",2,59.4505012,-135.3299332,TRUE,FALSE,FALSE,"S252208004"
"416","vauswi","Vaux's Swift","Chaetura vauxi","L1616557","Game Creek (restricted access)","2025-06-16 15:30",5,58.0771829,-135.4855654,TRUE,FALSE,FALSE,"S252882959"
"417","vauswi","Vaux's Swift","Chaetura vauxi","L47812252","37305 160th Avenue Southeast, Auburn, Washington, US (47.267, -122.129)","2025-06-16 15:26",1,47.2673613,-122.12919,TRUE,FALSE,TRUE,"S251213975"
"418","vauswi","Vaux's Swift","Chaetura vauxi","L16097419","49802 Mount Index River Road, Gold Bar, Washington, US (47.803, -121.564)","2025-06-16 15:05",1,47.8031935,-121.5642291,TRUE,FALSE,TRUE,"S251241116"
"419","vauswi","Vaux's Swift","Chaetura vauxi","L9481140","Lint Slough Trail","2025-06-16 15:02",2,44.4258513,-124.0575924,TRUE,FALSE,FALSE,"S251213365"
"420","vauswi","Vaux's Swift","Chaetura vauxi","L3056507","West Copeland Creek Trail","2025-06-16 14:49",1,38.3432107,-122.7190125,TRUE,FALSE,FALSE,"S251184874"
"421","vauswi","Vaux's Swift","Chaetura vauxi","L3807039","Park Butte Trail","2025-06-16 14:34",15,48.7064347,-121.8135229,TRUE,FALSE,FALSE,"S251233731"
"422","vauswi","Vaux's Swift","Chaetura vauxi","L1901280","Main Beach","2025-06-16 14:29",2,36.9634404,-122.0189861,TRUE,FALSE,FALSE,"S251201655"
"423","vauswi","Vaux's Swift","Chaetura vauxi","L15029915","Humboldt Redwoods SP--Founder's Grove","2025-06-16 14:09",3,40.3513515,-123.9251704,TRUE,FALSE,FALSE,"S251181913"
"424","vauswi","Vaux's Swift","Chaetura vauxi","L7882515","Shady Acre, Warren","2025-06-16 13:55",3,45.8302941,-122.8464024,TRUE,FALSE,TRUE,"S251209294"
"425","vauswi","Vaux's Swift","Chaetura vauxi","L139567","Rodeo Lagoon (including beach and offshore)","2025-06-16 13:30",1,37.8304863,-122.5329514,TRUE,FALSE,FALSE,"S251218042"
"426","vauswi","Vaux's Swift","Chaetura vauxi","L33711537","2960 Post Siding Rd, Missoula US-MT 46.83940, -114.05823","2025-06-16 13:28",1,46.839399,-114.058226,TRUE,FALSE,TRUE,"S251848345"
"427","vauswi","Vaux's Swift","Chaetura vauxi","L710366","Wood River Day Use Area","2025-06-16 13:06",1,42.7085517,-121.9906425,TRUE,FALSE,FALSE,"S251172319"
"428","vauswi","Vaux's Swift","Chaetura vauxi","L47820720","Northway Peak Trailhead","2025-06-16 12:19",4,46.9613202,-121.4815522,TRUE,FALSE,TRUE,"S251254114"
"429","vauswi","Vaux's Swift","Chaetura vauxi","L986738","Chip Ross Park","2025-06-16 12:01",2,44.6081292,-123.2823086,TRUE,FALSE,FALSE,"S251540764"
"430","vauswi","Vaux's Swift","Chaetura vauxi","L3288906","Lee Metcalf NWR--Wildlife Viewing Area","2025-06-16 10:57",3,46.5399565,-114.0932965,TRUE,FALSE,FALSE,"S251140091"
"431","vauswi","Vaux's Swift","Chaetura vauxi","L29402411","6603 Little Buck Creek Road, White Salmon, Washington, US (45.78, -121.536)","2025-06-16 10:50",1,45.7797583,-121.5363826,TRUE,FALSE,TRUE,"S251112665"
"432","vauswi","Vaux's Swift","Chaetura vauxi","L9950365","Olympic NP--Klahhane Ridge","2025-06-16 10:45",5,47.9940332,-123.4611531,TRUE,FALSE,FALSE,"S251236293"
"433","vauswi","Vaux's Swift","Chaetura vauxi","L1529276","Talking Water Gardens","2025-06-16 10:37",1,44.6444396,-123.0718371,TRUE,FALSE,FALSE,"S251160776"
"434","vauswi","Vaux's Swift","Chaetura vauxi","L20715772","Residential area NE of campus (not including campus or Central Park)","2025-06-16 10:17",1,44.567487,-123.268902,TRUE,FALSE,TRUE,"S251102407"
"435","vauswi","Vaux's Swift","Chaetura vauxi","L47784558","245 River Road, Leavenworth, Washington, US (47.741, -120.665)","2025-06-16 09:34",1,47.7414754,-120.6651599,TRUE,FALSE,TRUE,"S251086226"
"436","vauswi","Vaux's Swift","Chaetura vauxi","L233698","Spring Lake Regional Park","2025-06-16 09:20",1,38.4541936,-122.6508522,TRUE,FALSE,FALSE,"S251121811"
"437","vauswi","Vaux's Swift","Chaetura vauxi","L4927769","Portland Community College Rock Creek campus","2025-06-16 09:03",1,45.5692196,-122.8644417,TRUE,FALSE,FALSE,"S251146209"
"438","vauswi","Vaux's Swift","Chaetura vauxi","L4953576","Fernhill Park","2025-06-16 08:39",1,45.567868,-122.623452,TRUE,FALSE,FALSE,"S251078305"
"439","vauswi","Vaux's Swift","Chaetura vauxi","L392640","Washington Park, Anacortes","2025-06-16 08:30",2,48.495268,-122.6951408,TRUE,FALSE,FALSE,"S251106641"
"440","vauswi","Vaux's Swift","Chaetura vauxi","L46683109","Tarboo Lake Rd","2025-06-16 08:17",6,47.8899172,-122.8410293,TRUE,FALSE,FALSE,"S251125362"
"441","vauswi","Vaux's Swift","Chaetura vauxi","L3488727","Irely Lake","2025-06-16 08:03",NA,47.565946,-123.6718254,TRUE,FALSE,FALSE,"S251188029"
"442","vauswi","Vaux's Swift","Chaetura vauxi","L825162","Van Damme SP- Beach","2025-06-16 07:50",2,39.2736933,-123.7911987,TRUE,FALSE,FALSE,"S251171260"
"443","vauswi","Vaux's Swift","Chaetura vauxi","L729782","Navarro River Redwoods SP","2025-06-16 07:45",8,39.1774494,-123.685215,TRUE,FALSE,FALSE,"S251115239"
"444","vauswi","Vaux's Swift","Chaetura vauxi","L492302","Council Grove SP","2025-06-16 07:26",2,46.9129809,-114.1559194,TRUE,FALSE,FALSE,"S251049627"
"445","vauswi","Vaux's Swift","Chaetura vauxi","L26765638","Belcrest Cemetery Loop","2025-06-16 07:21",1,44.894613,-123.0671,TRUE,FALSE,TRUE,"S251400721"
"446","vauswi","Vaux's Swift","Chaetura vauxi","L3245580","97225","2025-06-16 07:01",1,45.5130767,-122.7709575,TRUE,FALSE,TRUE,"S251034158"
"447","vauswi","Vaux's Swift","Chaetura vauxi","L20490110","Dungeness Trails--West of River Rd","2025-06-16 07:00",2,48.0498489,-123.1388005,TRUE,FALSE,FALSE,"S251805382"
"448","vauswi","Vaux's Swift","Chaetura vauxi","L907561","Kelley Point Park","2025-06-16 07:00",2,45.6463283,-122.7639771,TRUE,FALSE,FALSE,"S251855107"
"449","vauswi","Vaux's Swift","Chaetura vauxi","L1092969","Big River Estuary--east of Hwy 1","2025-06-16 06:32",1,39.3025408,-123.7889993,TRUE,FALSE,FALSE,"S251045797"
"450","vauswi","Vaux's Swift","Chaetura vauxi","L900012","Olympic NF-Lake Quinault Lodge (Grays Harbor Co.)","2025-06-16 06:23",3,47.4674701,-123.8484907,TRUE,FALSE,FALSE,"S251094642"
"451","vauswi","Vaux's Swift","Chaetura vauxi","L1135899","Benbow Dam Rd. and trail","2025-06-16 06:05",2,40.0656577,-123.8098669,TRUE,FALSE,FALSE,"S251120172"
"452","vauswi","Vaux's Swift","Chaetura vauxi","L2960786","Minto-Brown Island Park--North Basin Conservation Area","2025-06-16 05:37",3,44.9358558,-123.0512524,TRUE,FALSE,FALSE,"S251461337"
"453","vauswi","Vaux's Swift","Chaetura vauxi","L42389091","Portola Redwoods SP--Evans Creek MAMU 1","2025-06-16 05:03",1,37.2610238,-122.214311,TRUE,FALSE,TRUE,"S252106681"
"454","vauswi","Vaux's Swift","Chaetura vauxi","L950755","Redmond Watershed Preserve","2025-06-15 20:54",1,47.6941367,-122.0490503,TRUE,FALSE,FALSE,"S250920433"
"455","vauswi","Vaux's Swift","Chaetura vauxi","L39385764","Eaton ave","2025-06-15 19:25",1,37.484638,-122.264747,TRUE,FALSE,TRUE,"S250900760"
"456","vauswi","Vaux's Swift","Chaetura vauxi","L47811618","446 S 21st St, Reedsport US-OR 43.69294, -124.12072","2025-06-15 18:33",1,43.692944,-124.120722,TRUE,FALSE,TRUE,"S251210764"
"457","vauswi","Vaux's Swift","Chaetura vauxi","L10052072","Mosier Field Park","2025-06-15 17:33",1,44.422676,-118.951613,TRUE,FALSE,FALSE,"S250914557"
"458","vauswi","Vaux's Swift","Chaetura vauxi","L21726000","Tehaleh--Discovery Park","2025-06-15 17:13",1,47.1269514,-122.1942136,TRUE,FALSE,FALSE,"S250898490"
"459","vauswi","Vaux's Swift","Chaetura vauxi","L19663006","Jack’s and River Run Trails","2025-06-15 16:45",3,48.597596,-120.448979,TRUE,FALSE,FALSE,"S250916507"
"460","vauswi","Vaux's Swift","Chaetura vauxi","L47744966","12250 Southwest Alta Court, Wilsonville, Oregon, US (45.304, -122.8)","2025-06-15 16:30",1,45.3038911,-122.8000085,TRUE,FALSE,TRUE,"S250895325"
"461","vauswi","Vaux's Swift","Chaetura vauxi","L727975","Cooper Mountain Nature Park","2025-06-15 16:04",3,45.4519426,-122.8702354,TRUE,FALSE,FALSE,"S250878972"
"462","vauswi","Vaux's Swift","Chaetura vauxi","L3479872","River View Natural Area","2025-06-15 16:01",1,45.457,-122.6696491,TRUE,FALSE,FALSE,"S250920537"
"463","vauswi","Vaux's Swift","Chaetura vauxi","L47812689","Bickleton Highway, Roosevelt, Washington, US (45.959, -120.427)","2025-06-15 15:36",2,45.95914,-120.4273433,TRUE,FALSE,TRUE,"S251216275"
"464","vauswi","Vaux's Swift","Chaetura vauxi","L48027152","Larch Mountain Trail, Corbett US-OR 45.52991, -122.09053","2025-06-15 13:17",2,45.529909,-122.090526,TRUE,FALSE,TRUE,"S252202494"
"465","vauswi","Vaux's Swift","Chaetura vauxi","L47732570","Mosquito Lake Road DNR Land","2025-06-15 13:00",2,48.7191516,-122.1788863,TRUE,FALSE,TRUE,"S250836563"
"466","vauswi","Vaux's Swift","Chaetura vauxi","L8113489","Old Growth Cedar Preserve Trail","2025-06-15 12:30",5,45.6019,-123.93747,TRUE,FALSE,FALSE,"S252966496"
"467","vauswi","Vaux's Swift","Chaetura vauxi","L2398587","Safari West","2025-06-15 11:59",1,38.5572865,-122.69522,TRUE,FALSE,FALSE,"S250785859"
"468","vauswi","Vaux's Swift","Chaetura vauxi","L47944228","North Fork Sauk Trail to PCT (Snohomish Co.)","2025-06-15 11:57",4,48.058315,-121.287992,TRUE,FALSE,TRUE,"S251832549"
"469","vauswi","Vaux's Swift","Chaetura vauxi","L1360026","*Heron Crossing Farm","2025-06-15 11:48",1,46.8684256,-114.0812491,TRUE,FALSE,TRUE,"S250822779"
"470","vauswi","Vaux's Swift","Chaetura vauxi","L47750762","34399 Haines Hwy, Haines US-AK 59.43405, -136.20638","2025-06-15 11:35",3,59.434049,-136.206378,TRUE,FALSE,TRUE,"S250922347"
"471","vauswi","Vaux's Swift","Chaetura vauxi","L295124","Glacier NP--Avalanche Creek Campground and Picnic Area","2025-06-15 11:14",4,48.6790838,-113.819287,TRUE,FALSE,FALSE,"S250890440"
"472","vauswi","Vaux's Swift","Chaetura vauxi","L2767150","Lacey--McAllister Community Park","2025-06-15 11:13",1,47.0305739,-122.7585214,TRUE,FALSE,FALSE,"S250764638"
"473","vauswi","Vaux's Swift","Chaetura vauxi","L20716911","Corvo Apartment","2025-06-15 11:10",2,44.568004,-123.267976,TRUE,FALSE,TRUE,"S250744617"
"474","vauswi","Vaux's Swift","Chaetura vauxi","L47751453","US-101, Nehalem US-OR (45.7007,-123.8785)","2025-06-15 11:10",1,45.700708,-123.87849,TRUE,FALSE,TRUE,"S250926207"
"475","vauswi","Vaux's Swift","Chaetura vauxi","L690081","Riverfront Regional Park","2025-06-15 11:06",3,38.5171126,-122.8607941,TRUE,FALSE,FALSE,"S250794661"
"476","vauswi","Vaux's Swift","Chaetura vauxi","L962320","Eel River--Fortuna riverfront","2025-06-15 11:06",1,40.5753043,-124.1529751,TRUE,FALSE,FALSE,"S250774227"
"477","vauswi","Vaux's Swift","Chaetura vauxi","L47725376","Lost Lake Butte Trail","2025-06-15 10:50",6,45.497216,-121.818767,TRUE,FALSE,TRUE,"S250806311"
"478","vauswi","Vaux's Swift","Chaetura vauxi","L47750531","Eastside Trail, Packwood US-WA 46.75464, -121.55983","2025-06-15 10:49",1,46.75464,-121.559834,TRUE,FALSE,TRUE,"S250921037"
"479","vauswi","Vaux's Swift","Chaetura vauxi","L2745685","Henry Cowell Redwoods SP--River Trail","2025-06-15 10:38",2,37.0388231,-122.0642397,TRUE,FALSE,FALSE,"S251112875"
"480","vauswi","Vaux's Swift","Chaetura vauxi","L7809732","Camp Wilson","2025-06-15 10:30",2,44.624273,-123.1181915,TRUE,FALSE,TRUE,"S250737224"
"481","vauswi","Vaux's Swift","Chaetura vauxi","L14024539","Tolowa Dunes SP--south","2025-06-15 10:27",2,41.7964886,-124.2236153,TRUE,FALSE,FALSE,"S250823007"
"482","vauswi","Vaux's Swift","Chaetura vauxi","L3857154","Steep Creek Boardwalk Bear Viewing Area","2025-06-15 10:00",2,58.4150433,-134.5468354,TRUE,FALSE,FALSE,"S250752690"
"483","vauswi","Vaux's Swift","Chaetura vauxi","L2739231","Moran SP--Mountain Lake","2025-06-15 09:55",2,48.6564577,-122.817868,TRUE,FALSE,FALSE,"S250812607"
"484","vauswi","Vaux's Swift","Chaetura vauxi","L3329227","Willamette Park & Publisher's Pond","2025-06-15 09:42",3,45.346567,-122.64182,TRUE,FALSE,FALSE,"S250721765"
"485","vauswi","Vaux's Swift","Chaetura vauxi","L901766","Billy Frank Jr. Nisqually NWR--Twin Barns Loop","2025-06-15 09:30",2,47.0780133,-122.7119207,TRUE,FALSE,FALSE,"S250800947"
"486","vauswi","Vaux's Swift","Chaetura vauxi","L47696847","Litch Hotel Basecamp","2025-06-15 09:23",1,45.42536,-117.277882,TRUE,FALSE,TRUE,"S250692467"
"487","vauswi","Vaux's Swift","Chaetura vauxi","L8266250","Regatta Park","2025-06-15 09:14",1,44.9740102,-123.9989388,TRUE,FALSE,FALSE,"S251216919"
"488","vauswi","Vaux's Swift","Chaetura vauxi","L526969","Belgatos Park","2025-06-15 09:11",2,37.2309775,-121.9191456,TRUE,FALSE,FALSE,"S250740160"
"489","vauswi","Vaux's Swift","Chaetura vauxi","L34083238","National Forest Development Road 200, Hoodsport, Washington, US (47.457, -123.393)","2025-06-15 08:50",2,47.4574747,-123.3926768,TRUE,FALSE,TRUE,"S250860114"
"490","vauswi","Vaux's Swift","Chaetura vauxi","L2956090","Fort Stevens SP--Battery Russell","2025-06-15 08:39",1,46.193352,-123.974378,TRUE,FALSE,FALSE,"S250922194"
"491","vauswi","Vaux's Swift","Chaetura vauxi","L987382","Vaux's Swift Roost at Lapwai Historical Officer's Quarters","2025-06-15 08:35",20,46.3941279,-116.8025422,TRUE,FALSE,FALSE,"S250895280"
"492","vauswi","Vaux's Swift","Chaetura vauxi","L38607714","465 Old Corvallis Road, Hamilton, Montana, US (46.281, -114.153)","2025-06-15 08:30",2,46.2806028,-114.1532645,TRUE,FALSE,TRUE,"S250654291"
"493","vauswi","Vaux's Swift","Chaetura vauxi","L1027749","Heron Lakes Golf Club--Force Lake","2025-06-15 08:23",1,45.604911,-122.6953554,TRUE,FALSE,FALSE,"S250734653"
"494","vauswi","Vaux's Swift","Chaetura vauxi","L1235322","Southern Humboldt Community Park","2025-06-15 08:16",3,40.087561,-123.80253,TRUE,FALSE,FALSE,"S252776947"
"495","vauswi","Vaux's Swift","Chaetura vauxi","L283821","Cedar River mouth","2025-06-15 08:14",1,47.5007162,-122.2146012,TRUE,FALSE,FALSE,"S250733922"
"496","vauswi","Vaux's Swift","Chaetura vauxi","L14307002","Walla Walla University","2025-06-15 08:00",1,46.0464498,-118.3915807,TRUE,FALSE,FALSE,"S250761427"
"497","vauswi","Vaux's Swift","Chaetura vauxi","L8040569","Canyon City (town)","2025-06-15 07:57",2,44.389629,-118.950051,TRUE,FALSE,FALSE,"S250904961"
"498","vauswi","Vaux's Swift","Chaetura vauxi","L2466872","Salem Audubon Nature Reserve","2025-06-15 07:55",1,44.9397722,-123.067174,TRUE,FALSE,FALSE,"S250796732"
"499","vauswi","Vaux's Swift","Chaetura vauxi","L8697486","Sky Campground","2025-06-15 07:49",1,38.0404867,-122.8300238,TRUE,FALSE,FALSE,"S251030537"
"500","vauswi","Vaux's Swift","Chaetura vauxi","L210223","Vasona Lake County Park","2025-06-15 07:38",1,37.2385116,-121.9709873,TRUE,FALSE,FALSE,"S250739518"
"501","vauswi","Vaux's Swift","Chaetura vauxi","L29660146","1646 Southeast Crystal Lake Drive, Corvallis, Oregon, US (44.55, -123.257)","2025-06-15 07:30",1,44.5495873,-123.2569869,TRUE,FALSE,TRUE,"S250906155"
"502","vauswi","Vaux's Swift","Chaetura vauxi","L1328313","River View Cemetery","2025-06-15 07:30",1,45.4634745,-122.6750071,TRUE,FALSE,FALSE,"S250729887"
"503","vauswi","Vaux's Swift","Chaetura vauxi","L8101122","Yuba Pass Campground","2025-06-15 07:22",2,39.6151108,-120.4909658,TRUE,FALSE,FALSE,"S250862547"
"504","vauswi","Vaux's Swift","Chaetura vauxi","L44606923","Brown’s Ferry Park","2025-06-15 07:22",5,45.379463,-122.726006,TRUE,FALSE,TRUE,"S250722402"
"505","vauswi","Vaux's Swift","Chaetura vauxi","L47679263","415 E First St, Port Angeles US-WA 48.11674, -123.42696","2025-06-15 07:09",1,48.116745,-123.42696,TRUE,FALSE,TRUE,"S250616560"
"506","vauswi","Vaux's Swift","Chaetura vauxi","L7797854","Don Edwards NWR--Env. Ed. Ctr. (EEC) and nearby upland areas","2025-06-15 06:50",2,37.438916,-121.959456,TRUE,FALSE,FALSE,"S250728284"
"507","vauswi","Vaux's Swift","Chaetura vauxi","L282253","Billy Frank Jr. Nisqually NWR","2025-06-15 06:50",1,47.0812514,-122.7180576,TRUE,FALSE,FALSE,"S250746551"
"508","vauswi","Vaux's Swift","Chaetura vauxi","L9238941","Stevenson-Yard","2025-06-15 06:46",2,45.702028,-121.888918,TRUE,FALSE,TRUE,"S250650502"
"509","vauswi","Vaux's Swift","Chaetura vauxi","L47726067","Big 4 Ice Caves","2025-06-15 06:43",2,48.067718,-121.513998,TRUE,FALSE,TRUE,"S250841333"
"510","vauswi","Vaux's Swift","Chaetura vauxi","L2225532","RB backyard","2025-06-15 06:12",4,40.1676783,-122.2438404,TRUE,FALSE,TRUE,"S251000536"
"511","vauswi","Vaux's Swift","Chaetura vauxi","L47747321","81442 Highway 395 N, Burns US-OR 43.88981, -118.93022","2025-06-15 06:11",1,43.889811,-118.930217,TRUE,FALSE,TRUE,"S250905367"
"512","vauswi","Vaux's Swift","Chaetura vauxi","L3482107","JBLM--Area 13 (restricted access)","2025-06-15 05:56",2,47.0272,-122.466568,TRUE,FALSE,FALSE,"S250681018"
"513","vauswi","Vaux's Swift","Chaetura vauxi","L30660424","Twin Falls Natural Area","2025-06-15 05:25",5,47.4530206,-121.7054379,TRUE,FALSE,FALSE,"S250677702"
"514","vauswi","Vaux's Swift","Chaetura vauxi","L2833618","Sydney Ave N","2025-06-14 20:08",3,47.4971909,-121.7868322,TRUE,FALSE,TRUE,"S250439731"
"515","vauswi","Vaux's Swift","Chaetura vauxi","L2818883","Lone Fir Pioneer Cemetery","2025-06-14 20:05",8,45.5185716,-122.6418293,TRUE,FALSE,FALSE,"S250436927"
"516","vauswi","Vaux's Swift","Chaetura vauxi","L47649897","Stanfield (town)","2025-06-14 20:05",4,45.779631,-119.217732,TRUE,FALSE,TRUE,"S250475676"
"517","vauswi","Vaux's Swift","Chaetura vauxi","L247311","Lee Metcalf NWR","2025-06-14 19:58",1,46.5553628,-114.0762529,TRUE,FALSE,FALSE,"S250438640"
"518","vauswi","Vaux's Swift","Chaetura vauxi","L4081201","Forsgren Park / Swamp Creek","2025-06-14 19:57",5,47.7839928,-122.2518733,TRUE,FALSE,FALSE,"S250791290"
"519","vauswi","Vaux's Swift","Chaetura vauxi","L25321673","Cold Springs Resort","2025-06-14 19:49",2,44.457738,-121.644408,TRUE,FALSE,TRUE,"S250441954"
"520","vauswi","Vaux's Swift","Chaetura vauxi","L11833323","Strawberry Lake Trail","2025-06-14 19:27",3,48.1870262,-113.9929662,TRUE,FALSE,FALSE,"S250439455"
"521","vauswi","Vaux's Swift","Chaetura vauxi","L2408948","Potlatch Sewage Lagoons","2025-06-14 18:55",2,46.9216623,-116.9142509,TRUE,FALSE,FALSE,"S250426042"
"522","vauswi","Vaux's Swift","Chaetura vauxi","L47576221","Buttes Resort","2025-06-14 18:54",1,39.5658934,-120.6335519,TRUE,FALSE,TRUE,"S250421437"
"523","vauswi","Vaux's Swift","Chaetura vauxi","L47638076","8700–8898 SE Strawberry Ln, Clackamas US-OR 45.39680, -122.57198","2025-06-14 18:45",2,45.396798,-122.571985,TRUE,FALSE,TRUE,"S250419994"
"524","vauswi","Vaux's Swift","Chaetura vauxi","L2365468","Sauvie Island--Oak Island (Multnomah Co.)","2025-06-14 17:57",10,45.7144802,-122.8207541,TRUE,FALSE,FALSE,"S250429930"
"525","vauswi","Vaux's Swift","Chaetura vauxi","L29483923","West Creek Rd.--West Creek","2025-06-14 16:34",2,59.5286595,-135.3486166,TRUE,FALSE,FALSE,"S250893470"
"526","vauswi","Vaux's Swift","Chaetura vauxi","L6086199","Misery Spring Campground","2025-06-14 16:32",2,46.1206963,-117.485055,TRUE,FALSE,FALSE,"S250420497"
"527","vauswi","Vaux's Swift","Chaetura vauxi","L4828083","Schweitzer Resort--Front Side","2025-06-14 16:06",1,48.3742687,-116.6288424,TRUE,FALSE,FALSE,"S250396316"
"528","vauswi","Vaux's Swift","Chaetura vauxi","L34090191","Skyline Road (Union)","2025-06-14 16:02",3,45.7812934,-118.0440113,TRUE,FALSE,TRUE,"S250381664"
"529","vauswi","Vaux's Swift","Chaetura vauxi","L3144414","Canemah Bluff","2025-06-14 15:48",2,45.3417652,-122.6310325,TRUE,FALSE,FALSE,"S250440055"
"530","vauswi","Vaux's Swift","Chaetura vauxi","L285631","Detroit Flats","2025-06-14 15:44",1,44.7290265,-122.1461259,TRUE,FALSE,FALSE,"S250386974"
"531","vauswi","Vaux's Swift","Chaetura vauxi","L191685","Mendenhall Wetlands SGR--Fish Creek Delta","2025-06-14 15:22",3,58.3311702,-134.5996857,TRUE,FALSE,FALSE,"S250407889"
"532","vauswi","Vaux's Swift","Chaetura vauxi","L3098831","Blodgett Overlook Trailhead","2025-06-14 15:03",2,46.2529701,-114.2469276,TRUE,FALSE,FALSE,"S250351178"
"533","vauswi","Vaux's Swift","Chaetura vauxi","L8495293","Eola Drive NW, W. Salem","2025-06-14 15:00",1,44.940995,-123.1059948,TRUE,FALSE,TRUE,"S250441499"
"534","vauswi","Vaux's Swift","Chaetura vauxi","L15886760","Kelcema Lake","2025-06-14 14:59",2,48.115125,-121.6005726,TRUE,FALSE,FALSE,"S250431012"
"535","vauswi","Vaux's Swift","Chaetura vauxi","L4289495","Vancouver Lowlands--End of Lower River Road","2025-06-14 14:43",2,45.723659,-122.7540757,TRUE,FALSE,FALSE,"S250419439"
"536","vauswi","Vaux's Swift","Chaetura vauxi","L47623635","OR-22 E, Salem US-OR 44.94229, -123.05318","2025-06-14 14:40",1,44.942287,-123.053185,TRUE,FALSE,TRUE,"S250357807"
"537","vauswi","Vaux's Swift","Chaetura vauxi","L1591710","Ponderosa SP--Ridgeline Trail","2025-06-14 14:39",2,44.9569132,-116.078232,TRUE,FALSE,FALSE,"S250368606"
"538","vauswi","Vaux's Swift","Chaetura vauxi","L2609622","Creston Wetland","2025-06-14 14:18",2,48.200033,-114.1397095,TRUE,FALSE,FALSE,"S250407113"
"539","vauswi","Vaux's Swift","Chaetura vauxi","L1909503","Tollgate","2025-06-14 14:12",3,45.780454,-118.091526,TRUE,FALSE,FALSE,"S250673636"
"540","vauswi","Vaux's Swift","Chaetura vauxi","L47620936","112 N Second St, Elma US-WA 47.00517, -123.40333","2025-06-14 14:01",1,47.005174,-123.403335,TRUE,FALSE,TRUE,"S250347002"
"541","vauswi","Vaux's Swift","Chaetura vauxi","L1248853","Lewis Peak","2025-06-14 14:00",1,46.0872812,-118.0206299,TRUE,FALSE,FALSE,"S250413083"
"542","vauswi","Vaux's Swift","Chaetura vauxi","L47676670","44.41636_-119.09702","2025-06-14 13:55",2,44.41636,-119.09702,TRUE,FALSE,TRUE,"S250605626"
"543","vauswi","Vaux's Swift","Chaetura vauxi","L47631723","(46.739, -116.177)elk Creek Falls","2025-06-14 13:31",3,46.7388502,-116.1774308,TRUE,FALSE,TRUE,"S250391744"
"544","vauswi","Vaux's Swift","Chaetura vauxi","L47644120","542 Front Street, Prairie City, Oregon, US (44.464, -118.704)","2025-06-14 12:58",1,44.4636333,-118.7035783,TRUE,FALSE,TRUE,"S250444568"
"545","vauswi","Vaux's Swift","Chaetura vauxi","L26947034","Home","2025-06-14 12:51",1,44.0280548,-123.1207504,TRUE,FALSE,TRUE,"S250328933"
"546","vauswi","Vaux's Swift","Chaetura vauxi","L2746528","Wapato Lake NWR (Washington County)","2025-06-14 12:47",6,45.4342514,-123.1377011,TRUE,FALSE,FALSE,"S250811536"
"547","vauswi","Vaux's Swift","Chaetura vauxi","L5759425","Drummond FAS","2025-06-14 12:45",1,46.6616377,-113.149741,TRUE,FALSE,FALSE,"S250308276"
"548","vauswi","Vaux's Swift","Chaetura vauxi","L10264742","McDaniel Slough Restoration Area--west (restricted access)","2025-06-14 12:40",1,40.8631387,-124.1054327,TRUE,FALSE,FALSE,"S250321950"
"549","vauswi","Vaux's Swift","Chaetura vauxi","L47614288","19032–19170 SE Upper Island Rd, Dayton US-OR 45.11871, -123.03722","2025-06-14 12:36",2,45.11871,-123.037218,TRUE,FALSE,TRUE,"S250321384"
"550","vauswi","Vaux's Swift","Chaetura vauxi","L9292771","Eagle Lake, Chehalis Western Trail (Shincke Rd.)","2025-06-14 12:25",1,47.0867357,-122.8487061,TRUE,FALSE,FALSE,"S250332645"
"551","vauswi","Vaux's Swift","Chaetura vauxi","L6002266","Blackwood Creek Trail from Grand Ave","2025-06-14 12:23",2,39.108455,-120.1730061,TRUE,FALSE,TRUE,"S250335182"
"552","vauswi","Vaux's Swift","Chaetura vauxi","L47613518","Carpenter Creek","2025-06-14 12:03",3,45.5046801,-123.1188737,TRUE,FALSE,TRUE,"S250318398"
"553","vauswi","Vaux's Swift","Chaetura vauxi","L37320616","Clear Lake Day Use Area","2025-06-14 12:01",2,46.6275727,-121.287818,TRUE,FALSE,FALSE,"S250372688"
"554","vauswi","Vaux's Swift","Chaetura vauxi","L47638288","Pole Manger Spring","2025-06-14 11:53",4,46.2287377,-117.5810006,TRUE,FALSE,TRUE,"S250420712"
"555","vauswi","Vaux's Swift","Chaetura vauxi","L22619802","Dixon Rd. bridge","2025-06-14 11:45",1,42.733697,-121.98817,TRUE,FALSE,FALSE,"S251200476"
"556","vauswi","Vaux's Swift","Chaetura vauxi","L744434","Barnaby Slough","2025-06-14 11:44",2,48.4812285,-121.5425205,TRUE,FALSE,FALSE,"S250343743"
"557","vauswi","Vaux's Swift","Chaetura vauxi","L28316476","Mad River Rd riparian--Canal School to Mad River Rd dairy","2025-06-14 11:28",1,40.9159997,-124.1082672,TRUE,FALSE,FALSE,"S251254742"
"558","vauswi","Vaux's Swift","Chaetura vauxi","L47628556","Kelly Loop, BLM Road 25-3-36 (43.375, -123.019)","2025-06-14 11:25",2,43.3746989,-123.0191832,TRUE,FALSE,TRUE,"S250377908"
"559","vauswi","Vaux's Swift","Chaetura vauxi","L1879373","Nooksack  Salmon Hatchery","2025-06-14 11:18",1,48.8971873,-122.1422432,TRUE,FALSE,FALSE,"S250315309"
"560","vauswi","Vaux's Swift","Chaetura vauxi","L7362295","a.Tualatin, Martinazzi-Woods Neighborhood","2025-06-14 11:05",4,45.365308,-122.7673244,TRUE,FALSE,TRUE,"S250308279"
"561","vauswi","Vaux's Swift","Chaetura vauxi","L47625584","Deer Creek Way, yreka","2025-06-14 10:42",1,41.743825,-122.62798,TRUE,FALSE,TRUE,"S250365205"
"562","vauswi","Vaux's Swift","Chaetura vauxi","L1361473","Olympic NP--Third Beach","2025-06-14 10:40",2,47.8764516,-124.5841319,TRUE,FALSE,FALSE,"S250440484"
"563","vauswi","Vaux's Swift","Chaetura vauxi","L47636440","Marymoor Park, Redmond US-WA 47.65970, -122.11067","2025-06-14 10:37",1,47.659696,-122.110673,TRUE,FALSE,TRUE,"S250413104"
"564","vauswi","Vaux's Swift","Chaetura vauxi","L47636185","Kane office parking","2025-06-14 10:30",1,58.303257,-134.4078028,TRUE,FALSE,TRUE,"S250412191"
"565","vauswi","Vaux's Swift","Chaetura vauxi","L47629167","Bald Knob-CCC Cabin Trail","2025-06-14 10:28",1,47.912686,-117.112532,TRUE,FALSE,TRUE,"S250380737"
"566","vauswi","Vaux's Swift","Chaetura vauxi","L47376614","Younger Lagoon banding station","2025-06-14 10:13",1,36.9533246,-122.0665186,TRUE,FALSE,TRUE,"S250293296"
"567","vauswi","Vaux's Swift","Chaetura vauxi","L6636508","Pumpkin Slough & NE 13th Ave.","2025-06-14 10:00",1,45.589192,-122.650998,TRUE,FALSE,FALSE,"S250272009"
"568","vauswi","Vaux's Swift","Chaetura vauxi","L33528699","USGS Bird Count - Stop 35","2025-06-14 09:58",1,48.7838231,-122.1177896,TRUE,FALSE,TRUE,"S250443936"
"569","vauswi","Vaux's Swift","Chaetura vauxi","L15815988","Perry Creek Trail","2025-06-14 09:57",4,48.054497,-121.491051,TRUE,FALSE,FALSE,"S250514377"
"570","vauswi","Vaux's Swift","Chaetura vauxi","L323639","Blue Lake--cottonwoods","2025-06-14 09:56",2,40.8736563,-123.9948072,TRUE,FALSE,FALSE,"S250300011"
"571","vauswi","Vaux's Swift","Chaetura vauxi","L47619273","Timberhill neighborhood","2025-06-14 09:52",1,44.600704,-123.297788,TRUE,FALSE,TRUE,"S250340716"
"572","vauswi","Vaux's Swift","Chaetura vauxi","L897830","Willow Creek Rd.-- West end   - from Hwy 1 to dilapidated 2 barns","2025-06-14 09:45",1,38.4373208,-123.0855846,TRUE,FALSE,FALSE,"S250368087"
"573","vauswi","Vaux's Swift","Chaetura vauxi","L22344421","Riverfront Field","2025-06-14 09:42",1,44.050772,-123.072398,TRUE,FALSE,FALSE,"S250260863"
"574","vauswi","Vaux's Swift","Chaetura vauxi","L11585562","Black Mountain Forestry Center","2025-06-14 09:37",3,48.9686202,-122.080179,TRUE,FALSE,FALSE,"S250280293"
"575","vauswi","Vaux's Swift","Chaetura vauxi","L12364893","Glenoma Community Park","2025-06-14 09:25",4,46.5071837,-122.1684358,TRUE,FALSE,FALSE,"S251865915"
"576","vauswi","Vaux's Swift","Chaetura vauxi","L46774557","57th Ponds","2025-06-14 09:20",1,47.6030426,-117.3517151,TRUE,FALSE,TRUE,"S250266560"
"577","vauswi","Vaux's Swift","Chaetura vauxi","L195604","Lakewood Moorage Marina, Seattle","2025-06-14 09:15",1,47.5623394,-122.265875,TRUE,FALSE,FALSE,"S250398325"
"578","vauswi","Vaux's Swift","Chaetura vauxi","L3671743","Orenco Woods Nature Park","2025-06-14 09:15",1,45.5275768,-122.9057157,TRUE,FALSE,FALSE,"S250269807"
"579","vauswi","Vaux's Swift","Chaetura vauxi","L2412120","Fife--Bath Rd. Interurban trail","2025-06-14 09:07",3,47.242415,-122.3353601,TRUE,FALSE,FALSE,"S250268089"
"580","vauswi","Vaux's Swift","Chaetura vauxi","L27224770","West D St Greenway, Springfield US-OR 44.04927, -123.04295","2025-06-14 08:44",1,44.049266,-123.04295,TRUE,FALSE,TRUE,"S251389685"
"581","vauswi","Vaux's Swift","Chaetura vauxi","L9473936","South Fork County Park","2025-06-14 08:36",1,48.7174926,-122.1909895,TRUE,FALSE,FALSE,"S250243307"
"582","vauswi","Vaux's Swift","Chaetura vauxi","L1785275","Blue Lake--N. Fork Mad River levee & riverbed","2025-06-14 08:35",1,40.876126,-123.9914596,TRUE,FALSE,FALSE,"S250256467"
"583","vauswi","Vaux's Swift","Chaetura vauxi","L815005","Baskett Slough NWR--The Narrows and Cottonwood Pond","2025-06-14 08:34",1,44.9592377,-123.2700262,TRUE,FALSE,FALSE,"S250239884"
"584","vauswi","Vaux's Swift","Chaetura vauxi","L31689756","South Fork Flathead River","2025-06-14 08:28",NA,47.936207,-113.54163,TRUE,FALSE,TRUE,"S250704753"
"585","vauswi","Vaux's Swift","Chaetura vauxi","L33528711","USGS Bird Count - Stop 28","2025-06-14 08:27",1,48.8225102,-122.1301751,TRUE,FALSE,TRUE,"S250444008"
"586","vauswi","Vaux's Swift","Chaetura vauxi","L15645615","USGS Bird Count - Stop 26","2025-06-14 08:10",1,48.8364544,-122.1421539,TRUE,FALSE,TRUE,"S250444019"
"587","vauswi","Vaux's Swift","Chaetura vauxi","L1742691","Carol Ryrie Brink Nature Park","2025-06-14 08:02",2,46.7287532,-116.9779229,TRUE,FALSE,FALSE,"S250221929"
"588","vauswi","Vaux's Swift","Chaetura vauxi","L787862","Dosewallips State Park","2025-06-14 08:00",NA,47.685658,-122.9004478,TRUE,FALSE,FALSE,"S250835855"
"589","vauswi","Vaux's Swift","Chaetura vauxi","L40860829","Lee Metcalf NWR--Ponderosa Trail","2025-06-14 07:56",NA,46.5429888,-114.0977253,TRUE,FALSE,FALSE,"S250207496"
"590","vauswi","Vaux's Swift","Chaetura vauxi","L29843339","715 E Chestnut St, Walla Walla, WA","2025-06-14 07:53",3,46.058709,-118.319269,TRUE,FALSE,TRUE,"S250222585"
"591","vauswi","Vaux's Swift","Chaetura vauxi","L1504747","West D Greenway & Alton Baker Eastgate Woodlands (I-5 to Riverview Blvd.)","2025-06-14 07:53",1,44.0483105,-123.0421779,TRUE,FALSE,FALSE,"S250291507"
"592","vauswi","Vaux's Swift","Chaetura vauxi","L9945916","House to Brink","2025-06-14 07:45",1,46.7312702,-116.9841469,TRUE,FALSE,TRUE,"S250212069"
"593","vauswi","Vaux's Swift","Chaetura vauxi","L282634","WSU Vancouver Campus","2025-06-14 07:28",1,45.7309444,-122.6369778,TRUE,FALSE,FALSE,"S250236162"
"594","vauswi","Vaux's Swift","Chaetura vauxi","L4072947","Willamette Bluff","2025-06-14 07:23",1,45.5645874,-122.6986911,TRUE,FALSE,FALSE,"S250217233"
"595","vauswi","Vaux's Swift","Chaetura vauxi","L19999547","Road NF-73, Willamette National Forest","2025-06-14 07:15",5,43.8211437,-122.2372472,TRUE,FALSE,TRUE,"S250438788"
"596","vauswi","Vaux's Swift","Chaetura vauxi","L302585","Ridgefield NWR--Carty Unit","2025-06-14 06:50",3,45.8352931,-122.7499102,TRUE,FALSE,FALSE,"S250354180"
"597","vauswi","Vaux's Swift","Chaetura vauxi","L39235468","Frances Street Park","2025-06-14 06:44",2,45.5095725,-122.9175603,TRUE,FALSE,FALSE,"S250212503"
"598","vauswi","Vaux's Swift","Chaetura vauxi","L5906418","Hubcamp","2025-06-14 06:39",1,45.298724,-117.8005074,TRUE,FALSE,TRUE,"S250432434"
"599","vauswi","Vaux's Swift","Chaetura vauxi","L4685426","Latah County Landfill--Front Ponds","2025-06-14 05:45",1,46.7141939,-116.8997133,TRUE,FALSE,FALSE,"S250221615"
"600","vauswi","Vaux's Swift","Chaetura vauxi","L10007131","Union Co. Fairgrounds Pond","2025-06-13 21:02",6,45.3455884,-118.1084073,TRUE,FALSE,FALSE,"S250050656"
"601","vauswi","Vaux's Swift","Chaetura vauxi","L27595860","307 E Second St, Whitefish US-MT 48.41058, -114.33918","2025-06-13 19:45",2,48.410579,-114.339178,TRUE,FALSE,TRUE,"S250033696"
"602","vauswi","Vaux's Swift","Chaetura vauxi","L661343","Bennington Lake","2025-06-13 19:00",3,46.0659807,-118.2622647,TRUE,FALSE,FALSE,"S250054739"
"603","vauswi","Vaux's Swift","Chaetura vauxi","L6537564","Forest Conservation Area","2025-06-13 18:50",2,44.4573634,-118.6867458,TRUE,FALSE,FALSE,"S250036139"
"604","vauswi","Vaux's Swift","Chaetura vauxi","L2323889","Indian Creek Trail","2025-06-13 18:43",1,45.7010843,-121.5146041,TRUE,FALSE,FALSE,"S250060400"
"605","vauswi","Vaux's Swift","Chaetura vauxi","L47582068","1496 Peola Road, Pomeroy, Washington, US (46.36, -117.556)","2025-06-13 18:42",4,46.3599128,-117.5555843,TRUE,FALSE,TRUE,"S250199020"
"606","vauswi","Vaux's Swift","Chaetura vauxi","L278056","Fords Pond","2025-06-13 18:32",10,43.3913165,-123.363111,TRUE,FALSE,FALSE,"S250194436"
