"","speciesCode","comName","sciName","locId","locName","obsDt","howMany","lat","lng","obsValid","obsReviewed","locationPrivate","subId"
"1","rebmer","Red-breasted Merganser","Mergus serrator","L3235256","Coal Dock Park","2025-05-24 17:46",1,43.3852069,-87.8667641,TRUE,FALSE,FALSE,"S242193811"
"2","rebmer","Red-breasted Merganser","Mergus serrator","L140452","Whitefish Point","2025-05-24 17:10",15,46.7706876,-84.9569493,TRUE,FALSE,FALSE,"S242178217"
"3","rebmer","Red-breasted Merganser","Mergus serrator","L784550","Ashland Breakwall","2025-05-24 17:02",2,46.6117146,-90.8470631,TRUE,FALSE,FALSE,"S242182659"
"4","rebmer","Red-breasted Merganser","Mergus serrator","L637267","Lutsen Resort","2025-05-24 16:51",2,47.6361957,-90.7081085,TRUE,FALSE,FALSE,"S242172533"
"5","rebmer","Red-breasted Merganser","Mergus serrator","L1003798","Bete Grise","2025-05-24 16:39",2,47.3873093,-87.9577446,TRUE,FALSE,FALSE,"S242141418"
"6","rebmer","Red-breasted Merganser","Mergus serrator","L45676234","Whistling Duck LSCMP","2025-05-24 16:08",5,42.5727054,-82.8041326,TRUE,FALSE,TRUE,"S242144635"
"7","rebmer","Red-breasted Merganser","Mergus serrator","L1135300","Squantum Marshes","2025-05-24 15:31",1,42.2941991,-71.0211182,TRUE,FALSE,FALSE,"S242202241"
"8","rebmer","Red-breasted Merganser","Mergus serrator","L681049","First Beach, Newport","2025-05-24 15:19",1,41.4878636,-71.2916265,TRUE,FALSE,FALSE,"S242122374"
"9","rebmer","Red-breasted Merganser","Mergus serrator","L1542457","Carp River Rd. Fishing Access","2025-05-24 15:16",4,46.0238982,-84.6939652,TRUE,FALSE,FALSE,"S242114194"
"10","rebmer","Red-breasted Merganser","Mergus serrator","L691070","Ottawa NWR--Wildlife Drive (Lucas Co.)","2025-05-24 15:11",6,41.6313741,-83.2283996,TRUE,FALSE,FALSE,"S242153302"
"11","rebmer","Red-breasted Merganser","Mergus serrator","L19968670","Maribeth’s Cottage","2025-05-24 14:42",2,43.659127,-82.605867,TRUE,FALSE,TRUE,"S242106235"
"12","rebmer","Red-breasted Merganser","Mergus serrator","L8682487","Fort de la Presentation","2025-05-24 14:41",13,44.6967848,-75.5038369,TRUE,FALSE,FALSE,"S242096813"
"13","rebmer","Red-breasted Merganser","Mergus serrator","L159714","Manitowoc Impoundment","2025-05-24 14:35",2,44.1001088,-87.6486295,TRUE,FALSE,FALSE,"S242168340"
"14","rebmer","Red-breasted Merganser","Mergus serrator","L469835","Point Breeze (Orleans Co.)","2025-05-24 13:25",2,43.3716945,-78.1916691,TRUE,FALSE,FALSE,"S242056106"
"15","rebmer","Red-breasted Merganser","Mergus serrator","L576876","Muskegon SP","2025-05-24 13:18",3,43.2360791,-86.3402653,TRUE,FALSE,FALSE,"S242102400"
"16","rebmer","Red-breasted Merganser","Mergus serrator","L477509","Stover's Point Preserve (HHLT), Harpswell","2025-05-24 13:17",2,43.7578559,-69.9988639,TRUE,FALSE,FALSE,"S242132126"
"17","rebmer","Red-breasted Merganser","Mergus serrator","L159047","Acadia NP--Seawall Picnic Area","2025-05-24 13:17",17,44.2373,-68.3025,TRUE,FALSE,FALSE,"S242051906"
"18","rebmer","Red-breasted Merganser","Mergus serrator","L208956","Schlitz Audubon Nature Center","2025-05-24 12:53",1,43.1756879,-87.8904211,TRUE,FALSE,FALSE,"S242189687"
"19","rebmer","Red-breasted Merganser","Mergus serrator","L657101","Pointe LaBarbe","2025-05-24 12:38",1,45.8421945,-84.7567749,TRUE,FALSE,FALSE,"S242076082"
"20","rebmer","Red-breasted Merganser","Mergus serrator","L3614217","Farmer's Dock boating access site","2025-05-24 12:25",20,45.7237386,-86.980927,TRUE,FALSE,FALSE,"S242026527"
"21","rebmer","Red-breasted Merganser","Mergus serrator","L2839371","Gay Sands","2025-05-24 12:05",17,47.2299437,-88.1621933,TRUE,FALSE,TRUE,"S242047662"
"22","rebmer","Red-breasted Merganser","Mergus serrator","L444485","Plumb Beach","2025-05-24 12:02",2,40.5823284,-73.9153746,TRUE,FALSE,FALSE,"S242118719"
"23","rebmer","Red-breasted Merganser","Mergus serrator","L207383","Manomet Conservation Sciences","2025-05-24 11:58",2,41.921005,-70.5442548,TRUE,FALSE,FALSE,"S242048003"
"24","rebmer","Red-breasted Merganser","Mergus serrator","L45832750","Peninsula State Park, Fish Creek US-WI 45.16503, -87.22402","2025-05-24 11:51",1,45.165034,-87.224016,TRUE,FALSE,TRUE,"S242024556"
"25","rebmer","Red-breasted Merganser","Mergus serrator","L28051463","Austin's","2025-05-24 11:48",6,42.1289978,-79.3412781,TRUE,FALSE,TRUE,"S242055291"
"26","rebmer","Red-breasted Merganser","Mergus serrator","L99381","Stewart Park","2025-05-24 11:46",1,42.460791,-76.5068525,TRUE,FALSE,FALSE,"S241999538"
"27","rebmer","Red-breasted Merganser","Mergus serrator","L1518775","Biddeford Pool--South Point Sanctuary","2025-05-24 11:40",2,43.4439243,-70.3453101,TRUE,FALSE,FALSE,"S242132931"
"28","rebmer","Red-breasted Merganser","Mergus serrator","L452647","Fort Foster Park, Kittery","2025-05-24 11:39",1,43.0678845,-70.692451,TRUE,FALSE,FALSE,"S242074225"
"29","rebmer","Red-breasted Merganser","Mergus serrator","L914607","Portage Park","2025-05-24 11:24",2,44.8010832,-87.3074913,TRUE,FALSE,FALSE,"S242041139"
"30","rebmer","Red-breasted Merganser","Mergus serrator","L129046","Parker River NWR","2025-05-24 11:12",2,42.7639008,-70.8022995,TRUE,FALSE,FALSE,"S242207003"
"31","rebmer","Red-breasted Merganser","Mergus serrator","L1345996","Olcott Pier","2025-05-24 11:03",1,43.3399055,-78.7176999,TRUE,FALSE,FALSE,"S241983315"
"32","rebmer","Red-breasted Merganser","Mergus serrator","L29427290","Clinton Harbor","2025-05-24 11:00",2,41.261254,-72.5304475,TRUE,FALSE,TRUE,"S242144002"
"33","rebmer","Red-breasted Merganser","Mergus serrator","L10216546","Where Eagles Dare","2025-05-24 11:00",34,43.8710812,-86.438848,TRUE,FALSE,TRUE,"S242099196"
"34","rebmer","Red-breasted Merganser","Mergus serrator","L1056686","Presque Isle SP--Fry's Landing","2025-05-24 10:55",1,42.1588226,-80.0832081,TRUE,FALSE,FALSE,"S241964150"
"35","rebmer","Red-breasted Merganser","Mergus serrator","L5259608","Saugatuck Shores","2025-05-24 10:55",5,41.097637,-73.371671,TRUE,FALSE,TRUE,"S241976160"
"36","rebmer","Red-breasted Merganser","Mergus serrator","L45829131","Gulf of Maine, St. George US-ME (43.8712,-69.2996)","2025-05-24 10:50",1,43.871151,-69.299556,TRUE,FALSE,TRUE,"S242009190"
"37","rebmer","Red-breasted Merganser","Mergus serrator","L486255","Biddeford Pool","2025-05-24 10:47",35,43.4441328,-70.3623676,TRUE,FALSE,FALSE,"S242099917"
"38","rebmer","Red-breasted Merganser","Mergus serrator","L45828820","Karl Boyes Multi-Purpose National Recreation Trail, Erie US-PA 42.15883, -80.12374","2025-05-24 10:46",1,42.158831,-80.123741,TRUE,FALSE,TRUE,"S242007919"
"39","rebmer","Red-breasted Merganser","Mergus serrator","L268250","Adak Island","2025-05-24 10:43",2,51.8941856,-176.6443634,TRUE,FALSE,FALSE,"S242178113"
"40","rebmer","Red-breasted Merganser","Mergus serrator","L109233","Sandy Point","2025-05-24 10:40",4,41.2645658,-72.9312372,TRUE,FALSE,FALSE,"S242151412"
"41","rebmer","Red-breasted Merganser","Mergus serrator","L16331525","440 East Squantum Street, Quincy, Massachusetts, US (42.29, -71.023)","2025-05-24 10:34",1,42.289932,-71.0233125,TRUE,FALSE,TRUE,"S241949577"
"42","rebmer","Red-breasted Merganser","Mergus serrator","L526888","Tanana Lakes Recreation Area","2025-05-24 10:34",1,64.7966492,-147.7180481,TRUE,FALSE,FALSE,"S242085429"
"43","rebmer","Red-breasted Merganser","Mergus serrator","L467584","Herring Cove Beach","2025-05-24 10:29",2,42.0461217,-70.2185583,TRUE,FALSE,FALSE,"S241982174"
"44","rebmer","Red-breasted Merganser","Mergus serrator","L452353","Castle Island and Pleasure Bay","2025-05-24 10:28",1,42.3360561,-71.0123205,TRUE,FALSE,FALSE,"S241975546"
"45","rebmer","Red-breasted Merganser","Mergus serrator","L1542166","De Tour SF CG","2025-05-24 10:21",18,45.9591145,-84.0083852,TRUE,FALSE,FALSE,"S241957075"
"46","rebmer","Red-breasted Merganser","Mergus serrator","L1291922","Port Clyde Harbor","2025-05-24 10:20",1,43.9255782,-69.260087,TRUE,FALSE,FALSE,"S241933715"
"47","rebmer","Red-breasted Merganser","Mergus serrator","L6213026","Reid SP--Half Mile Beach","2025-05-24 10:12",1,43.773075,-69.734529,TRUE,FALSE,FALSE,"S242107629"
"48","rebmer","Red-breasted Merganser","Mergus serrator","L1130056","Kodiak Is.--Kalsin Pond and Olds River Estuary","2025-05-24 10:06",3,57.584638,-152.4485207,TRUE,FALSE,FALSE,"S242135885"
"49","rebmer","Red-breasted Merganser","Mergus serrator","L298379","Hammonasset Beach SP","2025-05-24 10:05",2,41.2619859,-72.5548234,TRUE,FALSE,FALSE,"S242142504"
"50","rebmer","Red-breasted Merganser","Mergus serrator","L45858270","Isle of Shoals, Maine","2025-05-24 10:00",1,42.9833301,-70.6124716,TRUE,FALSE,TRUE,"S242153038"
"51","rebmer","Red-breasted Merganser","Mergus serrator","L18455458","Powder Mills Park--Daffodil Meadow Trail","2025-05-24 09:57",11,43.0483644,-77.4836101,TRUE,FALSE,FALSE,"S241974016"
"52","rebmer","Red-breasted Merganser","Mergus serrator","L12494400","440 E Squantum St, Quincy US-MA 42.28979, -71.02327","2025-05-24 09:36",1,42.28979,-71.023266,TRUE,FALSE,TRUE,"S241924537"
"53","rebmer","Red-breasted Merganser","Mergus serrator","L45876746","Gulf of Maine, Bristol US-ME (43.7933,-69.4981)","2025-05-24 09:30",7,43.793345,-69.498056,TRUE,FALSE,TRUE,"S242206583"
"54","rebmer","Red-breasted Merganser","Mergus serrator","L3122711","Petobego Pond","2025-05-24 09:28",2,44.8568727,-85.4429913,TRUE,FALSE,FALSE,"S241944282"
"55","rebmer","Red-breasted Merganser","Mergus serrator","L3023581","Glacier Bay NP--Tidal Inlet","2025-05-24 09:26",1,58.8265395,-136.3928604,TRUE,FALSE,FALSE,"S242205260"
"56","rebmer","Red-breasted Merganser","Mergus serrator","L1324041","Fitzgerald Marine Reserve","2025-05-24 09:24",1,37.5224361,-122.516166,TRUE,FALSE,FALSE,"S242083631"
"57","rebmer","Red-breasted Merganser","Mergus serrator","L418084","Park Point--Park Point Rec. Area","2025-05-24 09:24",8,46.7337486,-92.0542164,TRUE,FALSE,FALSE,"S242001329"
"58","rebmer","Red-breasted Merganser","Mergus serrator","L2325222","Pamet River","2025-05-24 09:19",1,41.9931809,-70.0695133,TRUE,FALSE,TRUE,"S241955991"
"59","rebmer","Red-breasted Merganser","Mergus serrator","L696197","Destin--west jetty","2025-05-24 09:18",1,30.3859072,-86.5164757,TRUE,FALSE,FALSE,"S242095547"
"60","rebmer","Red-breasted Merganser","Mergus serrator","L549136","Bark Point","2025-05-24 09:15",1,46.8800244,-91.1868668,TRUE,FALSE,FALSE,"S242160486"
"61","rebmer","Red-breasted Merganser","Mergus serrator","L152499","Breezy Point Tip","2025-05-24 09:14",4,40.5506643,-73.9357889,TRUE,FALSE,FALSE,"S242006909"
"62","rebmer","Red-breasted Merganser","Mergus serrator","L417890","Park Point--Lafayette Square","2025-05-24 09:09",20,46.7523659,-92.0714593,TRUE,FALSE,FALSE,"S242001432"
"63","rebmer","Red-breasted Merganser","Mergus serrator","L2117652","Au Sable Twp. Shoreline Park","2025-05-24 09:06",12,44.4038244,-83.3244168,TRUE,FALSE,FALSE,"S241927049"
"64","rebmer","Red-breasted Merganser","Mergus serrator","L9786821","441 Liberty Avenue, Beach Haven, New Jersey, US (39.554, -74.251)","2025-05-24 09:04",1,39.5539809,-74.2513105,TRUE,FALSE,TRUE,"S241940707"
"65","rebmer","Red-breasted Merganser","Mergus serrator","L388494","Lake St. Clair Metropark (Metro Beach Metropark)","2025-05-24 08:59",9,42.5796301,-82.8032684,TRUE,FALSE,FALSE,"S241989264"
"66","rebmer","Red-breasted Merganser","Mergus serrator","L632907","FLX Marine (Frontenac marina) (private)","2025-05-24 08:55",10,42.8396606,-76.6973591,TRUE,FALSE,FALSE,"S241955165"
"67","rebmer","Red-breasted Merganser","Mergus serrator","L339541","Maumee Bay SP--Boardwalk","2025-05-24 08:54",1,41.6841898,-83.3654426,TRUE,FALSE,FALSE,"S241957911"
"68","rebmer","Red-breasted Merganser","Mergus serrator","L724261","Peninsula Point","2025-05-24 08:42",70,45.6704443,-86.9660568,TRUE,FALSE,FALSE,"S241990892"
"69","rebmer","Red-breasted Merganser","Mergus serrator","L4510807","Fort Missoula Gravel Quarry (restricted access - view from Fort Missoula)","2025-05-24 08:42",2,46.8428455,-114.0747571,TRUE,TRUE,FALSE,"S242007836"
"70","rebmer","Red-breasted Merganser","Mergus serrator","L17998204","393 Mile Rd, Wells US-ME 43.30219, -70.56695","2025-05-24 08:39",24,43.30219,-70.566955,TRUE,FALSE,TRUE,"S241889948"
"71","rebmer","Red-breasted Merganser","Mergus serrator","L472167","Ferry Beach, Scarborough","2025-05-24 08:37",1,43.5427701,-70.3229553,TRUE,FALSE,FALSE,"S241882532"
"72","rebmer","Red-breasted Merganser","Mergus serrator","L4508801","Kennedy Center, East Squantum Street","2025-05-24 08:30",1,42.2900087,-71.0227168,TRUE,FALSE,TRUE,"S242135069"
"73","rebmer","Red-breasted Merganser","Mergus serrator","L45857886","Glass Bottom Boat Birding Cruise","2025-05-24 08:30",30,45.067537,-83.434675,TRUE,FALSE,TRUE,"S242124414"
"74","rebmer","Red-breasted Merganser","Mergus serrator","L1095833","Goshen Reservoir ","2025-05-24 08:30",1,39.9514641,-111.9314575,TRUE,TRUE,FALSE,"S242051937"
"75","rebmer","Red-breasted Merganser","Mergus serrator","L45815437","298 Trout Lake Road, Grand Marais, Minnesota, US (47.865, -90.228)","2025-05-24 08:16",2,47.8648579,-90.2275549,TRUE,FALSE,TRUE,"S241950486"
"76","rebmer","Red-breasted Merganser","Mergus serrator","L9284422","Silverwood Park","2025-05-24 08:12",1,45.0471855,-93.2236837,TRUE,FALSE,TRUE,"S242032384"
"77","rebmer","Red-breasted Merganser","Mergus serrator","L165143","Jamaica Bay Wildlife Refuge","2025-05-24 08:11",1,40.6170296,-73.8244561,TRUE,FALSE,FALSE,"S241956946"
"78","rebmer","Red-breasted Merganser","Mergus serrator","L464564","Bicentennial Park, Hampton","2025-05-24 08:11",2,42.9413131,-70.7930875,TRUE,FALSE,FALSE,"S241860796"
"79","rebmer","Red-breasted Merganser","Mergus serrator","L675419","Falmouth Town Forest","2025-05-24 08:09",4,41.5755171,-70.6132507,TRUE,FALSE,FALSE,"S241946170"
"80","rebmer","Red-breasted Merganser","Mergus serrator","L914624","Silverwood Park","2025-05-24 08:05",1,45.047087,-93.224144,TRUE,FALSE,FALSE,"S241989333"
"81","rebmer","Red-breasted Merganser","Mergus serrator","L45164410","Schlitz","2025-05-24 07:57",7,43.1735802,-87.8845291,TRUE,FALSE,TRUE,"S241942991"
"82","rebmer","Red-breasted Merganser","Mergus serrator","L166701","Derby Hill Hawk Watch--North Lookout","2025-05-24 07:50",10,43.527261,-76.2393397,TRUE,FALSE,FALSE,"S242138919"
"83","rebmer","Red-breasted Merganser","Mergus serrator","L352687","Two Harbors--Lighthouse Point","2025-05-24 07:48",1,47.013662,-91.6639915,TRUE,FALSE,FALSE,"S241939250"
"84","rebmer","Red-breasted Merganser","Mergus serrator","L252150","Baileys Harbor Point","2025-05-24 07:45",25,45.0560873,-87.0911215,TRUE,FALSE,FALSE,"S241925902"
"85","rebmer","Red-breasted Merganser","Mergus serrator","L2480164","Franklin D. Roosevelt Boardwalk and Beach--Ocean Breeze Fishing Pier","2025-05-24 07:43",2,40.5790814,-74.0748311,TRUE,FALSE,FALSE,"S241873203"
"86","rebmer","Red-breasted Merganser","Mergus serrator","L7269867","Anclam Road","2025-05-24 07:41",30,45.0631169,-87.095272,TRUE,FALSE,FALSE,"S241890076"
"87","rebmer","Red-breasted Merganser","Mergus serrator","L364733","Race Point","2025-05-24 07:40",46,42.0691855,-70.2381706,TRUE,FALSE,FALSE,"S242130085"
"88","rebmer","Red-breasted Merganser","Mergus serrator","L109487","Andrew Molera SP--Big Sur River mouth","2025-05-24 07:38",2,36.2819875,-121.8595805,TRUE,FALSE,FALSE,"S242132773"
"89","rebmer","Red-breasted Merganser","Mergus serrator","L129756","Presque Isle SP (IBA)","2025-05-24 07:38",5,42.15868,-80.0994568,TRUE,FALSE,FALSE,"S241957142"
"90","rebmer","Red-breasted Merganser","Mergus serrator","L152708","Rosewood Park and Beach, Highland Park","2025-05-24 07:36",4,42.1661709,-87.7684128,TRUE,FALSE,FALSE,"S241935118"
"91","rebmer","Red-breasted Merganser","Mergus serrator","L3200013","Sebastian Inlet SP--north side (Brevard co.)","2025-05-24 07:35",1,27.8611424,-80.4495764,TRUE,FALSE,FALSE,"S242051890"
"92","rebmer","Red-breasted Merganser","Mergus serrator","L160756","Indian Point Blagden Preserve (TNC)","2025-05-24 07:29",7,44.3829498,-68.3649158,TRUE,FALSE,FALSE,"S241886627"
"93","rebmer","Red-breasted Merganser","Mergus serrator","L7491563","Ingallshore (no public access)","2025-05-24 07:29",5,44.240759,-68.364193,TRUE,FALSE,TRUE,"S241862897"
"94","rebmer","Red-breasted Merganser","Mergus serrator","L11673574","Sleeping Bear Dunes NL--Tiesma Beach","2025-05-24 07:27",12,44.7280999,-86.122065,TRUE,FALSE,FALSE,"S241840196"
"95","rebmer","Red-breasted Merganser","Mergus serrator","L337068","Presque Isle SP--Gull Pt.","2025-05-24 07:21",4,42.169432,-80.0617236,TRUE,FALSE,FALSE,"S241901613"
"96","rebmer","Red-breasted Merganser","Mergus serrator","L11450199","Ship Island (restricted access)","2025-05-24 07:20",4,44.234261,-68.4402775,TRUE,FALSE,FALSE,"S241875619"
"97","rebmer","Red-breasted Merganser","Mergus serrator","L269484","Duxbury Beach","2025-05-24 06:44",10,42.0295225,-70.6261466,TRUE,FALSE,FALSE,"S242066043"
"98","rebmer","Red-breasted Merganser","Mergus serrator","L895047","Gualala","2025-05-24 06:42",5,38.7667996,-123.5285568,TRUE,FALSE,FALSE,"S241995737"
"99","rebmer","Red-breasted Merganser","Mergus serrator","L5272264","Clark Island","2025-05-24 06:41",20,43.9868246,-69.1827106,TRUE,FALSE,FALSE,"S241917854"
"100","rebmer","Red-breasted Merganser","Mergus serrator","L265654","Ellisville Harbor SP","2025-05-24 06:31",3,41.8442379,-70.536532,TRUE,FALSE,FALSE,"S241925199"
"101","rebmer","Red-breasted Merganser","Mergus serrator","L19304685","Keith's Backyard - New Harbor, ME","2025-05-24 06:20",1,43.8561681,-69.5160399,TRUE,FALSE,TRUE,"S241817989"
"102","rebmer","Red-breasted Merganser","Mergus serrator","L489376","Race Point Beach, Provincetown","2025-05-24 06:05",25,42.0782217,-70.2263891,TRUE,FALSE,FALSE,"S241967123"
"103","rebmer","Red-breasted Merganser","Mergus serrator","L1222504","Lakeview Park/Manistique Boardwalk","2025-05-24 05:56",27,45.9463175,-86.2352803,TRUE,FALSE,FALSE,"S241853337"
"104","rebmer","Red-breasted Merganser","Mergus serrator","L251836","Monhegan Island","2025-05-24 05:54",1,43.7657055,-69.3131265,TRUE,FALSE,FALSE,"S241836686"
"105","rebmer","Red-breasted Merganser","Mergus serrator","L45811858","E1673 Hagen Rd, La Pointe US-WI 46.78686, -90.71267","2025-05-24 05:54",7,46.786861,-90.712674,TRUE,FALSE,TRUE,"S241934219"
"106","rebmer","Red-breasted Merganser","Mergus serrator","L506435","Toft Point SNA","2025-05-24 05:50",8,45.0711959,-87.0953514,TRUE,FALSE,FALSE,"S241846402"
"107","rebmer","Red-breasted Merganser","Mergus serrator","L602509","Sears Island","2025-05-24 05:50",1,44.453009,-68.8808956,TRUE,FALSE,FALSE,"S241856628"
"108","rebmer","Red-breasted Merganser","Mergus serrator","L800627","North Spit--old Weyco Settling Pond & deflation plain","2025-05-24 05:44",1,43.4210895,-124.2850935,TRUE,FALSE,FALSE,"S241997327"
"109","rebmer","Red-breasted Merganser","Mergus serrator","L211111","Metzger Marsh Wildlife Area","2025-05-24 05:43",1,41.645338,-83.2403183,TRUE,FALSE,FALSE,"S242097441"
"110","rebmer","Red-breasted Merganser","Mergus serrator","L192824","C&O Canal--Violette's Lock","2025-05-24 05:42",3,39.066803,-77.32951,TRUE,TRUE,FALSE,"S241998576"
"111","rebmer","Red-breasted Merganser","Mergus serrator","L45803801","Point Dr, Baileys Harbor US-WI 45.06390, -87.08136","2025-05-24 05:35",5,45.063896,-87.081356,TRUE,FALSE,TRUE,"S241895485"
"112","rebmer","Red-breasted Merganser","Mergus serrator","L45808680","9974 Salcha Dr, Salcha US-AK 64.41774, -146.89586","2025-05-24 05:29",1,64.417738,-146.89586,TRUE,FALSE,TRUE,"S241918895"
"113","rebmer","Red-breasted Merganser","Mergus serrator","L1018792","Boiler Bay State Wayside","2025-05-24 05:27",3,44.8288173,-124.0658998,TRUE,FALSE,FALSE,"S242042037"
"114","rebmer","Red-breasted Merganser","Mergus serrator","L956899","Whitefish Point--Harbor of Refuge","2025-05-24 05:21",1,46.761323,-84.9646745,TRUE,FALSE,FALSE,"S241806226"
"115","rebmer","Red-breasted Merganser","Mergus serrator","L1481977","Lubec (town and wharfs)","2025-05-24 05:21",1,44.8593898,-66.9828827,TRUE,FALSE,FALSE,"S241810109"
"116","rebmer","Red-breasted Merganser","Mergus serrator","L4776720","Witch Island, Hampton","2025-05-24 05:19",1,42.9379358,-70.7973361,TRUE,FALSE,TRUE,"S241814506"
"117","rebmer","Red-breasted Merganser","Mergus serrator","L3934103","Park No. 566","2025-05-24 04:59",1,41.7487879,-87.5365198,TRUE,FALSE,FALSE,"S241921321"
"118","rebmer","Red-breasted Merganser","Mergus serrator","L552730","River Park, Chicago","2025-05-24 04:50",1,41.9739848,-87.7039111,TRUE,FALSE,FALSE,"S241922623"
"119","rebmer","Red-breasted Merganser","Mergus serrator","L45253685","Susquehanna River--S River St","2025-05-23 19:58",1,41.961431,-76.516832,TRUE,TRUE,TRUE,"S241741168"
"120","rebmer","Red-breasted Merganser","Mergus serrator","L744251","Marquette--Lower Harbor","2025-05-23 19:36",13,46.5379598,-87.385152,TRUE,FALSE,FALSE,"S241756954"
"121","rebmer","Red-breasted Merganser","Mergus serrator","L1911080","Hosah Park, Zion","2025-05-23 19:06",2,42.4502368,-87.8012323,TRUE,FALSE,FALSE,"S241757746"
"122","rebmer","Red-breasted Merganser","Mergus serrator","L3018688","Gull Harbor","2025-05-23 18:50",3,45.7447685,-85.4991704,TRUE,FALSE,FALSE,"S241719983"
"123","rebmer","Red-breasted Merganser","Mergus serrator","L31510405","Private Residence, Mason, Michigan, US (42.65, -84.41)","2025-05-23 18:26",1,42.6495831,-84.41027,TRUE,FALSE,TRUE,"S241698950"
"124","rebmer","Red-breasted Merganser","Mergus serrator","L31902484","Oscoda private home on beach","2025-05-23 18:20",11,44.437823,-83.328351,TRUE,FALSE,TRUE,"S241695833"
"125","rebmer","Red-breasted Merganser","Mergus serrator","L6124651","Hammond and Shoreline, Falmouth","2025-05-23 18:16",14,43.6996512,-70.235939,TRUE,FALSE,TRUE,"S241744813"
"126","rebmer","Red-breasted Merganser","Mergus serrator","L1152867","Braddock Bay--Rose's Marsh","2025-05-23 17:51",6,43.3261767,-77.7283573,TRUE,FALSE,FALSE,"S241697983"
"127","rebmer","Red-breasted Merganser","Mergus serrator","L725009","Dauphin Island--Airport","2025-05-23 17:45",1,30.2575335,-88.1236848,TRUE,FALSE,FALSE,"S242181426"
"128","rebmer","Red-breasted Merganser","Mergus serrator","L129293","Port Mahon Rd.","2025-05-23 17:29",1,39.1811575,-75.4043884,TRUE,TRUE,FALSE,"S241692809"
"129","rebmer","Red-breasted Merganser","Mergus serrator","L30535742","""Bird Corner"" 13 Sun Dance, Glen Arbor, Michigan, US (44.914, -85.971)","2025-05-23 16:59",1,44.913987,-85.971192,TRUE,FALSE,TRUE,"S241686742"
"130","rebmer","Red-breasted Merganser","Mergus serrator","L139835","Lake Erie Metropark","2025-05-23 16:48",4,42.0691986,-83.1941986,TRUE,FALSE,FALSE,"S241699190"
"131","rebmer","Red-breasted Merganser","Mergus serrator","L43479539","Lake Huron Coastal Preserve","2025-05-23 16:29",11,44.1636086,-83.5695045,TRUE,FALSE,TRUE,"S241682994"
"132","rebmer","Red-breasted Merganser","Mergus serrator","L516706","Hatches Harbor, Provincetown","2025-05-23 16:25",22,42.0616561,-70.2367973,TRUE,FALSE,FALSE,"S241675883"
"133","rebmer","Red-breasted Merganser","Mergus serrator","L5129936","Flax Pond, Old Field","2025-05-23 16:18",1,40.9633404,-73.1404327,TRUE,FALSE,FALSE,"S241853068"
"134","rebmer","Red-breasted Merganser","Mergus serrator","L2508684","Hammonasset Beach SP--Cedar Island Trail","2025-05-23 16:16",2,41.2544824,-72.5408041,TRUE,FALSE,FALSE,"S241676094"
"135","rebmer","Red-breasted Merganser","Mergus serrator","L271585","Thompson's West End Park","2025-05-23 16:09",1,46.6653048,-90.905126,TRUE,FALSE,FALSE,"S241687049"
"136","rebmer","Red-breasted Merganser","Mergus serrator","L1349493","Higgins Beach ","2025-05-23 16:07",30,43.5596922,-70.2797696,TRUE,FALSE,FALSE,"S241668604"
"137","rebmer","Red-breasted Merganser","Mergus serrator","L5489232","Jayne","2025-05-23 16:00",2,43.9462144,-87.7150208,TRUE,FALSE,TRUE,"S241757106"
"138","rebmer","Red-breasted Merganser","Mergus serrator","L3093403","Beaver Island Ferry hour pre/post Island","2025-05-23 15:50",4,45.5509545,-85.3939819,TRUE,FALSE,TRUE,"S241718623"
"139","rebmer","Red-breasted Merganser","Mergus serrator","L11550376","Whiting River Homestead (Port Snettisham)","2025-05-23 15:30",4,58.0049339,-133.6949642,TRUE,FALSE,TRUE,"S242117430"
"140","rebmer","Red-breasted Merganser","Mergus serrator","L2193487","Sturgeon Point SP","2025-05-23 15:13",5,44.713257,-83.2762384,TRUE,FALSE,FALSE,"S241685433"
"141","rebmer","Red-breasted Merganser","Mergus serrator","L14450234","440 East Squantum Street, Quincy, Massachusetts, US (42.29, -71.024)","2025-05-23 15:02",1,42.2903904,-71.0235617,TRUE,FALSE,TRUE,"S241675566"
"142","rebmer","Red-breasted Merganser","Mergus serrator","L2234469","Sherwin Bay","2025-05-23 15:01",2,43.9726037,-76.1720538,TRUE,FALSE,FALSE,"S241682099"
"143","rebmer","Red-breasted Merganser","Mergus serrator","L467579","High Head, Pilgrim Heights","2025-05-23 14:50",17,42.0563031,-70.1161194,TRUE,FALSE,FALSE,"S241732773"
"144","rebmer","Red-breasted Merganser","Mergus serrator","L367106","Au Sable River Breakwall","2025-05-23 14:46",9,44.4063163,-83.3185959,TRUE,FALSE,FALSE,"S241634961"
"145","rebmer","Red-breasted Merganser","Mergus serrator","L152654","Illinois Beach SP--North Unit/Camp Logan","2025-05-23 14:45",2,42.4667,-87.8015,TRUE,FALSE,FALSE,"S241657945"
"146","rebmer","Red-breasted Merganser","Mergus serrator","L2859641","Rogers City Harbor","2025-05-23 14:36",5,45.4236213,-83.812691,TRUE,FALSE,FALSE,"S241650097"
"147","rebmer","Red-breasted Merganser","Mergus serrator","L3975895","Nome River above Dexter","2025-05-23 14:15",7,64.5902731,-165.2844143,TRUE,FALSE,TRUE,"S241755919"
"148","rebmer","Red-breasted Merganser","Mergus serrator","L8839977","Military Installation, Kodiak US-AK (57.7289,-152.5138)","2025-05-23 14:08",2,57.728937,-152.513761,TRUE,FALSE,TRUE,"S241706192"
"149","rebmer","Red-breasted Merganser","Mergus serrator","L449294","Fort McHenry NM","2025-05-23 14:04",2,39.2625631,-76.5791702,TRUE,FALSE,FALSE,"S241626477"
"150","rebmer","Red-breasted Merganser","Mergus serrator","L3661335","John Arthur Woollam Preserve","2025-05-23 14:01",8,45.9883748,-84.2426223,TRUE,FALSE,FALSE,"S241629390"
"151","rebmer","Red-breasted Merganser","Mergus serrator","L1086587","Manitowoc Lakefront","2025-05-23 14:00",2,44.0927942,-87.6501703,TRUE,FALSE,FALSE,"S241751992"
"152","rebmer","Red-breasted Merganser","Mergus serrator","L304213","Moriches Island","2025-05-23 13:04",1,40.7926886,-72.7459378,TRUE,FALSE,FALSE,"S241609075"
"153","rebmer","Red-breasted Merganser","Mergus serrator","L389007","Richard W. DeKorte Park","2025-05-23 12:50",1,40.7833,-74.1025167,TRUE,TRUE,FALSE,"S241665131"
"154","rebmer","Red-breasted Merganser","Mergus serrator","L269491","Plymouth Beach","2025-05-23 12:45",2,41.9765658,-70.6505452,TRUE,FALSE,FALSE,"S241886541"
"155","rebmer","Red-breasted Merganser","Mergus serrator","L482452","Lexington Harbor","2025-05-23 12:45",1,43.2672063,-82.5265503,TRUE,FALSE,FALSE,"S241765141"
"156","rebmer","Red-breasted Merganser","Mergus serrator","L3133553","Cheboygan Marsh/Gordon Turner Park","2025-05-23 12:38",2,45.6561882,-84.4709344,TRUE,FALSE,FALSE,"S241601362"
"157","rebmer","Red-breasted Merganser","Mergus serrator","L724714","Chena Lake RA","2025-05-23 12:17",2,64.7706866,-147.2272682,TRUE,FALSE,FALSE,"S241687351"
"158","rebmer","Red-breasted Merganser","Mergus serrator","L489387","Head of the Meadow Beach, N. Truro","2025-05-23 12:13",8,42.0522244,-70.0795126,TRUE,FALSE,FALSE,"S241583243"
"159","rebmer","Red-breasted Merganser","Mergus serrator","L3717427","Nome-Council Rd.--Safety Sound Bridge to Last Train to Nowhere","2025-05-23 11:40",7,64.5153332,-164.5622527,TRUE,FALSE,FALSE,"S241792576"
"160","rebmer","Red-breasted Merganser","Mergus serrator","L99615","Myers Point","2025-05-23 11:32",2,42.5371252,-76.5506476,TRUE,FALSE,FALSE,"S241743577"
"161","rebmer","Red-breasted Merganser","Mergus serrator","L45665235","18355 North Whitefish Point Road, Paradise, Michigan, US (46.771, -84.958)","2025-05-23 11:30",1,46.7707837,-84.9584523,TRUE,FALSE,TRUE,"S241560526"
"162","rebmer","Red-breasted Merganser","Mergus serrator","L3735885","Old Orchard Beach","2025-05-23 11:28",17,43.5204786,-70.3688049,TRUE,FALSE,FALSE,"S241559492"
"163","rebmer","Red-breasted Merganser","Mergus serrator","L1339966","Bateau Play Park","2025-05-23 11:25",2,43.2521731,-77.5949905,TRUE,FALSE,FALSE,"S241660195"
"164","rebmer","Red-breasted Merganser","Mergus serrator","L475851","Sandy Hook--E & D Lot Beaches","2025-05-23 11:16",1,40.4295703,-73.9841652,TRUE,FALSE,FALSE,"S241708707"
"165","rebmer","Red-breasted Merganser","Mergus serrator","L6044671","Hart House Truro-28 Toms Hill Rd - 41.9965x-70.0722","2025-05-23 11:16",1,41.996486,-70.072208,TRUE,FALSE,TRUE,"S241559660"
"166","rebmer","Red-breasted Merganser","Mergus serrator","L1206739","Nome-Council Rd.--Safety Sound Bridge","2025-05-23 11:16",15,64.4720541,-164.746685,TRUE,FALSE,FALSE,"S241785434"
"167","rebmer","Red-breasted Merganser","Mergus serrator","L2281679","Anchor River--South Fork","2025-05-23 11:14",2,59.7168153,-151.647141,TRUE,FALSE,FALSE,"S241756521"
"168","rebmer","Red-breasted Merganser","Mergus serrator","L275954","Port Washington harbor","2025-05-23 11:12",3,43.3868339,-87.8681781,TRUE,FALSE,TRUE,"S241708637"
"169","rebmer","Red-breasted Merganser","Mergus serrator","L166564","Long Bridge/Head of the bay, Ashland","2025-05-23 11:03",1,46.58829,-90.945175,TRUE,FALSE,FALSE,"S241583049"
"170","rebmer","Red-breasted Merganser","Mergus serrator","L36489335","Bradford beach","2025-05-23 11:00",2,43.0724678,-87.6186371,TRUE,FALSE,TRUE,"S241721580"
"171","rebmer","Red-breasted Merganser","Mergus serrator","L383782","Rainbow Beach, Chicago","2025-05-23 10:58",4,41.7588051,-87.5460783,TRUE,FALSE,FALSE,"S241580330"
"172","rebmer","Red-breasted Merganser","Mergus serrator","L7538858","ACS #10 WBNU Bald Eagle State Park, Howard US-PA (41.0314,-77.6468)","2025-05-23 10:52",1,41.031388,-77.646789,TRUE,TRUE,TRUE,"S241807258"
"173","rebmer","Red-breasted Merganser","Mergus serrator","L856525","Duck Harbor Beach, Wellfleet","2025-05-23 10:51",6,41.9393216,-70.0746096,TRUE,FALSE,FALSE,"S241554309"
"174","rebmer","Red-breasted Merganser","Mergus serrator","L4614418","Straits State Harbor","2025-05-23 10:35",60,45.7774844,-84.7222676,TRUE,FALSE,FALSE,"S241571361"
"175","rebmer","Red-breasted Merganser","Mergus serrator","L3840693","Bailey County Park","2025-05-23 10:34",25,45.2887592,-87.4469876,TRUE,FALSE,FALSE,"S241672502"
"176","rebmer","Red-breasted Merganser","Mergus serrator","L420581","South Shore Cultural Center and Nature Sanctuary","2025-05-23 10:29",1,41.7681589,-87.5603914,TRUE,FALSE,FALSE,"S241566849"
"177","rebmer","Red-breasted Merganser","Mergus serrator","L34942492","Olnes Pond","2025-05-23 10:28",1,65.0779813,-147.7463228,TRUE,FALSE,FALSE,"S241627176"
"178","rebmer","Red-breasted Merganser","Mergus serrator","L455897","Gooseberry Neck","2025-05-23 10:22",2,41.4869773,-71.0375977,TRUE,FALSE,FALSE,"S241557656"
"179","rebmer","Red-breasted Merganser","Mergus serrator","L33973249","tr stopover site 1 (Spirit of the River)","2025-05-23 10:21",10,44.1236178,-87.6192668,TRUE,FALSE,TRUE,"S241560262"
"180","rebmer","Red-breasted Merganser","Mergus serrator","L464527","First Encounter Beach","2025-05-23 10:15",3,41.8215025,-70.0037241,TRUE,FALSE,FALSE,"S241726406"
"181","rebmer","Red-breasted Merganser","Mergus serrator","L474833","Great Lakes Naval Training Center (restricted access)","2025-05-23 10:14",6,42.3081334,-87.8343201,TRUE,TRUE,FALSE,"S241600386"
"182","rebmer","Red-breasted Merganser","Mergus serrator","L129084","Sandy Point State Reservation","2025-05-23 10:13",1,42.702006,-70.777711,TRUE,FALSE,FALSE,"S241561357"
"183","rebmer","Red-breasted Merganser","Mergus serrator","L35784320","Flaugherty Run Mouth","2025-05-23 10:01",3,40.5575474,-80.2178482,TRUE,TRUE,FALSE,"S241610706"
"184","rebmer","Red-breasted Merganser","Mergus serrator","L207373","Great Sippewisett Marsh and Black Beach","2025-05-23 09:58",2,41.5890703,-70.6442209,TRUE,FALSE,FALSE,"S241576856"
"185","rebmer","Red-breasted Merganser","Mergus serrator","L152655","Illinois Beach SP--South Unit","2025-05-23 09:50",2,42.4203,-87.8078,TRUE,FALSE,FALSE,"S241604360"
"186","rebmer","Red-breasted Merganser","Mergus serrator","L252740","Sandy Pond Outlet","2025-05-23 09:45",2,43.6648397,-76.1961043,TRUE,FALSE,FALSE,"S241602131"
"187","rebmer","Red-breasted Merganser","Mergus serrator","L602602","Lubec Flats--South Lubec Sand Bar and Mudflats","2025-05-23 09:40",2,44.8178897,-66.9850159,TRUE,FALSE,FALSE,"S241522315"
"188","rebmer","Red-breasted Merganser","Mergus serrator","L1512917","Ottawa NWR--Crane Creek Estuary Trail","2025-05-23 09:30",1,41.6310555,-83.1958526,TRUE,FALSE,FALSE,"S241544075"
"189","rebmer","Red-breasted Merganser","Mergus serrator","L1171542","Presque Isle SP--Misery Bay","2025-05-23 09:28",1,42.1588862,-80.0891304,TRUE,FALSE,FALSE,"S241515783"
"190","rebmer","Red-breasted Merganser","Mergus serrator","L45740561","Refuge Island- restricted access","2025-05-23 09:23",2,46.658328,-124.034453,TRUE,TRUE,TRUE,"S241607682"
"191","rebmer","Red-breasted Merganser","Mergus serrator","L500365","Jedediah Smith Redwoods SP--Hiouchi Visitor Center & campground","2025-05-23 09:22",2,41.796624,-124.0848051,TRUE,FALSE,FALSE,"S241621961"
"192","rebmer","Red-breasted Merganser","Mergus serrator","L4004485","Nome (town)","2025-05-23 09:20",1,64.5010632,-165.4081392,TRUE,FALSE,FALSE,"S241643198"
"193","rebmer","Red-breasted Merganser","Mergus serrator","L474804","Sandy Neck","2025-05-23 09:15",1,41.7353901,-70.3512096,TRUE,FALSE,FALSE,"S241578265"
"194","rebmer","Red-breasted Merganser","Mergus serrator","L12132844","Graham Point","2025-05-23 09:12",16,45.8493661,-84.705258,TRUE,FALSE,FALSE,"S241509405"
"195","rebmer","Red-breasted Merganser","Mergus serrator","L167741","Cape Neddick Light","2025-05-23 09:08",1,43.1653,-70.59318,TRUE,FALSE,FALSE,"S241521566"
"196","rebmer","Red-breasted Merganser","Mergus serrator","L1664751","Nome-Council Rd.--Cape Nome to Safety Sound Bridge","2025-05-23 09:06",7,64.4408338,-164.8940364,TRUE,FALSE,FALSE,"S241791109"
"197","rebmer","Red-breasted Merganser","Mergus serrator","L385598","Bark Bay Slough SNA","2025-05-23 09:04",9,46.8495085,-91.1990547,TRUE,FALSE,FALSE,"S241596196"
"198","rebmer","Red-breasted Merganser","Mergus serrator","L140043","Sachuest Point NWR","2025-05-23 08:59",1,41.4799232,-71.2431946,TRUE,FALSE,FALSE,"S241700357"
"199","rebmer","Red-breasted Merganser","Mergus serrator","L5828955","Lakeside Cemetery ","2025-05-23 08:55",52,45.849807,-84.713724,TRUE,FALSE,FALSE,"S241503644"
"200","rebmer","Red-breasted Merganser","Mergus serrator","L45777970","Kodiak Is—Ferry transect from Port Lions to Ouzinkie","2025-05-23 08:49",2,57.932433,-152.616352,TRUE,FALSE,TRUE,"S241776990"
"201","rebmer","Red-breasted Merganser","Mergus serrator","L19286955","Carp Lake River mouth","2025-05-23 08:45",1,45.7487906,-84.8299633,TRUE,FALSE,TRUE,"S241541754"
"202","rebmer","Red-breasted Merganser","Mergus serrator","L4964747","Washington Island--Wickman (Private)","2025-05-23 08:41",18,45.3706883,-86.8489548,TRUE,FALSE,TRUE,"S241552484"
"203","rebmer","Red-breasted Merganser","Mergus serrator","L197353","Sandy Hook","2025-05-23 08:36",1,40.4392518,-73.9869263,TRUE,FALSE,FALSE,"S241700326"
"204","rebmer","Red-breasted Merganser","Mergus serrator","L785035","Pillar Point Harbor--West Point Ave. Freshwater Pond, Marsh and Willow areas","2025-05-23 08:30",1,37.5032728,-122.4968076,TRUE,FALSE,FALSE,"S241612543"
"205","rebmer","Red-breasted Merganser","Mergus serrator","L599237","Corporation Beach","2025-05-23 08:24",8,41.7517206,-70.1874876,TRUE,FALSE,FALSE,"S241519565"
"206","rebmer","Red-breasted Merganser","Mergus serrator","L44313134","Lighthouse Beach to Beach 10","2025-05-23 08:19",8,42.171245,-80.102555,TRUE,FALSE,TRUE,"S241708560"
"207","rebmer","Red-breasted Merganser","Mergus serrator","L215343","Napatree Point","2025-05-23 08:17",3,41.3103371,-71.8743918,TRUE,FALSE,FALSE,"S241670557"
"208","rebmer","Red-breasted Merganser","Mergus serrator","L231988","Kathryn Abbey Hanna Park","2025-05-23 08:13",1,30.3713664,-81.4073128,TRUE,FALSE,FALSE,"S241541163"
"209","rebmer","Red-breasted Merganser","Mergus serrator","L5928803","Nome-Council Rd.--Nome River to Cape Nome","2025-05-23 08:07",4,64.4477456,-165.0624213,TRUE,FALSE,FALSE,"S241785579"
"210","rebmer","Red-breasted Merganser","Mergus serrator","L773674","Mackinac Island","2025-05-23 08:06",6,45.8613249,-84.6221924,TRUE,FALSE,FALSE,"S241588977"
"211","rebmer","Red-breasted Merganser","Mergus serrator","L360157","C&O Canal--Riley's Lock","2025-05-23 07:45",3,39.0682467,-77.3431492,TRUE,FALSE,FALSE,"S241562952"
"212","rebmer","Red-breasted Merganser","Mergus serrator","L272172","Missisquoi NWR--Stephen Young Marsh","2025-05-23 07:41",1,44.9537903,-73.2070595,TRUE,FALSE,FALSE,"S241524109"
"213","rebmer","Red-breasted Merganser","Mergus serrator","L276890","Headlands Beach SP","2025-05-23 07:34",1,41.7581556,-81.2895048,TRUE,FALSE,FALSE,"S241632366"
"214","rebmer","Red-breasted Merganser","Mergus serrator","L989821","Ocean Beach County Park and Santa Ynez River Estuary","2025-05-23 07:32",1,34.6909567,-120.6003785,TRUE,FALSE,FALSE,"S241545880"
"215","rebmer","Red-breasted Merganser","Mergus serrator","L603705","Lorain Impoundment Lakeside Landing","2025-05-23 07:31",1,41.4759174,-82.1756744,TRUE,FALSE,FALSE,"S241537187"
"216","rebmer","Red-breasted Merganser","Mergus serrator","L10204427","Mosquito Lake SP--Beach","2025-05-23 07:29",2,41.3036905,-80.7622343,TRUE,FALSE,FALSE,"S241478005"
"217","rebmer","Red-breasted Merganser","Mergus serrator","L294426","Northerly Island, Chicago","2025-05-23 07:25",1,41.8596139,-87.6085684,TRUE,FALSE,FALSE,"S241886938"
"218","rebmer","Red-breasted Merganser","Mergus serrator","L16523055","Headlands Dunes State Nature Preserve, Mentor US-OH 41.76120, -81.28415","2025-05-23 07:22",1,41.761205,-81.284148,TRUE,FALSE,TRUE,"S241557338"
"219","rebmer","Red-breasted Merganser","Mergus serrator","L5106161","Sandy Neck--Sandy Neck Beach","2025-05-23 07:19",4,41.7391369,-70.3801775,TRUE,FALSE,FALSE,"S241490137"
"220","rebmer","Red-breasted Merganser","Mergus serrator","L523654","Terrell River County Park","2025-05-23 07:13",1,40.7921091,-72.7785873,TRUE,FALSE,FALSE,"S241542288"
"221","rebmer","Red-breasted Merganser","Mergus serrator","L45752386","North Patrol Rd. West","2025-05-23 07:03",3,42.678107,-113.480246,TRUE,FALSE,TRUE,"S241659713"
"222","rebmer","Red-breasted Merganser","Mergus serrator","L248057","Pte. Mouillee SGA (permit required Sep 1-Dec 15)","2025-05-23 07:02",1,42.0146112,-83.2001495,TRUE,FALSE,FALSE,"S241620146"
"223","rebmer","Red-breasted Merganser","Mergus serrator","L507372","USCG Shipping Canal--North Pier","2025-05-23 06:55",4,44.79481,-87.3126411,TRUE,FALSE,FALSE,"S241637140"
"224","rebmer","Red-breasted Merganser","Mergus serrator","L473315","Stratton Island","2025-05-23 06:54",3,43.5046746,-70.3116417,TRUE,FALSE,FALSE,"S242165936"
"225","rebmer","Red-breasted Merganser","Mergus serrator","L9577710","Napeague SP--Lazy Point","2025-05-23 06:45",1,41.0117351,-72.0589849,TRUE,FALSE,FALSE,"S241746863"
"226","rebmer","Red-breasted Merganser","Mergus serrator","L489056","Compo Beach","2025-05-23 06:32",1,41.1032532,-73.3529234,TRUE,FALSE,FALSE,"S241476051"
"227","rebmer","Red-breasted Merganser","Mergus serrator","L45710061","N Lighthouse Point Rd, Leelanau Township US-MI (45.2114,-85.5440)","2025-05-23 06:26",6,45.211447,-85.54403,TRUE,FALSE,TRUE,"S241452707"
"228","rebmer","Red-breasted Merganser","Mergus serrator","L32295525","Helena Rd Access","2025-05-23 06:20",5,43.778277,-82.6135832,TRUE,FALSE,TRUE,"S241783807"
"229","rebmer","Red-breasted Merganser","Mergus serrator","L2457443","Biddeford Pool--Southpoint","2025-05-23 06:20",1,43.440722,-70.3431235,TRUE,FALSE,TRUE,"S241551325"
"230","rebmer","Red-breasted Merganser","Mergus serrator","L469938","Manomet Point","2025-05-23 06:03",1,41.9264999,-70.5395651,TRUE,FALSE,FALSE,"S241673223"
"231","rebmer","Red-breasted Merganser","Mergus serrator","L997495","Little Long Pond Loop","2025-05-23 06:02",4,44.2937604,-68.2536953,TRUE,FALSE,FALSE,"S241490294"
"232","rebmer","Red-breasted Merganser","Mergus serrator","L1041187","Sandy Hook--Spermaceti Cove area","2025-05-23 06:00",1,40.4259441,-73.9882851,TRUE,FALSE,FALSE,"S241639702"
"233","rebmer","Red-breasted Merganser","Mergus serrator","L734464","Cohasset--Little Harbor and Sandy Beach","2025-05-23 05:49",12,42.2557766,-70.8008766,TRUE,FALSE,FALSE,"S241491149"
"234","rebmer","Red-breasted Merganser","Mergus serrator","L693848","Cape Island--CMP--Coral Ave. dune crossing","2025-05-23 05:32",1,38.9327948,-74.9651502,TRUE,FALSE,FALSE,"S241610590"
"235","rebmer","Red-breasted Merganser","Mergus serrator","L252159","Kohler-Andrae SP","2025-05-23 05:06",1,43.6650156,-87.7197361,TRUE,FALSE,FALSE,"S241523600"
"236","rebmer","Red-breasted Merganser","Mergus serrator","L161180","Montrose Point Bird Sanctuary, Lincoln Park, Chicago","2025-05-23 04:56",2,41.9633833,-87.6344204,TRUE,FALSE,FALSE,"S241497314"
"237","rebmer","Red-breasted Merganser","Mergus serrator","L7480044","Kotzebue Loop road west","2025-05-22 22:18",3,66.8685688,-162.617569,TRUE,FALSE,TRUE,"S241574909"
"238","rebmer","Red-breasted Merganser","Mergus serrator","L5073647","Bayshore Marina","2025-05-22 19:52",6,46.4128854,-86.6531235,TRUE,FALSE,FALSE,"S241366855"
"239","rebmer","Red-breasted Merganser","Mergus serrator","L18565086","West Jefferson Warehouse District and Retention Ponds","2025-05-22 19:49",3,39.9415006,-83.3239595,TRUE,TRUE,FALSE,"S241370986"
"240","rebmer","Red-breasted Merganser","Mergus serrator","L2985133","5th Ave. beach","2025-05-22 19:40",2,44.2508631,-86.3426954,TRUE,FALSE,FALSE,"S241375781"
"241","rebmer","Red-breasted Merganser","Mergus serrator","L27660400","Sunrise Park","2025-05-22 19:33",4,42.1261464,-83.140943,TRUE,FALSE,FALSE,"S241373092"
"242","rebmer","Red-breasted Merganser","Mergus serrator","L16473383","Jones Beach","2025-05-22 19:08",2,44.8105222,-66.9791365,TRUE,FALSE,FALSE,"S241359508"
"243","rebmer","Red-breasted Merganser","Mergus serrator","L1804312","Mills River WTP","2025-05-22 19:07",1,35.3776918,-82.5450236,TRUE,FALSE,FALSE,"S241357477"
"244","rebmer","Red-breasted Merganser","Mergus serrator","L1308583","Curwensville Dam Rec Area","2025-05-22 19:00",1,40.950733,-78.5367966,TRUE,TRUE,FALSE,"S241399416"
"245","rebmer","Red-breasted Merganser","Mergus serrator","L4851032","Pointe aux Chenes","2025-05-22 18:50",2,45.9239204,-84.9092392,TRUE,FALSE,FALSE,"S241356201"
"246","rebmer","Red-breasted Merganser","Mergus serrator","L15033070","Tawas Bay Beach Resort","2025-05-22 18:30",5,44.279594,-83.487589,TRUE,FALSE,TRUE,"S241379239"
"247","rebmer","Red-breasted Merganser","Mergus serrator","L354041","Sheridan Park","2025-05-22 18:19",2,42.9610266,-87.8475091,TRUE,FALSE,FALSE,"S241366783"
"248","rebmer","Red-breasted Merganser","Mergus serrator","L38252293","Sinepuxent Bay Boat Trip","2025-05-22 18:18",2,38.3258273,-75.0991663,TRUE,FALSE,FALSE,"S241363249"
"249","rebmer","Red-breasted Merganser","Mergus serrator","L871891","Lakeview Park","2025-05-22 17:52",7,41.4627974,-82.1961021,TRUE,TRUE,FALSE,"S241340026"
"250","rebmer","Red-breasted Merganser","Mergus serrator","L508397","Bartlett Pond, Manomet","2025-05-22 17:44",1,41.9276972,-70.55686,TRUE,FALSE,FALSE,"S241338561"
"251","rebmer","Red-breasted Merganser","Mergus serrator","L1653964","North Point","2025-05-22 17:37",2,45.3399072,-85.2461548,TRUE,FALSE,FALSE,"S241343809"
"252","rebmer","Red-breasted Merganser","Mergus serrator","L109178","Deer Flat NWR--Lower Dam","2025-05-22 17:34",1,43.5873678,-116.7298651,TRUE,TRUE,FALSE,"S241385003"
"253","rebmer","Red-breasted Merganser","Mergus serrator","L617867","Headlands Dunes State Nature Preserve","2025-05-22 17:20",4,41.7642698,-81.2838936,TRUE,FALSE,FALSE,"S241361701"
"254","rebmer","Red-breasted Merganser","Mergus serrator","L152643","Gompers Park, Chicago","2025-05-22 17:12",2,41.974343,-87.7305487,TRUE,FALSE,FALSE,"S241347301"
"255","rebmer","Red-breasted Merganser","Mergus serrator","L129778","Yellow Creek SP (IBA)","2025-05-22 17:05",2,40.5739352,-79.0204525,TRUE,FALSE,FALSE,"S241398532"
"256","rebmer","Red-breasted Merganser","Mergus serrator","L33775941","Chugach NF--Primrose Campground","2025-05-22 16:58",1,60.3406485,-149.3697149,TRUE,FALSE,FALSE,"S241393232"
"257","rebmer","Red-breasted Merganser","Mergus serrator","L1331370","Pebble Beach","2025-05-22 16:55",2,42.6358609,-70.6003547,TRUE,FALSE,FALSE,"S241331483"
"258","rebmer","Red-breasted Merganser","Mergus serrator","L272667","Dyer Point","2025-05-22 16:39",1,43.5653323,-70.1971416,TRUE,FALSE,FALSE,"S241329085"
"259","rebmer","Red-breasted Merganser","Mergus serrator","L22844656","Hoboken 13th & 14th Piers","2025-05-22 16:14",1,40.752098,-74.0209774,TRUE,FALSE,FALSE,"S241322024"
"260","rebmer","Red-breasted Merganser","Mergus serrator","L1807808","Cheboygan SP","2025-05-22 16:06",2,45.6477885,-84.41921,TRUE,FALSE,FALSE,"S241789548"
"261","rebmer","Red-breasted Merganser","Mergus serrator","L3082826","Pictured Rocks NL--Miners Castle","2025-05-22 15:46",2,46.4954325,-86.5511613,TRUE,FALSE,FALSE,"S241371572"
"262","rebmer","Red-breasted Merganser","Mergus serrator","L474653","Allerton Point","2025-05-22 15:23",2,42.3113388,-70.8844757,TRUE,FALSE,FALSE,"S241740613"
"263","rebmer","Red-breasted Merganser","Mergus serrator","L27341969","Hudson River Park--Gansevoort Peninsula","2025-05-22 15:00",1,40.7400162,-74.010893,TRUE,TRUE,FALSE,"S241305391"
"264","rebmer","Red-breasted Merganser","Mergus serrator","L2625642","Gulf Islands National Seashore--Fort McRee","2025-05-22 14:53",3,30.3229523,-87.316246,TRUE,FALSE,FALSE,"S241321622"
"265","rebmer","Red-breasted Merganser","Mergus serrator","L455424","North Hampton State Beach","2025-05-22 14:38",18,42.9546165,-70.7819617,TRUE,FALSE,FALSE,"S241291839"
"266","rebmer","Red-breasted Merganser","Mergus serrator","L3369936","Bryan Stock Trail Ponds","2025-05-22 14:29",1,42.8671419,-106.2912118,TRUE,TRUE,FALSE,"S241393642"
"267","rebmer","Red-breasted Merganser","Mergus serrator","L3594551","Metzger Marsh--Outer Dike","2025-05-22 13:57",1,41.6487565,-83.2361555,TRUE,FALSE,FALSE,"S241305981"
"268","rebmer","Red-breasted Merganser","Mergus serrator","L933275","Hampton Harbor--Yankee Fisherman's Coop","2025-05-22 13:51",8,42.8910738,-70.8190835,TRUE,FALSE,FALSE,"S241281070"
"269","rebmer","Red-breasted Merganser","Mergus serrator","L16212120","Park in the Pines","2025-05-22 13:20",5,43.450843,-70.366945,TRUE,FALSE,FALSE,"S241331042"
"270","rebmer","Red-breasted Merganser","Mergus serrator","L1783363","Alaska Wildlife Conservation Center","2025-05-22 12:44",1,60.8215092,-148.9844546,TRUE,FALSE,FALSE,"S241413337"
"271","rebmer","Red-breasted Merganser","Mergus serrator","L207664","Las Gallinas Valley Sanitary District","2025-05-22 12:35",1,38.0274109,-122.515583,TRUE,FALSE,FALSE,"S241403863"
"272","rebmer","Red-breasted Merganser","Mergus serrator","L1404072","Oregon Inlet","2025-05-22 12:32",2,35.7764242,-75.5338684,TRUE,FALSE,FALSE,"S241270324"
"273","rebmer","Red-breasted Merganser","Mergus serrator","L282134","Shorewood Nature Preserve","2025-05-22 12:15",2,43.0848273,-87.8711757,TRUE,FALSE,FALSE,"S241271431"
"274","rebmer","Red-breasted Merganser","Mergus serrator","L639463","Emma Wood State Beach","2025-05-22 12:12",1,34.2791874,-119.3132186,TRUE,FALSE,FALSE,"S241390091"
"275","rebmer","Red-breasted Merganser","Mergus serrator","L11978874","Harrington Beach SP--Bobolink Loop","2025-05-22 12:09",1,43.4956599,-87.8037187,TRUE,FALSE,FALSE,"S241311748"
"276","rebmer","Red-breasted Merganser","Mergus serrator","L15064759","Anchor River--Anchor Point beach","2025-05-22 12:08",2,59.7790981,-151.8631308,TRUE,FALSE,FALSE,"S241348674"
"277","rebmer","Red-breasted Merganser","Mergus serrator","L3886511","Mandeville--Sunset Point","2025-05-22 12:05",1,30.3614713,-90.0854509,TRUE,TRUE,FALSE,"S241285912"
"278","rebmer","Red-breasted Merganser","Mergus serrator","L192297","Wells Harbor--Marshes and Beach","2025-05-22 11:47",1,43.3199326,-70.562769,TRUE,FALSE,FALSE,"S241239538"
"279","rebmer","Red-breasted Merganser","Mergus serrator","L14362652","Beltzville SP--Day Use Area","2025-05-22 11:42",1,40.8606297,-75.6271125,TRUE,TRUE,FALSE,"S241246850"
"280","rebmer","Red-breasted Merganser","Mergus serrator","L2864133","Goose Bay SGR","2025-05-22 10:39",2,61.3914177,-149.8669052,TRUE,FALSE,FALSE,"S241404616"
"281","rebmer","Red-breasted Merganser","Mergus serrator","L12633630","Anchor Memorial Park Pier","2025-05-22 10:30",1,35.3674858,-120.8543779,TRUE,FALSE,TRUE,"S241313295"
"282","rebmer","Red-breasted Merganser","Mergus serrator","L1309950","Lake Park--Linnwood Water Treatment Plant to Bradford Beach","2025-05-22 10:17",1,43.0695148,-87.865777,TRUE,FALSE,FALSE,"S241268730"
"283","rebmer","Red-breasted Merganser","Mergus serrator","L199273","Semiahmoo Spit","2025-05-22 10:15",2,48.9800492,-122.7883112,TRUE,FALSE,FALSE,"S241381538"
"284","rebmer","Red-breasted Merganser","Mergus serrator","L2617135","Hudson River Park--Tribeca Upland (Chambers to W Houston St.)","2025-05-22 10:00",1,40.7238322,-74.0116863,TRUE,TRUE,FALSE,"S241237739"
"285","rebmer","Red-breasted Merganser","Mergus serrator","L11314797","Upper Gem Lake--East Side","2025-05-22 09:58",1,43.4531993,-112.0879269,TRUE,FALSE,FALSE,"S241268910"
"286","rebmer","Red-breasted Merganser","Mergus serrator","L327534","North Deer Island","2025-05-22 09:42",2,29.2853663,-94.9216203,TRUE,FALSE,FALSE,"S241237155"
"287","rebmer","Red-breasted Merganser","Mergus serrator","L473325","Seaside Park","2025-05-22 09:35",1,41.1615162,-73.1931067,TRUE,FALSE,FALSE,"S241224457"
"288","rebmer","Red-breasted Merganser","Mergus serrator","L3703693","Kotzebue--Airport","2025-05-22 09:30",5,66.8905093,-162.608664,TRUE,FALSE,FALSE,"S241302919"
"289","rebmer","Red-breasted Merganser","Mergus serrator","L45746723","Tofte Cabin","2025-05-22 09:11",1,47.581272,-90.820442,TRUE,FALSE,TRUE,"S241634734"
"290","rebmer","Red-breasted Merganser","Mergus serrator","L1315286","Little Lagoon Pass","2025-05-22 08:57",1,30.2418335,-87.7371839,TRUE,FALSE,FALSE,"S241205309"
"291","rebmer","Red-breasted Merganser","Mergus serrator","L278184","Rye Harbor SP (Ragged Neck)","2025-05-22 08:48",1,43.00162,-70.74497,TRUE,FALSE,FALSE,"S241218629"
"292","rebmer","Red-breasted Merganser","Mergus serrator","L1152327","Canyon Ferry Lake--Lower Ray Creek","2025-05-22 08:48",5,46.3841173,-111.4879024,TRUE,FALSE,FALSE,"S241277319"
"293","rebmer","Red-breasted Merganser","Mergus serrator","L3295995","Biddeford Pool--Ocean Ave.","2025-05-22 08:24",50,43.444123,-70.340395,TRUE,FALSE,FALSE,"S241178868"
"294","rebmer","Red-breasted Merganser","Mergus serrator","L192946","Ludington SP","2025-05-22 08:05",5,44.0367634,-86.4946318,TRUE,FALSE,FALSE,"S241331801"
"295","rebmer","Red-breasted Merganser","Mergus serrator","L251783","Gilsland Farm Audubon Center","2025-05-22 08:04",6,43.7066997,-70.2417581,TRUE,FALSE,FALSE,"S241197849"
"296","rebmer","Red-breasted Merganser","Mergus serrator","L336663","Lighthouse Marine Park, Point Roberts","2025-05-22 08:00",1,48.9722422,-123.0836705,TRUE,FALSE,FALSE,"S241312834"
"297","rebmer","Red-breasted Merganser","Mergus serrator","L45665013","Lakewalk from Canal Park Lodge","2025-05-22 08:00",3,46.785958,-92.094252,TRUE,FALSE,TRUE,"S241241359"
"298","rebmer","Red-breasted Merganser","Mergus serrator","L292333","Home","2025-05-22 07:52",2,43.3264327,-78.7740913,TRUE,FALSE,TRUE,"S241201385"
"299","rebmer","Red-breasted Merganser","Mergus serrator","L1323608","Ocean City--Sunset Park","2025-05-22 07:46",1,38.3275683,-75.0906569,TRUE,FALSE,FALSE,"S241172838"
"300","rebmer","Red-breasted Merganser","Mergus serrator","L357188","Locust Grove Cemetery","2025-05-22 07:29",2,42.6834134,-70.6469393,TRUE,FALSE,FALSE,"S241378777"
"301","rebmer","Red-breasted Merganser","Mergus serrator","L384030","Hood River mouth","2025-05-22 07:20",1,45.7152892,-121.5063858,TRUE,TRUE,FALSE,"S241359838"
"302","rebmer","Red-breasted Merganser","Mergus serrator","L45676739","Norwegian Jade Day 4 Track 3","2025-05-22 07:13",7,58.173488,-134.166247,TRUE,FALSE,TRUE,"S241295641"
"303","rebmer","Red-breasted Merganser","Mergus serrator","L323166","Kiwanis Riverway Park","2025-05-22 07:10",1,40.096543,-83.1095188,TRUE,TRUE,FALSE,"S241221611"
"304","rebmer","Red-breasted Merganser","Mergus serrator","L22328221","Sleeping Bear Point Maritime Museum","2025-05-22 06:22",1,44.90736,-86.034523,TRUE,FALSE,TRUE,"S241197063"
"305","rebmer","Red-breasted Merganser","Mergus serrator","L265438","Three Crabs","2025-05-22 06:17",8,48.151945,-123.1222855,TRUE,FALSE,FALSE,"S241212796"
"306","rebmer","Red-breasted Merganser","Mergus serrator","L279945","Andrews Point","2025-05-22 06:15",1,42.687714,-70.6204365,TRUE,FALSE,FALSE,"S241897636"
"307","rebmer","Red-breasted Merganser","Mergus serrator","L350359","Kewaunee Harbor","2025-05-22 06:02",6,44.4594665,-87.4987771,TRUE,FALSE,FALSE,"S241157501"
"308","rebmer","Red-breasted Merganser","Mergus serrator","L6517534","Neah Bay--town and bay only","2025-05-22 05:30",1,48.3666101,-124.6215677,TRUE,FALSE,FALSE,"S241598002"
"309","rebmer","Red-breasted Merganser","Mergus serrator","L4049988","Cape Nome","2025-05-21 20:45",1,64.4353828,-165.0113225,TRUE,FALSE,TRUE,"S241355950"
"310","rebmer","Red-breasted Merganser","Mergus serrator","L18756153","597 West 14th North, Rexburg, Idaho, US (43.855, -111.8)","2025-05-21 20:19",3,43.8554324,-111.7998028,TRUE,FALSE,TRUE,"S241095792"
"311","rebmer","Red-breasted Merganser","Mergus serrator","L2130407","Founder's Landing","2025-05-21 19:33",18,46.5372407,-87.393558,TRUE,FALSE,FALSE,"S241062105"
"312","rebmer","Red-breasted Merganser","Mergus serrator","L1197287","Old Mission Point Park/Lighthouse Park","2025-05-21 18:55",20,44.9918576,-85.477404,TRUE,FALSE,FALSE,"S241074064"
"313","rebmer","Red-breasted Merganser","Mergus serrator","L487591","Long Arm Reservoir","2025-05-21 18:50",1,39.7443852,-76.9901705,TRUE,TRUE,FALSE,"S241068887"
"314","rebmer","Red-breasted Merganser","Mergus serrator","L2394794","Marquette Lower Harbor Breakwall","2025-05-21 18:48",2,46.5403162,-87.3789346,TRUE,FALSE,TRUE,"S241607735"
"315","rebmer","Red-breasted Merganser","Mergus serrator","L1353392","Cline Spit","2025-05-21 17:32",4,48.1519101,-123.1518205,TRUE,FALSE,FALSE,"S241084726"
"316","rebmer","Red-breasted Merganser","Mergus serrator","L39728522","149 Marshall Point","2025-05-21 17:22",1,43.918811,-69.2580704,TRUE,FALSE,TRUE,"S241044513"
"317","rebmer","Red-breasted Merganser","Mergus serrator","L1803401","Deer Flat NWR Lower Dam","2025-05-21 16:45",1,43.5786153,-116.7421326,TRUE,TRUE,TRUE,"S241104914"
"318","rebmer","Red-breasted Merganser","Mergus serrator","L761455","Ferry Rock, Scarborough","2025-05-21 16:24",14,43.5410048,-70.3255248,TRUE,FALSE,FALSE,"S241038244"
"319","rebmer","Red-breasted Merganser","Mergus serrator","L590369","Pemaquid Beach","2025-05-21 16:23",5,43.8713848,-69.5199823,TRUE,FALSE,FALSE,"S241036401"
"320","rebmer","Red-breasted Merganser","Mergus serrator","L559390","Middleton Island (restricted access)","2025-05-21 16:02",3,59.4278983,-146.33008,TRUE,FALSE,FALSE,"S241093269"
"321","rebmer","Red-breasted Merganser","Mergus serrator","L165940","Reid SP, Georgetown","2025-05-21 16:00",1,43.7876805,-69.7235091,TRUE,FALSE,FALSE,"S241136991"
"322","rebmer","Red-breasted Merganser","Mergus serrator","L24560335","Welcker’s Point","2025-05-21 15:56",1,45.173427,-87.226789,TRUE,FALSE,TRUE,"S241070824"
"323","rebmer","Red-breasted Merganser","Mergus serrator","L837997","Kalamazoo River mouth","2025-05-21 15:40",18,42.6769931,-86.2148666,TRUE,FALSE,FALSE,"S241405813"
"324","rebmer","Red-breasted Merganser","Mergus serrator","L275876","Douthat State Park (Bath Co.)","2025-05-21 15:19",2,37.9025111,-79.8013306,TRUE,FALSE,FALSE,"S241614529"
"325","rebmer","Red-breasted Merganser","Mergus serrator","L782177","Gustavus--Forelands (W of dock to Critical Habitat boundary)","2025-05-21 14:49",70,58.3921763,-135.7899857,TRUE,FALSE,FALSE,"S241105214"
"326","rebmer","Red-breasted Merganser","Mergus serrator","L477254","Shadmoor SP","2025-05-21 14:41",2,41.0391058,-71.9267753,TRUE,FALSE,FALSE,"S241000119"
"327","rebmer","Red-breasted Merganser","Mergus serrator","L252153","Moonlight Bay","2025-05-21 14:09",10,45.09592,-87.08195,TRUE,FALSE,FALSE,"S241374018"
"328","rebmer","Red-breasted Merganser","Mergus serrator","L5446360","Birch Point Beach","2025-05-21 14:04",2,47.2189414,-68.2539099,TRUE,TRUE,FALSE,"S240985279"
"329","rebmer","Red-breasted Merganser","Mergus serrator","L168335","Odiorne Point SP, Rye","2025-05-21 14:03",1,43.045555,-70.71444,TRUE,FALSE,FALSE,"S241002511"
"330","rebmer","Red-breasted Merganser","Mergus serrator","L26397125","Inner Prentiss Bay","2025-05-21 13:59",2,45.986004,-84.229231,TRUE,FALSE,TRUE,"S241010256"
"331","rebmer","Red-breasted Merganser","Mergus serrator","L678939","Harley Ensign Memorial Boating Access Site","2025-05-21 13:54",2,42.592648,-82.7715111,TRUE,FALSE,FALSE,"S240980482"
"332","rebmer","Red-breasted Merganser","Mergus serrator","L1535971","Bald Eagle SP--Swimming Beach","2025-05-21 13:54",1,41.0265653,-77.6473144,TRUE,TRUE,FALSE,"S240992715"
"333","rebmer","Red-breasted Merganser","Mergus serrator","L1303955","Sampson SP--Marina","2025-05-21 13:33",1,42.7275701,-76.913753,TRUE,FALSE,FALSE,"S241297900"
"334","rebmer","Red-breasted Merganser","Mergus serrator","L457287","Chestnut Hill Reservoir, Boston","2025-05-21 13:20",1,42.3341844,-71.1563873,TRUE,FALSE,FALSE,"S241763227"
"335","rebmer","Red-breasted Merganser","Mergus serrator","L20562690","Lucy Depp Nature Preserve","2025-05-21 12:44",1,40.168288,-83.131881,TRUE,TRUE,FALSE,"S240957389"
"336","rebmer","Red-breasted Merganser","Mergus serrator","L28724690","Magnolia Harbor

Gloucester, Massachusetts, US (42.592, -70.717)","2025-05-21 12:38",1,42.5918365,-70.7170196,TRUE,FALSE,TRUE,"S240954480"
"337","rebmer","Red-breasted Merganser","Mergus serrator","L6206350","Parker River NWR--Stage Island Trail","2025-05-21 12:32",1,42.7095765,-70.7840538,TRUE,FALSE,FALSE,"S241041515"
"338","rebmer","Red-breasted Merganser","Mergus serrator","L1357924","Satterly Landing Park","2025-05-21 12:19",1,40.9534761,-73.0303978,TRUE,FALSE,FALSE,"S241078343"
"339","rebmer","Red-breasted Merganser","Mergus serrator","L7612239","Valdez--Homestead Trail","2025-05-21 12:03",2,61.1308305,-146.3986688,TRUE,FALSE,FALSE,"S241034254"
"340","rebmer","Red-breasted Merganser","Mergus serrator","L4789108","Wellfleet Town Pier","2025-05-21 11:59",2,41.93002,-70.0276762,TRUE,FALSE,FALSE,"S240958842"
"341","rebmer","Red-breasted Merganser","Mergus serrator","L391210","Point Bridget SP","2025-05-21 11:32",10,58.6640847,-134.9630928,TRUE,FALSE,FALSE,"S241105206"
"342","rebmer","Red-breasted Merganser","Mergus serrator","L444898","Hampton Harbor (overall)","2025-05-21 11:28",15,42.8964669,-70.8253055,TRUE,FALSE,FALSE,"S240937875"
"343","rebmer","Red-breasted Merganser","Mergus serrator","L479673","Overlook, Rte. 89 N of Hog Hole","2025-05-21 11:17",1,42.4647843,-76.5246248,TRUE,FALSE,FALSE,"S241300306"
"344","rebmer","Red-breasted Merganser","Mergus serrator","L468899","Seal Rocks, Rye","2025-05-21 11:07",4,43.0278264,-70.7248941,TRUE,FALSE,FALSE,"S240928159"
"345","rebmer","Red-breasted Merganser","Mergus serrator","L16353211","Glacier Bay NP--Russell Cut","2025-05-21 10:59",10,58.9456899,-136.8178816,TRUE,FALSE,FALSE,"S240996914"
"346","rebmer","Red-breasted Merganser","Mergus serrator","L1661185","Deer Creek SP--Beach","2025-05-21 10:59",1,39.6185477,-83.2276904,TRUE,TRUE,FALSE,"S240937165"
"347","rebmer","Red-breasted Merganser","Mergus serrator","L251458","Homer Spit--Mud Bay","2025-05-21 10:55",3,59.635823,-151.4965296,TRUE,FALSE,FALSE,"S241002975"
"348","rebmer","Red-breasted Merganser","Mergus serrator","L45617458","Race Point beach south","2025-05-21 10:30",125,42.0802068,-70.1743572,TRUE,FALSE,TRUE,"S241003556"
"349","rebmer","Red-breasted Merganser","Mergus serrator","L3951706","Acadia NP--Otter Cove, Fish House Road","2025-05-21 10:12",2,44.3158344,-68.1976211,TRUE,FALSE,FALSE,"S241303922"
"350","rebmer","Red-breasted Merganser","Mergus serrator","L1067145","Kasilof--Kasilof River Mouth","2025-05-21 09:51",2,60.3859137,-151.302166,TRUE,FALSE,FALSE,"S241007523"
"351","rebmer","Red-breasted Merganser","Mergus serrator","L467472","Minot and The Glades","2025-05-21 09:48",1,42.2408458,-70.7620382,TRUE,FALSE,FALSE,"S241010454"
"352","rebmer","Red-breasted Merganser","Mergus serrator","L13548714","Presque Isle S.P., Misery Bay","2025-05-21 09:45",1,42.15634,-80.08986,TRUE,FALSE,TRUE,"S240965466"
"353","rebmer","Red-breasted Merganser","Mergus serrator","L353732","Scarborough Marsh--Pine Point","2025-05-21 09:36",5,43.5445303,-70.3331662,TRUE,FALSE,FALSE,"S241318487"
"354","rebmer","Red-breasted Merganser","Mergus serrator","L1538911","Acadia NP--Frazer Point","2025-05-21 09:27",7,44.3754377,-68.0752723,TRUE,FALSE,FALSE,"S240898250"
"355","rebmer","Red-breasted Merganser","Mergus serrator","L474885","Rachel Carson NWR--Granite Point Rd.","2025-05-21 09:13",2,43.416263,-70.3878808,TRUE,FALSE,FALSE,"S240887519"
"356","rebmer","Red-breasted Merganser","Mergus serrator","L21868514","Dangermond Preserve--Perco's Beach and Cojo Bay Beaches (restricted access)","2025-05-21 09:11",1,34.4514496,-120.4418914,TRUE,FALSE,FALSE,"S242192206"
"357","rebmer","Red-breasted Merganser","Mergus serrator","L24295075","Washington Island--South Shore Public Access","2025-05-21 08:54",11,45.338691,-86.906558,TRUE,FALSE,FALSE,"S241088187"
"358","rebmer","Red-breasted Merganser","Mergus serrator","L482449","C&O Canal--Lander","2025-05-21 08:52",1,39.3064759,-77.5583267,TRUE,TRUE,FALSE,"S240897986"
"359","rebmer","Red-breasted Merganser","Mergus serrator","L446879","Rocky Gap SP","2025-05-21 08:51",3,39.7016398,-78.6520672,TRUE,TRUE,FALSE,"S240932038"
"360","rebmer","Red-breasted Merganser","Mergus serrator","L8979225","Slaughter Beach--Marvel Saltmarsh Preserve","2025-05-21 08:44",1,38.9252366,-75.314854,TRUE,FALSE,FALSE,"S241381476"
"361","rebmer","Red-breasted Merganser","Mergus serrator","L453148","Robert G. Wehle SP","2025-05-21 08:20",6,43.8733029,-76.2704372,TRUE,FALSE,FALSE,"S240948662"
"362","rebmer","Red-breasted Merganser","Mergus serrator","L12199115","Samish Bay","2025-05-21 08:15",4,48.5907733,-122.4924468,TRUE,FALSE,TRUE,"S241511548"
"363","rebmer","Red-breasted Merganser","Mergus serrator","L2361515","Solar Power & Water Ponds","2025-05-21 08:14",5,32.6834527,-114.2191887,TRUE,TRUE,FALSE,"S240938370"
"364","rebmer","Red-breasted Merganser","Mergus serrator","L139805","Hamlin Beach SP--Yanty Creek Marsh and trails","2025-05-21 08:05",6,43.3587205,-77.9393986,TRUE,FALSE,FALSE,"S240932207"
"365","rebmer","Red-breasted Merganser","Mergus serrator","L296391","Conaskonk Point","2025-05-21 08:02",1,40.454367,-74.17673,TRUE,FALSE,FALSE,"S240903460"
"366","rebmer","Red-breasted Merganser","Mergus serrator","L920855","Glacier Bay NP--Bartlett Cove","2025-05-21 08:00",8,58.4547386,-135.9149551,TRUE,FALSE,FALSE,"S241016471"
"367","rebmer","Red-breasted Merganser","Mergus serrator","L859935","Fisherman's Island SP","2025-05-21 08:00",3,45.2961431,-85.3268623,TRUE,FALSE,FALSE,"S241045918"
"368","rebmer","Red-breasted Merganser","Mergus serrator","L492304","Pte. Mouillee SGA--HQ (Wayne County)","2025-05-21 07:55",1,42.0403691,-83.1998062,TRUE,FALSE,FALSE,"S240953775"
"369","rebmer","Red-breasted Merganser","Mergus serrator","L664990","Robert Moses SP, Massena","2025-05-21 07:48",4,44.9950405,-74.7988701,TRUE,FALSE,FALSE,"S240878463"
"370","rebmer","Red-breasted Merganser","Mergus serrator","L865421","Acadia NP--Schoodic Point","2025-05-21 07:45",1,44.3324746,-68.0603456,TRUE,FALSE,FALSE,"S241854073"
"371","rebmer","Red-breasted Merganser","Mergus serrator","L1439055","William H. Kain County Park--Lake Williams Boat Launch","2025-05-21 07:45",1,39.8899866,-76.7210965,TRUE,TRUE,FALSE,"S240862208"
"372","rebmer","Red-breasted Merganser","Mergus serrator","L1164560","Peninsula SP--Weborg Point","2025-05-21 07:25",2,45.1342685,-87.2400981,TRUE,FALSE,FALSE,"S240908228"
"373","rebmer","Red-breasted Merganser","Mergus serrator","L1676092","Rachel Carson NWR--Timber Point Trail","2025-05-21 07:25",1,43.4012099,-70.3969941,TRUE,FALSE,FALSE,"S241078401"
"374","rebmer","Red-breasted Merganser","Mergus serrator","L1867387","Linden Hawk Rise Sanctuary","2025-05-21 07:24",1,40.602752,-74.2479886,TRUE,FALSE,FALSE,"S240932756"
"375","rebmer","Red-breasted Merganser","Mergus serrator","L11617323","Great Duck Island (restricted access)","2025-05-21 07:00",1,44.144019,-68.24627,TRUE,FALSE,FALSE,"S240878687"
"376","rebmer","Red-breasted Merganser","Mergus serrator","L844166","Third Cliff, Scituate","2025-05-21 06:51",2,42.1697541,-70.7164097,TRUE,FALSE,FALSE,"S241892257"
"377","rebmer","Red-breasted Merganser","Mergus serrator","L92448","Edwin B. Forsythe NWR--Wildlife Drive (8-mile auto tour loop only)","2025-05-21 06:45",1,39.464298,-74.417612,TRUE,FALSE,FALSE,"S240967526"
"378","rebmer","Red-breasted Merganser","Mergus serrator","L127386","Sebastian Inlet SP (Indian River co.)","2025-05-21 06:44",1,27.8568345,-80.448761,TRUE,FALSE,FALSE,"S240873508"
"379","rebmer","Red-breasted Merganser","Mergus serrator","L3017178","Ocean Ave. (near South Point) -- Biddeford Pool","2025-05-21 06:31",5,43.4409972,-70.3429699,TRUE,FALSE,TRUE,"S240850006"
"380","rebmer","Red-breasted Merganser","Mergus serrator","L207462","Wellfleet Bay Wildlife Sanctuary (Mass Audubon)","2025-05-21 06:00",1,41.8825315,-69.995712,TRUE,FALSE,FALSE,"S240896908"
"381","rebmer","Red-breasted Merganser","Mergus serrator","L1557188","Point Whitehorn Marine Reserve","2025-05-21 05:10",1,48.8872412,-122.7799062,TRUE,FALSE,FALSE,"S240908092"
"382","rebmer","Red-breasted Merganser","Mergus serrator","L129842","Resurrection Bay","2025-05-21",2,60.0497812,-149.3878636,TRUE,FALSE,FALSE,"S241121122"
"383","rebmer","Red-breasted Merganser","Mergus serrator","L1300584","McGulpin Point","2025-05-20 20:55",4,45.7889514,-84.7740805,TRUE,FALSE,FALSE,"S240770539"
"384","rebmer","Red-breasted Merganser","Mergus serrator","L9297170","Second Bridge--lagoon & wetlands","2025-05-20 20:53",2,66.8949965,-162.566362,TRUE,FALSE,FALSE,"S240825135"
"385","rebmer","Red-breasted Merganser","Mergus serrator","L45571547","Best Western Hotel, 505 South Huron Avenue, Cheboygan, Michigan, US (45.777, -84.725)","2025-05-20 20:22",3,45.77668,-84.7253386,TRUE,FALSE,TRUE,"S240775730"
"386","rebmer","Red-breasted Merganser","Mergus serrator","L3522515","Presque Isle SP--Duck Pond","2025-05-20 19:23",3,42.158453,-80.124399,TRUE,FALSE,FALSE,"S240769151"
"387","rebmer","Red-breasted Merganser","Mergus serrator","L45574904","bird walk w kat","2025-05-20 19:05",1,44.047451,-123.071723,TRUE,FALSE,TRUE,"S240791387"
"388","rebmer","Red-breasted Merganser","Mergus serrator","L681809","Great Kills Park--Mudflats","2025-05-20 19:00",2,40.5464104,-74.1182005,TRUE,FALSE,FALSE,"S240757329"
"389","rebmer","Red-breasted Merganser","Mergus serrator","L1454902","South Beach, San Juan Island","2025-05-20 19:00",10,48.4556661,-122.9961548,TRUE,FALSE,FALSE,"S240786126"
"390","rebmer","Red-breasted Merganser","Mergus serrator","L32208905","Dyce Head Light","2025-05-20 18:46",5,44.386993,-68.798899,TRUE,FALSE,TRUE,"S240748804"
"391","rebmer","Red-breasted Merganser","Mergus serrator","L157179","Eagle Creek Park","2025-05-20 18:22",5,39.8751,-86.3037,TRUE,TRUE,FALSE,"S240759861"
"392","rebmer","Red-breasted Merganser","Mergus serrator","L45568470","200–282 Burnett Rd, Freeport US-ME 43.82868, -70.07598","2025-05-20 17:45",3,43.828675,-70.075984,TRUE,FALSE,TRUE,"S240758079"
"393","rebmer","Red-breasted Merganser","Mergus serrator","L9390349","Broughton Drive Jetties","2025-05-20 17:33",2,43.7615122,-87.6989473,TRUE,FALSE,FALSE,"S240741881"
"394","rebmer","Red-breasted Merganser","Mergus serrator","L3594552","Metzger Marsh--Causeway Viewing Areas","2025-05-20 17:15",3,41.6466047,-83.2477507,TRUE,FALSE,FALSE,"S241241272"
"395","rebmer","Red-breasted Merganser","Mergus serrator","L4752823","Anna River mouth","2025-05-20 16:25",3,46.4108364,-86.6405224,TRUE,FALSE,FALSE,"S240707275"
"396","rebmer","Red-breasted Merganser","Mergus serrator","L447768","Swartswood SP--Swartswood Lake","2025-05-20 16:05",1,41.0725315,-74.8327646,TRUE,TRUE,FALSE,"S240913757"
"397","rebmer","Red-breasted Merganser","Mergus serrator","L45571365","Walk to Lobster Cove","2025-05-20 15:40",1,43.763046,-69.31806,TRUE,FALSE,TRUE,"S240774951"
"398","rebmer","Red-breasted Merganser","Mergus serrator","L392497","Mantua Reservoir","2025-05-20 15:39",5,41.5034351,-111.9348907,TRUE,FALSE,FALSE,"S240729432"
"399","rebmer","Red-breasted Merganser","Mergus serrator","L127249","St. Joseph Peninsula SP","2025-05-20 14:00",1,29.7999,-85.411,TRUE,FALSE,FALSE,"S240873948"
"400","rebmer","Red-breasted Merganser","Mergus serrator","L444828","Parker River NWR--Emerson Rocks","2025-05-20 13:56",3,42.7073561,-70.7721689,TRUE,FALSE,FALSE,"S241163430"
"401","rebmer","Red-breasted Merganser","Mergus serrator","L169447","Riverlands Migratory Bird Sanctuary","2025-05-20 13:42",1,38.8719313,-90.1843917,TRUE,TRUE,FALSE,"S240701032"
"402","rebmer","Red-breasted Merganser","Mergus serrator","L2769584","Wooster Rd. bridge (Portage River)","2025-05-20 13:41",1,42.3316233,-84.3065472,TRUE,FALSE,FALSE,"S240648431"
"403","rebmer","Red-breasted Merganser","Mergus serrator","L3054120","Prudence Island","2025-05-20 13:24",7,41.606073,-71.3160324,TRUE,FALSE,FALSE,"S240649651"
"404","rebmer","Red-breasted Merganser","Mergus serrator","L249800","Short Beach Park","2025-05-20 13:22",1,41.1648434,-73.1104136,TRUE,FALSE,FALSE,"S240655869"
"405","rebmer","Red-breasted Merganser","Mergus serrator","L45727763","Jamaica Bay","2025-05-20 13:17",2,40.606704,-73.821568,TRUE,FALSE,TRUE,"S241550133"
"406","rebmer","Red-breasted Merganser","Mergus serrator","L285907","Findlay Reservoirs","2025-05-20 13:09",2,41.0168379,-83.5709681,TRUE,FALSE,FALSE,"S240669459"
"407","rebmer","Red-breasted Merganser","Mergus serrator","L467585","MacMillan Wharf","2025-05-20 12:56",1,42.0494838,-70.181694,TRUE,FALSE,FALSE,"S240634596"
"408","rebmer","Red-breasted Merganser","Mergus serrator","L824095","J. Percy Priest Lake--Anderson Road Recreation Area","2025-05-20 12:26",1,36.1084577,-86.6022437,TRUE,TRUE,FALSE,"S240865333"
"409","rebmer","Red-breasted Merganser","Mergus serrator","L754450","Plaice Cove, Hampton","2025-05-20 12:20",15,42.9433316,-70.7880664,TRUE,FALSE,FALSE,"S240628469"
"410","rebmer","Red-breasted Merganser","Mergus serrator","L520982","First Landing Park--Jetties","2025-05-20 11:50",1,42.0368471,-70.1967144,TRUE,FALSE,FALSE,"S240707552"
"411","rebmer","Red-breasted Merganser","Mergus serrator","L831430","Leif Erikson Park","2025-05-20 11:45",20,46.796512,-92.0824456,TRUE,FALSE,FALSE,"S240772744"
"412","rebmer","Red-breasted Merganser","Mergus serrator","L164961","Bear River MBR--Auto Tour Loop","2025-05-20 11:37",1,41.4692291,-112.2947788,TRUE,FALSE,FALSE,"S240646318"
"413","rebmer","Red-breasted Merganser","Mergus serrator","L3545518","Shrine of St. Terese","2025-05-20 11:25",4,58.4712901,-134.7841573,TRUE,FALSE,FALSE,"S240765039"
"414","rebmer","Red-breasted Merganser","Mergus serrator","L45563124","Alaska, US (58.266, -135.611)","2025-05-20 11:23",1,58.2657758,-135.6111798,TRUE,FALSE,TRUE,"S240731012"
"415","rebmer","Red-breasted Merganser","Mergus serrator","L486275","Acadia NP--Sand Beach","2025-05-20 11:21",2,44.3292206,-68.1822252,TRUE,FALSE,FALSE,"S240596132"
"416","rebmer","Red-breasted Merganser","Mergus serrator","L489398","Hills Beach and Basket Island Causeway","2025-05-20 10:45",3,43.4527802,-70.3656473,TRUE,FALSE,FALSE,"S240593264"
"417","rebmer","Red-breasted Merganser","Mergus serrator","L343242","Ronan Park, Chicago","2025-05-20 10:30",1,41.970298,-87.7031654,TRUE,FALSE,FALSE,"S240668018"
"418","rebmer","Red-breasted Merganser","Mergus serrator","L2372867","Island Beach SP--Reed's Road","2025-05-20 10:16",1,39.8960622,-74.0828512,TRUE,FALSE,FALSE,"S240573841"
"419","rebmer","Red-breasted Merganser","Mergus serrator","L3645658","Apple Grove Fish Hatchery","2025-05-20 10:00",4,38.6820905,-82.1793308,TRUE,FALSE,FALSE,"S240784834"
"420","rebmer","Red-breasted Merganser","Mergus serrator","L491060","Cole Bay","2025-05-20 09:55",2,44.1442144,-73.4214163,TRUE,FALSE,FALSE,"S240573583"
"421","rebmer","Red-breasted Merganser","Mergus serrator","L576379","Holland SP","2025-05-20 09:45",2,42.7753544,-86.2095236,TRUE,FALSE,FALSE,"S240571711"
"422","rebmer","Red-breasted Merganser","Mergus serrator","L24968192","South End Of Cedar Island","2025-05-20 09:38",1,37.5933415,-75.6213453,TRUE,FALSE,TRUE,"S240670082"
"423","rebmer","Red-breasted Merganser","Mergus serrator","L781318","Gustavus--Forelands","2025-05-20 09:30",130,58.4121436,-135.724411,TRUE,FALSE,FALSE,"S240724549"
"424","rebmer","Red-breasted Merganser","Mergus serrator","L825650","Geneva SP","2025-05-20 08:59",6,41.8494499,-80.9704828,TRUE,FALSE,FALSE,"S240597088"
"425","rebmer","Red-breasted Merganser","Mergus serrator","L2956598","Prince William Sound--Columbia Bay","2025-05-20 08:53",40,60.9969201,-147.0791245,TRUE,FALSE,FALSE,"S241218251"
"426","rebmer","Red-breasted Merganser","Mergus serrator","L4930859","Sitka Sedge State Natural Area","2025-05-20 08:45",2,45.2641693,-123.9605749,TRUE,FALSE,FALSE,"S240747249"
"427","rebmer","Red-breasted Merganser","Mergus serrator","L2352170","People's Park","2025-05-20 08:38",13,45.406918,-86.946106,TRUE,FALSE,FALSE,"S240877215"
"428","rebmer","Red-breasted Merganser","Mergus serrator","L259782","Parker River NWR--Bill Forward Pool","2025-05-20 08:30",1,42.7368477,-70.7942462,TRUE,FALSE,FALSE,"S240537509"
"429","rebmer","Red-breasted Merganser","Mergus serrator","L40875091","Parker River NWR--Hellcat Boardwalk Trail","2025-05-20 08:27",1,42.742828,-70.7959268,TRUE,FALSE,FALSE,"S240774380"
"430","rebmer","Red-breasted Merganser","Mergus serrator","L572072","Edwin B. Forsythe NWR--Cedar Bonnet Island","2025-05-20 08:09",1,39.6571874,-74.1938168,TRUE,FALSE,FALSE,"S240590200"
"431","rebmer","Red-breasted Merganser","Mergus serrator","L45542394","Parker River National Wildlife Refuge, Newbury US-MA 42.74182, -70.79499","2025-05-20 08:09",1,42.741823,-70.794995,TRUE,FALSE,TRUE,"S240630933"
"432","rebmer","Red-breasted Merganser","Mergus serrator","L279820","Muskegon Wastewater System","2025-05-20 07:44",1,43.2511023,-86.037524,TRUE,FALSE,FALSE,"S240541470"
"433","rebmer","Red-breasted Merganser","Mergus serrator","L5559637","Yo Yo Rock Boat Launch area","2025-05-20 07:42",2,47.281267,-120.092631,TRUE,TRUE,FALSE,"S240655254"
"434","rebmer","Red-breasted Merganser","Mergus serrator","L26342734","Napeague Beach","2025-05-20 07:40",1,40.9943317,-72.0464395,TRUE,FALSE,FALSE,"S240530906"
"435","rebmer","Red-breasted Merganser","Mergus serrator","L45566184","Hemlock Trail near Sunset Trail","2025-05-20 07:30",1,45.134154,-87.2367039,TRUE,FALSE,TRUE,"S240753193"
"436","rebmer","Red-breasted Merganser","Mergus serrator","L27731494","Back deck","2025-05-20 07:25",1,34.693005,-76.869175,TRUE,FALSE,TRUE,"S240530173"
"437","rebmer","Red-breasted Merganser","Mergus serrator","L164983","Buckhorn Island SP","2025-05-20 07:04",5,43.0606218,-78.9882132,TRUE,FALSE,FALSE,"S240521302"
"438","rebmer","Red-breasted Merganser","Mergus serrator","L4543317","Park Point--ball fields & beach house area","2025-05-20 07:00",1,46.730441,-92.0526468,TRUE,FALSE,FALSE,"S240611859"
"439","rebmer","Red-breasted Merganser","Mergus serrator","L795156","Dauphin Island--Pier","2025-05-20 06:53",1,30.2478562,-88.126322,TRUE,FALSE,FALSE,"S240539177"
"440","rebmer","Red-breasted Merganser","Mergus serrator","L814151","Walnut Beach Park","2025-05-20 06:43",1,41.9021652,-80.8076942,TRUE,FALSE,FALSE,"S240664225"
"441","rebmer","Red-breasted Merganser","Mergus serrator","L18721336","Derby Bike path wetland","2025-05-20 06:30",4,44.9815534,-72.186432,TRUE,FALSE,TRUE,"S240523198"
"442","rebmer","Red-breasted Merganser","Mergus serrator","L34611628","Ocean Blvd, Hampton Yard List","2025-05-20 06:27",1,42.924967,-70.799463,TRUE,FALSE,TRUE,"S240548638"
"443","rebmer","Red-breasted Merganser","Mergus serrator","L4396639","Mill Race","2025-05-20 06:20",1,39.9117226,-77.5464445,TRUE,FALSE,TRUE,"S241214462"
"444","rebmer","Red-breasted Merganser","Mergus serrator","L31730500","Bush Bay Trail","2025-05-20 06:07",10,45.9911733,-84.2676688,TRUE,FALSE,FALSE,"S240535181"
"445","rebmer","Red-breasted Merganser","Mergus serrator","L429298","Matinicus Rock","2025-05-20 06:00",1,43.7869657,-68.8527148,TRUE,FALSE,FALSE,"S240758599"
"446","rebmer","Red-breasted Merganser","Mergus serrator","L906328","Fairbanks Int. Airpt--Float Plane Ponds (possibly restricted)","2025-05-19 21:09",2,64.8246316,-147.8380394,TRUE,FALSE,FALSE,"S240454378"
"447","rebmer","Red-breasted Merganser","Mergus serrator","L26917081","South Prentiss Bay Drive","2025-05-19 19:37",2,45.978695,-84.207667,TRUE,FALSE,TRUE,"S240405600"
"448","rebmer","Red-breasted Merganser","Mergus serrator","L2689078","Red Rock Lakes NWR--Lakeview","2025-05-19 18:19",1,44.6009393,-111.810565,TRUE,FALSE,FALSE,"S240436696"
"449","rebmer","Red-breasted Merganser","Mergus serrator","L454124","Eastern Promenade","2025-05-19 17:59",5,43.6715657,-70.2463567,TRUE,FALSE,FALSE,"S240388081"
"450","rebmer","Red-breasted Merganser","Mergus serrator","L256021","Moss Landing--Jetty Road, north jetty & State Beach","2025-05-19 17:21",2,36.8151691,-121.7900355,TRUE,FALSE,FALSE,"S240452239"
"451","rebmer","Red-breasted Merganser","Mergus serrator","L4961972","Schoolhouse Beach","2025-05-19 17:13",9,45.3982164,-86.9272828,TRUE,FALSE,FALSE,"S240423312"
"452","rebmer","Red-breasted Merganser","Mergus serrator","L855081","Snake River Birds of Prey NCA--River Canyon Trail East Trailhead","2025-05-19 16:28",1,43.2951135,-116.4273655,TRUE,FALSE,FALSE,"S240426473"
"453","rebmer","Red-breasted Merganser","Mergus serrator","L142261","Dunkirk Harbor","2025-05-19 16:10",2,42.490799,-79.3367996,TRUE,FALSE,FALSE,"S240615498"
"454","rebmer","Red-breasted Merganser","Mergus serrator","L7406282","North Point","2025-05-19 15:45",4,45.034759,-83.3088585,TRUE,FALSE,FALSE,"S240427603"
"455","rebmer","Red-breasted Merganser","Mergus serrator","L45483678","49725, De Tour Village US-MI 45.95102, -84.00035","2025-05-19 15:42",12,45.951016,-84.000349,TRUE,FALSE,TRUE,"S240327167"
"456","rebmer","Red-breasted Merganser","Mergus serrator","L15397799","Apgar Village, Glacier NP","2025-05-19 15:39",1,48.526756,-113.993933,TRUE,FALSE,FALSE,"S240411109"
"457","rebmer","Red-breasted Merganser","Mergus serrator","L1028900","English Camp","2025-05-19 15:39",2,48.5875545,-123.1503096,TRUE,FALSE,FALSE,"S240409738"
"458","rebmer","Red-breasted Merganser","Mergus serrator","L40710620","2100–2176 W Frontage Rd, Willard US-UT (41.4230,-112.0625)","2025-05-19 15:23",1,41.423041,-112.062478,TRUE,FALSE,TRUE,"S240374191"
"459","rebmer","Red-breasted Merganser","Mergus serrator","L620450","Nordhouse Dunes Wilderness Area","2025-05-19 15:07",2,44.0987,-86.43373,TRUE,FALSE,FALSE,"S240353382"
"460","rebmer","Red-breasted Merganser","Mergus serrator","L785596","Indian Lake SP--Old Field","2025-05-19 15:03",1,40.5008779,-83.9114714,TRUE,TRUE,FALSE,"S240337185"
"461","rebmer","Red-breasted Merganser","Mergus serrator","L2400875","Ingersoll Point Preserve (DCC), Addison","2025-05-19 14:58",7,44.5122221,-67.7153707,TRUE,FALSE,FALSE,"S240346640"
"462","rebmer","Red-breasted Merganser","Mergus serrator","L829793","Swan Falls Park","2025-05-19 14:58",1,43.2432645,-116.377058,TRUE,FALSE,FALSE,"S240426376"
"463","rebmer","Red-breasted Merganser","Mergus serrator","L906007","Adak Island--Clam Lagoon (seawall)","2025-05-19 14:48",16,51.9354812,-176.5587902,TRUE,FALSE,FALSE,"S240434721"
"464","rebmer","Red-breasted Merganser","Mergus serrator","L6248451","Outer Harbor Drive, Buffalo","2025-05-19 14:37",1,42.8647018,-78.8776139,TRUE,FALSE,FALSE,"S240315586"
"465","rebmer","Red-breasted Merganser","Mergus serrator","L3052434","Icy Bay--Tsaa Fiord","2025-05-19 14:34",16,60.0829959,-141.4942932,TRUE,FALSE,FALSE,"S240381986"
"466","rebmer","Red-breasted Merganser","Mergus serrator","L13938964","Little Falls Marina - Rotary Park","2025-05-19 14:25",1,43.03413,-74.8658828,TRUE,FALSE,FALSE,"S240314083"
"467","rebmer","Red-breasted Merganser","Mergus serrator","L11177360","Champney Park","2025-05-19 14:03",1,44.9846528,-91.82652,TRUE,FALSE,TRUE,"S241000945"
"468","rebmer","Red-breasted Merganser","Mergus serrator","L2187574","Kelleys Island--Jones Preserve at Long Point","2025-05-19 14:03",20,41.617796,-82.680187,TRUE,FALSE,FALSE,"S240708844"
"469","rebmer","Red-breasted Merganser","Mergus serrator","L911846","Adak Island--Clam Lagoon","2025-05-19 13:56",12,51.9333115,-176.5749264,TRUE,FALSE,FALSE,"S240434672"
"470","rebmer","Red-breasted Merganser","Mergus serrator","L22133728","Green Hill Beach","2025-05-19 13:49",3,41.3647805,-71.6000266,TRUE,FALSE,FALSE,"S240696919"
"471","rebmer","Red-breasted Merganser","Mergus serrator","L784930","Gay Head, Martha's Vineyard","2025-05-19 13:25",2,41.3466667,-70.8383333,TRUE,FALSE,FALSE,"S240290996"
"472","rebmer","Red-breasted Merganser","Mergus serrator","L5181683","Pott's Point Preserve","2025-05-19 13:24",2,43.7325479,-70.0243592,TRUE,FALSE,FALSE,"S240412121"
"473","rebmer","Red-breasted Merganser","Mergus serrator","L14874886","John Butler's Mudhole","2025-05-19 13:07",2,41.3958945,-70.5134408,TRUE,FALSE,FALSE,"S240285991"
"474","rebmer","Red-breasted Merganser","Mergus serrator","L44754555","Glacier Bay - Bartlett Cove Intertidal River > Lagoon","2025-05-19 12:47",6,58.456401,-135.87695,TRUE,FALSE,TRUE,"S240356125"
"475","rebmer","Red-breasted Merganser","Mergus serrator","L5111263","Bridge View Park","2025-05-19 12:00",1,45.8471371,-84.7259143,TRUE,FALSE,FALSE,"S240238258"
"476","rebmer","Red-breasted Merganser","Mergus serrator","L286501","Tillamook Bay--Barview Jetty","2025-05-19 10:58",2,45.56952,-123.949414,TRUE,FALSE,FALSE,"S240777590"
"477","rebmer","Red-breasted Merganser","Mergus serrator","L293051","Braddock Bay--West Spit","2025-05-19 10:43",4,43.3191364,-77.7141094,TRUE,FALSE,FALSE,"S240321446"
"478","rebmer","Red-breasted Merganser","Mergus serrator","L502856","Otter Islands","2025-05-19 10:36",1,32.4831216,-80.4034424,TRUE,FALSE,FALSE,"S241517608"
"479","rebmer","Red-breasted Merganser","Mergus serrator","L109216","Milford Point, CT Audubon","2025-05-19 10:00",2,41.1754303,-73.1032485,TRUE,FALSE,FALSE,"S240259793"
"480","rebmer","Red-breasted Merganser","Mergus serrator","L13454070","West Park","2025-05-19 10:00",7,45.3627079,-85.0953402,TRUE,FALSE,FALSE,"S240206381"
"481","rebmer","Red-breasted Merganser","Mergus serrator","L484338","Perkins Cove, Ogunquit","2025-05-19 10:00",1,43.2373401,-70.5906987,TRUE,FALSE,FALSE,"S240206771"
"482","rebmer","Red-breasted Merganser","Mergus serrator","L3132332","Kelleys Island--South Bay","2025-05-19 09:54",3,41.5910729,-82.7051725,TRUE,FALSE,FALSE,"S240166623"
"483","rebmer","Red-breasted Merganser","Mergus serrator","L45558957","945–999 E Lakeshore Dr, Kelleys Island US-OH 41.58685, -82.69003","2025-05-19 09:53",3,41.586851,-82.690029,TRUE,FALSE,TRUE,"S240708691"
"484","rebmer","Red-breasted Merganser","Mergus serrator","L109176","Camas NWR","2025-05-19 09:44",1,43.9509896,-112.2557731,TRUE,FALSE,FALSE,"S240423720"
"485","rebmer","Red-breasted Merganser","Mergus serrator","L165351","Red Rocks Park","2025-05-19 09:27",2,44.4453,-73.2279,TRUE,FALSE,FALSE,"S240373621"
"486","rebmer","Red-breasted Merganser","Mergus serrator","L45455406","Red Rocks","2025-05-19 09:22",2,44.4442062,-73.221199,TRUE,FALSE,TRUE,"S240247851"
"487","rebmer","Red-breasted Merganser","Mergus serrator","L1171691","Adak Island--Kuluk Bay","2025-05-19 09:18",2,51.885604,-176.5914917,TRUE,FALSE,FALSE,"S240310038"
"488","rebmer","Red-breasted Merganser","Mergus serrator","L1539645","Lighthouse County Park","2025-05-19 09:18",6,44.0227724,-82.7937546,TRUE,FALSE,FALSE,"S240160000"
"489","rebmer","Red-breasted Merganser","Mergus serrator","L3663515","Washington Island--Potato Dock (Restricted Access)","2025-05-19 09:12",9,45.3350163,-86.9422817,TRUE,FALSE,TRUE,"S240420442"
"490","rebmer","Red-breasted Merganser","Mergus serrator","L5590126","Chamberlain-Long Cove","2025-05-19 08:53",1,43.8854345,-69.4773138,TRUE,FALSE,FALSE,"S240153621"
"491","rebmer","Red-breasted Merganser","Mergus serrator","L45481542","2980 Lake Forest Park Road, Sturgeon Bay, Wisconsin, US (44.814, -87.285) Zenith Cabin","2025-05-19 08:18",20,44.8138968,-87.2850614,TRUE,FALSE,TRUE,"S240317328"
"492","rebmer","Red-breasted Merganser","Mergus serrator","L2870194","Mill Pond, Somesville","2025-05-19 08:14",1,44.362001,-68.3342448,TRUE,FALSE,FALSE,"S240648047"
"493","rebmer","Red-breasted Merganser","Mergus serrator","L45443663","3325 Pointe Aux Barques Road, Port Austin, Michigan, US (44.056, -82.896)","2025-05-19 08:13",2,44.0563977,-82.8956338,TRUE,FALSE,TRUE,"S240141849"
"494","rebmer","Red-breasted Merganser","Mergus serrator","L691108","OH-2 @ OH-19","2025-05-19 08:02",1,41.603616,-83.145398,TRUE,FALSE,FALSE,"S240144530"
"495","rebmer","Red-breasted Merganser","Mergus serrator","L1314128","Adak Island--Contractor Camp Marsh","2025-05-19 07:57",4,51.8956157,-176.6355228,TRUE,FALSE,FALSE,"S240308886"
"496","rebmer","Red-breasted Merganser","Mergus serrator","L1273673","Acadia NP--Seawall Pond","2025-05-19 07:52",13,44.2426166,-68.299427,TRUE,FALSE,FALSE,"S240127330"
"497","rebmer","Red-breasted Merganser","Mergus serrator","L5160880","Phoebus Waterfront Park","2025-05-19 07:45",1,37.0146028,-76.3181403,TRUE,FALSE,FALSE,"S240120370"
"498","rebmer","Red-breasted Merganser","Mergus serrator","L127294","Anastasia SP","2025-05-19 07:45",1,29.8661797,-81.2705122,TRUE,FALSE,FALSE,"S240242260"
"499","rebmer","Red-breasted Merganser","Mergus serrator","L2575843","Crocketts Beach","2025-05-19 07:44",1,44.0582127,-69.0790486,TRUE,FALSE,FALSE,"S240122413"
"500","rebmer","Red-breasted Merganser","Mergus serrator","L1314081","Adak Island--Airport Creek mouth","2025-05-19 07:33",4,51.8910736,-176.624735,TRUE,FALSE,FALSE,"S240306389"
"501","rebmer","Red-breasted Merganser","Mergus serrator","L159411","Swift Creek Reservoir","2025-05-19 07:30",1,37.428,-77.6655,TRUE,TRUE,FALSE,"S240687162"
"502","rebmer","Red-breasted Merganser","Mergus serrator","L1022979","Willamsport","2025-05-19 07:30",6,44.3571101,-86.260875,TRUE,FALSE,FALSE,"S240142631"
"503","rebmer","Red-breasted Merganser","Mergus serrator","L576881","New Buffalo beach and marina","2025-05-19 07:27",1,41.8007831,-86.7489052,TRUE,FALSE,FALSE,"S240115420"
"504","rebmer","Red-breasted Merganser","Mergus serrator","L8145524","Coskata - Great Point Area","2025-05-19 06:56",7,41.355516,-70.0128999,TRUE,FALSE,TRUE,"S240251169"
"505","rebmer","Red-breasted Merganser","Mergus serrator","L109133","Edwin B. Forsythe NWR (formerly Brig)","2025-05-19 06:50",1,39.465,-74.4477778,TRUE,FALSE,FALSE,"S240262480"
"506","rebmer","Red-breasted Merganser","Mergus serrator","L888959","Presque Isle Park","2025-05-19 06:26",2,46.5857658,-87.3825073,TRUE,FALSE,FALSE,"S240151351"
"507","rebmer","Red-breasted Merganser","Mergus serrator","L937659","Kenai--Tarbox Wildlife Viewing Platform","2025-05-19 06:00",5,60.5420341,-151.2194681,TRUE,FALSE,FALSE,"S240467216"
"508","rebmer","Red-breasted Merganser","Mergus serrator","L752738","Isles of Shoals--White and Seavey islands, Rye","2025-05-19 05:30",1,42.9685691,-70.6241183,TRUE,FALSE,FALSE,"S240561668"
"509","rebmer","Red-breasted Merganser","Mergus serrator","L301069","Parsons Beach","2025-05-19 05:17",1,43.3443346,-70.5181011,TRUE,FALSE,FALSE,"S240084318"
"510","rebmer","Red-breasted Merganser","Mergus serrator","L385330","Roberts Lake (MTY Co.)","2025-05-18 19:48",1,36.6072773,-121.8580556,TRUE,FALSE,FALSE,"S240042066"
"511","rebmer","Red-breasted Merganser","Mergus serrator","L26334159","Prentiss Bay","2025-05-18 19:35",6,45.98203,-84.218086,TRUE,FALSE,TRUE,"S239989757"
"512","rebmer","Red-breasted Merganser","Mergus serrator","L1171700","Adak Island--South Sweeper Creek","2025-05-18 19:34",2,51.859664,-176.6545773,TRUE,FALSE,FALSE,"S240053548"
"513","rebmer","Red-breasted Merganser","Mergus serrator","L390227","Eagle Beach SRA","2025-05-18 18:29",1,58.5283716,-134.8270512,TRUE,FALSE,FALSE,"S240049369"
"514","rebmer","Red-breasted Merganser","Mergus serrator","L45414089","408 Minnesota 61, Grand Marais, Minnesota, US (47.749, -90.34)","2025-05-18 18:23",1,47.7490046,-90.3395372,TRUE,FALSE,TRUE,"S239984539"
"515","rebmer","Red-breasted Merganser","Mergus serrator","L2057391","Saint Hyacinth Chapel and Cemetery","2025-05-18 18:17",2,42.5051356,-79.3030071,TRUE,FALSE,FALSE,"S239967776"
"516","rebmer","Red-breasted Merganser","Mergus serrator","L491609","Yaquina River--SW Jetty Way","2025-05-18 18:15",1,44.6158891,-124.0618658,TRUE,FALSE,FALSE,"S240029306"
"517","rebmer","Red-breasted Merganser","Mergus serrator","L9048171","Kenai River Trailhead","2025-05-18 17:49",4,60.4813142,-150.1280455,TRUE,FALSE,FALSE,"S240027642"
"518","rebmer","Red-breasted Merganser","Mergus serrator","L479571","Wharton Point, Brunswick","2025-05-18 17:43",7,43.8675956,-69.9933701,TRUE,FALSE,FALSE,"S239973309"
"519","rebmer","Red-breasted Merganser","Mergus serrator","L353168","Willard Pond (Pond & Trees North of Willard Bay)","2025-05-18 17:26",1,41.4251143,-112.0589121,TRUE,FALSE,FALSE,"S240008381"
"520","rebmer","Red-breasted Merganser","Mergus serrator","L3089685","Fisherman's Bend Park","2025-05-18 17:20",2,42.3710911,-70.9805042,TRUE,FALSE,FALSE,"S239951601"
"521","rebmer","Red-breasted Merganser","Mergus serrator","L598128","Owl Canyon - ONLY (waterbirds from this site OK)","2025-05-18 17:15",2,38.3098072,-123.0619812,TRUE,TRUE,FALSE,"S240055503"
"522","rebmer","Red-breasted Merganser","Mergus serrator","L887381","Fort Stevens SP--South Jetty/Parking Area C","2025-05-18 17:12",3,46.2286726,-124.0217721,TRUE,FALSE,FALSE,"S240030809"
"523","rebmer","Red-breasted Merganser","Mergus serrator","L2670185","JC Township Rd 166","2025-05-18 16:27",3,40.3382509,-80.7338946,TRUE,TRUE,TRUE,"S239986126"
"524","rebmer","Red-breasted Merganser","Mergus serrator","L14136141","Cascade Locks--Easy Climb Trail","2025-05-18 16:26",3,45.6845271,-121.8532002,TRUE,TRUE,FALSE,"S240174017"
"525","rebmer","Red-breasted Merganser","Mergus serrator","L168559","Provo Airport Dike","2025-05-18 16:25",1,40.2186598,-111.7285157,TRUE,TRUE,FALSE,"S240029778"
"526","rebmer","Red-breasted Merganser","Mergus serrator","L18348832","5770 US-23, Cheboygan US-MI 45.72104, -84.60379","2025-05-18 16:18",6,45.721043,-84.60379,TRUE,FALSE,TRUE,"S239986605"
"527","rebmer","Red-breasted Merganser","Mergus serrator","L33185704","Curtis Cove","2025-05-18 16:10",1,43.764729,-70.023063,TRUE,FALSE,TRUE,"S239915684"
"528","rebmer","Red-breasted Merganser","Mergus serrator","L13080889","Squantum--Marina Bay","2025-05-18 15:46",6,42.3005873,-71.027403,TRUE,FALSE,FALSE,"S239902113"
"529","rebmer","Red-breasted Merganser","Mergus serrator","L15210138","Marsh Point, Warwick","2025-05-18 15:37",2,41.65971,-71.41081,TRUE,FALSE,FALSE,"S239913901"
"530","rebmer","Red-breasted Merganser","Mergus serrator","L2668247","Chesapeake Bay Maritime Museum","2025-05-18 15:30",1,38.7881112,-76.2211275,TRUE,FALSE,FALSE,"S239924039"
"531","rebmer","Red-breasted Merganser","Mergus serrator","L604718","Josephine Young Park","2025-05-18 15:22",7,44.9169237,-124.0197659,TRUE,FALSE,FALSE,"S239967247"
"532","rebmer","Red-breasted Merganser","Mergus serrator","L767188","Marquette Park","2025-05-18 15:19",2,44.4644772,-87.4957609,TRUE,FALSE,TRUE,"S239974949"
"533","rebmer","Red-breasted Merganser","Mergus serrator","L1179897","Powderhorn Park","2025-05-18 15:16",1,44.9428079,-93.2571834,TRUE,FALSE,FALSE,"S239932650"
"534","rebmer","Red-breasted Merganser","Mergus serrator","L2145284","Seul Choix Point","2025-05-18 15:03",12,45.9204231,-85.9114659,TRUE,FALSE,FALSE,"S240012776"
"535","rebmer","Red-breasted Merganser","Mergus serrator","L45392184","Port Mahon Rd","2025-05-18 15:00",2,39.186439,-75.400726,TRUE,TRUE,TRUE,"S239877988"
"536","rebmer","Red-breasted Merganser","Mergus serrator","L1178717","Presque Isle SP--Niagara Pond","2025-05-18 14:55",1,42.1618129,-80.0853539,TRUE,FALSE,FALSE,"S239873304"
"537","rebmer","Red-breasted Merganser","Mergus serrator","L5604368","Waterford Beach","2025-05-18 14:53",1,41.3044475,-72.1058979,TRUE,FALSE,FALSE,"S239881200"
"538","rebmer","Red-breasted Merganser","Mergus serrator","L618902","Cleveland Lakefront Nature Preserve","2025-05-18 14:46",1,41.5445933,-81.6327095,TRUE,FALSE,FALSE,"S239917044"
"539","rebmer","Red-breasted Merganser","Mergus serrator","L2391663","Red Arrow Park","2025-05-18 14:43",4,45.0859778,-87.5878778,TRUE,FALSE,FALSE,"S239916984"
"540","rebmer","Red-breasted Merganser","Mergus serrator","L462930","Beaver Island SP","2025-05-18 14:22",7,42.9643762,-78.9500361,TRUE,FALSE,FALSE,"S239964636"
"541","rebmer","Red-breasted Merganser","Mergus serrator","L10572771","Kodiak Is.--Termination Point and vicinity","2025-05-18 14:22",3,57.8533448,-152.4029928,TRUE,FALSE,FALSE,"S240042593"
"542","rebmer","Red-breasted Merganser","Mergus serrator","L1781444","Beaver Island SP--Beaver Island","2025-05-18 14:22",7,42.9603249,-78.9603013,TRUE,FALSE,FALSE,"S240011142"
"543","rebmer","Red-breasted Merganser","Mergus serrator","L252156","Newport SP","2025-05-18 14:15",50,45.23046,-86.99683,TRUE,FALSE,FALSE,"S240739692"
"544","rebmer","Red-breasted Merganser","Mergus serrator","L9257068","Pipestem Reservoir","2025-05-18 14:07",1,46.9643015,-98.7626,TRUE,TRUE,FALSE,"S240057173"
"545","rebmer","Red-breasted Merganser","Mergus serrator","L45567211","A North Truro Beach","2025-05-18 14:05",1,42.0601462,-70.1446943,TRUE,FALSE,TRUE,"S240753593"
"546","rebmer","Red-breasted Merganser","Mergus serrator","L1880516","Hammonasset Beach SP--Meig's Point Parking Lot/Marshes","2025-05-18 14:05",3,41.2522001,-72.5451318,TRUE,FALSE,FALSE,"S240009591"
"547","rebmer","Red-breasted Merganser","Mergus serrator","L790957","Skagway--Dyea (Klondike Gold Rush Nat. His. Pk.)","2025-05-18 13:37",8,59.4990499,-135.3541374,TRUE,FALSE,FALSE,"S240457980"
"548","rebmer","Red-breasted Merganser","Mergus serrator","L5167518","Bernard Bridge, Tremont","2025-05-18 13:21",1,44.2528888,-68.3491541,TRUE,FALSE,FALSE,"S239825554"
"549","rebmer","Red-breasted Merganser","Mergus serrator","L3969398","Adak Island--Lake Andrew","2025-05-18 13:19",5,51.9453759,-176.6313171,TRUE,FALSE,FALSE,"S240036735"
"550","rebmer","Red-breasted Merganser","Mergus serrator","L1312278","Arco Ponds","2025-05-18 13:15",2,46.1624744,-112.7791214,TRUE,FALSE,FALSE,"S239967886"
"551","rebmer","Red-breasted Merganser","Mergus serrator","L150537","Willard Bay SP","2025-05-18 13:12",1,41.4151829,-112.0552683,TRUE,FALSE,FALSE,"S240044712"
"552","rebmer","Red-breasted Merganser","Mergus serrator","L296377","Great Kills Park","2025-05-18 13:10",1,40.5481454,-74.1241949,TRUE,FALSE,FALSE,"S239955532"
"553","rebmer","Red-breasted Merganser","Mergus serrator","L45819226","Flood Bay Wetland and Shoreline","2025-05-18 13:10",2,47.037792,-91.642773,TRUE,FALSE,TRUE,"S241967945"
"554","rebmer","Red-breasted Merganser","Mergus serrator","L248904","Pipe Creek Wildlife Area","2025-05-18 13:02",1,41.4519119,-82.6673641,TRUE,FALSE,FALSE,"S239918500"
"555","rebmer","Red-breasted Merganser","Mergus serrator","L1264770","Squantum--Orchard Beach","2025-05-18 13:00",1,42.3000715,-71.0070419,TRUE,FALSE,FALSE,"S239899333"
"556","rebmer","Red-breasted Merganser","Mergus serrator","L506471","Northport Ferry Terminal","2025-05-18 13:00",2,45.2903164,-86.9776011,TRUE,FALSE,FALSE,"S240738724"
"557","rebmer","Red-breasted Merganser","Mergus serrator","L1274890","Gooseberry Falls SP","2025-05-18 13:00",1,47.1406941,-91.4611816,TRUE,FALSE,FALSE,"S239924977"
"558","rebmer","Red-breasted Merganser","Mergus serrator","L2786593","Tillamook Bay--Garibaldi Marina","2025-05-18 12:57",1,45.5559147,-123.913192,TRUE,FALSE,FALSE,"S240034008"
"559","rebmer","Red-breasted Merganser","Mergus serrator","L26128711","Saddleback Ledge","2025-05-18 12:45",1,44.018039,-68.722383,TRUE,FALSE,TRUE,"S239867505"
"560","rebmer","Red-breasted Merganser","Mergus serrator","L231279","Two Harbors--Agate Bay","2025-05-18 12:43",4,47.01482,-91.66583,TRUE,FALSE,FALSE,"S240427871"
"561","rebmer","Red-breasted Merganser","Mergus serrator","L1428396","Carrying Place","2025-05-18 12:43",3,44.1605159,-68.4559696,TRUE,FALSE,TRUE,"S239808327"
"562","rebmer","Red-breasted Merganser","Mergus serrator","L45073321","Amaknak Island Park, unisea, S curves","2025-05-18 12:22",3,53.882667,-166.550182,TRUE,FALSE,TRUE,"S239959103"
"563","rebmer","Red-breasted Merganser","Mergus serrator","L1540959","Harding Lake SRA","2025-05-18 12:20",4,64.4372264,-146.8775201,TRUE,FALSE,FALSE,"S240018533"
"564","rebmer","Red-breasted Merganser","Mergus serrator","L463418","Squantum--Nickerson Rock Park","2025-05-18 12:15",1,42.3037217,-71.0116768,TRUE,FALSE,FALSE,"S239896606"
"565","rebmer","Red-breasted Merganser","Mergus serrator","L294563","Cattle Point","2025-05-18 12:10",1,48.4544295,-122.9619995,TRUE,FALSE,FALSE,"S239885414"
"566","rebmer","Red-breasted Merganser","Mergus serrator","L576813","Port Orford Heads SP","2025-05-18 12:10",1,42.736958,-124.5108461,TRUE,FALSE,FALSE,"S239984888"
"567","rebmer","Red-breasted Merganser","Mergus serrator","L1298281","Point Betsie","2025-05-18 11:45",42,44.6912785,-86.255722,TRUE,FALSE,FALSE,"S239782246"
"568","rebmer","Red-breasted Merganser","Mergus serrator","L1192723","Negwegon SP (general)","2025-05-18 11:40",5,44.872416,-83.3203125,TRUE,FALSE,FALSE,"S241753058"
"569","rebmer","Red-breasted Merganser","Mergus serrator","L7667763","Edwin B. Forsythe National Wildlife Refuge, Galloway US-NJ (39.4648,-74.4505)","2025-05-18 11:39",1,39.464833,-74.45049,TRUE,FALSE,TRUE,"S239946160"
"570","rebmer","Red-breasted Merganser","Mergus serrator","L12928474","Elkhorn Slough, Moss Landing US-CA (36.8123,-121.7772)","2025-05-18 11:38",2,36.812251,-121.777162,TRUE,FALSE,TRUE,"S239951253"
"571","rebmer","Red-breasted Merganser","Mergus serrator","L99382","Hog Hole (Allan H. Treman State Marine Park)","2025-05-18 11:20",1,42.4618954,-76.5190244,TRUE,FALSE,FALSE,"S239879728"
"572","rebmer","Red-breasted Merganser","Mergus serrator","L16729118","Sheboygan Marina","2025-05-18 11:19",8,43.7522176,-87.7027855,TRUE,FALSE,FALSE,"S239825751"
"573","rebmer","Red-breasted Merganser","Mergus serrator","L11915511","Silver Spring Park","2025-05-18 11:15",1,43.1183968,-87.8976237,TRUE,FALSE,FALSE,"S241348672"
"574","rebmer","Red-breasted Merganser","Mergus serrator","L19145137","Dalton Highway, Anchorage, Alaska, US (68.953, -148.871)","2025-05-18 11:15",1,68.953232,-148.8710166,TRUE,FALSE,TRUE,"S239891356"
"575","rebmer","Red-breasted Merganser","Mergus serrator","L671525","Shirley Chisholm SP (Fountain Ave. Landfill)","2025-05-18 11:11",1,40.6472791,-73.8624734,TRUE,FALSE,FALSE,"S239840002"
"576","rebmer","Red-breasted Merganser","Mergus serrator","L1041152","Percy Johnson Memorial Park","2025-05-18 11:05",34,45.3629267,-86.8648394,TRUE,FALSE,FALSE,"S240058592"
"577","rebmer","Red-breasted Merganser","Mergus serrator","L2825191","Soldotna Creek Park","2025-05-18 11:00",1,60.483129,-151.0611749,TRUE,FALSE,FALSE,"S240060236"
"578","rebmer","Red-breasted Merganser","Mergus serrator","L1056693","Presque Isle SP--Beach 11","2025-05-18 10:58",1,42.1629263,-80.0788736,TRUE,FALSE,FALSE,"S239751501"
"579","rebmer","Red-breasted Merganser","Mergus serrator","L6637137","Stockton Harbor and Mill Cove Tidal Flats","2025-05-18 10:45",1,44.4771081,-68.8547043,TRUE,FALSE,FALSE,"S239761119"
"580","rebmer","Red-breasted Merganser","Mergus serrator","L420452","Logan Creek Preserve","2025-05-18 10:40",1,44.9490063,-87.2181416,TRUE,FALSE,FALSE,"S239832916"
