"","speciesCode","comName","sciName","locId","locName","obsDt","howMany","lat","lng","obsValid","obsReviewed","locationPrivate","subId"
"1","cogdov","Common Ground Dove","Columbina passerina","L11738049","Lodge Pool, Spring Hill, Florida, US (28.467, -82.609)","2025-06-27 19:19",1,28.4671233,-82.6091097,TRUE,FALSE,TRUE,"S254677644"
"2","cogdov","Common Ground Dove","Columbina passerina","L122388","Big Pine Key--Blue Hole","2025-06-27 18:25",2,24.705893,-81.380295,TRUE,FALSE,FALSE,"S254676161"
"3","cogdov","Common Ground Dove","Columbina passerina","L2685255","Pine Glades Natural Area","2025-06-27 17:44",1,26.9416978,-80.257144,TRUE,FALSE,FALSE,"S254659398"
"4","cogdov","Common Ground Dove","Columbina passerina","L24513927","19630 Pine Tree Road, Odessa, Florida, US (28.168, -82.564)","2025-06-27 17:35",2,28.1679064,-82.5637536,TRUE,FALSE,TRUE,"S254658322"
"5","cogdov","Common Ground Dove","Columbina passerina","L6235318","Robinson/Vanderah Yard","2025-06-27 17:13",1,29.4823054,-82.2639419,TRUE,FALSE,TRUE,"S254651444"
"6","cogdov","Common Ground Dove","Columbina passerina","L48586514","Florida National Scenic Trail, Brooksville US-FL (28.6040,-82.2514)","2025-06-27 16:46",1,28.604028,-82.251387,TRUE,FALSE,TRUE,"S254654729"
"7","cogdov","Common Ground Dove","Columbina passerina","L3245253","Pelican Island NWR--Bird's Impoundment Trail","2025-06-27 15:51",1,27.8116087,-80.4267962,TRUE,FALSE,FALSE,"S254653635"
"8","cogdov","Common Ground Dove","Columbina passerina","L10058885","Park Avenue Open Space SMA","2025-06-27 15:50",1,29.6866494,-82.4288635,TRUE,FALSE,FALSE,"S254640475"
"9","cogdov","Common Ground Dove","Columbina passerina","L48580070","Lacrosse citrus facility","2025-06-27 15:23",2,29.857862,-82.407563,TRUE,FALSE,TRUE,"S254628299"
"10","cogdov","Common Ground Dove","Columbina passerina","L30924619","Lake Placid Florida","2025-06-27 15:02",1,27.2829437,-81.3478622,TRUE,FALSE,TRUE,"S254618773"
"11","cogdov","Common Ground Dove","Columbina passerina","L29845679","Cardinal Cove, private residence, Tallahassee US-FL 30.52636, -84.01188","2025-06-27 14:29",2,30.526362,-84.011883,TRUE,FALSE,TRUE,"S254656204"
"12","cogdov","Common Ground Dove","Columbina passerina","L5671158","Hialeah WTP","2025-06-27 13:41",22,25.924528,-80.365608,TRUE,FALSE,FALSE,"S254620219"
"13","cogdov","Common Ground Dove","Columbina passerina","L39015445","17 Louisburg Lane, Palm Coast, Florida, US (29.605, -81.269)","2025-06-27 12:06",1,29.604844,-81.2688141,TRUE,FALSE,TRUE,"S254570888"
"14","cogdov","Common Ground Dove","Columbina passerina","L6758057","15596 Caloosa Creek Cir, Fort Myers US-FL (26.5142,-81.9692)","2025-06-27 12:01",1,26.514151,-81.969161,TRUE,FALSE,TRUE,"S254569704"
"15","cogdov","Common Ground Dove","Columbina passerina","L677845","Key West Cemetery","2025-06-27 11:32",3,24.556394,-81.7949724,TRUE,FALSE,FALSE,"S254570870"
"16","cogdov","Common Ground Dove","Columbina passerina","L586629","Government Rd. (Broward Co.)","2025-06-27 11:21",4,26.2557032,-80.8561993,TRUE,FALSE,FALSE,"S254573347"
"17","cogdov","Common Ground Dove","Columbina passerina","L127286","Huguenot Memorial City Park","2025-06-27 11:20",2,30.4112444,-81.4206594,TRUE,FALSE,FALSE,"S254604096"
"18","cogdov","Common Ground Dove","Columbina passerina","L259855","Estero Llano Grande SP WBC (LTC 054)","2025-06-27 11:19",3,26.1268335,-97.9578167,TRUE,FALSE,FALSE,"S254625489"
"19","cogdov","Common Ground Dove","Columbina passerina","L48570631","Creek Fitch Trail, Raymondville US-TX 26.53491, -97.79771","2025-06-27 11:19",11,26.534908,-97.797707,TRUE,FALSE,TRUE,"S254592476"
"20","cogdov","Common Ground Dove","Columbina passerina","L8812998","Cudjoe Key--Blimp Rd","2025-06-27 11:18",1,24.6895973,-81.499624,TRUE,FALSE,FALSE,"S254589009"
"21","cogdov","Common Ground Dove","Columbina passerina","L1061756","Eagle Point Park","2025-06-27 11:17",7,28.2242665,-82.7488303,TRUE,FALSE,FALSE,"S254629449"
"22","cogdov","Common Ground Dove","Columbina passerina","L28134794","9611–9675 Lake Jasmine Dr, Tampa US-FL (28.0396,-82.6007)","2025-06-27 11:09",1,28.039619,-82.600732,TRUE,FALSE,TRUE,"S254574051"
"23","cogdov","Common Ground Dove","Columbina passerina","L516628","Devils River SNA— Del Norte Unit (HOTW 015)","2025-06-27 11:02",3,29.9406182,-100.9710073,TRUE,FALSE,FALSE,"S254619624"
"24","cogdov","Common Ground Dove","Columbina passerina","L4400836","Oil Well Park","2025-06-27 10:08",2,26.2831031,-81.3428817,TRUE,FALSE,FALSE,"S254613589"
"25","cogdov","Common Ground Dove","Columbina passerina","L46982334","Back Yard Feeder","2025-06-27 10:03",1,28.5866769,-81.2380051,TRUE,FALSE,TRUE,"S254537707"
"26","cogdov","Common Ground Dove","Columbina passerina","L36185873","525 Avalon Pond","2025-06-27 10:01",1,28.5583737,-81.1685164,TRUE,FALSE,TRUE,"S254532088"
"27","cogdov","Common Ground Dove","Columbina passerina","L199065","Auburndale","2025-06-27 10:00",1,28.0653,-81.7887,TRUE,FALSE,TRUE,"S254673202"
"28","cogdov","Common Ground Dove","Columbina passerina","L47213441","665 S Broadway, Englewood US-FL (private home)","2025-06-27 09:45",2,26.950814,-82.350871,TRUE,FALSE,TRUE,"S254531898"
"29","cogdov","Common Ground Dove","Columbina passerina","L11044429","Grange Hall Loop Road","2025-06-27 09:45",1,27.692236,-82.191152,TRUE,FALSE,FALSE,"S254589404"
"30","cogdov","Common Ground Dove","Columbina passerina","L48437788","526–768 S Milanos Rd, Weslaco US-TX 26.15138, -98.01482","2025-06-27 09:43",NA,26.151377,-98.014822,TRUE,FALSE,TRUE,"S254567491"
"31","cogdov","Common Ground Dove","Columbina passerina","L48561425","32381–32399 SH-186, Raymondville US-TX 26.50420, -97.49592","2025-06-27 09:39",1,26.504196,-97.495922,TRUE,FALSE,TRUE,"S254556953"
"32","cogdov","Common Ground Dove","Columbina passerina","L127396","Babcock-Webb WMA","2025-06-27 09:38",8,26.8582653,-81.9401121,TRUE,FALSE,FALSE,"S254635676"
"33","cogdov","Common Ground Dove","Columbina passerina","L473991","Lake Jesup--Sanford Ave.","2025-06-27 09:36",1,28.727023,-81.2631655,TRUE,FALSE,FALSE,"S254533706"
"34","cogdov","Common Ground Dove","Columbina passerina","L4546388","Cool Springs Retention Pond","2025-06-27 09:20",2,28.1877141,-82.6102781,TRUE,FALSE,FALSE,"S254562801"
"35","cogdov","Common Ground Dove","Columbina passerina","L48592012","Las Cienegas NCA—Cienega AG Field","2025-06-27 09:18",1,31.828681,-110.582127,TRUE,FALSE,TRUE,"S254676970"
"36","cogdov","Common Ground Dove","Columbina passerina","L48573042","HIGH Lake Wales Ridge - Arbuckle Tract bridge hike","2025-06-27 09:16",3,27.688153,-81.491703,TRUE,FALSE,TRUE,"S254601998"
"37","cogdov","Common Ground Dove","Columbina passerina","L22251387","Orlando North Airpark","2025-06-27 09:07",1,28.72664,-81.6513276,TRUE,FALSE,FALSE,"S254515126"
"38","cogdov","Common Ground Dove","Columbina passerina","L305312","Lakes Park","2025-06-27 09:05",2,26.5271649,-81.8765643,TRUE,FALSE,FALSE,"S254549487"
"39","cogdov","Common Ground Dove","Columbina passerina","L30832223","Cr 305","2025-06-27 08:52",2,30.299985,-95.968955,TRUE,FALSE,TRUE,"S254538409"
"40","cogdov","Common Ground Dove","Columbina passerina","L48591628","Las Cienegas—Old Corral","2025-06-27 08:47",1,31.830483,-110.580174,TRUE,FALSE,TRUE,"S254675288"
"41","cogdov","Common Ground Dove","Columbina passerina","L765027","Las Cienegas NCA--Empire Gulch","2025-06-27 08:45",1,31.7878465,-110.6365728,TRUE,FALSE,FALSE,"S254641955"
"42","cogdov","Common Ground Dove","Columbina passerina","L1948799","Chinsegut Wildlife and Environmental Area--Headquarters Tract","2025-06-27 08:38",3,28.6297296,-82.3522282,TRUE,FALSE,FALSE,"S254612161"
"43","cogdov","Common Ground Dove","Columbina passerina","L301106","Orangeburg Sod Farms (please respect farming operations and stay on roads)","2025-06-27 08:37",2,33.456097,-80.74319,TRUE,FALSE,FALSE,"S254579832"
"44","cogdov","Common Ground Dove","Columbina passerina","L48577714","Apopka Wildlife Drive","2025-06-27 08:30",3,28.669237,-81.561021,TRUE,FALSE,TRUE,"S254618989"
"45","cogdov","Common Ground Dove","Columbina passerina","L418752","Tijuana River Valley--Bird & Butterfly Garden (Myers Ranch)","2025-06-27 08:29",1,32.5538589,-117.084619,TRUE,TRUE,FALSE,"S254620382"
"46","cogdov","Common Ground Dove","Columbina passerina","L8216151","Dr. Robert Hayling Freedom Park","2025-06-27 08:28",1,29.874654,-81.3102225,TRUE,FALSE,FALSE,"S254517460"
"47","cogdov","Common Ground Dove","Columbina passerina","L3242960","Withers 3","2025-06-27 08:23",1,30.9550209,-82.8836417,TRUE,FALSE,TRUE,"S254504693"
"48","cogdov","Common Ground Dove","Columbina passerina","L20536131","Oil Well Rd—Flooded Tomato Field","2025-06-27 08:18",2,26.294181,-81.486965,TRUE,FALSE,FALSE,"S254611105"
"49","cogdov","Common Ground Dove","Columbina passerina","L39310761","9918 SW 93rd Pl","2025-06-27 08:15",3,29.568783,-82.448208,TRUE,FALSE,TRUE,"S254500348"
"50","cogdov","Common Ground Dove","Columbina passerina","L1900441","Pine Meadows Conservation Area (Small Game Hunt Area)","2025-06-27 08:10",1,28.88406,-81.66308,TRUE,FALSE,FALSE,"S254515088"
"51","cogdov","Common Ground Dove","Columbina passerina","L28323876","Fishhawk Ranch General","2025-06-27 08:06",2,27.848732,-82.234071,TRUE,FALSE,TRUE,"S254595382"
"52","cogdov","Common Ground Dove","Columbina passerina","L2272159","Private Personal Residence, NE, St.Pete, FL","2025-06-27 08:05",2,27.8209833,-82.6345328,TRUE,FALSE,TRUE,"S254647928"
"53","cogdov","Common Ground Dove","Columbina passerina","L894997","Pete's Place,  530 N. Pennsylvania Ave. Lake Alfred, FL","2025-06-27 08:00",1,28.097613,-81.7327452,TRUE,FALSE,TRUE,"S254670310"
"54","cogdov","Common Ground Dove","Columbina passerina","L869742","Rookery Bay NERR--Education Center","2025-06-27 07:58",4,26.0498901,-81.7009811,TRUE,FALSE,FALSE,"S254491229"
"55","cogdov","Common Ground Dove","Columbina passerina","L4165363","Duette Preserve--Bear Bay Road","2025-06-27 07:53",3,27.4839366,-82.1703368,TRUE,FALSE,FALSE,"S254525514"
"56","cogdov","Common Ground Dove","Columbina passerina","L127332","Fort De Soto Park","2025-06-27 07:53",2,27.6327266,-82.718157,TRUE,FALSE,FALSE,"S254538448"
"57","cogdov","Common Ground Dove","Columbina passerina","L14827674","Turkey Creek Subdivision","2025-06-27 07:46",2,29.7579136,-82.4142355,TRUE,FALSE,TRUE,"S254613849"
"58","cogdov","Common Ground Dove","Columbina passerina","L2954201","Las Cienegas NCA--Cottonwood Tanks","2025-06-27 07:33",4,31.761537,-110.6195044,TRUE,FALSE,FALSE,"S254633991"
"59","cogdov","Common Ground Dove","Columbina passerina","L298649","Lake Apopka Wildlife Drive","2025-06-27 07:31",2,28.6691945,-81.5598149,TRUE,FALSE,FALSE,"S254511491"
"60","cogdov","Common Ground Dove","Columbina passerina","L48391620","Rich Grissom Memorial Wetlands","2025-06-27 07:30",20,28.226781,-80.7636738,TRUE,FALSE,TRUE,"S254681836"
"61","cogdov","Common Ground Dove","Columbina passerina","L1019793","Puerto Canyon","2025-06-27 07:25",6,31.6254754,-111.1194771,TRUE,FALSE,FALSE,"S254620937"
"62","cogdov","Common Ground Dove","Columbina passerina","L44239264","14605 Pine Cone Trail, Clermont US-FL (28.5340,-81.7132)","2025-06-27 07:16",2,28.534027,-81.713237,TRUE,FALSE,TRUE,"S254479623"
"63","cogdov","Common Ground Dove","Columbina passerina","L5446073","backyard","2025-06-27 07:15",2,28.5072329,-81.2647887,TRUE,FALSE,TRUE,"S254488735"
"64","cogdov","Common Ground Dove","Columbina passerina","L28825461","Timberwood West","2025-06-27 07:11",1,29.1529472,-82.2099031,TRUE,FALSE,TRUE,"S254480279"
"65","cogdov","Common Ground Dove","Columbina passerina","L211809","Madera Canyon--Proctor Rd.","2025-06-27 07:09",1,31.739938,-110.886147,TRUE,TRUE,FALSE,"S254545295"
"66","cogdov","Common Ground Dove","Columbina passerina","L7086958","Stormwater Treatment Area 1W (Limited Access)","2025-06-27 07:06",1,26.6762842,-80.4273806,TRUE,FALSE,FALSE,"S254500184"
"67","cogdov","Common Ground Dove","Columbina passerina","L2883481","The Ice House","2025-06-27 07:00",2,31.4920438,-110.9900558,TRUE,FALSE,TRUE,"S254550002"
"68","cogdov","Common Ground Dove","Columbina passerina","L46636531","A-2 Reservoir","2025-06-27 07:00",4,26.470038,-80.697312,TRUE,FALSE,TRUE,"S254594823"
"69","cogdov","Common Ground Dove","Columbina passerina","L37106616","4051 NE 17th Terr, Oakland Park US-FL 26.17821, -80.12373","2025-06-27 06:59",1,26.178215,-80.123731,TRUE,FALSE,TRUE,"S254476424"
"70","cogdov","Common Ground Dove","Columbina passerina","L4400453","Perico Preserve","2025-06-27 06:55",2,27.4972082,-82.6779646,TRUE,FALSE,FALSE,"S254504249"
"71","cogdov","Common Ground Dove","Columbina passerina","L13733170","751 NE 160th Ave, Williston US-FL 29.34111, -82.50304","2025-06-27 06:54",3,29.341115,-82.503038,TRUE,FALSE,TRUE,"S254489818"
"72","cogdov","Common Ground Dove","Columbina passerina","L48581438","Lake Apopka Restoration Area Trail, Mount Dora US-FL (28.7049,-81.6707)","2025-06-27 06:50",4,28.704868,-81.670737,TRUE,FALSE,TRUE,"S254634227"
"73","cogdov","Common Ground Dove","Columbina passerina","L1890880","Blue Cypress Park","2025-06-27 06:45",2,30.3757545,-81.6088961,TRUE,FALSE,FALSE,"S254494832"
"74","cogdov","Common Ground Dove","Columbina passerina","L1651426","Flying Fox Farm","2025-06-27 06:42",1,27.8894576,-82.2258644,TRUE,FALSE,TRUE,"S254478966"
"75","cogdov","Common Ground Dove","Columbina passerina","L13669259","Ritz Cracker House","2025-06-27 06:41",1,30.267924,-85.963349,TRUE,FALSE,TRUE,"S254503894"
"76","cogdov","Common Ground Dove","Columbina passerina","L610862","Ulumay Wildlife Sanctuary","2025-06-27 06:39",6,28.3707094,-80.6818771,TRUE,FALSE,FALSE,"S254662424"
"77","cogdov","Common Ground Dove","Columbina passerina","L913627","Green Valley--Desert Meadows Park","2025-06-27 06:10",2,31.8552155,-110.9860539,TRUE,FALSE,FALSE,"S254551119"
"78","cogdov","Common Ground Dove","Columbina passerina","L2748719","San Pedro RNCA--Hwy 92 Bridge","2025-06-27 05:46",6,31.3764616,-110.1040605,TRUE,FALSE,FALSE,"S254592475"
"79","cogdov","Common Ground Dove","Columbina passerina","L38561256","170 Flatwoods Loop, Davenport US-FL 28.21252, -81.65168","2025-06-27 05:30",2,28.212516,-81.65168,TRUE,FALSE,TRUE,"S254513799"
"80","cogdov","Common Ground Dove","Columbina passerina","L2593129","Lower Rio Grande Valley NWR--Yturria Tract","2025-06-26 19:43",2,26.2680954,-98.5357557,TRUE,FALSE,FALSE,"S254424155"
"81","cogdov","Common Ground Dove","Columbina passerina","L18008203","the trail","2025-06-26 19:03",1,30.7336826,-88.5311127,TRUE,FALSE,TRUE,"S254401110"
"82","cogdov","Common Ground Dove","Columbina passerina","L22418774","3071 Kramer Court, The Villages, Florida, US (28.859, -81.936)","2025-06-26 18:33",2,28.8588834,-81.9362735,TRUE,FALSE,TRUE,"S254378302"
"83","cogdov","Common Ground Dove","Columbina passerina","L127423","Bill Baggs Cape Florida SP","2025-06-26 18:08",5,25.6733,-80.1582,TRUE,FALSE,FALSE,"S254384188"
"84","cogdov","Common Ground Dove","Columbina passerina","L48526240","37 China Moon Drive, Ormond Beach, Florida, US (29.264, -81.093)","2025-06-26 18:00",1,29.2642989,-81.092916,TRUE,FALSE,TRUE,"S254389382"
"85","cogdov","Common Ground Dove","Columbina passerina","L1009347","Roosevelt Wetland","2025-06-26 17:58",2,27.8708722,-82.6895428,TRUE,FALSE,FALSE,"S254393273"
"86","cogdov","Common Ground Dove","Columbina passerina","L43990116","Paynes Prairie Preserve State Park Trail, Micanopy US-FL (29.6088,-82.3040)","2025-06-26 16:40",5,29.608759,-82.303976,TRUE,FALSE,TRUE,"S254362727"
"87","cogdov","Common Ground Dove","Columbina passerina","L41677770","Rio Grande City 05","2025-06-26 16:18",2,26.2532646,-98.6492684,TRUE,FALSE,TRUE,"S254421778"
"88","cogdov","Common Ground Dove","Columbina passerina","L48279421","274 Florida Ave, Port Saint Joe US-FL","2025-06-26 16:03",1,29.682162,-85.321446,TRUE,FALSE,TRUE,"S254353707"
"89","cogdov","Common Ground Dove","Columbina passerina","L38347824","East Orlando Home, Florida, US (28.529, -81.217)","2025-06-26 15:05",2,28.5292968,-81.2171183,TRUE,FALSE,TRUE,"S254332597"
"90","cogdov","Common Ground Dove","Columbina passerina","L247122","Paton Center for Hummingbirds (Patons' Yard)","2025-06-26 14:20",1,31.5390131,-110.7606337,TRUE,FALSE,FALSE,"S254379818"
"91","cogdov","Common Ground Dove","Columbina passerina","L1953038","Home","2025-06-26 14:15",4,30.6704094,-87.0966804,TRUE,FALSE,TRUE,"S254426224"
"92","cogdov","Common Ground Dove","Columbina passerina","L1107662","MacDill AFB (restricted access)","2025-06-26 12:21",1,27.841171,-82.4837726,TRUE,FALSE,FALSE,"S254294736"
"93","cogdov","Common Ground Dove","Columbina passerina","L48500046","Doerun Pitcher Plant Bog","2025-06-26 12:14",1,31.290112,-83.885165,TRUE,FALSE,TRUE,"S254290521"
"94","cogdov","Common Ground Dove","Columbina passerina","L16510624","533 Scarlet Maple Court, Plant City, Florida, US (28.017, -82.168)","2025-06-26 12:06",1,28.0169584,-82.1684955,TRUE,FALSE,TRUE,"S254290798"
"95","cogdov","Common Ground Dove","Columbina passerina","L33946208","Knoll Ridge Rental","2025-06-26 12:03",1,26.192569,-80.120078,TRUE,FALSE,TRUE,"S254298716"
"96","cogdov","Common Ground Dove","Columbina passerina","L46321614","14308 Alistar Manor Dr, Wimauma US-FL (27.7694,-82.3191)","2025-06-26 10:54",2,27.769355,-82.319125,TRUE,FALSE,TRUE,"S254276223"
"97","cogdov","Common Ground Dove","Columbina passerina","L48508351","41918 South Sasabe Road, Sasabe, Arizona, US (31.488, -111.543)","2025-06-26 10:53",1,31.4880336,-111.5426899,TRUE,FALSE,TRUE,"S254312793"
"98","cogdov","Common Ground Dove","Columbina passerina","L127337","Lettuce Lake County Park","2025-06-26 10:44",2,28.0725,-82.3754,TRUE,FALSE,FALSE,"S254292574"
"99","cogdov","Common Ground Dove","Columbina passerina","L578456","T.M. Goodwin WMA--Broadmoor Unit","2025-06-26 10:33",5,27.8891565,-80.746336,TRUE,FALSE,FALSE,"S254291156"
"100","cogdov","Common Ground Dove","Columbina passerina","L15546204","14400–14618 RM-469, Cotulla US-TX 28.48029, -99.00057","2025-06-26 10:32",1,28.480291,-99.000572,TRUE,FALSE,TRUE,"S254322529"
"101","cogdov","Common Ground Dove","Columbina passerina","L234146","The Celery Fields","2025-06-26 10:20",1,27.3253186,-82.4336821,TRUE,FALSE,FALSE,"S254277330"
"102","cogdov","Common Ground Dove","Columbina passerina","L44933976","Tall Timbers Research Station - Livingston Place (restricted access)","2025-06-26 10:01",4,30.614933,-83.695235,TRUE,FALSE,TRUE,"S254341241"
"103","cogdov","Common Ground Dove","Columbina passerina","L15545335","10300–10598 RM-469, Cotulla US-TX 28.52324, -99.04277","2025-06-26 09:50",1,28.523241,-99.04277,TRUE,FALSE,TRUE,"S254320715"
"104","cogdov","Common Ground Dove","Columbina passerina","L129075","Salineño Wildlife Preserve (LTC 080)","2025-06-26 09:45",1,26.5148584,-99.1162062,TRUE,FALSE,FALSE,"S254633858"
"105","cogdov","Common Ground Dove","Columbina passerina","L269357","Joe Overstreet Rd. and Landing","2025-06-26 09:45",NA,27.9426789,-81.2050366,TRUE,FALSE,FALSE,"S254265810"
"106","cogdov","Common Ground Dove","Columbina passerina","L7749123","Four Bar Cottages (private)","2025-06-26 09:38",2,31.876886,-109.0619973,TRUE,FALSE,FALSE,"S254306233"
"107","cogdov","Common Ground Dove","Columbina passerina","L13409881","My Wildlife Sanctuary","2025-06-26 09:37",1,28.8936359,-81.1886165,TRUE,FALSE,TRUE,"S254312055"
"108","cogdov","Common Ground Dove","Columbina passerina","L15544709","7728–8572 RM-469, Cotulla US-TX 28.53501, -99.06675","2025-06-26 09:31",1,28.535009,-99.06675,TRUE,FALSE,TRUE,"S254262590"
"109","cogdov","Common Ground Dove","Columbina passerina","L15544480","7728–8572 RM-469, Cotulla US-TX 28.53498, -99.07574","2025-06-26 09:26",1,28.534981,-99.075735,TRUE,FALSE,TRUE,"S254261575"
"110","cogdov","Common Ground Dove","Columbina passerina","L127381","Merritt Island NWR--Black Point Wildlife Drive","2025-06-26 09:20",18,28.6575241,-80.7545391,TRUE,FALSE,FALSE,"S254364631"
"111","cogdov","Common Ground Dove","Columbina passerina","L16002615","KOCF (Restricted Access)","2025-06-26 09:10",1,29.1693118,-82.2250008,TRUE,FALSE,TRUE,"S254270963"
"112","cogdov","Common Ground Dove","Columbina passerina","L712568","Felts Audubon Preserve","2025-06-26 09:07",1,27.5567917,-82.5390387,TRUE,FALSE,FALSE,"S254354020"
"113","cogdov","Common Ground Dove","Columbina passerina","L48498110","33993, Cape Coral US-FL 26.75505, -82.04660","2025-06-26 09:04",3,26.755047,-82.046604,TRUE,FALSE,TRUE,"S254271898"
"114","cogdov","Common Ground Dove","Columbina passerina","L890054","Three Lakes WMA--main unit","2025-06-26 08:59",1,27.9648401,-81.0294056,TRUE,FALSE,FALSE,"S254267219"
"115","cogdov","Common Ground Dove","Columbina passerina","L2691579","Roma Landfill","2025-06-26 08:53",2,26.4128932,-99.0577126,TRUE,FALSE,FALSE,"S254255620"
"116","cogdov","Common Ground Dove","Columbina passerina","L128962","Falcon State Park—SE portion (Starr Co.)  (LTC 084)","2025-06-26 08:48",3,26.5836148,-99.1452921,TRUE,FALSE,FALSE,"S254306278"
"117","cogdov","Common Ground Dove","Columbina passerina","L44390643","FL - (Hernando Co.) Campers Mart thru Saturn","2025-06-26 08:46",3,28.462587,-82.370367,TRUE,FALSE,TRUE,"S254248501"
"118","cogdov","Common Ground Dove","Columbina passerina","L324045","Portal--Cave Creek Ranch","2025-06-26 08:45",1,31.9041957,-109.1561556,TRUE,FALSE,FALSE,"S254305891"
"119","cogdov","Common Ground Dove","Columbina passerina","L48494515","Spring Lake Park","2025-06-26 08:35",3,26.974461,-82.123914,TRUE,FALSE,TRUE,"S254256715"
"120","cogdov","Common Ground Dove","Columbina passerina","L7341266","Robinson Preserve South","2025-06-26 08:34",2,27.5095641,-82.6649941,TRUE,FALSE,FALSE,"S254253045"
"121","cogdov","Common Ground Dove","Columbina passerina","L10266251","Island Walk","2025-06-26 08:34",1,27.0373003,-82.3455633,TRUE,FALSE,TRUE,"S254269329"
"122","cogdov","Common Ground Dove","Columbina passerina","L15543375","4241–4263 RM-469, Cotulla US-TX 28.55615, -99.13725","2025-06-26 08:32",1,28.556154,-99.137253,TRUE,FALSE,TRUE,"S254246366"
"123","cogdov","Common Ground Dove","Columbina passerina","L15543256","4201–4239 RM-469, Cotulla US-TX 28.55219, -99.14529","2025-06-26 08:24",1,28.552187,-99.145289,TRUE,FALSE,TRUE,"S254244611"
"124","cogdov","Common Ground Dove","Columbina passerina","L8575631","Orlando Wetlands, Christmas, Florida, US (28.57, -80.996)","2025-06-26 08:15",1,28.569825,-80.9964967,TRUE,FALSE,TRUE,"S254251369"
"125","cogdov","Common Ground Dove","Columbina passerina","L10020679","Barnett Ranch","2025-06-26 08:15",1,28.765099,-81.635499,TRUE,FALSE,TRUE,"S254225627"
"126","cogdov","Common Ground Dove","Columbina passerina","L15618865","Westminster Oaks, Leon, US-FL","2025-06-26 08:06",1,30.477196,-84.204671,TRUE,FALSE,FALSE,"S254268169"
"127","cogdov","Common Ground Dove","Columbina passerina","L15542878","1052–1098 RM-469, Cotulla US-TX 28.56741, -99.17537","2025-06-26 07:58",2,28.567407,-99.175374,TRUE,FALSE,TRUE,"S254237282"
"128","cogdov","Common Ground Dove","Columbina passerina","L25256249","Brooker Creek Preserve","2025-06-26 07:56",2,28.1320881,-82.6563806,TRUE,FALSE,TRUE,"S254311443"
"129","cogdov","Common Ground Dove","Columbina passerina","L17407756","STA C23/24  AREA 3  PRE CONSTRUCTION, NO PUBLIC ACCESS,  Fort Pierce, Florida, US (27.393, -80.544)  NO PUBLIC ACCESS","2025-06-26 07:55",2,27.3930549,-80.5436999,TRUE,FALSE,TRUE,"S254369460"
"130","cogdov","Common Ground Dove","Columbina passerina","L2064166","Patagonia Lake SP--Birding Trail","2025-06-26 07:55",1,31.496718,-110.848945,TRUE,FALSE,FALSE,"S254509353"
"131","cogdov","Common Ground Dove","Columbina passerina","L6064166","Pena Blanca Spring","2025-06-26 07:55",1,31.3887517,-111.092205,TRUE,FALSE,FALSE,"S254308366"
"132","cogdov","Common Ground Dove","Columbina passerina","L609324","Half Moon WMA","2025-06-26 07:51",4,28.8813559,-82.2261429,TRUE,FALSE,FALSE,"S254414779"
"133","cogdov","Common Ground Dove","Columbina passerina","L189812","Boca Ciega Millennium Park","2025-06-26 07:51",1,27.835564,-82.8115,TRUE,FALSE,FALSE,"S254249044"
"134","cogdov","Common Ground Dove","Columbina passerina","L2453750","plantation of leesburg","2025-06-26 07:47",2,28.7215353,-81.8894613,TRUE,FALSE,TRUE,"S254229717"
"135","cogdov","Common Ground Dove","Columbina passerina","L1763727","El Sauz Ranch (restricted access)","2025-06-26 07:44",1,26.4922034,-97.5036549,TRUE,FALSE,FALSE,"S254244477"
"136","cogdov","Common Ground Dove","Columbina passerina","L15542655","255–431 RM-469, Cotulla US-TX 28.57564, -99.19198","2025-06-26 07:43",1,28.575645,-99.191984,TRUE,FALSE,TRUE,"S254233161"
"137","cogdov","Common Ground Dove","Columbina passerina","L42783371","1- Wimauma, FL - near Brigman Road","2025-06-26 07:38",3,27.7081788,-82.318735,TRUE,FALSE,TRUE,"S254215093"
"138","cogdov","Common Ground Dove","Columbina passerina","L1493595","Avon Park Air Force Range (Highlands Co.)","2025-06-26 07:38",5,27.608256,-81.2639125,TRUE,FALSE,FALSE,"S254226327"
"139","cogdov","Common Ground Dove","Columbina passerina","L585956","Duette Preserve","2025-06-26 07:27",6,27.5354454,-82.1294117,TRUE,FALSE,FALSE,"S254406300"
"140","cogdov","Common Ground Dove","Columbina passerina","L983556","Meadow Woods, Florida","2025-06-26 07:26",1,28.3512986,-81.3568926,TRUE,FALSE,TRUE,"S254227572"
"141","cogdov","Common Ground Dove","Columbina passerina","L17449604","Chalfont Community","2025-06-26 07:25",1,28.3749429,-81.4331147,TRUE,FALSE,TRUE,"S254219274"
"142","cogdov","Common Ground Dove","Columbina passerina","L337594","Bonita Beach--Access #10","2025-06-26 07:23",1,26.3597359,-81.8602459,TRUE,FALSE,FALSE,"S254225680"
"143","cogdov","Common Ground Dove","Columbina passerina","L6676605","Mill Creek Landing Neighborhood","2025-06-26 07:20",1,30.0646346,-81.6133289,TRUE,FALSE,TRUE,"S254297717"
"144","cogdov","Common Ground Dove","Columbina passerina","L46059081","14605 Pine Cone Trail, Clermont US-FL (28.5338,-81.7133)","2025-06-26 07:09",2,28.533842,-81.713253,TRUE,FALSE,TRUE,"S254212869"
"145","cogdov","Common Ground Dove","Columbina passerina","L129085","Santa Ana NWR (LTC 059)","2025-06-26 07:08",5,26.0813003,-98.1351399,TRUE,FALSE,FALSE,"S254258396"
"146","cogdov","Common Ground Dove","Columbina passerina","L4408972","""#1"" Yard 7540 S. Grovewood Loop","2025-06-26 07:04",2,28.7547539,-82.2761091,TRUE,FALSE,TRUE,"S254486494"
"147","cogdov","Common Ground Dove","Columbina passerina","L816104","Helen and Allan Cruickshank Sanctuary","2025-06-26 07:00",8,28.2938478,-80.7072508,TRUE,FALSE,FALSE,"S254363267"
"148","cogdov","Common Ground Dove","Columbina passerina","L20366801","JHW","2025-06-26 07:00",2,27.6167489,-80.6115599,TRUE,FALSE,TRUE,"S254257910"
"149","cogdov","Common Ground Dove","Columbina passerina","L129052","Patagonia-Sonoita Creek Preserve","2025-06-26 06:59",1,31.528,-110.775,TRUE,FALSE,FALSE,"S254292306"
"150","cogdov","Common Ground Dove","Columbina passerina","L6563967","Saddle Blanket Scrub Preserve","2025-06-26 06:55",2,27.6719984,-81.5764421,TRUE,FALSE,FALSE,"S254247494"
"151","cogdov","Common Ground Dove","Columbina passerina","L1026992","Holiday Recreation Complex","2025-06-26 06:53",1,28.1955626,-82.7656102,TRUE,FALSE,FALSE,"S254214970"
"152","cogdov","Common Ground Dove","Columbina passerina","L28825430","Timberwood East","2025-06-26 06:48",4,29.1533354,-82.2052274,TRUE,FALSE,TRUE,"S254209106"
"153","cogdov","Common Ground Dove","Columbina passerina","L45519137","9698 Bay Harbor Cir, Fort Myers US-FL 26.53947, -81.91420","2025-06-26 06:47",5,26.539469,-81.914204,TRUE,FALSE,TRUE,"S254203908"
"154","cogdov","Common Ground Dove","Columbina passerina","L127314","Robert K. Rees Memorial Park","2025-06-26 06:43",10,28.2533,-82.7555,TRUE,FALSE,FALSE,"S254219933"
"155","cogdov","Common Ground Dove","Columbina passerina","L14486813","12334 Summerport Ln, Windermere US-FL 28.49155, -81.56402","2025-06-26 06:40",1,28.491548,-81.564018,TRUE,FALSE,TRUE,"S254206204"
"156","cogdov","Common Ground Dove","Columbina passerina","L30527902","3634–3698 Sable Palm Ln, Titusville US-FL (28.5734,-80.8055)","2025-06-26 06:37",1,28.573372,-80.805466,TRUE,FALSE,TRUE,"S254201998"
"157","cogdov","Common Ground Dove","Columbina passerina","L18079042","Area 7 & 8  NO Public Access Flume Road, Fort Pierce, Florida, US (27.397, -80.517)","2025-06-26 06:30",7,27.396823,-80.5170375,TRUE,FALSE,TRUE,"S254370426"
"158","cogdov","Common Ground Dove","Columbina passerina","L272704","EGRET  GLADE  WETLAND","2025-06-26 06:30",4,28.2736454,-82.4579926,TRUE,FALSE,TRUE,"S254552200"
"159","cogdov","Common Ground Dove","Columbina passerina","L128986","San Pedro RNCA--Hereford Bridge","2025-06-26 06:15",5,31.4384285,-110.1076526,TRUE,FALSE,FALSE,"S254296011"
"160","cogdov","Common Ground Dove","Columbina passerina","L2501609","Vista Park beach","2025-06-26 06:00",2,26.1636426,-80.098561,TRUE,FALSE,FALSE,"S254293829"
"161","cogdov","Common Ground Dove","Columbina passerina","L129105","Sycamore Canyon (Pajarito Mountains)","2025-06-26 05:55",1,31.4290009,-111.1905975,TRUE,FALSE,FALSE,"S254392836"
"162","cogdov","Common Ground Dove","Columbina passerina","L22233436","Santa Fe River Preserve--South Trail System (new trailhead)","2025-06-26 05:55",1,29.8857935,-82.4047013,TRUE,FALSE,FALSE,"S254220016"
"163","cogdov","Common Ground Dove","Columbina passerina","L340405","Box Canyon","2025-06-26 05:25",1,31.7974086,-110.7868486,TRUE,FALSE,FALSE,"S254330437"
"164","cogdov","Common Ground Dove","Columbina passerina","L295606","Rookery Bay NERR--Briggs Boardwalk","2025-06-25 20:01",1,26.0240674,-81.7117082,TRUE,FALSE,FALSE,"S254137658"
"165","cogdov","Common Ground Dove","Columbina passerina","L7536922","Drigger's Road","2025-06-25 17:46",4,27.2988402,-81.2660781,TRUE,FALSE,FALSE,"S254112056"
"166","cogdov","Common Ground Dove","Columbina passerina","L35915254","2500–2582 Middleground Church Rd, Sylvania US-GA 32.62973, -81.46217 SUNFLOWER FIELD AT BLUE SPRINGS","2025-06-25 17:44",2,32.629729,-81.462169,TRUE,FALSE,TRUE,"S254096101"
"167","cogdov","Common Ground Dove","Columbina passerina","L459084","Lake Margaret","2025-06-25 17:37",2,24.6526923,-81.438539,TRUE,FALSE,FALSE,"S254094415"
"168","cogdov","Common Ground Dove","Columbina passerina","L26473525","19630 Pine Tree Road, Odessa, Florida, UgS (28.168, -82.564)","2025-06-25 17:33",2,28.1679071,-82.5637595,TRUE,FALSE,TRUE,"S254096952"
"169","cogdov","Common Ground Dove","Columbina passerina","L22059339","Wolff Yard, 476 E. Corte Pasadera Cobrizo, Green Valley US-AZ","2025-06-25 16:45",1,31.832615,-110.974984,TRUE,FALSE,TRUE,"S254136383"
"170","cogdov","Common Ground Dove","Columbina passerina","L20658026","Holiday Inn, Lake Placid, FL","2025-06-25 16:06",1,27.310555,-81.35694,TRUE,FALSE,TRUE,"S254138749"
"171","cogdov","Common Ground Dove","Columbina passerina","L4510053","Gantt Lake Headwaters","2025-06-25 14:50",2,31.4555195,-86.4078891,TRUE,FALSE,TRUE,"S254099418"
"172","cogdov","Common Ground Dove","Columbina passerina","L48438814","50921–50927 Loop Rd, Ochopee US-FL 25.84631, -81.10066","2025-06-25 10:47",2,25.846315,-81.100658,TRUE,FALSE,TRUE,"S254003323"
"173","cogdov","Common Ground Dove","Columbina passerina","L40094337","Blue Scrub","2025-06-25 10:26",2,28.9515171,-81.3360825,TRUE,FALSE,TRUE,"S254013790"
"174","cogdov","Common Ground Dove","Columbina passerina","L48432798","STOP #26 - TP-113, Forest Road 360, Florida, US (30.307, -84.517)","2025-06-25 10:17",1,30.3067882,-84.5171358,TRUE,FALSE,TRUE,"S253976674"
"175","cogdov","Common Ground Dove","Columbina passerina","L47951117","Ocala National Forest--SE 222nd Ct ponds","2025-06-25 10:10",1,28.98979,-81.784406,TRUE,FALSE,TRUE,"S254141343"
"176","cogdov","Common Ground Dove","Columbina passerina","L610819","Flatwoods Wilderness Park","2025-06-25 09:54",9,28.1163509,-82.3045921,TRUE,FALSE,FALSE,"S254088070"
"177","cogdov","Common Ground Dove","Columbina passerina","L22275805","Pecan Springs Karst Preserve (restricted access)","2025-06-25 09:41",1,30.855335,-97.670488,TRUE,FALSE,FALSE,"S254059654"
"178","cogdov","Common Ground Dove","Columbina passerina","L46196106","Hague Dairy Banding Station (UFBO) - Circuit Nets","2025-06-25 09:39",2,29.777231,-82.41769,TRUE,FALSE,FALSE,"S253971337"
"179","cogdov","Common Ground Dove","Columbina passerina","L682447","Cross Florida Greenway--Withlacoochee Bay Trail","2025-06-25 09:31",3,29.003111,-82.703104,TRUE,FALSE,FALSE,"S253983200"
"180","cogdov","Common Ground Dove","Columbina passerina","L3536735","Higgs Beach Dog Park","2025-06-25 09:10",2,24.5478193,-81.7866268,TRUE,FALSE,FALSE,"S253964609"
"181","cogdov","Common Ground Dove","Columbina passerina","L48431732","14566–14596 County Road 1, Clarksville US-FL 30.42605, -85.23295","2025-06-25 09:05",1,30.426048,-85.232946,TRUE,FALSE,TRUE,"S253972122"
"182","cogdov","Common Ground Dove","Columbina passerina","L127294","Anastasia SP","2025-06-25 08:51",2,29.8661797,-81.2705122,TRUE,FALSE,FALSE,"S254118669"
"183","cogdov","Common Ground Dove","Columbina passerina","L37543004","CMH bird garden","2025-06-25 08:44",7,28.9209878,-81.864393,TRUE,FALSE,TRUE,"S254184870"
"184","cogdov","Common Ground Dove","Columbina passerina","L48439481","78264, San Antonio US-TX 29.26302, -98.57808","2025-06-25 08:40",2,29.263015,-98.578081,TRUE,FALSE,TRUE,"S254006158"
"185","cogdov","Common Ground Dove","Columbina passerina","L371829","P.E.A.R. Park--""WCA & Gateway Combined""","2025-06-25 08:38",4,28.7283966,-81.8746448,TRUE,FALSE,FALSE,"S254037044"
"186","cogdov","Common Ground Dove","Columbina passerina","L127315","Brasher Park","2025-06-25 08:35",5,28.2849,-82.731,TRUE,FALSE,FALSE,"S253986970"
"187","cogdov","Common Ground Dove","Columbina passerina","L45929440","stakeout Rose-throated Becard, Harshaw Creek Rd (2025)","2025-06-25 08:35",1,31.5162598,-110.6928891,TRUE,FALSE,FALSE,"S254079408"
"188","cogdov","Common Ground Dove","Columbina passerina","L127407","Audubon Corkscrew Swamp Sanctuary","2025-06-25 08:34",1,26.375442,-81.6040206,TRUE,FALSE,FALSE,"S253976416"
"189","cogdov","Common Ground Dove","Columbina passerina","L299291","Myakka River SP","2025-06-25 08:16",1,27.2405033,-82.3148167,TRUE,FALSE,FALSE,"S253968013"
"190","cogdov","Common Ground Dove","Columbina passerina","L629353","Deer Prairie Creek Preserve","2025-06-25 08:15",4,27.0642731,-82.286227,TRUE,FALSE,FALSE,"S253967001"
"191","cogdov","Common Ground Dove","Columbina passerina","L25220741","Las Cienegas NCA--Levee and Cienega","2025-06-25 08:08",7,31.8245674,-110.585358,TRUE,FALSE,FALSE,"S254008015"
"192","cogdov","Common Ground Dove","Columbina passerina","L46196972","Hague Dairy Banding Station (UFBO) - Processing Table","2025-06-25 08:06",2,29.777164,-82.416977,TRUE,FALSE,FALSE,"S253942234"
"193","cogdov","Common Ground Dove","Columbina passerina","L8064878","Home-536 Silk Oak Drive, Venice","2025-06-25 08:04",1,27.0616425,-82.3768275,TRUE,FALSE,TRUE,"S253941251"
"194","cogdov","Common Ground Dove","Columbina passerina","L5213348","21351 SE 73rd Pl. Morriston","2025-06-25 08:00",1,29.2236628,-82.4140554,TRUE,FALSE,TRUE,"S254303428"
"195","cogdov","Common Ground Dove","Columbina passerina","L39946146","WCA-3A, 33332, Weston US-FL (26.1075,-80.4385)","2025-06-25 07:59",6,26.10754,-80.438471,TRUE,FALSE,TRUE,"S254001281"
"196","cogdov","Common Ground Dove","Columbina passerina","L375967","Madera Canyon--Pima Co.","2025-06-25 07:55",1,31.7310142,-110.881319,TRUE,TRUE,FALSE,"S254006575"
"197","cogdov","Common Ground Dove","Columbina passerina","L44694140","Palm Ave","2025-06-25 07:55",1,28.614797,-81.332735,TRUE,FALSE,TRUE,"S253935223"
"198","cogdov","Common Ground Dove","Columbina passerina","L8632323","Second Kolomoki Road","2025-06-25 07:51",2,31.4528388,-84.9111684,TRUE,FALSE,TRUE,"S253944904"
"199","cogdov","Common Ground Dove","Columbina passerina","L16282692","1337 Smiling Fish Ln, St. Augustine Beach US-FL 29.85076, -81.28318","2025-06-25 07:47",1,29.850765,-81.283184,TRUE,FALSE,TRUE,"S254069060"
"200","cogdov","Common Ground Dove","Columbina passerina","L127438","Everglades NP--Flamingo","2025-06-25 07:41",1,25.1416,-80.9255,TRUE,FALSE,FALSE,"S253937239"
"201","cogdov","Common Ground Dove","Columbina passerina","L48428599","Boca Ciega Millennium Park, Seminole US-FL 27.83438, -82.80851","2025-06-25 07:32",NA,27.834381,-82.808513,TRUE,FALSE,TRUE,"S253957760"
"202","cogdov","Common Ground Dove","Columbina passerina","L4766903","Duette Preserve--Logue Road","2025-06-25 07:31",1,27.4919148,-82.1541148,TRUE,FALSE,FALSE,"S253976015"
"203","cogdov","Common Ground Dove","Columbina passerina","L26915124","Home","2025-06-25 07:30",2,28.1264772,-81.9169298,TRUE,FALSE,TRUE,"S254094452"
"204","cogdov","Common Ground Dove","Columbina passerina","L11033570","FeederWatch Feeding Stations, The Preserves, Lake Wales","2025-06-25 07:25",1,27.9615762,-81.6098843,TRUE,FALSE,TRUE,"S254109285"
"205","cogdov","Common Ground Dove","Columbina passerina","L48283012","Summer Beach","2025-06-25 07:19",1,30.584192,-81.445202,TRUE,FALSE,TRUE,"S253925333"
"206","cogdov","Common Ground Dove","Columbina passerina","L452007","Orlando Wetlands","2025-06-25 07:15",1,28.5700783,-80.9963373,TRUE,FALSE,FALSE,"S254097090"
"207","cogdov","Common Ground Dove","Columbina passerina","L4694617","Hunters Lake","2025-06-25 07:15",10,28.4481651,-82.620389,TRUE,FALSE,FALSE,"S253988322"
"208","cogdov","Common Ground Dove","Columbina passerina","L29360849","DDD Beavers Knoll","2025-06-25 07:12",2,29.196922,-99.750099,TRUE,FALSE,TRUE,"S254484847"
"209","cogdov","Common Ground Dove","Columbina passerina","L803232","Muschalek Farms","2025-06-25 07:10",2,29.074897,-97.6535761,TRUE,FALSE,TRUE,"S253956679"
"210","cogdov","Common Ground Dove","Columbina passerina","L2314490","Normandy & 23","2025-06-25 06:59",3,30.2627344,-81.8607101,TRUE,FALSE,TRUE,"S254053490"
"211","cogdov","Common Ground Dove","Columbina passerina","L1168194","Lake Marion Creek WMA--Baltic Rd.","2025-06-25 06:59",4,28.0995815,-81.5121818,TRUE,FALSE,FALSE,"S253997290"
"212","cogdov","Common Ground Dove","Columbina passerina","L4695273","Little Manatee River--Southfork Tract","2025-06-25 06:54",2,27.5886654,-82.2393125,TRUE,FALSE,FALSE,"S254001586"
"213","cogdov","Common Ground Dove","Columbina passerina","L352346","Santa Gertrudis Lane (foot access only)","2025-06-25 06:40",1,31.5620883,-111.0473766,TRUE,FALSE,FALSE,"S254160191"
"214","cogdov","Common Ground Dove","Columbina passerina","L26725037","West Marsh","2025-06-25 06:39",1,30.3541513,-81.4644529,TRUE,FALSE,TRUE,"S253915906"
"215","cogdov","Common Ground Dove","Columbina passerina","L17952563","12826 Dunhill Drive, Tampa, Florida, US (28.067, -82.537)","2025-06-25 06:37",1,28.0673385,-82.5367789,TRUE,FALSE,TRUE,"S254230367"
"216","cogdov","Common Ground Dove","Columbina passerina","L4162948","Veteran's Memorial Park","2025-06-25 06:30",2,28.3553837,-80.6832933,TRUE,FALSE,TRUE,"S254663915"
"217","cogdov","Common Ground Dove","Columbina passerina","L28934533","PR-46, Falcon Heights US-TX 26.56569, -99.12522","2025-06-25 06:26",3,26.565694,-99.125219,TRUE,FALSE,TRUE,"S253958441"
"218","cogdov","Common Ground Dove","Columbina passerina","L10637588","Flint Trail Stand--Orange Trailhead","2025-06-25 06:21",6,26.3325234,-81.6809881,TRUE,FALSE,FALSE,"S253927298"
"219","cogdov","Common Ground Dove","Columbina passerina","L767633","Marana Wastewater Reclamation Facility (Stingray Drive)","2025-06-25 06:04",3,32.4658647,-111.2839723,TRUE,FALSE,FALSE,"S253980341"
"220","cogdov","Common Ground Dove","Columbina passerina","L129080","San Pedro RNCA--San Pedro House and trails","2025-06-25 05:35",2,31.5478992,-110.1408997,TRUE,FALSE,FALSE,"S254052641"
"221","cogdov","Common Ground Dove","Columbina passerina","L48404578","Fort Zachary Taylor Historic State Park, Key West US-FL (24.5459,-81.8096)","2025-06-24 20:43",8,24.545895,-81.809552,TRUE,FALSE,TRUE,"S253841177"
"222","cogdov","Common Ground Dove","Columbina passerina","L127288","Little Talbot Island SP","2025-06-24 19:01",1,30.460105,-81.4154828,TRUE,FALSE,FALSE,"S253834773"
"223","cogdov","Common Ground Dove","Columbina passerina","L4090615","The Loop (Armour Ter.,Upson Ter., and vicinity)","2025-06-24 18:33",1,27.0846777,-82.2381163,TRUE,FALSE,TRUE,"S253822275"
"224","cogdov","Common Ground Dove","Columbina passerina","L128890","Bentsen-Rio Grande Val. SP WBC (Mission) (LTC 069)","2025-06-24 17:53",5,26.1849709,-98.3793885,TRUE,FALSE,FALSE,"S253850181"
"225","cogdov","Common Ground Dove","Columbina passerina","L823147","J. N. Ding Darling NWR--Wildlife Drive","2025-06-24 17:00",2,26.4540529,-82.1155071,TRUE,FALSE,FALSE,"S253846104"
"226","cogdov","Common Ground Dove","Columbina passerina","L27486365","Sunny Home - 4130 Diplomacy Cir, Tallahassee US-FL 30.48094, -84.20444","2025-06-24 16:14",4,30.48094,-84.204445,TRUE,FALSE,TRUE,"S253822015"
"227","cogdov","Common Ground Dove","Columbina passerina","L48394005","Grand Lagoon, Upper Grand Lagoon US-FL 30.13605, -85.72487","2025-06-24 16:10",3,30.136045,-85.724869,TRUE,FALSE,TRUE,"S253796614"
"228","cogdov","Common Ground Dove","Columbina passerina","L14887959","Plantation Backyard","2025-06-24 15:43",2,27.916915,-80.617339,TRUE,FALSE,TRUE,"S253783063"
"229","cogdov","Common Ground Dove","Columbina passerina","L22268000","Willow Oak neighborhood","2025-06-24 15:39",2,29.5845809,-82.4370488,TRUE,FALSE,TRUE,"S253777118"
"230","cogdov","Common Ground Dove","Columbina passerina","L8167284","Cheyenne Dog Park (private Gated Community)","2025-06-24 15:22",1,28.4712247,-82.6132605,TRUE,FALSE,TRUE,"S253780572"
"231","cogdov","Common Ground Dove","Columbina passerina","L189003","Emerson Point Preserve","2025-06-24 14:49",2,27.5320111,-82.6256604,TRUE,FALSE,FALSE,"S253804598"
"232","cogdov","Common Ground Dove","Columbina passerina","L128873","Las Palomas WMA--Anacua Unit (LTC 051; restricted access)","2025-06-24 14:07",2,26.0568847,-97.8435255,TRUE,FALSE,FALSE,"S254021117"
"233","cogdov","Common Ground Dove","Columbina passerina","L860761","Guadalupe River SP--Northern portion (Kendall Co.)","2025-06-24 13:50",1,29.8823474,-98.5035725,TRUE,FALSE,FALSE,"S253852988"
"234","cogdov","Common Ground Dove","Columbina passerina","L48383306","1761 Bethel Forest Rd, Rowesville US-SC 33.40784, -80.77911","2025-06-24 13:29",1,33.407844,-80.779107,TRUE,FALSE,TRUE,"S253759866"
"235","cogdov","Common Ground Dove","Columbina passerina","L2920256","Reynolds Industrial Park","2025-06-24 13:24",2,29.9787134,-81.6533571,TRUE,FALSE,FALSE,"S253751265"
"236","cogdov","Common Ground Dove","Columbina passerina","L249889","Edinburg Scenic Wetlands WBC (LTC 061)","2025-06-24 13:14",1,26.2905822,-98.1351909,TRUE,FALSE,FALSE,"S253766645"
"237","cogdov","Common Ground Dove","Columbina passerina","L32138032","1771 County Road 432, Lake Panasoffkee US-FL 28.80044, -82.13393","2025-06-24 13:13",1,28.800437,-82.133928,TRUE,FALSE,TRUE,"S253755702"
"238","cogdov","Common Ground Dove","Columbina passerina","L29325843","5759 Avenue F, McIntosh US-FL 29.45030, -82.21871","2025-06-24 13:12",1,29.450301,-82.218714,TRUE,FALSE,TRUE,"S253748083"
"239","cogdov","Common Ground Dove","Columbina passerina","L48378469","180 Villa Domani Court, Davenport, Florida, US (28.25, -81.591)","2025-06-24 13:10",1,28.2503199,-81.5905202,TRUE,FALSE,TRUE,"S253741216"
"240","cogdov","Common Ground Dove","Columbina passerina","L131650","Cala del Zorro","2025-06-24 12:20",1,30.1389923,-84.409874,TRUE,FALSE,TRUE,"S253796464"
"241","cogdov","Common Ground Dove","Columbina passerina","L36987457","Robinson Preserve 1","2025-06-24 11:54",NA,27.514518,-82.662515,TRUE,FALSE,TRUE,"S253767234"
"242","cogdov","Common Ground Dove","Columbina passerina","L48381761","Upper Tampa Bay Park Phase Ii, Tampa US-FL 28.02324, -82.59947","2025-06-24 11:48",7,28.023244,-82.59947,TRUE,FALSE,TRUE,"S253753744"
"243","cogdov","Common Ground Dove","Columbina passerina","L3301457","My back yard.","2025-06-24 11:34",1,28.6437703,-81.2226346,TRUE,FALSE,TRUE,"S253720240"
"244","cogdov","Common Ground Dove","Columbina passerina","L284416","Arivaca Lake","2025-06-24 11:32",10,31.5302935,-111.2521748,TRUE,FALSE,FALSE,"S253780261"
"245","cogdov","Common Ground Dove","Columbina passerina","L48371277","Clever Way, Byron, Georgia, US (32.586, -83.727)","2025-06-24 11:11",1,32.5861304,-83.7273881,TRUE,FALSE,TRUE,"S253712059"
"246","cogdov","Common Ground Dove","Columbina passerina","L48307626","Camp Bullis, San Antonio US-TX 29.69972, -98.55471","2025-06-24 10:54",1,29.699723,-98.554709,TRUE,FALSE,TRUE,"S253728099"
"247","cogdov","Common Ground Dove","Columbina passerina","L677310","Robinson Preserve","2025-06-24 10:15",1,27.5167212,-82.6700163,TRUE,FALSE,FALSE,"S253716045"
"248","cogdov","Common Ground Dove","Columbina passerina","L917933","Canaveral National Seashore--Pay Station Area","2025-06-24 10:08",1,28.6450209,-80.682596,TRUE,FALSE,FALSE,"S253694271"
"249","cogdov","Common Ground Dove","Columbina passerina","L151488","Archbold Biological Station--Jay Demo Tract","2025-06-24 09:54",3,27.184212,-81.35532,TRUE,FALSE,FALSE,"S253765751"
"250","cogdov","Common Ground Dove","Columbina passerina","L855224","Lake June-in-Winter Scrub SP","2025-06-24 09:49",1,27.2894177,-81.4193344,TRUE,FALSE,FALSE,"S253708331"
"251","cogdov","Common Ground Dove","Columbina passerina","L48370435","Lake June-in-Winter Scrub State Park, Lake Placid US-FL 27.29699, -81.42013","2025-06-24 09:49",1,27.296989,-81.420133,TRUE,FALSE,TRUE,"S253746579"
"252","cogdov","Common Ground Dove","Columbina passerina","L48510457","Retention Pond/Liberty Park Eagle Preserve on SW Corner Bailey Trl & Buena Vista Blvd, The Villages, Florida, US (28.894, -81.981)","2025-06-24 09:47",1,28.894239,-81.9807395,TRUE,FALSE,TRUE,"S254320788"
"253","cogdov","Common Ground Dove","Columbina passerina","L7556479","Old Coffee Road, Quitman, Georgia, US (30.916, -83.654)","2025-06-24 09:38",1,30.9164917,-83.6543412,TRUE,FALSE,TRUE,"S253851489"
"254","cogdov","Common Ground Dove","Columbina passerina","L1487217","Santa Ana NWR--Pintail Lakes Trail","2025-06-24 09:16",1,26.0787993,-98.1330503,TRUE,FALSE,FALSE,"S254018737"
"255","cogdov","Common Ground Dove","Columbina passerina","L27264058","Lake Blanche Dr.","2025-06-24 09:16",4,28.2047452,-82.6223278,TRUE,FALSE,FALSE,"S253770299"
"256","cogdov","Common Ground Dove","Columbina passerina","L229579","Everglades NP--Long Pine Key Campground & Trail","2025-06-24 08:58",1,25.3985091,-80.6554395,TRUE,FALSE,FALSE,"S253677301"
"257","cogdov","Common Ground Dove","Columbina passerina","L48362486","1435 Simonton St, Key West US-FL 24.54778, -81.79396","2025-06-24 08:49",1,24.547784,-81.793962,TRUE,FALSE,TRUE,"S253668731"
"258","cogdov","Common Ground Dove","Columbina passerina","L4468543","LRGV NWR--La Puerta Tract","2025-06-24 08:47",2,26.3444892,-98.7320763,TRUE,FALSE,FALSE,"S253736157"
"259","cogdov","Common Ground Dove","Columbina passerina","L144858","Riparian Preserve at Gilbert Water Ranch","2025-06-24 08:33",1,33.3614502,-111.7339478,TRUE,FALSE,FALSE,"S253759811"
"260","cogdov","Common Ground Dove","Columbina passerina","L127410","Jonathan Dickinson SP","2025-06-24 08:30",2,27.0034332,-80.1015657,TRUE,FALSE,FALSE,"S253785879"
"261","cogdov","Common Ground Dove","Columbina passerina","L609328","Fort Cooper SP","2025-06-24 08:27",1,28.8073769,-82.3042917,TRUE,FALSE,FALSE,"S253683311"
"262","cogdov","Common Ground Dove","Columbina passerina","L280690","Kissimmee Prairie Preserve SP","2025-06-24 08:19",2,27.5746341,-81.0228825,TRUE,FALSE,FALSE,"S253676553"
"263","cogdov","Common Ground Dove","Columbina passerina","L19523074","Guadalupe River SP—Savannah blind","2025-06-24 08:16",1,29.8591953,-98.4978745,TRUE,FALSE,FALSE,"S253691999"
"264","cogdov","Common Ground Dove","Columbina passerina","L38221411","Owens Road Connecting Sweat Loop","2025-06-24 08:15",1,27.743674,-82.220251,TRUE,FALSE,TRUE,"S253665062"
"265","cogdov","Common Ground Dove","Columbina passerina","L38196112","Grand Harbor","2025-06-24 08:10",1,27.6834141,-80.3949881,TRUE,FALSE,TRUE,"S253667734"
"266","cogdov","Common Ground Dove","Columbina passerina","L37371768","1400 Primrose Ln, Daytona Beach US-FL 29.23765, -81.07318","2025-06-24 08:07",2,29.237654,-81.07318,TRUE,FALSE,TRUE,"S253664074"
"267","cogdov","Common Ground Dove","Columbina passerina","L4319522","Sharon Rose Wiechens Preserve","2025-06-24 07:54",1,28.8451812,-81.9517422,TRUE,FALSE,FALSE,"S253693265"
"268","cogdov","Common Ground Dove","Columbina passerina","L48362949","145 Bridgewater Dr, La Vernia US-TX 29.27574, -98.17220","2025-06-24 07:50",1,29.275741,-98.172202,TRUE,FALSE,TRUE,"S253671027"
"269","cogdov","Common Ground Dove","Columbina passerina","L480858","Ajo Sewage Ponds","2025-06-24 07:39",1,32.3856344,-112.8541522,TRUE,FALSE,FALSE,"S253705611"
"270","cogdov","Common Ground Dove","Columbina passerina","L46447114","541 Tarq","2025-06-24 07:27",2,30.011029,-81.383356,TRUE,FALSE,TRUE,"S254194365"
"271","cogdov","Common Ground Dove","Columbina passerina","L38671625","2451 Pickford Circle, Apopka, Florida, US (28.686, -81.55)","2025-06-24 07:27",2,28.6861064,-81.5496201,TRUE,FALSE,TRUE,"S253962755"
"272","cogdov","Common Ground Dove","Columbina passerina","L34888379","2853 Lust Road, Apopka, Florida, US (28.669, -81.559). Lust gate To Pumphouse","2025-06-24 07:25",1,28.6692621,-81.559272,TRUE,FALSE,TRUE,"S253711195"
"273","cogdov","Common Ground Dove","Columbina passerina","L34713598","12 Santa Gertrudis Lane, Tumacaco.mfei-Carmen, Arizona, US (31.562, -111.n","2025-06-24 07:24",2,31.562242,-111.0496153,TRUE,FALSE,TRUE,"S253761527"
"274","cogdov","Common Ground Dove","Columbina passerina","L2426287","Sarasota National Cemetery","2025-06-24 07:23",4,27.244481,-82.380209,TRUE,FALSE,FALSE,"S253673122"
"275","cogdov","Common Ground Dove","Columbina passerina","L44315936","FL - (Hernando Co.) Pine Island Drive","2025-06-24 07:21",1,28.575221,-82.652746,TRUE,FALSE,TRUE,"S253650027"
"276","cogdov","Common Ground Dove","Columbina passerina","L17048069","TX-Burnet: Hidden Falls Golf Course, Meadowlakes US-TX (30.5628,-98.2937)","2025-06-24 07:21",1,30.5628,-98.293666,TRUE,FALSE,TRUE,"S253703790"
"277","cogdov","Common Ground Dove","Columbina passerina","L48376325","Sector 1 - Hooper Farms and Conrad","2025-06-24 07:18",9,28.654411,-81.554975,TRUE,FALSE,TRUE,"S253733130"
"278","cogdov","Common Ground Dove","Columbina passerina","L350281","El Rio Open Space Preserve","2025-06-24 07:17",1,32.392141,-111.1384898,TRUE,TRUE,FALSE,"S253709420"
"279","cogdov","Common Ground Dove","Columbina passerina","L559416","Lake Apopka North Shore--Orange County section (Please consider using more specific locations)","2025-06-24 07:17",7,28.6893446,-81.5995327,TRUE,FALSE,FALSE,"S253735763"
"280","cogdov","Common Ground Dove","Columbina passerina","L35340501","1- Wimauma, FL - near Capps Road","2025-06-24 07:15",2,27.706657,-82.3182833,TRUE,FALSE,TRUE,"S253949499"
"281","cogdov","Common Ground Dove","Columbina passerina","L6955735","Leslie & Mike's Hood","2025-06-24 07:15",1,26.950825,-82.350753,TRUE,FALSE,TRUE,"S253645291"
"282","cogdov","Common Ground Dove","Columbina passerina","L4073215","Lake Apopka North Shore--McDonald Canal Rd.--Duda (Lake County)","2025-06-24 07:11",7,28.7046871,-81.6656021,TRUE,FALSE,FALSE,"S253708048"
"283","cogdov","Common Ground Dove","Columbina passerina","L3110621","Tall Timbers Research Station","2025-06-24 07:11",4,30.6567786,-84.2087889,TRUE,FALSE,FALSE,"S253742371"
"284","cogdov","Common Ground Dove","Columbina passerina","L3668359","Lake Apopka North Shore--Apopka-Beauclair Canal--East Levy (North of Lake Apopka Loop Trail)","2025-06-24 07:10",1,28.6989158,-81.6815799,TRUE,FALSE,FALSE,"S253698725"
"285","cogdov","Common Ground Dove","Columbina passerina","L14062971","Aliso Canyon Rd. (VEN Co.)","2025-06-24 07:09",2,34.328398,-119.151626,TRUE,FALSE,FALSE,"S253754326"
"286","cogdov","Common Ground Dove","Columbina passerina","L48385053","North Shore Bird Survey,  Leg 8- Sand Farm Road/ Mount Dora, Florida, US (28.705, -81.654)","2025-06-24 07:08",8,28.7054323,-81.6538422,TRUE,FALSE,TRUE,"S253767135"
"287","cogdov","Common Ground Dove","Columbina passerina","L7023072","LAWD, Apopka US-FL (28.6979,-81.6294)","2025-06-24 07:08",11,28.697926,-81.629415,TRUE,FALSE,TRUE,"S253709486"
"288","cogdov","Common Ground Dove","Columbina passerina","L20966679","Springview","2025-06-24 07:05",4,26.981337,-82.127587,TRUE,FALSE,TRUE,"S253706763"
"289","cogdov","Common Ground Dove","Columbina passerina","L127368","Avon Park Air Force Range (Polk Co.)","2025-06-24 07:04",4,27.6786636,-81.2943649,TRUE,FALSE,FALSE,"S253681020"
"290","cogdov","Common Ground Dove","Columbina passerina","L8757805","Picayune Strand SF--Belle Mead Horse Trail","2025-06-24 07:04",2,26.1406552,-81.653894,TRUE,FALSE,FALSE,"S253645524"
"291","cogdov","Common Ground Dove","Columbina passerina","L47864298","Okefenokee NWR","2025-06-24 07:04",3,30.7338495,-82.1296179,TRUE,FALSE,TRUE,"S253859464"
"292","cogdov","Common Ground Dove","Columbina passerina","L14268864","Pennbrooke Fairways","2025-06-24 07:01",1,28.831,-81.942,TRUE,FALSE,TRUE,"S253637831"
"293","cogdov","Common Ground Dove","Columbina passerina","L4162142","309 Carr Lane","2025-06-24 07:00",1,30.593681,-84.273653,TRUE,FALSE,TRUE,"S253641149"
"294","cogdov","Common Ground Dove","Columbina passerina","L3182329","Lake Apopka North Shore--Lake Apopka Loop Trail--CR 448A Levy (Lake County)","2025-06-24 06:56",1,28.7047512,-81.670019,TRUE,FALSE,FALSE,"S253709896"
"295","cogdov","Common Ground Dove","Columbina passerina","L234314","Anza Trail--Tubac","2025-06-24 06:52",2,31.6128313,-111.040829,TRUE,FALSE,FALSE,"S253745848"
"296","cogdov","Common Ground Dove","Columbina passerina","L32982923","Nighthawk Native Nursery, Tucson, Arizona, US (32.203, -111.209)","2025-06-24 06:50",1,32.2028633,-111.208825,TRUE,FALSE,TRUE,"S253690604"
"297","cogdov","Common Ground Dove","Columbina passerina","L2427011","Chiricahua Mtns.--Whitetail Canyon","2025-06-24 06:41",1,31.9994008,-109.2720124,TRUE,FALSE,TRUE,"S253740751"
"298","cogdov","Common Ground Dove","Columbina passerina","L46647122","Stonewood Villa Walk","2025-06-24 06:37",1,29.189382,-82.070832,TRUE,FALSE,TRUE,"S253635667"
"299","cogdov","Common Ground Dove","Columbina passerina","L1408160","Home","2025-06-24 06:37",1,28.6359844,-81.1657493,TRUE,FALSE,TRUE,"S253633538"
"300","cogdov","Common Ground Dove","Columbina passerina","L788875","Paynes Prairie Preserve SP--Cones Dike Trail","2025-06-24 06:35",1,29.5652838,-82.2805166,TRUE,FALSE,FALSE,"S253689718"
"301","cogdov","Common Ground Dove","Columbina passerina","L1331912","Santa Ana NWR--Entry and Parking lot","2025-06-24 06:34",1,26.0826692,-98.1356089,TRUE,FALSE,FALSE,"S253761241"
"302","cogdov","Common Ground Dove","Columbina passerina","L48542821","Perdido River WMA -- Grant Place Road","2025-06-24 06:31",5,30.6748391,-87.459477,TRUE,FALSE,TRUE,"S254462503"
"303","cogdov","Common Ground Dove","Columbina passerina","L28423298","St. Marks NWR","2025-06-24 06:30",1,30.1363854,-84.2379922,TRUE,FALSE,FALSE,"S253683899"
"304","cogdov","Common Ground Dove","Columbina passerina","L922804","Hill Canyon","2025-06-24 06:29",1,34.2170614,-118.9281177,TRUE,FALSE,FALSE,"S253748190"
"305","cogdov","Common Ground Dove","Columbina passerina","L2603780","Naples Botanical Garden","2025-06-24 06:29",2,26.1084774,-81.7713915,TRUE,FALSE,FALSE,"S253690672"
"306","cogdov","Common Ground Dove","Columbina passerina","L16966244","Timberwood","2025-06-24 06:27",2,29.1530394,-82.2088896,TRUE,FALSE,TRUE,"S253637105"
"307","cogdov","Common Ground Dove","Columbina passerina","L768735","Harshaw Creek Road","2025-06-24 06:12",1,31.506978,-110.6798543,TRUE,FALSE,FALSE,"S253809257"
"308","cogdov","Common Ground Dove","Columbina passerina","L5281758","Harbor Island Beach (restricted access)","2025-06-24 06:10",4,32.4041792,-80.4275179,TRUE,TRUE,FALSE,"S253649567"
"309","cogdov","Common Ground Dove","Columbina passerina","L3380924","AZ-Cochise-Portal--2494 S. Old Canyon Rd. (private)","2025-06-24 06:00",1,31.9063055,-109.1534289,TRUE,FALSE,TRUE,"S253866257"
"310","cogdov","Common Ground Dove","Columbina passerina","L2891001","Ajo Community Golf Course","2025-06-24 05:58",2,32.4499385,-112.850318,TRUE,FALSE,FALSE,"S253699020"
"311","cogdov","Common Ground Dove","Columbina passerina","L3609498","Blackwater Creek Ranch (NO PUBLIC ACCESS)","2025-06-24 05:56",13,27.7010459,-80.8229828,TRUE,FALSE,TRUE,"S253666753"
"312","cogdov","Common Ground Dove","Columbina passerina","L1871151","Tres Rios Overbank Wetlands (permit required)","2025-06-24 05:43",1,33.389402,-112.2597653,TRUE,FALSE,FALSE,"S254076175"
"313","cogdov","Common Ground Dove","Columbina passerina","L10935297","Mittry Lake--Rail Overlook Pullout","2025-06-24 05:31",1,32.835743,-114.444651,TRUE,FALSE,FALSE,"S253686352"
"314","cogdov","Common Ground Dove","Columbina passerina","L128943","San Pedro RNCA--Charleston Bridge","2025-06-24 05:30",3,31.6257,-110.1735992,TRUE,FALSE,FALSE,"S253774347"
"315","cogdov","Common Ground Dove","Columbina passerina","L11510059","Spot Road Farm","2025-06-24 05:26",6,32.7969853,-113.352323,TRUE,FALSE,FALSE,"S253760717"
"316","cogdov","Common Ground Dove","Columbina passerina","L333337","Guadalupe Canyon (Cochise Co.)","2025-06-24 04:15",10,31.3435712,-109.0694914,TRUE,FALSE,FALSE,"S254024658"
"317","cogdov","Common Ground Dove","Columbina passerina","L6788877","Backyard,Thornhill, Fleming Island, FL","2025-06-23 19:25",1,30.075946,-81.722585,TRUE,FALSE,TRUE,"S253558044"
"318","cogdov","Common Ground Dove","Columbina passerina","L28476011","LaGrange Shores","2025-06-23 19:02",1,30.4695109,-86.1534434,TRUE,FALSE,TRUE,"S253563088"
"319","cogdov","Common Ground Dove","Columbina passerina","L4795535","Gladeview Rd.","2025-06-23 17:50",2,26.6661316,-80.492734,TRUE,FALSE,FALSE,"S253554190"
"320","cogdov","Common Ground Dove","Columbina passerina","L39845717","Cardinal cove, private residence","2025-06-23 17:20",2,30.52635,-84.0119,TRUE,FALSE,TRUE,"S253782595"
"321","cogdov","Common Ground Dove","Columbina passerina","L48358264","Ocala National Forest, Fort McCoy US-FL 29.27038, -81.69801","2025-06-23 17:12",1,29.270384,-81.698012,TRUE,FALSE,TRUE,"S253644689"
"322","cogdov","Common Ground Dove","Columbina passerina","L1427496","Boy Scout Preserve (Green Key Rd)","2025-06-23 16:57",2,28.2527059,-82.7443108,TRUE,FALSE,FALSE,"S253521202"
"323","cogdov","Common Ground Dove","Columbina passerina","L656190","Sugden Regional Park","2025-06-23 16:35",1,26.1137509,-81.7621422,TRUE,FALSE,FALSE,"S253525272"
"324","cogdov","Common Ground Dove","Columbina passerina","L48336499","2361–2389 US-231, Panama City US-FL 30.19596, -85.63161","2025-06-23 13:22",1,30.195958,-85.631614,TRUE,FALSE,TRUE,"S253544737"
"325","cogdov","Common Ground Dove","Columbina passerina","L41975334","552 Lake Dr, Titusville US-FL 28.51427, -80.86158","2025-06-23 12:56",1,28.514271,-80.861585,TRUE,FALSE,TRUE,"S253475506"
"326","cogdov","Common Ground Dove","Columbina passerina","L9965931","Anastasia SP--Salt Run","2025-06-23 12:45",1,29.8707018,-81.2740243,TRUE,FALSE,FALSE,"S253497615"
"327","cogdov","Common Ground Dove","Columbina passerina","L211851","Avra Valley WTP","2025-06-23 12:40",2,32.165,-111.179,TRUE,FALSE,FALSE,"S253552623"
"328","cogdov","Common Ground Dove","Columbina passerina","L1061691","Corkscrew Regional Ecosystem Watershed--Bird Rookery Swamp Trails","2025-06-23 12:21",2,26.3140166,-81.6349089,TRUE,FALSE,FALSE,"S253459174"
"329","cogdov","Common Ground Dove","Columbina passerina","L588168","Marsh Bend ""Outlet"" Park","2025-06-23 11:30",1,28.8014023,-82.1531868,TRUE,FALSE,FALSE,"S253460663"
"330","cogdov","Common Ground Dove","Columbina passerina","L39940866","trail behind house","2025-06-23 11:11",3,30.7325382,-88.532074,TRUE,FALSE,TRUE,"S253458444"
"331","cogdov","Common Ground Dove","Columbina passerina","L35080230","Floranada Park","2025-06-23 11:03",1,26.1915017,-80.1283982,TRUE,FALSE,TRUE,"S253461880"
"332","cogdov","Common Ground Dove","Columbina passerina","L30427201","1030 Bluegrass Dr, Groveland US-FL 28.58179, -81.86926","2025-06-23 11:03",1,28.581785,-81.869262,TRUE,FALSE,TRUE,"S253439158"
"333","cogdov","Common Ground Dove","Columbina passerina","L374166","Pollywog Pond (CTC 077)","2025-06-23 10:10",1,27.8627509,-97.612361,TRUE,FALSE,FALSE,"S253539951"
"334","cogdov","Common Ground Dove","Columbina passerina","L46353218","Woodland Lodge","2025-06-23 10:07",1,30.2835146,-84.2008255,TRUE,FALSE,TRUE,"S253423615"
"335","cogdov","Common Ground Dove","Columbina passerina","L13014936","Wildlife Dr, Sanibel US-FL 26.44551, -82.11343","2025-06-23 10:06",1,26.445514,-82.113432,TRUE,FALSE,TRUE,"S253440188"
"336","cogdov","Common Ground Dove","Columbina passerina","L48313849","BBDowns cutover.","2025-06-23 10:05",4,28.119209,-82.350132,TRUE,FALSE,TRUE,"S253455114"
"337","cogdov","Common Ground Dove","Columbina passerina","L127449","Fort Zachary Taylor Historic SP","2025-06-23 09:58",8,24.5463,-81.8106,TRUE,FALSE,FALSE,"S253432668"
"338","cogdov","Common Ground Dove","Columbina passerina","L9400329","Rotenberger WMA (Palm Beach County)","2025-06-23 09:38",6,26.3831767,-80.8103915,TRUE,FALSE,FALSE,"S253441344"
"339","cogdov","Common Ground Dove","Columbina passerina","L16144623","6039–6041 Pickwick Rd, Tallahassee US-FL 30.53979, -84.14946","2025-06-23 09:36",1,30.539795,-84.149461,TRUE,FALSE,TRUE,"S253414250"
"340","cogdov","Common Ground Dove","Columbina passerina","L48331374","Sunset Memorial Park","2025-06-23 09:35",1,31.290063,-85.46548,TRUE,FALSE,TRUE,"S253522950"
"341","cogdov","Common Ground Dove","Columbina passerina","L276835","LRGV NWR--La Sal del Rey (LTC 005)","2025-06-23 09:30",7,26.5305713,-98.0540943,TRUE,FALSE,FALSE,"S253550162"
"342","cogdov","Common Ground Dove","Columbina passerina","L48087637","1737 Palm View Road, Sarasota, Florida, US (27.315, -82.31)","2025-06-23 09:30",1,27.3152169,-82.3101225,TRUE,FALSE,TRUE,"S253524509"
"343","cogdov","Common Ground Dove","Columbina passerina","L28076870","Farm Sitting/Private Residence","2025-06-23 09:30",2,27.3561986,-80.501934,TRUE,FALSE,TRUE,"S253533248"
"344","cogdov","Common Ground Dove","Columbina passerina","L45283935","Walker Farm (no public access)","2025-06-23 09:26",1,32.817182,-83.613636,TRUE,FALSE,TRUE,"S253507145"
"345","cogdov","Common Ground Dove","Columbina passerina","L1438140","Rotary Park Environmental Center","2025-06-23 09:26",2,26.5467025,-81.9806344,TRUE,FALSE,FALSE,"S253425066"
"346","cogdov","Common Ground Dove","Columbina passerina","L47780385","Second lake.","2025-06-23 09:16",3,28.10286,-82.336232,TRUE,FALSE,TRUE,"S253454593"
"347","cogdov","Common Ground Dove","Columbina passerina","L4013926","SunWest Park","2025-06-23 09:15",4,28.4049115,-82.6717544,TRUE,FALSE,FALSE,"S253468032"
"348","cogdov","Common Ground Dove","Columbina passerina","L5066999","Live Oaks Park","2025-06-23 09:11",2,28.9190018,-81.968565,TRUE,FALSE,FALSE,"S253431957"
"349","cogdov","Common Ground Dove","Columbina passerina","L48314988","Corkscrew Swamp Sanctuary Boardwalk, Naples, Florida, US (26.374, -81.607)","2025-06-23 08:56",2,26.3743892,-81.6073085,TRUE,FALSE,TRUE,"S253459734"
"350","cogdov","Common Ground Dove","Columbina passerina","L304521","Santa Cruz River--Sasco Rd","2025-06-23 08:56",1,32.544589,-111.406889,TRUE,FALSE,FALSE,"S253545679"
"351","cogdov","Common Ground Dove","Columbina passerina","L617642","Ollie's Pond Park","2025-06-23 08:45",2,26.9860616,-82.1496961,TRUE,FALSE,FALSE,"S253457376"
"352","cogdov","Common Ground Dove","Columbina passerina","L11032110","The Preserves Apartment Complex, Lake Wales","2025-06-23 08:45",3,27.9640871,-81.6081502,TRUE,FALSE,TRUE,"S253583874"
"353","cogdov","Common Ground Dove","Columbina passerina","L3103629","Holey Land WMA","2025-06-23 08:28",2,26.3340377,-80.6420517,TRUE,FALSE,FALSE,"S253413619"
"354","cogdov","Common Ground Dove","Columbina passerina","L11452047","Sandpipers - Private","2025-06-23 08:20",1,26.3997085,-98.1581075,TRUE,FALSE,TRUE,"S253418399"
"355","cogdov","Common Ground Dove","Columbina passerina","L14189493","Praise Tabernacle Church Pond","2025-06-23 08:19",1,26.9752209,-82.1445278,TRUE,FALSE,FALSE,"S253457415"
"356","cogdov","Common Ground Dove","Columbina passerina","L10030789","Black Bear Wilderness Area, Sanford, FL","2025-06-23 08:19",1,28.8403882,-81.3552189,TRUE,FALSE,TRUE,"S253569821"
"357","cogdov","Common Ground Dove","Columbina passerina","L405340","Marco Island--Tiger Tail Beach","2025-06-23 08:13",1,25.948098,-81.74456,TRUE,FALSE,FALSE,"S253485083"
"358","cogdov","Common Ground Dove","Columbina passerina","L10122189","Cross-Florida Greenway Triangle","2025-06-23 08:09",1,29.0626595,-82.1855235,TRUE,FALSE,FALSE,"S253520733"
"359","cogdov","Common Ground Dove","Columbina passerina","L11336193","Home,  Nokomis, Florida","2025-06-23 08:07",1,27.1402,-82.441109,TRUE,FALSE,TRUE,"S253643466"
"360","cogdov","Common Ground Dove","Columbina passerina","L192340"," 516 Gopher Ridge Road","2025-06-23 08:03",2,31.057365,-86.18351,TRUE,FALSE,TRUE,"S254520260"
"361","cogdov","Common Ground Dove","Columbina passerina","L10902957","Oak Harbor","2025-06-23 07:59",1,27.6788275,-80.3980395,TRUE,FALSE,TRUE,"S253427158"
"362","cogdov","Common Ground Dove","Columbina passerina","L48319955","White House Canyon Road from Florida Canyon to HWY  62","2025-06-23 07:46",2,31.7788785,-110.8665898,TRUE,FALSE,TRUE,"S253480680"
"363","cogdov","Common Ground Dove","Columbina passerina","L351234","Manasota Beach","2025-06-23 07:41",1,27.0109636,-82.411685,TRUE,FALSE,FALSE,"S253407751"
"364","cogdov","Common Ground Dove","Columbina passerina","L1835313","Las Palomas WMA--Carricitos Unit","2025-06-23 07:40",2,26.1762208,-97.5783698,TRUE,FALSE,FALSE,"S253459434"
"365","cogdov","Common Ground Dove","Columbina passerina","L29697065","11615 Roseland Rd, Sebastian US-FL 27.80660, -80.50547","2025-06-23 07:14",4,27.806604,-80.505467,TRUE,FALSE,TRUE,"S253373398"
"366","cogdov","Common Ground Dove","Columbina passerina","L233317","Lyonia Preserve","2025-06-23 07:00",2,28.9238,-81.2266,TRUE,FALSE,FALSE,"S253558019"
"367","cogdov","Common Ground Dove","Columbina passerina","L587450","Chassahowitzka WMA","2025-06-23 07:00",2,28.6170671,-82.5528897,TRUE,FALSE,FALSE,"S253429420"
"368","cogdov","Common Ground Dove","Columbina passerina","L367627","Salton Sea--Young Rd. (west end)","2025-06-23 06:47",2,33.1330196,-115.6666589,TRUE,FALSE,FALSE,"S253552976"
"369","cogdov","Common Ground Dove","Columbina passerina","L46545859","21361 South Branch Road, Estero, Florida, US (26.427, -81.783)","2025-06-23 06:42",2,26.4269646,-81.7826079,TRUE,FALSE,TRUE,"S253395619"
"370","cogdov","Common Ground Dove","Columbina passerina","L44186151","DA-1","2025-06-23 06:28",7,30.7915023,-81.5199879,TRUE,FALSE,TRUE,"S253373718"
"371","cogdov","Common Ground Dove","Columbina passerina","L720787","Florida Canyon--lower","2025-06-23 06:22",2,31.7633436,-110.8458804,TRUE,FALSE,FALSE,"S253477478"
"372","cogdov","Common Ground Dove","Columbina passerina","L48329194","Geronimo Trail, Douglas US-AZ 31.33523, -109.29956","2025-06-23 06:10",1,31.335232,-109.299563,TRUE,FALSE,TRUE,"S253514257"
"373","cogdov","Common Ground Dove","Columbina passerina","L43737824","Santa Fe Springs CA","2025-06-23 06:03",2,29.8165739,-82.544564,TRUE,FALSE,FALSE,"S253404725"
"374","cogdov","Common Ground Dove","Columbina passerina","L168765","Whitewater Draw Wildlife Area","2025-06-23 05:56",2,31.5614979,-109.7200191,TRUE,FALSE,FALSE,"S253480981"
"375","cogdov","Common Ground Dove","Columbina passerina","L21695460","West IRCO Agricultural Area","2025-06-23 05:52",36,27.5880997,-80.5796945,TRUE,TRUE,TRUE,"S253399650"
"376","cogdov","Common Ground Dove","Columbina passerina","L1115897","Canoa Ranch Conservation Park","2025-06-23 05:50",1,31.7948045,-111.0156226,TRUE,FALSE,FALSE,"S253448779"
"377","cogdov","Common Ground Dove","Columbina passerina","L12232801","Sonoita/Patagonia Home","2025-06-23 05:32",2,31.61107,-110.729694,TRUE,FALSE,TRUE,"S253418239"
"378","cogdov","Common Ground Dove","Columbina passerina","L129077","San Bernardino NWR","2025-06-23 05:30",41,31.3558004,-109.261533,TRUE,TRUE,FALSE,"S253849591"
"379","cogdov","Common Ground Dove","Columbina passerina","L17757137","home neighborhood","2025-06-22 20:04",1,28.691779,-81.267068,TRUE,FALSE,TRUE,"S253591340"
"380","cogdov","Common Ground Dove","Columbina passerina","L41439422","Sisterdale","2025-06-22 20:00",2,29.983172,-98.706164,TRUE,FALSE,TRUE,"S253298987"
"381","cogdov","Common Ground Dove","Columbina passerina","L19521023","Humble Home","2025-06-22 19:35",NA,26.716849,-81.721011,TRUE,FALSE,TRUE,"S253319490"
"382","cogdov","Common Ground Dove","Columbina passerina","L33360393","Big Pine Key--Port Pines","2025-06-22 19:08",1,24.721589,-81.396085,TRUE,FALSE,TRUE,"S253442185"
"383","cogdov","Common Ground Dove","Columbina passerina","L28620083","Millender Park","2025-06-22 18:49",2,29.731917,-84.88502,TRUE,FALSE,TRUE,"S253283443"
"384","cogdov","Common Ground Dove","Columbina passerina","L10146017","Bellair US-FL","2025-06-22 18:33",1,30.173977,-81.749064,TRUE,FALSE,TRUE,"S253497142"
"385","cogdov","Common Ground Dove","Columbina passerina","L889062","Little Manatee River SP","2025-06-22 17:40",3,27.6634228,-82.3735571,TRUE,FALSE,FALSE,"S253294029"
"386","cogdov","Common Ground Dove","Columbina passerina","L11103081","Brant Lake","2025-06-22 17:00",2,28.1275522,-82.4734503,TRUE,FALSE,TRUE,"S253251302"
"387","cogdov","Common Ground Dove","Columbina passerina","L8181193","11120 Rose Road, Elberta, Alabama, US (30.388, -87.583)","2025-06-22 16:20",1,30.3877643,-87.5831473,TRUE,FALSE,TRUE,"S253737838"
"388","cogdov","Common Ground Dove","Columbina passerina","L17928824","Cottonhill","2025-06-22 16:15",2,31.7310265,-84.9653141,TRUE,FALSE,TRUE,"S253251325"
"389","cogdov","Common Ground Dove","Columbina passerina","L21848223","South Moon Under Murphy Residence","2025-06-22 15:51",1,29.907178,-84.357822,TRUE,FALSE,TRUE,"S253221245"
"390","cogdov","Common Ground Dove","Columbina passerina","L3250737","Apalachicola--Lafayette Park","2025-06-22 15:04",1,29.7179031,-84.9883877,TRUE,FALSE,FALSE,"S253208963"
"391","cogdov","Common Ground Dove","Columbina passerina","L48250071","115 Camelot Dr W, Palatka US-FL 29.63303, -81.69850","2025-06-22 13:31",2,29.633034,-81.698503,TRUE,FALSE,TRUE,"S253173458"
"392","cogdov","Common Ground Dove","Columbina passerina","L1368478","Fellsmere Grade Recreation Area (Brevard Co.)","2025-06-22 13:23",6,27.8230303,-80.7078614,TRUE,FALSE,FALSE,"S253258789"
"393","cogdov","Common Ground Dove","Columbina passerina","L5210423","Waldo's-Winter Springs ","2025-06-22 13:18",2,28.664053,-81.275143,TRUE,FALSE,TRUE,"S253204883"
"394","cogdov","Common Ground Dove","Columbina passerina","L1054594","Lake Okeechobee--S-191 Overlook","2025-06-22 12:55",2,27.1921018,-80.7638884,TRUE,FALSE,FALSE,"S253174893"
"395","cogdov","Common Ground Dove","Columbina passerina","L48389263","pine flatwoods@McCrimmon Rd. (Ben Hill Co.) (31.7681 x -83.3096) [🔶🔶🔶]","2025-06-22 12:43",1,31.768048,-83.309615,TRUE,FALSE,TRUE,"S253784191"
"396","cogdov","Common Ground Dove","Columbina passerina","L4478244","Sem-Chi Rice Mill","2025-06-22 12:24",6,26.6668727,-80.4574621,TRUE,FALSE,FALSE,"S253252180"
"397","cogdov","Common Ground Dove","Columbina passerina","L48295929","Wainwright Road, Immokalee, Florida, US (26.311, -81.263)East Oil Well","2025-06-22 11:57",2,26.3114176,-81.2625129,TRUE,FALSE,TRUE,"S253369878"
"398","cogdov","Common Ground Dove","Columbina passerina","L48246807","Bluefield Estates Winery","2025-06-22 11:56",2,29.652342,-82.186316,TRUE,FALSE,TRUE,"S253160877"
"399","cogdov","Common Ground Dove","Columbina passerina","L575162","River to Sea Preserve","2025-06-22 11:41",1,29.6620265,-81.2114096,TRUE,FALSE,FALSE,"S253149033"
"400","cogdov","Common Ground Dove","Columbina passerina","L48327045","zGA-BENH-20250622-22","2025-06-22 11:40",1,31.807638,-83.430622,TRUE,FALSE,TRUE,"S253506125"
"401","cogdov","Common Ground Dove","Columbina passerina","L123591","Long Key SP","2025-06-22 11:34",1,24.814968,-80.82018,TRUE,FALSE,FALSE,"S253149500"
"402","cogdov","Common Ground Dove","Columbina passerina","L29401570","Truman Waterfront Park","2025-06-22 11:33",4,24.5521295,-81.8066883,TRUE,FALSE,FALSE,"S253270972"
"403","cogdov","Common Ground Dove","Columbina passerina","L1148642","Myakka River SP--Canopy Walk","2025-06-22 11:33",1,27.2451109,-82.3024222,TRUE,FALSE,FALSE,"S253144637"
"404","cogdov","Common Ground Dove","Columbina passerina","L13608902","OK Corral and Spa","2025-06-22 11:00",1,26.994512,-81.888328,TRUE,FALSE,TRUE,"S253117080"
"405","cogdov","Common Ground Dove","Columbina passerina","L48235311","997 Laughlin Road, Apopka, Florida, US (28.685, -81.609)","2025-06-22 10:48",2,28.6851086,-81.609327,TRUE,FALSE,TRUE,"S253115698"
"406","cogdov","Common Ground Dove","Columbina passerina","L48238530","345 Santander Ct, Punta Gorda US-FL 26.88212, -82.03431","2025-06-22 10:41",2,26.882117,-82.034306,TRUE,FALSE,TRUE,"S253129116"
"407","cogdov","Common Ground Dove","Columbina passerina","L127418","Hugh Taylor Birch SP","2025-06-22 10:33",1,26.1414,-80.1048,TRUE,FALSE,FALSE,"S254249707"
"408","cogdov","Common Ground Dove","Columbina passerina","L484987","Bald Point SP","2025-06-22 10:05",1,29.9377826,-84.3381304,TRUE,FALSE,FALSE,"S253377572"
"409","cogdov","Common Ground Dove","Columbina passerina","L38304453","13549–13551 Brown's Farm Rd, Belle Glade US-FL 26.51854, -80.48294","2025-06-22 09:49",1,26.518541,-80.482945,TRUE,FALSE,TRUE,"S253088419"
"410","cogdov","Common Ground Dove","Columbina passerina","L8957295","Rotunda Meadows Prairie","2025-06-22 09:30",2,26.8573451,-82.2223281,TRUE,FALSE,FALSE,"S253223247"
"411","cogdov","Common Ground Dove","Columbina passerina","L17093864","Gilbert road","2025-06-22 09:09",2,30.625228,-83.773328,TRUE,FALSE,TRUE,"S253158329"
"412","cogdov","Common Ground Dove","Columbina passerina","L9887557","Private residence Distant Breeze","2025-06-22 09:05",2,28.5110964,-82.4546564,TRUE,FALSE,TRUE,"S253092498"
"413","cogdov","Common Ground Dove","Columbina passerina","L6693902","Standard Elevator Rd.","2025-06-22 09:00",1,31.9363393,-84.0101445,TRUE,FALSE,FALSE,"S253092274"
"414","cogdov","Common Ground Dove","Columbina passerina","L18728624","JDSP Equestrian Center","2025-06-22 08:54",4,27.006064,-80.141546,TRUE,FALSE,TRUE,"S253315013"
"415","cogdov","Common Ground Dove","Columbina passerina","L499773","Cook's Slough Sanctuary (HOTW 025)","2025-06-22 08:46",3,29.1873567,-99.7886572,TRUE,FALSE,FALSE,"S253228608"
"416","cogdov","Common Ground Dove","Columbina passerina","L1011494","Aripeka Sandhills Preserve","2025-06-22 08:32",1,28.4179283,-82.6581287,TRUE,FALSE,FALSE,"S253087213"
"417","cogdov","Common Ground Dove","Columbina passerina","L3295019","Payton Rd. - yard","2025-06-22 08:30",3,30.400011,-84.0093827,TRUE,FALSE,TRUE,"S253183605"
"418","cogdov","Common Ground Dove","Columbina passerina","L48225238","3970–3994 Brown's Farm Rd, Belle Glade US-FL 26.60582, -80.55058","2025-06-22 08:26",1,26.605819,-80.550585,TRUE,FALSE,TRUE,"S253069168"
"419","cogdov","Common Ground Dove","Columbina passerina","L744220","Farren Road","2025-06-22 08:26",1,34.443548,-119.9237752,TRUE,TRUE,FALSE,"S253188651"
"420","cogdov","Common Ground Dove","Columbina passerina","L18188767","Henry Ranch, Charlotte, Texas","2025-06-22 08:25",2,28.8445987,-98.7301252,TRUE,FALSE,TRUE,"S253139662"
"421","cogdov","Common Ground Dove","Columbina passerina","L48247080","1175 Turney Anderson Rd, Monticello US-FL 30.58156, -83.83159","2025-06-22 08:18",1,30.581563,-83.831593,TRUE,FALSE,TRUE,"S253161998"
"422","cogdov","Common Ground Dove","Columbina passerina","L2575855","White Rd","2025-06-22 08:10",2,28.5110447,-82.2781134,TRUE,FALSE,TRUE,"S253515542"
"423","cogdov","Common Ground Dove","Columbina passerina","L10517877","Private Residence","2025-06-22 08:05",1,29.623178,-82.302145,TRUE,FALSE,TRUE,"S253073022"
"424","cogdov","Common Ground Dove","Columbina passerina","L36360390","Corkscrew Swamp Sanctuary Trail, Naples US-FL 26.37440, -81.60742","2025-06-22 08:00",2,26.374398,-81.607417,TRUE,FALSE,TRUE,"S253093665"
"425","cogdov","Common Ground Dove","Columbina passerina","L789217","549 NW 31 Ave","2025-06-22 07:56",1,29.6804842,-82.3295689,TRUE,FALSE,TRUE,"S253077126"
"426","cogdov","Common Ground Dove","Columbina passerina","L28359046","6869 Reisterstown Road, North Port, Florida, US (27.121, -82.199)Estates Dr.","2025-06-22 07:54",3,27.120935,-82.1986945,TRUE,FALSE,TRUE,"S253119682"
"427","cogdov","Common Ground Dove","Columbina passerina","L40102377","My Yard","2025-06-22 07:46",2,33.118652,-117.011624,TRUE,TRUE,TRUE,"S253132187"
"428","cogdov","Common Ground Dove","Columbina passerina","L25151056","St. Sebastian River Preserve SP - Yellow Trail","2025-06-22 07:46",4,27.8313669,-80.5419088,TRUE,FALSE,FALSE,"S253099497"
"429","cogdov","Common Ground Dove","Columbina passerina","L5058286","Power Line Road (south side, Pasco co.)","2025-06-22 07:43",2,28.478317,-82.2263026,TRUE,FALSE,FALSE,"S253059644"
"430","cogdov","Common Ground Dove","Columbina passerina","L8712193","Davis Park","2025-06-22 07:37",2,27.949648,-82.2913502,TRUE,FALSE,FALSE,"S253175780"
"431","cogdov","Common Ground Dove","Columbina passerina","L799115","Fort Drum Marsh Conservation Area","2025-06-22 07:37",5,27.6397982,-80.7666301,TRUE,FALSE,FALSE,"S253666515"
"432","cogdov","Common Ground Dove","Columbina passerina","L6364505","Masters Tract Stormwater Treatment Facility","2025-06-22 07:35",10,29.686897,-81.4758325,TRUE,FALSE,FALSE,"S253086452"
"433","cogdov","Common Ground Dove","Columbina passerina","L2440631","Ebenezer Road, Houston Co., AL","2025-06-22 07:30",2,31.2501081,-85.1845551,TRUE,FALSE,TRUE,"S253215188"
"434","cogdov","Common Ground Dove","Columbina passerina","L40990797","2126 Pine Meadows Golf Course Road, Eustis, Florida, US (28.884, -81.664)","2025-06-22 07:26",4,28.8838605,-81.6644449,TRUE,FALSE,TRUE,"S253037326"
"435","cogdov","Common Ground Dove","Columbina passerina","L44241930","14512 Greater Pines Blvd, Clermont US-FL (28.5350,-81.7127)","2025-06-22 07:17",2,28.534998,-81.712653,TRUE,FALSE,TRUE,"S253035835"
"436","cogdov","Common Ground Dove","Columbina passerina","L855856","Stump Pass Beach SP","2025-06-22 07:14",3,26.9022934,-82.346805,TRUE,FALSE,FALSE,"S253054897"
"437","cogdov","Common Ground Dove","Columbina passerina","L5231420","Kettering Road","2025-06-22 07:14",1,28.482189,-82.220089,TRUE,FALSE,FALSE,"S253030295"
"438","cogdov","Common Ground Dove","Columbina passerina","L36430152","Alford Rd, East Palatka US-FL (29.6684,-81.5786)","2025-06-22 07:03",2,29.668392,-81.57857,TRUE,FALSE,TRUE,"S253027458"
"439","cogdov","Common Ground Dove","Columbina passerina","L26142042","Joe Ashton Road","2025-06-22 07:00",2,29.9366776,-81.5353007,TRUE,FALSE,TRUE,"S253088368"
"440","cogdov","Common Ground Dove","Columbina passerina","L9783145","Ocala Wetland Recharge Park","2025-06-22 06:45",1,29.209398,-82.1602022,TRUE,FALSE,FALSE,"S253047915"
"441","cogdov","Common Ground Dove","Columbina passerina","L46961376","Akin Way Walking/Bicycle Path, Village of Chitty Chatty, The Villages","2025-06-22 06:44",1,28.811469,-81.9771076,TRUE,FALSE,TRUE,"S253064550"
"442","cogdov","Common Ground Dove","Columbina passerina","L273764","Hugh Ramsey Park (Harlingen Arroyo Colorado) WBC (LTC 026)","2025-06-22 06:42",2,26.1857402,-97.6641657,TRUE,FALSE,FALSE,"S253105570"
"443","cogdov","Common Ground Dove","Columbina passerina","L38457078","Power Loop Road","2025-06-22 06:41",1,32.977861,-87.660078,TRUE,FALSE,TRUE,"S253063367"
"444","cogdov","Common Ground Dove","Columbina passerina","L35527793","Lewis Smith Dr Residence","2025-06-22 06:40",1,30.33879,-87.733381,TRUE,FALSE,TRUE,"S253068427"
"445","cogdov","Common Ground Dove","Columbina passerina","L578433","Rotary Park at Merritt Island","2025-06-22 06:34",2,28.3257929,-80.6852353,TRUE,FALSE,FALSE,"S253503457"
"446","cogdov","Common Ground Dove","Columbina passerina","L10381075","1707 Shenandoah Rd, Wimauma US-FL (27.6558,-82.4033)","2025-06-22 06:29",1,27.655818,-82.403281,TRUE,FALSE,TRUE,"S253009833"
"447","cogdov","Common Ground Dove","Columbina passerina","L6076938","Sem Chi Rice Plant Road","2025-06-22 06:15",2,26.6276648,-80.4700094,TRUE,FALSE,TRUE,"S253237539"
"448","cogdov","Common Ground Dove","Columbina passerina","L11733713","Kingsbay Naval Submarine Base (Restricted Access)","2025-06-22 06:14",3,30.78509,-81.5699366,TRUE,FALSE,FALSE,"S253285459"
"449","cogdov","Common Ground Dove","Columbina passerina","L2528252","Rookery Bay NERR","2025-06-22 06:00",3,26.0281728,-81.7191839,TRUE,FALSE,FALSE,"S253034770"
"450","cogdov","Common Ground Dove","Columbina passerina","L38374761","Warrior Ridge","2025-06-22 05:29",1,32.9989201,-87.6345861,TRUE,FALSE,TRUE,"S253015878"
"451","cogdov","Common Ground Dove","Columbina passerina","L48257775","Georgetown Quad (USGS)","2025-06-22 05:23",6,30.939287,-88.317957,TRUE,FALSE,TRUE,"S253202314"
"452","cogdov","Common Ground Dove","Columbina passerina","L48220119","12926 County Road 88, Citronelle, Alabama, US (30.948, -88.354)","2025-06-22 05:21",1,30.9475935,-88.3536178,TRUE,FALSE,TRUE,"S253041322"
"453","cogdov","Common Ground Dove","Columbina passerina","L1497396","Palo Verde Ecological Reserve","2025-06-22 05:19",6,33.6997237,-114.4989152,TRUE,FALSE,FALSE,"S253464438"
"454","cogdov","Common Ground Dove","Columbina passerina","L31088622","Harbor Isles Neighborhood","2025-06-21 20:21",1,27.836659,-82.6125705,TRUE,FALSE,TRUE,"S252924014"
"455","cogdov","Common Ground Dove","Columbina passerina","L39991019","Wiegand Private Residence","2025-06-21 20:18",1,28.866638,-97.029775,TRUE,FALSE,TRUE,"S252924134"
"456","cogdov","Common Ground Dove","Columbina passerina","L12670462","Beachside Drive, Palm Coast, Florida, US","2025-06-21 20:05",2,29.6589064,-81.213968,TRUE,FALSE,TRUE,"S252907712"
"457","cogdov","Common Ground Dove","Columbina passerina","L6611976","Walker Creek Drive","2025-06-21 19:47",4,30.0613489,-84.2871899,TRUE,FALSE,FALSE,"S252902498"
"458","cogdov","Common Ground Dove","Columbina passerina","L8544946","Dr. Hal & Lynn Brewer Park","2025-06-21 19:25",1,28.0029838,-82.1296055,TRUE,FALSE,FALSE,"S252913347"
"459","cogdov","Common Ground Dove","Columbina passerina","L3518309","Inspiration Road pond","2025-06-21 19:02",2,26.1821684,-98.3563578,TRUE,FALSE,FALSE,"S252917116"
"460","cogdov","Common Ground Dove","Columbina passerina","L6418298","ABDNHA Botanical Garden","2025-06-21 18:41",1,33.2573343,-116.3768555,TRUE,FALSE,FALSE,"S253529944"
"461","cogdov","Common Ground Dove","Columbina passerina","L48229666","Jonathan Dickinson State Park, Hobe Sound US-FL 27.00642, -80.14165","2025-06-21 18:40",2,27.006417,-80.141646,TRUE,FALSE,TRUE,"S253090719"
"462","cogdov","Common Ground Dove","Columbina passerina","L720777","Finney Lake","2025-06-21 18:02",3,33.0622338,-115.5004263,TRUE,FALSE,FALSE,"S252955217"
"463","cogdov","Common Ground Dove","Columbina passerina","L473101","Key West","2025-06-21 17:10",2,24.5558671,-81.7915821,TRUE,FALSE,FALSE,"S253977690"
"464","cogdov","Common Ground Dove","Columbina passerina","L7025933","SW 152nd St. (Agricultural Fields)","2025-06-21 16:45",1,25.6247632,-80.4642776,TRUE,FALSE,FALSE,"S253849775"
"465","cogdov","Common Ground Dove","Columbina passerina","L48195327","7458 Clearwater Street, Englewood, Florida, US (26.918, -82.301)","2025-06-21 16:30",1,26.9178781,-82.3008451,TRUE,FALSE,TRUE,"S252926999"
"466","cogdov","Common Ground Dove","Columbina passerina","L48199352","Prairie creek preserve","2025-06-21 16:15",15,27.0009478,-81.8980022,TRUE,FALSE,TRUE,"S252943679"
"467","cogdov","Common Ground Dove","Columbina passerina","L225456","Jay B. Starkey Wilderness Park","2025-06-21 16:10",3,28.2550543,-82.6426959,TRUE,FALSE,FALSE,"S252891708"
"468","cogdov","Common Ground Dove","Columbina passerina","L3374170","Riverside Dr.","2025-06-21 15:55",1,29.0007967,-82.3675543,TRUE,FALSE,TRUE,"S252857140"
"469","cogdov","Common Ground Dove","Columbina passerina","L485738","Evergreen Cemetery (IMP Co.)","2025-06-21 15:24",1,32.7909003,-115.5192876,TRUE,FALSE,FALSE,"S252955124"
"470","cogdov","Common Ground Dove","Columbina passerina","L48169999","The Ritz-Carlton Orlando, Grande Lakes, Orlando US-FL 28.39972, -81.42909","2025-06-21 15:08",2,28.399722,-81.429094,TRUE,FALSE,TRUE,"S252827356"
"471","cogdov","Common Ground Dove","Columbina passerina","L770231","Spirit Tree Inn","2025-06-21 15:01",1,31.5222174,-110.7036267,TRUE,FALSE,FALSE,"S252903218"
"472","cogdov","Common Ground Dove","Columbina passerina","L582682","Merritt Island NWR--Bio Lab Rd.","2025-06-21 14:58",4,28.6799002,-80.6935447,TRUE,FALSE,FALSE,"S252858685"
"473","cogdov","Common Ground Dove","Columbina passerina","L20028908","HOME","2025-06-21 13:43",4,28.8796717,-81.7394814,TRUE,FALSE,TRUE,"S252797416"
"474","cogdov","Common Ground Dove","Columbina passerina","L47550364","9190 NE 137th Ct, Williston US-FL (29.4676,-82.5453)","2025-06-21 13:37",1,29.467597,-82.545267,TRUE,FALSE,TRUE,"S252831167"
"475","cogdov","Common Ground Dove","Columbina passerina","L26442502","Private Residence","2025-06-21 13:29",2,30.1258467,-81.8477713,TRUE,FALSE,TRUE,"S252935631"
"476","cogdov","Common Ground Dove","Columbina passerina","L5202927","Inlet Harbor Marina","2025-06-21 12:56",1,29.0915774,-80.9404796,TRUE,FALSE,FALSE,"S253470240"
"477","cogdov","Common Ground Dove","Columbina passerina","L128878","Buenos Aires NWR--Arivaca Cienega","2025-06-21 12:35",8,31.5735272,-111.3242853,TRUE,FALSE,FALSE,"S252940064"
"478","cogdov","Common Ground Dove","Columbina passerina","L1266946","Watermelon Pond (boat launch area)","2025-06-21 12:16",2,29.5561289,-82.6063956,TRUE,FALSE,FALSE,"S252856508"
"479","cogdov","Common Ground Dove","Columbina passerina","L8054430","Holey Land WMA (Palm Beach County)","2025-06-21 12:09",4,26.3690246,-80.7613493,TRUE,FALSE,FALSE,"S252928801"
"480","cogdov","Common Ground Dove","Columbina passerina","L673436","Sonny Bono Salton Sea NWR--Union Tract / Visitor Center","2025-06-21 11:36",2,33.1774666,-115.6150961,TRUE,FALSE,FALSE,"S253467226"
"481","cogdov","Common Ground Dove","Columbina passerina","L635618","Fortymile Bend","2025-06-21 11:16",1,25.7646485,-80.8198929,TRUE,FALSE,FALSE,"S252767101"
"482","cogdov","Common Ground Dove","Columbina passerina","L10231560","Buenos Aires NWR--Arivaca Creek Trailhead","2025-06-21 11:15",3,31.5934749,-111.363728,TRUE,FALSE,FALSE,"S252939278"
"483","cogdov","Common Ground Dove","Columbina passerina","L684255","Cockroach Bay Preserve and Surrounding Area","2025-06-21 11:10",2,27.6885443,-82.5014019,TRUE,FALSE,FALSE,"S252759121"
"484","cogdov","Common Ground Dove","Columbina passerina","L585963","Hardee Lakes Park","2025-06-21 11:10",2,27.6135617,-81.9657058,TRUE,FALSE,FALSE,"S252805353"
"485","cogdov","Common Ground Dove","Columbina passerina","L23558258","273 camino Panama","2025-06-21 11:09",2,31.489506,-110.991979,TRUE,FALSE,TRUE,"S252819485"
"486","cogdov","Common Ground Dove","Columbina passerina","L29291343","758 Inner Cir, The Villages US-FL 28.88688, -81.96305","2025-06-21 11:09",2,28.886883,-81.963047,TRUE,FALSE,TRUE,"S252770335"
"487","cogdov","Common Ground Dove","Columbina passerina","L578834","Everglades WMA","2025-06-21 10:59",3,26.3298838,-80.7983923,TRUE,FALSE,FALSE,"S252759769"
"488","cogdov","Common Ground Dove","Columbina passerina","L29755843","6 Whetstone Lane, Palm Coast, Florida, US (29.525, -81.244) Home","2025-06-21 10:58",1,29.5247801,-81.2435043,TRUE,FALSE,TRUE,"S252742924"
"489","cogdov","Common Ground Dove","Columbina passerina","L48015408","671 East Gulf Drive, Sanibel, Florida, US (26.442, -82.03)","2025-06-21 10:24",1,26.4422847,-82.0303166,TRUE,FALSE,TRUE,"S252768316"
"490","cogdov","Common Ground Dove","Columbina passerina","L2352250","Newnans Lake--Owens-Illinois Park","2025-06-21 10:14",1,29.6361564,-82.2008443,TRUE,FALSE,FALSE,"S252727688"
"491","cogdov","Common Ground Dove","Columbina passerina","L31435584","quail ridge villas, the villages 32162","2025-06-21 10:12",1,28.976725,-82.005109,TRUE,FALSE,TRUE,"S252714073"
"492","cogdov","Common Ground Dove","Columbina passerina","L26658884","Ag area crossing on C-to-C Trail, San Pasqual Valley","2025-06-21 10:04",2,33.0870815,-116.9636235,TRUE,TRUE,TRUE,"S252859899"
"493","cogdov","Common Ground Dove","Columbina passerina","L191422","Overlook Park","2025-06-21 10:01",1,28.70015,-81.23777,TRUE,FALSE,FALSE,"S252715595"
"494","cogdov","Common Ground Dove","Columbina passerina","L2596297","Vista View Park","2025-06-21 09:53",1,26.0658811,-80.3439456,TRUE,FALSE,FALSE,"S252707915"
"495","cogdov","Common Ground Dove","Columbina passerina","L23328936","Backyard","2025-06-21 09:52",1,28.6130732,-81.3319349,TRUE,FALSE,TRUE,"S252718794"
"496","cogdov","Common Ground Dove","Columbina passerina","L7004915","Muir Lake (Lakeline Park)","2025-06-21 09:51",1,30.4859552,-97.8113177,TRUE,FALSE,FALSE,"S252784732"
"497","cogdov","Common Ground Dove","Columbina passerina","L6302288","18384 Poston Ave.","2025-06-21 09:48",1,26.9825486,-82.1442537,TRUE,FALSE,TRUE,"S252710011"
"498","cogdov","Common Ground Dove","Columbina passerina","L578455","Merritt Island NWR--East Gator Creek","2025-06-21 09:46",2,28.6431628,-80.7664437,TRUE,FALSE,FALSE,"S252766080"
"499","cogdov","Common Ground Dove","Columbina passerina","L1301181","Ramos House, Lutz, FL","2025-06-21 09:45",1,28.1739274,-82.480073,TRUE,FALSE,TRUE,"S252701416"
"500","cogdov","Common Ground Dove","Columbina passerina","L48158043","Pattison Hebert Rd intersection","2025-06-21 09:20",1,29.9323019,-95.9079107,TRUE,FALSE,TRUE,"S252781264"
"501","cogdov","Common Ground Dove","Columbina passerina","L246733","Guadalupe River SP (HOTE 077)","2025-06-21 09:19",1,29.8736946,-98.4859303,TRUE,FALSE,FALSE,"S252887985"
"502","cogdov","Common Ground Dove","Columbina passerina","L27197222","Ortega Hills Neighborhood","2025-06-21 09:15",2,30.2138223,-81.7120372,TRUE,FALSE,TRUE,"S252701082"
"503","cogdov","Common Ground Dove","Columbina passerina","L7728148","Broadmoor Park Rotonda","2025-06-21 09:13",1,26.9085039,-82.2644262,TRUE,FALSE,FALSE,"S252686698"
"504","cogdov","Common Ground Dove","Columbina passerina","L582123","Southern Glades Trail (C111 Canal outside ENP)","2025-06-21 09:12",2,25.4034735,-80.5586135,TRUE,FALSE,FALSE,"S252866109"
"505","cogdov","Common Ground Dove","Columbina passerina","L48196949","Buenos Airies NWR Pronghorn Drive","2025-06-21 09:10",4,31.5716655,-111.5100726,TRUE,FALSE,TRUE,"S252936214"
"506","cogdov","Common Ground Dove","Columbina passerina","L23616753","San Pasqual Valley (C to C) Trail west of SPV staging area","2025-06-21 09:02",1,33.0908505,-116.959581,TRUE,TRUE,TRUE,"S252860111"
"507","cogdov","Common Ground Dove","Columbina passerina","L16669788","Palo Alto B parking lot","2025-06-21 09:00",1,26.0202799,-97.4762547,TRUE,FALSE,TRUE,"S252863324"
"508","cogdov","Common Ground Dove","Columbina passerina","L785475","Buenos Aires NWR--Aguirre Lake","2025-06-21 09:00",15,31.5854086,-111.5072823,TRUE,FALSE,FALSE,"S252925790"
"509","cogdov","Common Ground Dove","Columbina passerina","L3165641","Sams House at Pine Island","2025-06-21 09:00",7,28.4728898,-80.7182203,TRUE,FALSE,FALSE,"S252713598"
"510","cogdov","Common Ground Dove","Columbina passerina","L4258738","Bentsen-Rio Grande Val. SP--Kiskadee Bird Blind","2025-06-21 08:53",1,26.1764248,-98.3861887,TRUE,FALSE,FALSE,"S252801303"
"511","cogdov","Common Ground Dove","Columbina passerina","L1111825","Planet Ranch","2025-06-21 08:41",1,34.2500511,-113.9580274,TRUE,FALSE,FALSE,"S252856424"
"512","cogdov","Common Ground Dove","Columbina passerina","L830108","Harns Marsh","2025-06-21 08:34",1,26.6496729,-81.6869336,TRUE,FALSE,FALSE,"S252740436"
"513","cogdov","Common Ground Dove","Columbina passerina","L127330","Weedon Island  Preserve","2025-06-21 08:30",2,27.8547275,-82.610611,TRUE,FALSE,FALSE,"S252750985"
"514","cogdov","Common Ground Dove","Columbina passerina","L2417165","Twin Oaks Conservation Area","2025-06-21 08:30",5,28.2458245,-81.350466,TRUE,FALSE,FALSE,"S252721876"
"515","cogdov","Common Ground Dove","Columbina passerina","L3773836","Isle of Pine Preserve","2025-06-21 08:30",3,28.3553019,-81.1678505,TRUE,FALSE,FALSE,"S252707407"
"516","cogdov","Common Ground Dove","Columbina passerina","L616024","Econ River Wilderness Area","2025-06-21 08:22",5,28.6157764,-81.1680865,TRUE,FALSE,FALSE,"S252692848"
"517","cogdov","Common Ground Dove","Columbina passerina","L12812180","Lemon Creek Wildflower Preserve","2025-06-21 08:20",2,26.8792919,-82.307682,TRUE,FALSE,TRUE,"S252708072"
"518","cogdov","Common Ground Dove","Columbina passerina","L129021","Madera Canyon--Madera Picnic Area","2025-06-21 08:13",1,31.7271702,-110.8807518,TRUE,TRUE,FALSE,"S252856929"
"519","cogdov","Common Ground Dove","Columbina passerina","L474153","Lakeland Highlands Scrub","2025-06-21 08:12",1,27.9340005,-81.9253492,TRUE,FALSE,FALSE,"S252684201"
"520","cogdov","Common Ground Dove","Columbina passerina","L27904323","Old A1A Beach at Summer Haven","2025-06-21 08:05",1,29.6806933,-81.2205873,TRUE,FALSE,TRUE,"S252765692"
"521","cogdov","Common Ground Dove","Columbina passerina","L18326328","Guadalupe River SP—Bird blind","2025-06-21 08:04",1,29.8745589,-98.486682,TRUE,FALSE,FALSE,"S252729944"
"522","cogdov","Common Ground Dove","Columbina passerina","L586186","Allen David Broussard Catfish Creek Preserve SP","2025-06-21 08:00",3,27.9837906,-81.4966679,TRUE,FALSE,FALSE,"S252760247"
"523","cogdov","Common Ground Dove","Columbina passerina","L8844771","Interlaken Ln and West Crooked Lake, Eustis US-FL (28.8320,-81.6698)","2025-06-21 07:58",1,28.832049,-81.669791,TRUE,FALSE,TRUE,"S252661069"
"524","cogdov","Common Ground Dove","Columbina passerina","L19792861","Franklinton BBS, stops 31-40","2025-06-21 07:57",1,30.7368279,-90.0122363,TRUE,FALSE,TRUE,"S252779112"
"525","cogdov","Common Ground Dove","Columbina passerina","L1908758","Buenos Aires NWR--Headquarters Area","2025-06-21 07:55",11,31.572,-111.5062,TRUE,FALSE,FALSE,"S252918537"
"526","cogdov","Common Ground Dove","Columbina passerina","L19149781","Watermelon Pond WEA","2025-06-21 07:51",3,29.580381,-82.6071,TRUE,FALSE,TRUE,"S252710284"
"527","cogdov","Common Ground Dove","Columbina passerina","L13126828","682 SH-202, Refugio US-TX 28.37909, -97.36701","2025-06-21 07:51",1,28.379088,-97.367013,TRUE,FALSE,TRUE,"S252704166"
"528","cogdov","Common Ground Dove","Columbina passerina","L584517","Okaloosa Landfill","2025-06-21 07:42",1,30.4746996,-86.6406727,TRUE,FALSE,FALSE,"S252773757"
"529","cogdov","Common Ground Dove","Columbina passerina","L48407067","Sedgefield Blvd, Palmetto US-FL 27.63205, -82.48754","2025-06-21 07:37",1,27.632046,-82.487538,TRUE,FALSE,TRUE,"S253854130"
"530","cogdov","Common Ground Dove","Columbina passerina","L458906","Sand Key Park","2025-06-21 07:35",2,27.960064,-82.8294897,TRUE,FALSE,FALSE,"S253053438"
"531","cogdov","Common Ground Dove","Columbina passerina","L1015140","Possum Branch Preserve","2025-06-21 07:33",1,28.0454136,-82.7083611,TRUE,FALSE,FALSE,"S252660867"
"532","cogdov","Common Ground Dove","Columbina passerina","L17091288","Magnolia Hill","2025-06-21 07:25",1,27.350103,-82.248759,TRUE,FALSE,FALSE,"S253030363"
"533","cogdov","Common Ground Dove","Columbina passerina","L3168328","Buenos Aires NWR--Triangle Pond","2025-06-21 07:20",12,31.5761178,-111.510914,TRUE,FALSE,FALSE,"S252916655"
"534","cogdov","Common Ground Dove","Columbina passerina","L39978608","Sandra Stetson Aquatic Center","2025-06-21 07:18",1,28.9999581,-81.3560343,TRUE,FALSE,FALSE,"S252678072"
"535","cogdov","Common Ground Dove","Columbina passerina","L48161383","1030 Bluegrass Dr, Groveland US-FL 28.58179, -81.86926","2025-06-21 07:12",1,28.581795,-81.869256,TRUE,FALSE,TRUE,"S252794592"
"536","cogdov","Common Ground Dove","Columbina passerina","L16812585","Edgewater At Sunbeam (restricted access)","2025-06-21 07:11",1,30.2005984,-81.6042669,TRUE,FALSE,TRUE,"S252659541"
"537","cogdov","Common Ground Dove","Columbina passerina","L4167568","Heritage Harbour Lake","2025-06-21 07:04",3,27.4966995,-82.4677134,TRUE,FALSE,FALSE,"S252696604"
"538","cogdov","Common Ground Dove","Columbina passerina","L48129414","US-FL-Lake Placid: SR-621 Impoundment Ponds (27.286, -81.273)","2025-06-21 07:01",5,27.2857143,-81.2731295,TRUE,FALSE,TRUE,"S252658985"
"539","cogdov","Common Ground Dove","Columbina passerina","L1802913","Ft. Matanzas peninsula","2025-06-21 07:00",1,29.7076391,-81.2297841,TRUE,FALSE,FALSE,"S252761619"
"540","cogdov","Common Ground Dove","Columbina passerina","L132478","Ormond Beach--Central Park","2025-06-21 07:00",1,29.2650146,-81.0659332,TRUE,FALSE,FALSE,"S252689568"
"541","cogdov","Common Ground Dove","Columbina passerina","L2166722","Pepper Ranch Preserve","2025-06-21 07:00",5,26.4436305,-81.4975262,TRUE,FALSE,FALSE,"S252675392"
"542","cogdov","Common Ground Dove","Columbina passerina","L28005330","Kenansville Lake","2025-06-21 06:35",2,27.8121965,-80.788641,TRUE,FALSE,TRUE,"S252683173"
"543","cogdov","Common Ground Dove","Columbina passerina","L920818","Disney Wilderness Preserve","2025-06-21 06:31",2,28.1281597,-81.4298916,TRUE,FALSE,FALSE,"S252640599"
"544","cogdov","Common Ground Dove","Columbina passerina","L13346594","San Antonio Viejo Ranch (restricted access)","2025-06-21 06:27",2,26.9570949,-98.8353175,TRUE,FALSE,FALSE,"S253216817"
"545","cogdov","Common Ground Dove","Columbina passerina","L48171951","San Pedro River-SPRNCA-Boston Mill to Fairbank","2025-06-21 06:26",6,31.678282,-110.183699,TRUE,FALSE,TRUE,"S252834308"
"546","cogdov","Common Ground Dove","Columbina passerina","L463371","Gila Lower Box Canyon","2025-06-21 06:19",1,32.632942,-108.8611221,TRUE,FALSE,FALSE,"S252828468"
"547","cogdov","Common Ground Dove","Columbina passerina","L581841","Browns Farm Rd.","2025-06-21 06:09",5,26.6215822,-80.5616945,TRUE,FALSE,FALSE,"S252648193"
"548","cogdov","Common Ground Dove","Columbina passerina","L129086","Santa Margarita Ranch (LTC 079) (restricted access - guided groups only)","2025-06-21 05:45",1,26.4856177,-99.0912337,TRUE,FALSE,FALSE,"S253081201"
"549","cogdov","Common Ground Dove","Columbina passerina","L866412","Imperial Irrigation District Wetland Project--Niland","2025-06-21 05:43",1,33.2118848,-115.5204034,TRUE,FALSE,FALSE,"S252950796"
"550","cogdov","Common Ground Dove","Columbina passerina","L128958","San Pedro RNCA--Escapule Wash","2025-06-21 05:29",2,31.6100006,-110.1669998,TRUE,FALSE,FALSE,"S252757095"
"551","cogdov","Common Ground Dove","Columbina passerina","L40636192","170 Flatwoods Loop, Davenport US-FL 28.21246, -81.65170","2025-06-21 00:01",1,28.212455,-81.651699,TRUE,FALSE,TRUE,"S252630874"
"552","cogdov","Common Ground Dove","Columbina passerina","L48106198","1417 S Pleasantview Dr, Weslaco US-TX (26.1455,-97.9662)","2025-06-20 20:21",1,26.145479,-97.966246,TRUE,FALSE,TRUE,"S252547930"
"553","cogdov","Common Ground Dove","Columbina passerina","L48100179","4853 Old Charco-Blanco Road, Rio Grande City, Texas, US (26.474, -98.82)","2025-06-20 19:40",1,26.4743241,-98.8195779,TRUE,FALSE,TRUE,"S252523846"
"554","cogdov","Common Ground Dove","Columbina passerina","L583949","Homestead Racetrack fields","2025-06-20 18:48",2,25.4627658,-80.4036999,TRUE,FALSE,FALSE,"S252519159"
"555","cogdov","Common Ground Dove","Columbina passerina","L48174960","Harold A Campbell Boat Ramp Area","2025-06-20 18:31",5,26.33723,-80.628444,TRUE,FALSE,TRUE,"S252845691"
"556","cogdov","Common Ground Dove","Columbina passerina","L2726529","Winding Waters Natural area","2025-06-20 18:07",3,26.773047,-80.1249647,TRUE,FALSE,FALSE,"S252515610"
"557","cogdov","Common Ground Dove","Columbina passerina","L2674798","Bull Creek WMA","2025-06-20 17:11",3,28.0830865,-80.961832,TRUE,FALSE,FALSE,"S252539144"
"558","cogdov","Common Ground Dove","Columbina passerina","L10713721","Bardsdale Ponds","2025-06-20 16:50",1,34.372102,-118.9281655,TRUE,FALSE,FALSE,"S253346400"
"559","cogdov","Common Ground Dove","Columbina passerina","L48086075","8394–8398 Little Gasparilla Island, Englewood US-FL 26.83693, -82.29500","2025-06-20 16:34",2,26.836929,-82.295001,TRUE,FALSE,TRUE,"S252464691"
