"","speciesCode","comName","sciName","locId","locName","obsDt","howMany","lat","lng","obsValid","obsReviewed","locationPrivate","subId"
"1","pomjae","Pomarine Jaeger","Stercorarius pomarinus","L2222756","Utqiaġvik--South Salt Lagoons","2025-06-19 09:39",1,71.3121267,-156.7134476,TRUE,FALSE,FALSE,"S252130130"
"2","pomjae","Pomarine Jaeger","Stercorarius pomarinus","L47537437","USFWS Eider Project Survey Area","2025-06-19 09:34",8,71.275283,-156.685523,TRUE,FALSE,TRUE,"S252163769"
"3","pomjae","Pomarine Jaeger","Stercorarius pomarinus","L9297170","Second Bridge--lagoon & wetlands","2025-06-18 22:35",1,66.8949965,-162.566362,TRUE,FALSE,FALSE,"S252161708"
"4","pomjae","Pomarine Jaeger","Stercorarius pomarinus","L2222767","Utqiaġvik--Middle Salt Lagoon (S end)","2025-06-18 21:04",1,71.3051952,-156.6897583,TRUE,FALSE,FALSE,"S252077563"
"5","pomjae","Pomarine Jaeger","Stercorarius pomarinus","L736019","Utqiaġvik--Naval Arctic Research Lab","2025-06-18 16:48",1,71.326271,-156.6744804,TRUE,FALSE,FALSE,"S252077231"
"6","pomjae","Pomarine Jaeger","Stercorarius pomarinus","L5993045","Utqiaġvik--South Salt Lagoons (south beach) & Nathaniel Olemaun Jr. Blvd. (NE end)","2025-06-18 14:57",2,71.3053603,-156.728797,TRUE,FALSE,FALSE,"S251888673"
"7","pomjae","Pomarine Jaeger","Stercorarius pomarinus","L47950273","Winter Trail, Barrow US-AK (71.2515,-156.4930)","2025-06-18 12:42",1,71.251541,-156.493013,TRUE,FALSE,TRUE,"S251862091"
"8","pomjae","Pomarine Jaeger","Stercorarius pomarinus","L9574329","Utqiaġvik--Nunavaaq Bay","2025-06-18 10:26",1,71.2510564,-156.8600337,TRUE,FALSE,FALSE,"S251813341"
"9","pomjae","Pomarine Jaeger","Stercorarius pomarinus","L1212588","Utqiaġvik--Fresh Water Lake Rd.","2025-06-18 09:49",1,71.2612449,-156.7718339,TRUE,FALSE,FALSE,"S251862295"
"10","pomjae","Pomarine Jaeger","Stercorarius pomarinus","L47956101","USFWS Shorebird Plot 0","2025-06-18 08:40",1,71.284913,-156.583463,TRUE,FALSE,TRUE,"S251889198"
"11","pomjae","Pomarine Jaeger","Stercorarius pomarinus","L1579238","Utqiaġvik--Cakeeater Rd.","2025-06-17 15:02",1,71.2879072,-156.6631195,TRUE,FALSE,FALSE,"S251556748"
"12","pomjae","Pomarine Jaeger","Stercorarius pomarinus","L790945","Point Barrow","2025-06-17 10:31",2,71.3870157,-156.4774776,TRUE,FALSE,FALSE,"S251556895"
"13","pomjae","Pomarine Jaeger","Stercorarius pomarinus","L2897580","Utqiaġvik--Nunavaaq Rd.","2025-06-17 10:13",1,71.2757153,-156.8049967,TRUE,FALSE,FALSE,"S251503731"
"14","pomjae","Pomarine Jaeger","Stercorarius pomarinus","L788324","Point Barrow--Base of the Point","2025-06-17 00:15",3,71.3434786,-156.6175384,TRUE,FALSE,FALSE,"S252159447"
"15","pomjae","Pomarine Jaeger","Stercorarius pomarinus","L1482983","Utqiaġvik--Footprint Lake","2025-06-16 23:43",1,71.2743579,-156.6557381,TRUE,FALSE,FALSE,"S252159743"
"16","pomjae","Pomarine Jaeger","Stercorarius pomarinus","L2901555","Utqiaġvik--New Landfill Rd.","2025-06-16 22:17",1,71.2502605,-156.5665054,TRUE,FALSE,FALSE,"S251495760"
"17","pomjae","Pomarine Jaeger","Stercorarius pomarinus","L32783799","Utqiaġvik--Gas Well Rd. (Gas Plant to New Landfill Rd.)","2025-06-16 14:37",1,71.2612185,-156.6030896,TRUE,FALSE,FALSE,"S251227807"
"18","pomjae","Pomarine Jaeger","Stercorarius pomarinus","L293009","Doheny State Beach","2025-06-16 08:13",2,33.4615743,-117.6806331,TRUE,FALSE,FALSE,"S251156182"
"19","pomjae","Pomarine Jaeger","Stercorarius pomarinus","L47810067","6900–7226 Karluk St, Utqiagvik US-AK 71.30332, -156.73800","2025-06-16 03:55",3,71.303321,-156.737996,TRUE,FALSE,TRUE,"S251203003"
"20","pomjae","Pomarine Jaeger","Stercorarius pomarinus","L610486","Utqiaġvik--Funakoshi Memorial","2025-06-15 23:12",1,71.287852,-156.8019176,TRUE,FALSE,FALSE,"S250959156"
"21","pomjae","Pomarine Jaeger","Stercorarius pomarinus","L3951505","Point Barrow--North End of Stevenson St.","2025-06-15 22:15",1,71.3575353,-156.5386791,TRUE,FALSE,FALSE,"S251169137"
"22","pomjae","Pomarine Jaeger","Stercorarius pomarinus","L47743079","Slick 3 and leg 6: Auto selected 39.52228, -123.95072","2025-06-15 14:30",1,39.522276,-123.950724,TRUE,FALSE,TRUE,"S250886832"
"23","pomjae","Pomarine Jaeger","Stercorarius pomarinus","L47748530","The Fur Shop, Utqiagvik","2025-06-15 11:27",1,71.290008,-156.796308,TRUE,FALSE,TRUE,"S250910768"
"24","pomjae","Pomarine Jaeger","Stercorarius pomarinus","L7486041","Utqiaġvik--Nunavaaq Rd. Gravel Pit","2025-06-15 10:20",1,71.280187,-156.818218,TRUE,FALSE,FALSE,"S250777639"
"25","pomjae","Pomarine Jaeger","Stercorarius pomarinus","L624665","Dana Point--nearshore (ORA Co.)","2025-06-15 10:10",1,33.4046334,-117.7724762,TRUE,FALSE,FALSE,"S251007677"
"26","pomjae","Pomarine Jaeger","Stercorarius pomarinus","L47749736","Winter Trail, Barrow US-AK (71.2568,-156.5417)","2025-06-15 09:40",1,71.256791,-156.541668,TRUE,FALSE,TRUE,"S250917128"
"27","pomjae","Pomarine Jaeger","Stercorarius pomarinus","L2084913","Utqiaġvik--Old Landfill","2025-06-14 13:10",2,71.3148079,-156.721344,TRUE,FALSE,FALSE,"S250377794"
"28","pomjae","Pomarine Jaeger","Stercorarius pomarinus","L47645697","229 Pisokak St, Utqiagvik US-AK (71.2870,-156.7978)","2025-06-14 07:31",1,71.287029,-156.797818,TRUE,FALSE,TRUE,"S250453693"
"29","pomjae","Pomarine Jaeger","Stercorarius pomarinus","L47550485","Nome-Council Rd, Nome US-AK 64.49085, -164.65987","2025-06-13 09:30",1,64.490855,-164.659873,TRUE,FALSE,TRUE,"S250056333"
"30","pomjae","Pomarine Jaeger","Stercorarius pomarinus","L47800212","11311–12341 Cakeatter Rd, Utqiagvik US-AK 71.30631, -156.69906","2025-06-12 21:58",1,71.306307,-156.699064,TRUE,FALSE,TRUE,"S251157607"
"31","pomjae","Pomarine Jaeger","Stercorarius pomarinus","L33468084","Utqiaġvik--Imaiqsaun Cemetery","2025-06-12 20:23",1,71.2694868,-156.7718785,TRUE,FALSE,FALSE,"S249878563"
"32","pomjae","Pomarine Jaeger","Stercorarius pomarinus","L47284484","Old Tin City","2025-06-12 19:50",1,65.5583822,-167.9500016,TRUE,FALSE,TRUE,"S249728474"
"33","pomjae","Pomarine Jaeger","Stercorarius pomarinus","L1206739","Nome-Council Rd.--Safety Sound Bridge","2025-06-12 10:54",1,64.4720541,-164.746685,TRUE,FALSE,FALSE,"S249679422"
"34","pomjae","Pomarine Jaeger","Stercorarius pomarinus","L47411306","Dewline Rd, Utqiagvik US-AK 71.33579, -156.65332","2025-06-11 21:58",1,71.335791,-156.653322,TRUE,FALSE,TRUE,"S249419292"
"35","pomjae","Pomarine Jaeger","Stercorarius pomarinus","L5810161","Kotzebue (town)","2025-06-11 13:34",1,66.8983909,-162.5873995,TRUE,FALSE,FALSE,"S249337607"
"36","pomjae","Pomarine Jaeger","Stercorarius pomarinus","L4007749","Teller--spit","2025-06-11 13:07",2,65.2709052,-166.3575125,TRUE,FALSE,FALSE,"S249534141"
"37","pomjae","Pomarine Jaeger","Stercorarius pomarinus","L47409503","Agagrak Creek","2025-06-11 11:20",2,67.52462,-163.991446,TRUE,FALSE,TRUE,"S249410886"
"38","pomjae","Pomarine Jaeger","Stercorarius pomarinus","L47391854","99723, Barrow US-AK 71.24240, -156.56327","2025-06-11 10:29",1,71.2424,-156.563267,TRUE,FALSE,TRUE,"S249322164"
"39","pomjae","Pomarine Jaeger","Stercorarius pomarinus","L47191893","Kivalina","2025-06-10 20:28",1,67.743233,-164.582021,TRUE,FALSE,TRUE,"S249087819"
"40","pomjae","Pomarine Jaeger","Stercorarius pomarinus","L47407865","Nome-Council Rd, Nome US-AK 64.49109, -164.65868","2025-06-10 19:03",1,64.491092,-164.658676,TRUE,FALSE,TRUE,"S249401116"
"41","pomjae","Pomarine Jaeger","Stercorarius pomarinus","L927270","Nome-Council Rd.--Solomon","2025-06-10 12:40",1,64.5585058,-164.4438634,TRUE,FALSE,FALSE,"S249045703"
