"","speciesCode","comName","sciName","locId","locName","obsDt","howMany","lat","lng","obsValid","obsReviewed","locationPrivate","subId"
"1","chwwid","Chuck-will's-widow","Antrostomus carolinensis","L36441794","3240 SH-29, Georgetown US-TX 30.63411, -97.74587","2025-06-19 18:02",1,30.634107,-97.745866,TRUE,FALSE,TRUE,"S252164193"
"2","chwwid","Chuck-will's-widow","Antrostomus carolinensis","L11339306","Hamilton Gardens at Lake Chatuge","2025-06-19 14:10",1,34.9671493,-83.7708194,TRUE,FALSE,FALSE,"S252086281"
"3","chwwid","Chuck-will's-widow","Antrostomus carolinensis","L8632323","Second Kolomoki Road","2025-06-19 08:03",1,31.4528388,-84.9111684,TRUE,FALSE,TRUE,"S251976213"
"4","chwwid","Chuck-will's-widow","Antrostomus carolinensis","L46059081","14605 Pine Cone Trail, Clermont US-FL (28.5338,-81.7133)","2025-06-19 06:34",1,28.533842,-81.713253,TRUE,FALSE,TRUE,"S251945488"
"5","chwwid","Chuck-will's-widow","Antrostomus carolinensis","L47971750","Friedrich Crossing","2025-06-19 06:27",1,30.060281,-99.412941,TRUE,FALSE,TRUE,"S251967286"
"6","chwwid","Chuck-will's-widow","Antrostomus carolinensis","L19973482","Moccasin Pond (private)","2025-06-19 06:10",2,29.645577,-82.249504,TRUE,FALSE,TRUE,"S251961669"
"7","chwwid","Chuck-will's-widow","Antrostomus carolinensis","L7905796","Harbins Park--Indian Shoals Rd Football/Multi-Use","2025-06-19 06:09",1,33.9097391,-83.8389756,TRUE,FALSE,FALSE,"S252043871"
"8","chwwid","Chuck-will's-widow","Antrostomus carolinensis","L972883","Watermelon Pond WEA","2025-06-19 06:09",1,29.5803805,-82.6070997,TRUE,FALSE,FALSE,"S252004145"
"9","chwwid","Chuck-will's-widow","Antrostomus carolinensis","L3609498","Blackwater Creek Ranch (NO PUBLIC ACCESS)","2025-06-19 06:05",4,27.7010459,-80.8229828,TRUE,FALSE,TRUE,"S251997531"
"10","chwwid","Chuck-will's-widow","Antrostomus carolinensis","L9361054","Lake Mineral Wells SP--Penitentiary Hollow","2025-06-19 06:02",1,32.8209834,-98.027122,TRUE,FALSE,FALSE,"S251952371"
"11","chwwid","Chuck-will's-widow","Antrostomus carolinensis","L199461","Lake Woodruff NWR","2025-06-19 06:00",2,29.1092685,-81.3752445,TRUE,FALSE,FALSE,"S252010944"
"12","chwwid","Chuck-will's-widow","Antrostomus carolinensis","L29486569","John C. and Mariana Jones/Hungryland Wildlife and Environmental Area (Palm Beach County)","2025-06-19 05:57",2,26.943293,-80.32062,TRUE,FALSE,FALSE,"S252148394"
"13","chwwid","Chuck-will's-widow","Antrostomus carolinensis","L5000389","001 Alford's Calico Livestock, Saint James, MO","2025-06-19 05:37",1,37.8793248,-91.5885115,TRUE,FALSE,TRUE,"S252062450"
"14","chwwid","Chuck-will's-widow","Antrostomus carolinensis","L46313382","Hollister SE - NC-4, (36.2816,-77.9040)","2025-06-19 05:34",1,36.281551,-77.904005,TRUE,FALSE,TRUE,"S252146797"
"15","chwwid","Chuck-will's-widow","Antrostomus carolinensis","L1748044","Beaver Lake Nursery Pond","2025-06-19 05:30",1,36.3030253,-94.0186169,TRUE,FALSE,FALSE,"S251998429"
"16","chwwid","Chuck-will's-widow","Antrostomus carolinensis","L47965506","5471–6021 Mayrant Rd, Rembert US-SC 34.08183, -80.50687","2025-06-19 05:26",2,34.081827,-80.506869,TRUE,FALSE,TRUE,"S251934353"
"17","chwwid","Chuck-will's-widow","Antrostomus carolinensis","L365371","Bodie Island Lighthouse & Pond","2025-06-19 05:23",4,35.819076,-75.562966,TRUE,FALSE,FALSE,"S251949748"
"18","chwwid","Chuck-will's-widow","Antrostomus carolinensis","L47996854","Phillips Crossroads SE - 253–399 Francks Field Rd, Trenton US-NC 35.03566, -77.37624","2025-06-19 05:20",2,35.035663,-77.376242,TRUE,FALSE,TRUE,"S252074341"
"19","chwwid","Chuck-will's-widow","Antrostomus carolinensis","L48020594","Halifax SE, Tillery Gamelands, 36.25453, -77.51527","2025-06-19 05:19",2,36.254531,-77.515271,TRUE,FALSE,TRUE,"S252173327"
"20","chwwid","Chuck-will's-widow","Antrostomus carolinensis","L791425","Chincoteague NWR--Entrance/Beach Access Road","2025-06-19 05:15",3,37.91462,-75.3496577,TRUE,FALSE,FALSE,"S252025758"
"21","chwwid","Chuck-will's-widow","Antrostomus carolinensis","L35877012","Marion Road","2025-06-19 05:14",4,33.0938497,-80.4659272,TRUE,FALSE,TRUE,"S251943619"
"22","chwwid","Chuck-will's-widow","Antrostomus carolinensis","L48014776","Aurelian Springs SE - 1894–2598 Qualls Farm Rd, (36.2581,-77.7973)","2025-06-19 05:11",2,36.258078,-77.79726,TRUE,FALSE,TRUE,"S252146117"
"23","chwwid","Chuck-will's-widow","Antrostomus carolinensis","L718378","Chincoteague NWR* (general area)","2025-06-19 05:04",2,37.9106228,-75.3479719,TRUE,FALSE,FALSE,"S251929757"
"24","chwwid","Chuck-will's-widow","Antrostomus carolinensis","L48020538","Halifax SE, Gravel Pit Rd, 36.25211, -77.51000","2025-06-19 05:03",4,36.252115,-77.510002,TRUE,FALSE,TRUE,"S252173067"
"25","chwwid","Chuck-will's-widow","Antrostomus carolinensis","L47996755","Phillips Crossroads SE - 253–399 Francks Field Rd, Trenton US-NC 35.03566, -77.37625","2025-06-19 05:00",2,35.035656,-77.376246,TRUE,FALSE,TRUE,"S252073869"
"26","chwwid","Chuck-will's-widow","Antrostomus carolinensis","L45071107","Phillips Crossroad SE - 2001–2227 Francks Field Rd, Trenton US-NC (35.0404,-77.3853)","2025-06-19 04:38",3,35.040443,-77.385311,TRUE,FALSE,TRUE,"S252073261"
"27","chwwid","Chuck-will's-widow","Antrostomus carolinensis","L45471621","Phillips Crossroads SE - 28585, Trenton US-NC (35.0312,-77.3812)","2025-06-19 04:10",2,35.031169,-77.381208,TRUE,FALSE,TRUE,"S252073129"
"28","chwwid","Chuck-will's-widow","Antrostomus carolinensis","L34576960","Creekdale Dr, Denton US-TX 33.15442, -97.11341","2025-06-19 04:00",1,33.154416,-97.113411,TRUE,FALSE,TRUE,"S251927558"
"29","chwwid","Chuck-will's-widow","Antrostomus carolinensis","L45471597","Phillips Crossroads SE - 253–399 Francks Field Rd, Trenton US-NC (35.0338,-77.3791)","2025-06-19 03:51",2,35.03379,-77.37909,TRUE,FALSE,TRUE,"S252072863"
"30","chwwid","Chuck-will's-widow","Antrostomus carolinensis","L40636192","170 Flatwoods Loop, Davenport US-FL 28.21246, -81.65170","2025-06-19 00:01",1,28.212455,-81.651699,TRUE,FALSE,TRUE,"S251950652"
"31","chwwid","Chuck-will's-widow","Antrostomus carolinensis","L47970024","West End SE - Roseland Rd (35.1387,-79.5335)","2025-06-18 23:13",2,35.138684,-79.53353,TRUE,FALSE,TRUE,"S251957096"
"32","chwwid","Chuck-will's-widow","Antrostomus carolinensis","L5209808","SC Home","2025-06-18 22:15",1,33.542193,-80.318352,TRUE,FALSE,TRUE,"S252061995"
"33","chwwid","Chuck-will's-widow","Antrostomus carolinensis","L47954703","Ew 65 Rd, Stillwater US-OK 36.07232, -97.17108","2025-06-18 21:32",4,36.072325,-97.171077,TRUE,FALSE,TRUE,"S251882906"
"34","chwwid","Chuck-will's-widow","Antrostomus carolinensis","L21632053","205 Peck Woods Rd, Camden US-SC 34.30634, -80.59369","2025-06-18 21:25",1,34.30634,-80.593695,TRUE,FALSE,TRUE,"S251871226"
"35","chwwid","Chuck-will's-widow","Antrostomus carolinensis","L2163498","Cape Island--CMP--Witmer Stone Wildlife Sanctuary","2025-06-18 21:19",1,38.9424712,-74.9673986,TRUE,FALSE,FALSE,"S251870630"
"36","chwwid","Chuck-will's-widow","Antrostomus carolinensis","L8185614","1589 Klugh Road, Abbeville, South Carolina, US (34.238, -82.283)","2025-06-18 21:17",2,34.238316,-82.283087,TRUE,FALSE,TRUE,"S251890494"
"37","chwwid","Chuck-will's-widow","Antrostomus carolinensis","L47951223","Contigo Ranch (private)","2025-06-18 21:16",1,30.447849,-98.813232,TRUE,FALSE,TRUE,"S251878830"
"38","chwwid","Chuck-will's-widow","Antrostomus carolinensis","L47953538","6319 Oak Grove Dr, Norman US-OK 35.20538, -97.34735","2025-06-18 21:10",NA,35.205381,-97.347355,TRUE,FALSE,TRUE,"S251878161"
"39","chwwid","Chuck-will's-widow","Antrostomus carolinensis","L12445104","home","2025-06-18 21:06",3,34.6996803,-83.4722977,TRUE,FALSE,TRUE,"S251868483"
"40","chwwid","Chuck-will's-widow","Antrostomus carolinensis","L737064","Point Washington SF","2025-06-18 21:04",2,30.3368058,-86.1297226,TRUE,FALSE,FALSE,"S251884058"
"41","chwwid","Chuck-will's-widow","Antrostomus carolinensis","L1848849","HW","2025-06-18 21:03",3,33.8162555,-83.5543217,TRUE,FALSE,TRUE,"S251867591"
"42","chwwid","Chuck-will's-widow","Antrostomus carolinensis","L47951314","Custard Castle","2025-06-18 21:01",1,39.259814,-74.651883,TRUE,FALSE,TRUE,"S251867331"
"43","chwwid","Chuck-will's-widow","Antrostomus carolinensis","L12849776","White River--Rim Shoals","2025-06-18 21:00",1,36.257658,-92.4721193,TRUE,FALSE,FALSE,"S251877365"
"44","chwwid","Chuck-will's-widow","Antrostomus carolinensis","L47951193","4825 51st St E, Bradenton US-FL 27.45424, -82.49544","2025-06-18 20:58",2,27.454244,-82.495438,TRUE,FALSE,TRUE,"S251866705"
"45","chwwid","Chuck-will's-widow","Antrostomus carolinensis","L1391679","Assateague SP--Campground","2025-06-18 20:56",1,38.2281059,-75.1416884,TRUE,FALSE,FALSE,"S251870210"
"46","chwwid","Chuck-will's-widow","Antrostomus carolinensis","L10054608","My yard","2025-06-18 20:55",1,27.2064899,-82.4689609,TRUE,FALSE,TRUE,"S252034543"
"47","chwwid","Chuck-will's-widow","Antrostomus carolinensis","L47952149","Bell Cemetery Rd, Orange Park US-FL 30.14812, -81.89775","2025-06-18 20:43",6,30.148124,-81.897745,TRUE,FALSE,TRUE,"S251871491"
"48","chwwid","Chuck-will's-widow","Antrostomus carolinensis","L660056","Chincoteague NWR--Beach Access Road","2025-06-18 20:41",2,37.8987655,-75.3591943,TRUE,FALSE,FALSE,"S251863463"
"49","chwwid","Chuck-will's-widow","Antrostomus carolinensis","L22633527","Bigsky Ranch 1041 CR 202, Abbeville, MS","2025-06-18 20:37",2,34.502177,-89.354074,TRUE,FALSE,TRUE,"S251873961"
"50","chwwid","Chuck-will's-widow","Antrostomus carolinensis","L8983867","GeoEsch Home","2025-06-18 20:35",1,38.9403015,-74.9315257,TRUE,FALSE,TRUE,"S251863808"
"51","chwwid","Chuck-will's-widow","Antrostomus carolinensis","L40560281","Piney Woods Church Road","2025-06-18 20:34",1,33.536,-84.735822,TRUE,TRUE,TRUE,"S251872144"
"52","chwwid","Chuck-will's-widow","Antrostomus carolinensis","L10897130","Home at 605 Jay Hutchings Rd, Sparta","2025-06-18 20:28",1,35.959343,-85.663761,TRUE,FALSE,TRUE,"S251875372"
"53","chwwid","Chuck-will's-widow","Antrostomus carolinensis","L35637654","Piedmont Road, Blacksburg, South Carolina, US (35.135, -81.386)","2025-06-18 20:27",3,35.1347395,-81.3858665,TRUE,FALSE,TRUE,"S251873770"
"54","chwwid","Chuck-will's-widow","Antrostomus carolinensis","L15601353","Newnans Lake Conservation Area","2025-06-18 20:25",6,29.6635094,-82.1853886,TRUE,FALSE,FALSE,"S251883570"
"55","chwwid","Chuck-will's-widow","Antrostomus carolinensis","L446503","Assawoman Wildlife Area","2025-06-18 20:17",8,38.494108,-75.0822401,TRUE,TRUE,FALSE,"S251866943"
"56","chwwid","Chuck-will's-widow","Antrostomus carolinensis","L593113","Martin Creek Lake SP","2025-06-18 20:15",1,32.2725787,-94.5663509,TRUE,FALSE,FALSE,"S251874143"
"57","chwwid","Chuck-will's-widow","Antrostomus carolinensis","L37535640","Springs","2025-06-18 20:14",1,33.658218,-81.630221,TRUE,FALSE,TRUE,"S251866586"
"58","chwwid","Chuck-will's-widow","Antrostomus carolinensis","L2866358","Zirlott Rd","2025-06-18 19:35",3,30.3809575,-88.1384826,TRUE,FALSE,TRUE,"S251871152"
"59","chwwid","Chuck-will's-widow","Antrostomus carolinensis","L17455148","346 Goshen Swainton Rd, Cape May Court House US-NJ 39.13274, -74.83037","2025-06-18 19:21",1,39.132741,-74.830374,TRUE,FALSE,TRUE,"S251864097"
"60","chwwid","Chuck-will's-widow","Antrostomus carolinensis","L566357","Yard - Northwest Hills","2025-06-18 18:00",1,30.3592119,-97.7832556,TRUE,FALSE,TRUE,"S251878810"
"61","chwwid","Chuck-will's-widow","Antrostomus carolinensis","L1118818","Ragged Point Marina","2025-06-18 18:00",2,38.5561531,-76.2713814,TRUE,FALSE,FALSE,"S251866498"
"62","chwwid","Chuck-will's-widow","Antrostomus carolinensis","L47953951","Sage Hill Inn","2025-06-18 17:23",1,30.047356,-97.938027,TRUE,FALSE,TRUE,"S251879971"
"63","chwwid","Chuck-will's-widow","Antrostomus carolinensis","L47956064","1800 Texas Drive, Glen Rose, Texas, US (32.254, -97.741)","2025-06-18 17:06",2,32.2537037,-97.7414872,TRUE,FALSE,TRUE,"S251888995"
"64","chwwid","Chuck-will's-widow","Antrostomus carolinensis","L38747211","95 Brujo Way, Hot Springs Village US-AR 34.63720, -92.97557","2025-06-18 14:03",1,34.637198,-92.975571,TRUE,FALSE,TRUE,"S251784890"
"65","chwwid","Chuck-will's-widow","Antrostomus carolinensis","L9215898","Private residence  Huckleberry Springs Rd, Knoxville US-TN (35.9809,-83.7540)","2025-06-18 08:28",2,35.980874,-83.75404,TRUE,FALSE,TRUE,"S251955239"
"66","chwwid","Chuck-will's-widow","Antrostomus carolinensis","L3389644","Leon Co- Home (Private)","2025-06-18 06:02",1,31.2831538,-96.0226268,TRUE,FALSE,TRUE,"S251824724"
"67","chwwid","Chuck-will's-widow","Antrostomus carolinensis","L1085299","Three Lakes WMA--Prairie Lakes Unit","2025-06-18 05:50",1,27.9123525,-81.1302567,TRUE,FALSE,FALSE,"S251937782"
"68","chwwid","Chuck-will's-widow","Antrostomus carolinensis","L127396","Babcock-Webb WMA","2025-06-18 05:49",2,26.8582653,-81.9401121,TRUE,FALSE,FALSE,"S251874125"
"69","chwwid","Chuck-will's-widow","Antrostomus carolinensis","L47458842","101 Damascus Church Road, Bradley, South Carolina, US (34.04, -82.091) BBS","2025-06-18 05:46",2,34.0395284,-82.0911329,TRUE,FALSE,TRUE,"S251610921"
"70","chwwid","Chuck-will's-widow","Antrostomus carolinensis","L2214256","Three Lakes WMA--Hwy. 60 unit","2025-06-18 05:45",2,27.8326657,-81.1449337,TRUE,FALSE,FALSE,"S251976426"
"71","chwwid","Chuck-will's-widow","Antrostomus carolinensis","L47897832","825–875 Thomasboro Rd SW, Carolina Shores US-NC (33.9129,-78.5582)","2025-06-18 05:42",2,33.912918,-78.558248,TRUE,FALSE,TRUE,"S251610012"
"72","chwwid","Chuck-will's-widow","Antrostomus carolinensis","L9099591","Cherrie's Yard","2025-06-18 05:33",2,34.119957,-81.479499,TRUE,FALSE,TRUE,"S251612352"
"73","chwwid","Chuck-will's-widow","Antrostomus carolinensis","L47947586","Valentines SE - 109 Roanoke Dr, (36.5110,-77.8103)","2025-06-18 05:33",1,36.511038,-77.81027,TRUE,FALSE,TRUE,"S251848266"
"74","chwwid","Chuck-will's-widow","Antrostomus carolinensis","L47925841","1849 State Road S-24-112, Bradley, South Carolina, US (33.985, -82.212)","2025-06-18 05:30",1,33.9840853,-82.2116489,TRUE,FALSE,TRUE,"S251751982"
"75","chwwid","Chuck-will's-widow","Antrostomus carolinensis","L45726375","Point Caswell SE—Heading Bluff Rd, Currie US-NC (34.4120,-78.1307)","2025-06-18 05:21",2,34.411989,-78.130672,TRUE,FALSE,TRUE,"S251607652"
"76","chwwid","Chuck-will's-widow","Antrostomus carolinensis","L47920997","Cedar Springs Church, 2116 Cedar Springs Road, Bradley, South Carolina, US (34.08, -82.302)","2025-06-18 05:15",1,34.0798082,-82.3020422,TRUE,FALSE,TRUE,"S251732433"
"77","chwwid","Chuck-will's-widow","Antrostomus carolinensis","L23474980","Home","2025-06-18 05:15",1,34.017839,-84.843975,TRUE,FALSE,TRUE,"S251606567"
"78","chwwid","Chuck-will's-widow","Antrostomus carolinensis","L46296424","Spicer Bay NW- 661 Tar Landing Rd, Holly Ridge US-NC 34.49239, -77.47814","2025-06-18 05:10",2,34.492387,-77.478135,TRUE,FALSE,TRUE,"S251821633"
"79","chwwid","Chuck-will's-widow","Antrostomus carolinensis","L47948105","1041-851 Suel Road, Jackson, Alabama, US (31.414, -87.858)","2025-06-18 05:05",3,31.4136892,-87.8584432,TRUE,FALSE,TRUE,"S251850637"
"80","chwwid","Chuck-will's-widow","Antrostomus carolinensis","L47922494","Comfort SE - Private - 28585, Trenton US-NC 35.02354, -77.50350","2025-06-18 05:02",1,35.023543,-77.503501,TRUE,FALSE,TRUE,"S251738561"
"81","chwwid","Chuck-will's-widow","Antrostomus carolinensis","L6177456","Home, FM","2025-06-18 05:00",1,38.1525068,-90.4023263,TRUE,FALSE,TRUE,"S251889612"
"82","chwwid","Chuck-will's-widow","Antrostomus carolinensis","L38401955","Atkinson SE—Slocum Trail, Atkinson US-NC (34.5025,-78.1839)","2025-06-18 04:54",2,34.502548,-78.18395,TRUE,FALSE,TRUE,"S251606996"
"83","chwwid","Chuck-will's-widow","Antrostomus carolinensis","L45673389","Comfort SE - Private - 28585, Trenton US-NC 35.02030, -77.50316","2025-06-18 04:49",1,35.020304,-77.50316,TRUE,FALSE,TRUE,"S251737929"
"84","chwwid","Chuck-will's-widow","Antrostomus carolinensis","L45673264","Comfort SE - Private - 28585, Trenton US-NC 35.02156, -77.51128","2025-06-18 04:32",2,35.02156,-77.511283,TRUE,FALSE,TRUE,"S251737338"
"85","chwwid","Chuck-will's-widow","Antrostomus carolinensis","L6007208","Lanier Rd, Jekyll Island","2025-06-17 21:55",1,31.0700613,-81.4075823,TRUE,FALSE,TRUE,"S251558925"
"86","chwwid","Chuck-will's-widow","Antrostomus carolinensis","L47888632","Rockingham SE - Stokes Rd (34.8800,-79.7709)","2025-06-17 21:29",1,34.879999,-79.770931,TRUE,FALSE,TRUE,"S251565086"
"87","chwwid","Chuck-will's-widow","Antrostomus carolinensis","L19619585","4005 Pimlico Ct, Denton US-TX 33.15447, -97.11341","2025-06-17 21:26",1,33.154468,-97.11341,TRUE,FALSE,TRUE,"S251556335"
"88","chwwid","Chuck-will's-widow","Antrostomus carolinensis","L41116346","80 Joseph St, Shepherd US-TX (private residence)","2025-06-17 21:22",1,30.551906,-94.894233,TRUE,FALSE,TRUE,"S251555616"
"89","chwwid","Chuck-will's-widow","Antrostomus carolinensis","L47887426","E0650 Road, Stillwater, Oklahoma, US (36.072, -97.171)","2025-06-17 21:17",4,36.072258,-97.1707598,TRUE,FALSE,TRUE,"S251559822"
"90","chwwid","Chuck-will's-widow","Antrostomus carolinensis","L10995808","CROW Clinic","2025-06-17 21:13",1,26.4437938,-82.1154642,TRUE,FALSE,FALSE,"S251545025"
"91","chwwid","Chuck-will's-widow","Antrostomus carolinensis","L15568940","5865 Southeast Riverboat Drive, Stuart, Florida, US (27.146, -80.175)","2025-06-17 21:07",1,27.1456901,-80.1753882,TRUE,FALSE,TRUE,"S251543952"
"92","chwwid","Chuck-will's-widow","Antrostomus carolinensis","L1232681","Cape Hatteras NS--Frisco Campground","2025-06-17 21:04",5,35.2369266,-75.6036186,TRUE,FALSE,FALSE,"S251543569"
"93","chwwid","Chuck-will's-widow","Antrostomus carolinensis","L47885799","6615 West 44th Street, Stillwater, Oklahoma, US (36.072, -97.156)","2025-06-17 21:03",2,36.0724491,-97.1559399,TRUE,FALSE,TRUE,"S251553328"
"94","chwwid","Chuck-will's-widow","Antrostomus carolinensis","L23825313","Camp Kinard","2025-06-17 21:01",4,33.859611,-81.450532,TRUE,FALSE,TRUE,"S251543222"
"95","chwwid","Chuck-will's-widow","Antrostomus carolinensis","L3853722","Blanco Co.--Middle Creek Rd.","2025-06-17 21:01",3,30.1558147,-98.3210707,TRUE,FALSE,FALSE,"S251554467"
"96","chwwid","Chuck-will's-widow","Antrostomus carolinensis","L614082","Stillhouse Hollow Lake- Dana Peak Park (PPW-W 036)","2025-06-17 20:58",4,31.0289825,-97.6065731,TRUE,FALSE,FALSE,"S251556477"
"97","chwwid","Chuck-will's-widow","Antrostomus carolinensis","L31683190","County Road 2008","2025-06-17 20:55",1,32.1704,-97.7877,TRUE,FALSE,TRUE,"S251552017"
"98","chwwid","Chuck-will's-widow","Antrostomus carolinensis","L9042429","Shield Ranch (restricted access), Austin","2025-06-17 20:55",1,30.2701711,-97.9932378,TRUE,FALSE,FALSE,"S251552312"
"99","chwwid","Chuck-will's-widow","Antrostomus carolinensis","L14778368","Frisco Airstrip/entrance road to campground","2025-06-17 20:52",2,35.234178,-75.6166052,TRUE,FALSE,TRUE,"S251541476"
"100","chwwid","Chuck-will's-widow","Antrostomus carolinensis","L47849106","3460 N Palomino Terr, Beverly Hills","2025-06-17 20:50",2,28.912815,-82.521044,TRUE,FALSE,TRUE,"S251549394"
"101","chwwid","Chuck-will's-widow","Antrostomus carolinensis","L11596833","Anderson Snow Park","2025-06-17 20:45",3,28.457637,-82.4838924,TRUE,FALSE,TRUE,"S251548323"
"102","chwwid","Chuck-will's-widow","Antrostomus carolinensis","L8659403","1 Heritage Hill","2025-06-17 20:40",1,38.168639,-76.4002916,TRUE,FALSE,TRUE,"S251540403"
"103","chwwid","Chuck-will's-widow","Antrostomus carolinensis","L1399935","Chattahoochee Bend SP","2025-06-17 20:16",1,33.4215,-84.9703,TRUE,FALSE,FALSE,"S251545471"
"104","chwwid","Chuck-will's-widow","Antrostomus carolinensis","L25022910","Johnny’s House","2025-06-17 20:03",1,34.589436,-86.830767,TRUE,FALSE,TRUE,"S251543084"
"105","chwwid","Chuck-will's-widow","Antrostomus carolinensis","L31880421","Anderson Snow Park","2025-06-17 19:59",1,28.4559969,-82.4850579,TRUE,FALSE,FALSE,"S251547845"
"106","chwwid","Chuck-will's-widow","Antrostomus carolinensis","L472674","Stone Mountain Park","2025-06-17 19:45",1,33.8128138,-84.1552734,TRUE,TRUE,FALSE,"S251549334"
"107","chwwid","Chuck-will's-widow","Antrostomus carolinensis","L123125","Everglades NP--Anhinga Trail","2025-06-17 19:45",2,25.3820583,-80.6069362,TRUE,FALSE,FALSE,"S251712229"
"108","chwwid","Chuck-will's-widow","Antrostomus carolinensis","L159292","Chincoteague NWR--Woodland Trail","2025-06-17 19:23",1,37.8955146,-75.3607863,TRUE,FALSE,FALSE,"S251538405"
"109","chwwid","Chuck-will's-widow","Antrostomus carolinensis","L4716338","Camp Blanding Joint Training Center (access restricted)","2025-06-17 18:45",7,29.9591361,-81.9757748,TRUE,FALSE,FALSE,"S251545484"
"110","chwwid","Chuck-will's-widow","Antrostomus carolinensis","L37913509","Legacy Village","2025-06-17 08:08",1,36.1814183,-97.0678865,TRUE,FALSE,TRUE,"S251362464"
"111","chwwid","Chuck-will's-widow","Antrostomus carolinensis","L1042391","Reservoir Park (closed)","2025-06-17 06:46",1,34.7749311,-92.3687124,TRUE,FALSE,FALSE,"S251365404"
"112","chwwid","Chuck-will's-widow","Antrostomus carolinensis","L127258","St. Marks NWR (please consider using a more precise location)","2025-06-17 06:10",1,30.1515653,-84.1473314,TRUE,FALSE,FALSE,"S251419161"
"113","chwwid","Chuck-will's-widow","Antrostomus carolinensis","L47512822","Lake Wales Ridge SF Arbuckle Tract - West Entrance Trails","2025-06-17 06:10",2,27.692163,-81.497476,TRUE,FALSE,TRUE,"S251440789"
"114","chwwid","Chuck-will's-widow","Antrostomus carolinensis","L243650","Carolina Beach State Park","2025-06-17 06:03",2,34.0499847,-77.9176247,TRUE,FALSE,FALSE,"S251347848"
"115","chwwid","Chuck-will's-widow","Antrostomus carolinensis","L4830765","Ware Creek Wildlife Management Area","2025-06-17 06:00",1,37.4741429,-76.7876583,TRUE,FALSE,FALSE,"S251305101"
"116","chwwid","Chuck-will's-widow","Antrostomus carolinensis","L127364","Three Lakes WMA","2025-06-17 05:55",1,27.9312364,-81.1522293,TRUE,FALSE,FALSE,"S251937128"
"117","chwwid","Chuck-will's-widow","Antrostomus carolinensis","L28391589","POLK Lake Walk in the Water SF - Scrub Jay Loop Trailhead","2025-06-17 05:54",2,27.762543,-81.453113,TRUE,FALSE,TRUE,"S251440763"
"118","chwwid","Chuck-will's-widow","Antrostomus carolinensis","L4867701","Strawn Yard","2025-06-17 05:51",2,32.546081,-98.503782,TRUE,FALSE,TRUE,"S251326162"
"119","chwwid","Chuck-will's-widow","Antrostomus carolinensis","L4544546","Wormsloe State Historic Site","2025-06-17 05:51",1,31.979422,-81.0691452,TRUE,FALSE,FALSE,"S252046081"
"120","chwwid","Chuck-will's-widow","Antrostomus carolinensis","L34509712","North Lindsey Township, Missouri, US (38.291, -93.418)","2025-06-17 05:50",1,38.2911728,-93.4175231,TRUE,FALSE,TRUE,"S251312701"
"121","chwwid","Chuck-will's-widow","Antrostomus carolinensis","L47762976","Columbia, South Carolina, US (34.007, -80.852)","2025-06-17 05:50",3,34.007069,-80.8523391,TRUE,FALSE,TRUE,"S251326281"
"122","chwwid","Chuck-will's-widow","Antrostomus carolinensis","L47842968","Hal Scott Regional Preserve and Park, Orlando US-FL 28.48602, -81.09569","2025-06-17 05:39",6,28.486021,-81.095691,TRUE,FALSE,TRUE,"S251365325"
"123","chwwid","Chuck-will's-widow","Antrostomus carolinensis","L21000950","The Carolina, Southern Pines US-NC (35.2277,-79.3904)","2025-06-17 05:32",1,35.227743,-79.390366,TRUE,FALSE,TRUE,"S251339354"
"124","chwwid","Chuck-will's-widow","Antrostomus carolinensis","L47851747","Currituck SE: Barco Way, Barco US-NC (36.3923,-76.0081)","2025-06-17 05:21",1,36.392327,-76.008065,TRUE,FALSE,TRUE,"S251404585"
"125","chwwid","Chuck-will's-widow","Antrostomus carolinensis","L46886818","Maple Hill SE, 28454, Maple Hill US-NC 34.63109, -77.67440","2025-06-17 05:20",1,34.631092,-77.674402,TRUE,FALSE,TRUE,"S251449685"
"126","chwwid","Chuck-will's-widow","Antrostomus carolinensis","L47864084","Dover SE - Private - 28585, Trenton US-NC (35.1297,-77.3858)","2025-06-17 05:20",1,35.129729,-77.385756,TRUE,FALSE,TRUE,"S251455312"
"127","chwwid","Chuck-will's-widow","Antrostomus carolinensis","L47349752","St. Tammany Regional Airport, Abita Springs US-LA 30.45193, -89.98823","2025-06-17 05:20",5,30.451934,-89.988233,TRUE,FALSE,TRUE,"S251313031"
"128","chwwid","Chuck-will's-widow","Antrostomus carolinensis","L47868443","Richland SE- 138–148 Hoffman Forest Rd, Richlands US-NC (34.9123,-77.5000)","2025-06-17 05:16",1,34.912293,-77.500043,TRUE,FALSE,TRUE,"S251474002"
"129","chwwid","Chuck-will's-widow","Antrostomus carolinensis","L27915372","4171 Aurora Rd, Ernul US-NC 35.27980, -76.94942","2025-06-17 05:15",3,35.279796,-76.949421,TRUE,FALSE,TRUE,"S251295645"
"130","chwwid","Chuck-will's-widow","Antrostomus carolinensis","L6488002","Singerly Pond","2025-06-17 05:10",1,38.080043,-76.895706,TRUE,FALSE,FALSE,"S251291720"
"131","chwwid","Chuck-will's-widow","Antrostomus carolinensis","L34516499","Shawnee Bend Boat Access Road, Warsaw, Missouri, US (38.265, -93.421)","2025-06-17 05:05",1,38.2653895,-93.4206302,TRUE,FALSE,TRUE,"S251300508"
"132","chwwid","Chuck-will's-widow","Antrostomus carolinensis","L47851438","Currituck SE: 220–264 Airport Rd, Maple US-NC 36.39887, -76.00952","2025-06-17 05:05",1,36.398869,-76.009524,TRUE,FALSE,TRUE,"S251403267"
"133","chwwid","Chuck-will's-widow","Antrostomus carolinensis","L46690842","Old Wilson Rd, Rocky Mount SE, 35.89559, -77.79594","2025-06-17 05:01",2,35.895589,-77.795944,TRUE,FALSE,TRUE,"S251521497"
"134","chwwid","Chuck-will's-widow","Antrostomus carolinensis","L45236440","Delway SE—Powell Page Rd, Wallace US-NC (34.7813,-78.1803)","2025-06-17 05:01",4,34.781342,-78.180286,TRUE,FALSE,TRUE,"S251309077"
"135","chwwid","Chuck-will's-widow","Antrostomus carolinensis","L45555648","Dover SE - Private - 28526, Dover US-NC 35.15322, -77.39663","2025-06-17 04:53",1,35.153221,-77.396628,TRUE,FALSE,TRUE,"S251454813"
"136","chwwid","Chuck-will's-widow","Antrostomus carolinensis","L34491180","Truman Dam Access Road, Warsaw, Missouri, US (38.266, -93.392)","2025-06-17 04:43",2,38.2656444,-93.3920745,TRUE,FALSE,TRUE,"S251296536"
"137","chwwid","Chuck-will's-widow","Antrostomus carolinensis","L30261364","Tansel’s Prairie","2025-06-17 04:33",1,41.568488,-83.854009,TRUE,TRUE,TRUE,"S251294412"
"138","chwwid","Chuck-will's-widow","Antrostomus carolinensis","L21347686","Private property. Exact location not given.","2025-06-17 04:30",1,29.7961485,-82.8668627,TRUE,FALSE,TRUE,"S251849806"
"139","chwwid","Chuck-will's-widow","Antrostomus carolinensis","L3577681","Burrs Mill Road","2025-06-17 04:17",1,39.9067735,-74.6623135,TRUE,TRUE,FALSE,"S251363740"
"140","chwwid","Chuck-will's-widow","Antrostomus carolinensis","L47820436","3430 Rochelle Court, Clearwater, Florida, US (28.047, -82.719)","2025-06-16 23:46",1,28.0465047,-82.7192148,TRUE,FALSE,TRUE,"S251252885"
"141","chwwid","Chuck-will's-widow","Antrostomus carolinensis","L32560288","Oak Openings, Swanton US-OH 41.56932, -83.85389","2025-06-16 22:11",1,41.569318,-83.853885,TRUE,TRUE,TRUE,"S251241677"
"142","chwwid","Chuck-will's-widow","Antrostomus carolinensis","L5481647","13130 Overlook Pass, Roswell, GA","2025-06-16 21:43",1,34.1025836,-84.3992847,TRUE,TRUE,TRUE,"S251237859"
"143","chwwid","Chuck-will's-widow","Antrostomus carolinensis","L47816707","45693, West Union US-OH 38.72717, -83.46359","2025-06-16 21:32",1,38.727168,-83.46359,TRUE,FALSE,TRUE,"S251235478"
"144","chwwid","Chuck-will's-widow","Antrostomus carolinensis","L25386044","45144, Manchester US-OH 38.72712, -83.46305","2025-06-16 21:31",1,38.727122,-83.463054,TRUE,FALSE,TRUE,"S251235627"
"145","chwwid","Chuck-will's-widow","Antrostomus carolinensis","L47685687","398 Dry Branch Rd, Blue Ridge US-GA (34.8654,-84.2954)","2025-06-16 21:20",1,34.865356,-84.295445,TRUE,FALSE,TRUE,"S251233432"
"146","chwwid","Chuck-will's-widow","Antrostomus carolinensis","L557896","Cleburne SP","2025-06-16 21:18",2,32.27017,-97.56348,TRUE,FALSE,FALSE,"S251421474"
"147","chwwid","Chuck-will's-widow","Antrostomus carolinensis","L2053691","Theland","2025-06-16 21:16",1,34.2206741,-80.4299426,TRUE,FALSE,TRUE,"S251232789"
"148","chwwid","Chuck-will's-widow","Antrostomus carolinensis","L2601163","Cape Hatteras NS--Lighthouse Rd. Pond","2025-06-16 21:14",3,35.2570995,-75.5263833,TRUE,FALSE,FALSE,"S251235431"
"149","chwwid","Chuck-will's-widow","Antrostomus carolinensis","L47818718","Oak Openings, Swanton US-OH (41.5712,-83.8558)","2025-06-16 21:11",1,41.571237,-83.855758,TRUE,TRUE,TRUE,"S251244640"
"150","chwwid","Chuck-will's-widow","Antrostomus carolinensis","L19417057","Central North Bella Vista (Hanover Drive, Chaucer Drive and their side streets)","2025-06-16 21:05",1,36.497472,-94.262127,TRUE,FALSE,TRUE,"S251307739"
"151","chwwid","Chuck-will's-widow","Antrostomus carolinensis","L47815704","5125 Deans Bridge Rd, Blythe US-GA 33.30702, -82.21364","2025-06-16 21:03",1,33.307021,-82.213644,TRUE,FALSE,TRUE,"S251230809"
"152","chwwid","Chuck-will's-widow","Antrostomus carolinensis","L47816919","5912 Burnett Creek Road, Knoxville, Tennessee, US (35.936, -83.851)","2025-06-16 20:55",1,35.9364542,-83.8505959,TRUE,FALSE,TRUE,"S251236458"
"153","chwwid","Chuck-will's-widow","Antrostomus carolinensis","L384943","Edwin B. Forsythe NWR--Cedar Run Dock Rd.","2025-06-16 20:47",2,39.6590992,-74.2595959,TRUE,FALSE,FALSE,"S251226350"
"154","chwwid","Chuck-will's-widow","Antrostomus carolinensis","L41633529","North Dune Loop","2025-06-16 20:45",2,36.150421,-75.746234,TRUE,FALSE,TRUE,"S251229766"
"155","chwwid","Chuck-will's-widow","Antrostomus carolinensis","L7839150","Penny's Place (Private Property)","2025-06-16 20:45",1,33.5349883,-80.2953838,TRUE,FALSE,TRUE,"S251229837"
"156","chwwid","Chuck-will's-widow","Antrostomus carolinensis","L47814735","37097 Double Bridges Road, Frankford, Delaware, US (38.514, -75.094)","2025-06-16 20:42",2,38.5136,-75.09366,TRUE,FALSE,TRUE,"S251226189"
"157","chwwid","Chuck-will's-widow","Antrostomus carolinensis","L4971416","Alumni Way","2025-06-16 20:42",1,30.27,-81.53,TRUE,FALSE,TRUE,"S251312026"
"158","chwwid","Chuck-will's-widow","Antrostomus carolinensis","L608015","Tallulah Gorge SP","2025-06-16 20:41",1,34.739171,-83.390639,TRUE,FALSE,FALSE,"S251240237"
"159","chwwid","Chuck-will's-widow","Antrostomus carolinensis","L31491025","43251 Waverly Ct, Hollywood US-MD 38.30133, -76.58081","2025-06-16 20:41",1,38.301326,-76.580805,TRUE,FALSE,TRUE,"S251225111"
"160","chwwid","Chuck-will's-widow","Antrostomus carolinensis","L455820","Assateague I. NS--Bayside peninsula","2025-06-16 20:29",1,38.207697,-75.1634746,TRUE,FALSE,FALSE,"S251223126"
"161","chwwid","Chuck-will's-widow","Antrostomus carolinensis","L11479602","Evening Dog Walk Route","2025-06-16 20:25",1,29.616637,-82.452848,TRUE,FALSE,TRUE,"S251540350"
"162","chwwid","Chuck-will's-widow","Antrostomus carolinensis","L2857116","Kessler Mountain Regional Park","2025-06-16 20:22",2,36.0266811,-94.2145443,TRUE,FALSE,FALSE,"S251396320"
"163","chwwid","Chuck-will's-widow","Antrostomus carolinensis","L47815457","Tree Farm Rd, Hillsborough","2025-06-16 20:09",2,36.025398,-79.15004,TRUE,FALSE,TRUE,"S251229603"
"164","chwwid","Chuck-will's-widow","Antrostomus carolinensis","L109133","Edwin B. Forsythe NWR (formerly Brig)","2025-06-16 18:05",2,39.465,-74.4477778,TRUE,FALSE,FALSE,"S251236467"
"165","chwwid","Chuck-will's-widow","Antrostomus carolinensis","L13350187","River Rise SP (Alachua County side)","2025-06-16 09:23",1,29.8708321,-82.5874018,TRUE,FALSE,FALSE,"S251053538"
"166","chwwid","Chuck-will's-widow","Antrostomus carolinensis","L47771745","Bridge Seal Hollow Rd, Woodbury","2025-06-16 08:14",1,35.838463,-86.030818,TRUE,FALSE,TRUE,"S251028597"
"167","chwwid","Chuck-will's-widow","Antrostomus carolinensis","L280466","Greensprings Interpretive Trail","2025-06-16 08:02",1,37.2495271,-76.7872925,TRUE,FALSE,FALSE,"S251114336"
"168","chwwid","Chuck-will's-widow","Antrostomus carolinensis","L124353","Huntington Beach SP","2025-06-16 07:30",1,33.5083,-79.0659,TRUE,FALSE,FALSE,"S251037565"
"169","chwwid","Chuck-will's-widow","Antrostomus carolinensis","L20301061","My birding spot","2025-06-16 06:40",1,34.9024005,-87.530742,TRUE,FALSE,TRUE,"S251029111"
"170","chwwid","Chuck-will's-widow","Antrostomus carolinensis","L837173","Ten Thousand Islands NWR--Marsh Trail & Observation Tower","2025-06-16 06:05",1,25.973478,-81.5542603,TRUE,FALSE,FALSE,"S251084174"
"171","chwwid","Chuck-will's-widow","Antrostomus carolinensis","L38374761","Warrior Ridge","2025-06-16 06:02",1,32.9989201,-87.6345861,TRUE,FALSE,TRUE,"S250980693"
"172","chwwid","Chuck-will's-widow","Antrostomus carolinensis","L34598956","Vantage Circle","2025-06-16 06:01",2,27.4954457,-81.5046849,TRUE,FALSE,TRUE,"S250961041"
"173","chwwid","Chuck-will's-widow","Antrostomus carolinensis","L23849774","126 Ridgeway Rd, Winnfield US-LA 31.91570, -92.68233","2025-06-16 06:00",2,31.915701,-92.682331,TRUE,FALSE,TRUE,"S250971579"
"174","chwwid","Chuck-will's-widow","Antrostomus carolinensis","L1891826","Barquero Ct","2025-06-16 05:57",1,29.9304806,-81.3371194,TRUE,FALSE,TRUE,"S250961873"
"175","chwwid","Chuck-will's-widow","Antrostomus carolinensis","L34910226","Cabin","2025-06-16 05:55",1,32.806531,-95.18831,TRUE,FALSE,TRUE,"S250987560"
"176","chwwid","Chuck-will's-widow","Antrostomus carolinensis","L736925","Longleaf Flatwoods Reserve","2025-06-16 05:54",2,29.5654133,-82.1889567,TRUE,FALSE,FALSE,"S250983464"
"177","chwwid","Chuck-will's-widow","Antrostomus carolinensis","L890054","Three Lakes WMA--main unit","2025-06-16 05:50",3,27.9648401,-81.0294056,TRUE,FALSE,FALSE,"S251936652"
"178","chwwid","Chuck-will's-widow","Antrostomus carolinensis","L40278538","159 Mt Shadow Ln, Benton US-TN 35.16934, -84.61414","2025-06-16 05:46",2,35.16934,-84.614138,TRUE,FALSE,TRUE,"S250956368"
"179","chwwid","Chuck-will's-widow","Antrostomus carolinensis","L19218731","MBBS, Chatham, Route 3-4","2025-06-16 05:44",1,35.655182,-78.9831765,TRUE,FALSE,TRUE,"S250956469"
"180","chwwid","Chuck-will's-widow","Antrostomus carolinensis","L47757923","1137 Shell Basket Ln, Sanibel US-FL 26.43769, -82.04314","2025-06-16 05:43",1,26.437687,-82.043145,TRUE,FALSE,TRUE,"S250956310"
"181","chwwid","Chuck-will's-widow","Antrostomus carolinensis","L35907650","Masonboro Channel, Wilmington US-NC 34.16523, -77.84488","2025-06-16 05:34",1,34.165227,-77.844879,TRUE,FALSE,TRUE,"S250954388"
"182","chwwid","Chuck-will's-widow","Antrostomus carolinensis","L2808713","Fants Grove Wildlife Management Area","2025-06-16 05:32",2,34.6129554,-82.8241454,TRUE,FALSE,FALSE,"S250955867"
"183","chwwid","Chuck-will's-widow","Antrostomus carolinensis","L20687603","1912 Creekdale Dr, Denton US-TX 33.15437, -97.11329","2025-06-16 05:30",1,33.154373,-97.113294,TRUE,FALSE,TRUE,"S250964759"
"184","chwwid","Chuck-will's-widow","Antrostomus carolinensis","L868578","Woodson SFL","2025-06-16 05:25",1,37.7937111,-95.8435249,TRUE,FALSE,FALSE,"S250963906"
"185","chwwid","Chuck-will's-widow","Antrostomus carolinensis","L970063","Walt Disney World--Animal Kingdom (do NOT report captive birds)","2025-06-16 05:21",2,28.3593428,-81.5909958,TRUE,FALSE,FALSE,"S251208740"
"186","chwwid","Chuck-will's-widow","Antrostomus carolinensis","L21805240","Redman Rd. Yard","2025-06-16 05:08",2,35.3752815,-84.8771825,TRUE,FALSE,TRUE,"S250952033"
"187","chwwid","Chuck-will's-widow","Antrostomus carolinensis","L46668718","Autryville SE—Gip Rd, Fayetteville US-NC (34.91583, -78.65226)","2025-06-16 05:06",2,34.915833,-78.652263,TRUE,FALSE,TRUE,"S251036809"
"188","chwwid","Chuck-will's-widow","Antrostomus carolinensis","L47757429","Wilmington SE—5740 River Rd, Wilmington US-NC 34.12982, -77.91714","2025-06-16 05:06",3,34.129819,-77.917141,TRUE,FALSE,TRUE,"S250954155"
"189","chwwid","Chuck-will's-widow","Antrostomus carolinensis","L47878703","County Road 49, Midway, Alabama, US (32.001, -85.438)","2025-06-16 05:04",1,32.0008843,-85.4375736,TRUE,FALSE,TRUE,"S251519650"
"190","chwwid","Chuck-will's-widow","Antrostomus carolinensis","L47756386","Wilmington SE—River Rd, Wilmington US-NC 34.14200, -77.92227","2025-06-16 04:56",2,34.142002,-77.922269,TRUE,FALSE,TRUE,"S250949596"
"191","chwwid","Chuck-will's-widow","Antrostomus carolinensis","L47757679","2157 County Road 708, Scottsville, Virginia, US (37.898, -78.473)","2025-06-16 04:55",2,37.8975749,-78.473442,TRUE,FALSE,TRUE,"S250955156"
"192","chwwid","Chuck-will's-widow","Antrostomus carolinensis","L45947162","Bayou Heron Rd.--end at railroad tracks","2025-06-16 04:54",1,30.4436554,-88.4220982,TRUE,FALSE,TRUE,"S251030058"
"193","chwwid","Chuck-will's-widow","Antrostomus carolinensis","L26337480","Ridge Avenue (PRIVATE)  Egg Harbor Township, New Jersey, US","2025-06-16 04:49",1,39.3916815,-74.5791339,TRUE,FALSE,TRUE,"S251326918"
"194","chwwid","Chuck-will's-widow","Antrostomus carolinensis","L47763487","Hollybush-Loafers Oak Loop","2025-06-16 04:44",3,37.0911606,-76.926296,TRUE,FALSE,TRUE,"S250985482"
"195","chwwid","Chuck-will's-widow","Antrostomus carolinensis","L21870650","My country yard","2025-06-16 04:00",1,35.949087,-97.088351,TRUE,FALSE,TRUE,"S250949442"
"196","chwwid","Chuck-will's-widow","Antrostomus carolinensis","L15631284","Home","2025-06-16 04:00",1,35.9489,-97.0882,TRUE,FALSE,TRUE,"S250950219"
"197","chwwid","Chuck-will's-widow","Antrostomus carolinensis","L33881980","Perdido residence","2025-06-16 04:00",2,30.3996828,-87.3393979,TRUE,FALSE,TRUE,"S250950204"
"198","chwwid","Chuck-will's-widow","Antrostomus carolinensis","L802970","Fort Cavazos--Four Corners area (Limited access)","2025-06-16 02:41",45,31.198119,-97.8528214,TRUE,TRUE,FALSE,"S250961838"
"199","chwwid","Chuck-will's-widow","Antrostomus carolinensis","L2612261","Solon Dixon Forestry Education Center","2025-06-16 01:01",1,31.1639781,-86.7029026,TRUE,FALSE,FALSE,"S250926648"
"200","chwwid","Chuck-will's-widow","Antrostomus carolinensis","L4438192","Tuttle Creek Lake--Dam (Pottawatomie Co.)","2025-06-15 22:44",1,39.2595866,-96.5848339,TRUE,FALSE,FALSE,"S250910373"
"201","chwwid","Chuck-will's-widow","Antrostomus carolinensis","L13848251","Swihart Yard","2025-06-15 21:50",1,39.2332881,-96.7112199,TRUE,FALSE,TRUE,"S250904287"
"202","chwwid","Chuck-will's-widow","Antrostomus carolinensis","L46706565","Piney Woods Church Road","2025-06-15 21:33",1,33.533504,-84.73631,TRUE,TRUE,TRUE,"S250893416"
"203","chwwid","Chuck-will's-widow","Antrostomus carolinensis","L16731731","Central,SC","2025-06-15 21:28",1,34.7421873,-82.8244636,TRUE,FALSE,TRUE,"S250890902"
"204","chwwid","Chuck-will's-widow","Antrostomus carolinensis","L1404537","Tuttle Creek WA--Tuttle Cove Park","2025-06-15 21:27",1,39.282546,-96.6333204,TRUE,FALSE,FALSE,"S250898149"
"205","chwwid","Chuck-will's-widow","Antrostomus carolinensis","L4251579","Creek Bend","2025-06-15 21:15",2,33.2103625,-96.5711117,TRUE,FALSE,TRUE,"S250901702"
"206","chwwid","Chuck-will's-widow","Antrostomus carolinensis","L4675311","Hollis Renewal Center","2025-06-15 21:11",1,39.0878023,-94.8465867,TRUE,FALSE,FALSE,"S250902408"
"207","chwwid","Chuck-will's-widow","Antrostomus carolinensis","L47745996","2770 Tree Farm Road, Hillsborough, North Carolina, US (36.026, -79.151)","2025-06-15 21:10",3,36.0255034,-79.150539,TRUE,FALSE,TRUE,"S250899506"
"208","chwwid","Chuck-will's-widow","Antrostomus carolinensis","L47681845","1956 Ocean Pearl Rd, Corolla US-NC 36.49209, -75.86020","2025-06-15 21:00",2,36.492091,-75.860198,TRUE,FALSE,TRUE,"S251068929"
"209","chwwid","Chuck-will's-widow","Antrostomus carolinensis","L6707983","Cathy and Gerald DeNeal home","2025-06-15 20:57",1,37.6190628,-88.4855792,TRUE,FALSE,TRUE,"S250919905"
"210","chwwid","Chuck-will's-widow","Antrostomus carolinensis","L40979116","8400 Lookout Pointe Dr, Windermere US-FL (28.4423,-81.5693)","2025-06-15 20:57",1,28.442297,-81.569298,TRUE,FALSE,TRUE,"S250884003"
"211","chwwid","Chuck-will's-widow","Antrostomus carolinensis","L47742124","2803–3097 Tree Farm Rd, Hillsborough US-NC 36.02550, -79.15064","2025-06-15 20:51",1,36.025497,-79.150639,TRUE,FALSE,TRUE,"S250882406"
"212","chwwid","Chuck-will's-widow","Antrostomus carolinensis","L11371534","Daniel Boone Home NHS","2025-06-15 20:51",2,38.652528,-90.853186,TRUE,FALSE,FALSE,"S250904168"
"213","chwwid","Chuck-will's-widow","Antrostomus carolinensis","L46545859","21361 South Branch Road, Estero, Florida, US (26.427, -81.783)","2025-06-15 20:46",1,26.4269646,-81.7826079,TRUE,FALSE,TRUE,"S250881186"
"214","chwwid","Chuck-will's-widow","Antrostomus carolinensis","L1140979","Mytoi Japanese Garden (TTOR), Chappaquiddick","2025-06-15 20:45",2,41.3753445,-70.4574506,TRUE,TRUE,FALSE,"S250899573"
"215","chwwid","Chuck-will's-widow","Antrostomus carolinensis","L791806","Pawleys Island--South End","2025-06-15 20:45",1,33.400172,-79.138513,TRUE,FALSE,FALSE,"S251031877"
"216","chwwid","Chuck-will's-widow","Antrostomus carolinensis","L1836917","Cedar Island NWR--Boat Ramp","2025-06-15 20:40",5,34.9511101,-76.2811903,TRUE,FALSE,FALSE,"S250883984"
"217","chwwid","Chuck-will's-widow","Antrostomus carolinensis","L41949367","Thompson Road, Decatur, Alabama, US (34.525, -86.845)","2025-06-15 20:31",NA,34.5251302,-86.8450728,TRUE,FALSE,TRUE,"S250906859"
"218","chwwid","Chuck-will's-widow","Antrostomus carolinensis","L4524477","Saugalock Forest Reserve  (Private Property - limited access by written permit only)","2025-06-15 20:25",3,32.6363392,-85.5903947,TRUE,FALSE,FALSE,"S250900487"
"219","chwwid","Chuck-will's-widow","Antrostomus carolinensis","L37749038","Iroquois","2025-06-15 20:15",1,31.146563,-97.828308,TRUE,FALSE,TRUE,"S250900676"
"220","chwwid","Chuck-will's-widow","Antrostomus carolinensis","L43901443","Traditions Apartments","2025-06-15 20:15",2,30.31314,-87.687107,TRUE,FALSE,TRUE,"S250889106"
"221","chwwid","Chuck-will's-widow","Antrostomus carolinensis","L43513262","Colonial Gardens","2025-06-15 19:45",NA,32.506765,-94.3175,TRUE,FALSE,TRUE,"S251081578"
"222","chwwid","Chuck-will's-widow","Antrostomus carolinensis","L30964472","Jordan Game Land--Transis Camp Power Line & Trails ONLY","2025-06-15 19:30",2,35.859583,-78.985623,TRUE,FALSE,FALSE,"S251093138"
"223","chwwid","Chuck-will's-widow","Antrostomus carolinensis","L42263837","1316 W First Street, Tyler, TX   32.334608, -95.315559","2025-06-15 19:06",1,32.334608,-95.315559,TRUE,FALSE,TRUE,"S250896615"
"224","chwwid","Chuck-will's-widow","Antrostomus carolinensis","L45255538","10000 Cherry Run Rd, Greenville US-NC (35.6825,-77.1470)","2025-06-15 14:35",2,35.682514,-77.147038,TRUE,FALSE,TRUE,"S251073464"
"225","chwwid","Chuck-will's-widow","Antrostomus carolinensis","L47702296","Teresita, Indian Territory, Cherokee Reservation","2025-06-15 12:11",1,36.116471,-94.982635,TRUE,FALSE,TRUE,"S250714817"
"226","chwwid","Chuck-will's-widow","Antrostomus carolinensis","L47626379","7505 Gilbert Road, Manor, Texas, US (30.28, -97.578)","2025-06-15 09:26",1,30.2797743,-97.57767,TRUE,FALSE,TRUE,"S250635812"
"227","chwwid","Chuck-will's-widow","Antrostomus carolinensis","L25477716","5952 Basket Switch Road, Snow Hill, Maryland, US (38.198, -75.301)Doug's Parents.","2025-06-15 09:13",1,38.1984424,-75.3007508,TRUE,FALSE,TRUE,"S250640885"
"228","chwwid","Chuck-will's-widow","Antrostomus carolinensis","L9552765","FL yard","2025-06-15 08:30",2,26.113449,-80.24087,TRUE,FALSE,TRUE,"S251894141"
"229","chwwid","Chuck-will's-widow","Antrostomus carolinensis","L47704141","11306–11336 John Johnston Rd, Citronelle US-AL (31.2015,-88.1698)","2025-06-15 07:43",3,31.201502,-88.169765,TRUE,FALSE,TRUE,"S250722389"
"230","chwwid","Chuck-will's-widow","Antrostomus carolinensis","L47696532","26 Alpine Rd, Mentone US-AL (34.5631,-85.5708)","2025-06-15 07:38",1,34.563092,-85.570776,TRUE,FALSE,TRUE,"S250691203"
"231","chwwid","Chuck-will's-widow","Antrostomus carolinensis","L47741724","2500–2508 W Coy Smith Hwy, Mount Vernon US-AL (31.1242,-88.0984)","2025-06-15 07:31",2,31.124156,-88.098376,TRUE,FALSE,TRUE,"S250880078"
"232","chwwid","Chuck-will's-widow","Antrostomus carolinensis","L3955849","Pensacola house","2025-06-15 07:00",1,30.5322178,-87.3594216,TRUE,FALSE,TRUE,"S250978890"
"233","chwwid","Chuck-will's-widow","Antrostomus carolinensis","L6996680","Henderson Point area","2025-06-15 06:54",1,30.3094524,-89.2917252,TRUE,FALSE,FALSE,"S250659136"
"234","chwwid","Chuck-will's-widow","Antrostomus carolinensis","L47924476","Woodland Heights","2025-06-15 06:46",1,34.1203014,-94.8010012,TRUE,FALSE,TRUE,"S251767184"
"235","chwwid","Chuck-will's-widow","Antrostomus carolinensis","L4053908","Woodward BBS Route - Stop 5","2025-06-15 06:09",1,36.26154,-99.56919,TRUE,FALSE,TRUE,"S251557894"
"236","chwwid","Chuck-will's-widow","Antrostomus carolinensis","L4053907","Woodward BBS Route - Stop 4","2025-06-15 06:04",1,36.25429,-99.56918,TRUE,FALSE,TRUE,"S251557893"
"237","chwwid","Chuck-will's-widow","Antrostomus carolinensis","L5912236","BBS_GA_123_WHITESBURG_2","2025-06-15 06:02",2,33.62732,-84.88793,TRUE,FALSE,TRUE,"S250502947"
"238","chwwid","Chuck-will's-widow","Antrostomus carolinensis","L8646914","Travelers Rest Circle","2025-06-15 06:00",1,38.7514734,-76.1316719,TRUE,FALSE,TRUE,"S251078079"
"239","chwwid","Chuck-will's-widow","Antrostomus carolinensis","L4053906","Woodward BBS Route - Stop 3","2025-06-15 05:59",2,36.24726,-99.56909,TRUE,FALSE,TRUE,"S251557892"
"240","chwwid","Chuck-will's-widow","Antrostomus carolinensis","L19634641","1530 Larson Ln, Denton US-TX 33.15474, -97.11354","2025-06-15 05:57",1,33.154735,-97.113543,TRUE,FALSE,TRUE,"S250518940"
"241","chwwid","Chuck-will's-widow","Antrostomus carolinensis","L17376125","home","2025-06-15 05:55",1,26.4374169,-82.0440192,TRUE,FALSE,TRUE,"S250504164"
"242","chwwid","Chuck-will's-widow","Antrostomus carolinensis","L9438497","Disney Wilderness Preserve (Polk) Restricted","2025-06-15 05:51",4,28.0845561,-81.4115678,TRUE,FALSE,TRUE,"S250618459"
"243","chwwid","Chuck-will's-widow","Antrostomus carolinensis","L11715222","Fort Liberty North / West (Restricted Military Access)","2025-06-15 05:50",2,35.1859952,-79.2587246,TRUE,FALSE,FALSE,"S250593176"
"244","chwwid","Chuck-will's-widow","Antrostomus carolinensis","L4053904","Woodward BBS Route - Stop 1","2025-06-15 05:49",1,36.23905,-99.57867,TRUE,FALSE,TRUE,"S251557890"
"245","chwwid","Chuck-will's-widow","Antrostomus carolinensis","L43170501","Puncheon Camp Branch, Indian Creek, Menifee, KY (Private Property)","2025-06-15 05:45",1,37.9188062,-83.6863176,TRUE,FALSE,TRUE,"S250893024"
"246","chwwid","Chuck-will's-widow","Antrostomus carolinensis","L3540268","Three Lakes WMA--Hunter Campground","2025-06-15 05:45",1,27.9508107,-81.1424661,TRUE,FALSE,FALSE,"S250814486"
"247","chwwid","Chuck-will's-widow","Antrostomus carolinensis","L28894434","Private: Windy Ridge, Foxfire US-NC","2025-06-15 05:39",1,35.181817,-79.574135,TRUE,FALSE,TRUE,"S250497553"
"248","chwwid","Chuck-will's-widow","Antrostomus carolinensis","L4029179","Flower Mound, 3908 Sunnyview Ln","2025-06-15 05:37",1,33.03248,-97.15502,TRUE,FALSE,TRUE,"S250512198"
"249","chwwid","Chuck-will's-widow","Antrostomus carolinensis","L35579602","Home SC","2025-06-15 05:35",1,33.902048,-82.371755,TRUE,FALSE,TRUE,"S250587790"
"250","chwwid","Chuck-will's-widow","Antrostomus carolinensis","L47690259","418 over Enoree","2025-06-15 05:28",1,34.7524029,-82.1090528,TRUE,FALSE,TRUE,"S250665507"
"251","chwwid","Chuck-will's-widow","Antrostomus carolinensis","L32285905","Gross Point Dawn","2025-06-15 05:26",4,33.565325,-82.389707,TRUE,FALSE,TRUE,"S250523897"
"252","chwwid","Chuck-will's-widow","Antrostomus carolinensis","L2093759","Williamson Crk WTP (former)/Roy Kizer golf course (current)","2025-06-15 05:21",1,30.1807476,-97.7352333,TRUE,FALSE,FALSE,"S250511024"
"253","chwwid","Chuck-will's-widow","Antrostomus carolinensis","L920818","Disney Wilderness Preserve","2025-06-15 05:17",3,28.1281597,-81.4298916,TRUE,FALSE,FALSE,"S250499096"
"254","chwwid","Chuck-will's-widow","Antrostomus carolinensis","L47655009","Leland SE—Davis Creek Park, Navassa US-NC 34.26661, -78.00162","2025-06-15 05:16",1,34.266614,-78.001617,TRUE,FALSE,TRUE,"S250496481"
"255","chwwid","Chuck-will's-widow","Antrostomus carolinensis","L210368","Oak Openings Preserve Metropark","2025-06-15 05:00",1,41.551807,-83.8502312,TRUE,TRUE,FALSE,"S250868866"
"256","chwwid","Chuck-will's-widow","Antrostomus carolinensis","L17980431","Dalton Rd, Mill Spring (private road)","2025-06-15 05:00",1,35.3164263,-82.1437048,TRUE,FALSE,TRUE,"S250491503"
"257","chwwid","Chuck-will's-widow","Antrostomus carolinensis","L26781945","Yard","2025-06-15 04:50",1,36.4162868,-87.2104398,TRUE,FALSE,TRUE,"S250503437"
"258","chwwid","Chuck-will's-widow","Antrostomus carolinensis","L47651444","641 Sanderling Trail, North Carolina, US (36.313, -75.807)","2025-06-15 04:39",1,36.3128347,-75.8072131,TRUE,FALSE,TRUE,"S250482471"
"259","chwwid","Chuck-will's-widow","Antrostomus carolinensis","L37755858","6215 Parkers Hammock Road, Naples, Florida, US (26.112, -81.707)","2025-06-15 04:25",1,26.1115826,-81.7071536,TRUE,FALSE,TRUE,"S250479480"
"260","chwwid","Chuck-will's-widow","Antrostomus carolinensis","L47733386","Mt Olive Church Rd and Laws Rd (intersection), Snow Hill US-MD 38.25590, -75.44401","2025-06-14 23:54",1,38.255899,-75.444014,TRUE,FALSE,TRUE,"S250840278"
"261","chwwid","Chuck-will's-widow","Antrostomus carolinensis","L33322295","Efland SE (36.0254,-79.1500)","2025-06-14 23:35",2,36.025434,-79.150035,TRUE,FALSE,TRUE,"S250437942"
"262","chwwid","Chuck-will's-widow","Antrostomus carolinensis","L47639317","Oak Openings, Swanton US-OH 41.56952, -83.85394","2025-06-14 22:05",1,41.569523,-83.853945,TRUE,TRUE,TRUE,"S250424486"
"263","chwwid","Chuck-will's-widow","Antrostomus carolinensis","L47640866","24116–24298 Echo Cliff Rd, Maple Hill US-KS 38.94837, -95.96744","2025-06-14 21:54",2,38.948369,-95.967435,TRUE,FALSE,TRUE,"S250430209"
"264","chwwid","Chuck-will's-widow","Antrostomus carolinensis","L47686975","Bee Cave buntings","2025-06-14 21:44",1,30.2927436,-97.9693865,TRUE,FALSE,TRUE,"S250658366"
"265","chwwid","Chuck-will's-widow","Antrostomus carolinensis","L3289700","Fisherman Cove Home","2025-06-14 21:38",1,37.1834117,-84.1520494,TRUE,FALSE,TRUE,"S250418927"
"266","chwwid","Chuck-will's-widow","Antrostomus carolinensis","L47640347","US-160 Scenic View","2025-06-14 21:34",1,37.275216,-98.695365,TRUE,FALSE,TRUE,"S250428233"
"267","chwwid","Chuck-will's-widow","Antrostomus carolinensis","L47936185","Wichita Mountains National Wildlife Refuge, Lawton US-OK 34.71817, -98.64415","2025-06-14 21:14",1,34.718165,-98.644145,TRUE,FALSE,TRUE,"S251796606"
"268","chwwid","Chuck-will's-widow","Antrostomus carolinensis","L47636306","Bryan County, Private Property","2025-06-14 21:04",1,31.87285,-81.252792,TRUE,FALSE,TRUE,"S250412589"
"269","chwwid","Chuck-will's-widow","Antrostomus carolinensis","L33906771","15266 County Road 3104, Gladewater, Texas, US (32.484, -95.03)","2025-06-14 21:04",3,32.4839195,-95.0296772,TRUE,FALSE,TRUE,"S250423773"
"270","chwwid","Chuck-will's-widow","Antrostomus carolinensis","L47636330","Unnamed Road, Lillington, North Carolina, US (35.457, -78.904)","2025-06-14 21:03",NA,35.4566763,-78.903874,TRUE,FALSE,TRUE,"S250412677"
"271","chwwid","Chuck-will's-widow","Antrostomus carolinensis","L47632931","N Base Trail, Nags Head US-NC (35.9043,-75.5979)","2025-06-14 20:58",1,35.904327,-75.597917,TRUE,FALSE,TRUE,"S250411282"
"272","chwwid","Chuck-will's-widow","Antrostomus carolinensis","L27230647","Doe Run Preserve","2025-06-14 20:58",1,38.6591951,-75.150589,TRUE,FALSE,TRUE,"S250411414"
"273","chwwid","Chuck-will's-widow","Antrostomus carolinensis","L1868383","Pedernales Hills Ranch","2025-06-14 20:57",2,30.288588,-98.3334882,TRUE,FALSE,TRUE,"S250422080"
"274","chwwid","Chuck-will's-widow","Antrostomus carolinensis","L47635873","116 Calhoun Ln, Richmond Hill US-GA 31.84255, -81.19151","2025-06-14 20:57",1,31.842552,-81.191512,TRUE,FALSE,TRUE,"S250410761"
"275","chwwid","Chuck-will's-widow","Antrostomus carolinensis","L6302288","18384 Poston Ave.","2025-06-14 20:55",1,26.9825486,-82.1442537,TRUE,FALSE,TRUE,"S250409649"
"276","chwwid","Chuck-will's-widow","Antrostomus carolinensis","L47638119","496 County Road 4703, Poplar Bluff, Missouri, US (36.742, -90.486)","2025-06-14 20:46",1,36.7418893,-90.4859782,TRUE,FALSE,TRUE,"S250420133"
"277","chwwid","Chuck-will's-widow","Antrostomus carolinensis","L497070","Nags Head Woods Ecological Preserve","2025-06-14 20:45",1,35.9894485,-75.6655669,TRUE,FALSE,FALSE,"S250411177"
"278","chwwid","Chuck-will's-widow","Antrostomus carolinensis","L47640947","1595–1999 Sturgis Rd, Louisville US-MS 33.19423, -89.02599","2025-06-14 20:43",6,33.19423,-89.025987,TRUE,FALSE,TRUE,"S250430720"
"279","chwwid","Chuck-will's-widow","Antrostomus carolinensis","L34036065","Weatherly Lake, Alabaster US-AL","2025-06-14 20:42",1,33.248507,-86.788238,TRUE,FALSE,TRUE,"S250419444"
"280","chwwid","Chuck-will's-widow","Antrostomus carolinensis","L47635581","Aiken Gopher Tortoise WMA","2025-06-14 20:41",1,33.5069582,-81.4186326,TRUE,FALSE,TRUE,"S250408864"
"281","chwwid","Chuck-will's-widow","Antrostomus carolinensis","L43802168","1738–2034 Logsdon Valley Rd, Munfordville US-KY 37.26778, -85.95813","2025-06-14 20:31",1,37.267785,-85.95813,TRUE,FALSE,TRUE,"S250424337"
"282","chwwid","Chuck-will's-widow","Antrostomus carolinensis","L3262311","Carolina Sandhills NWR -- Oxpen Lakes","2025-06-14 20:22",4,34.6052368,-80.2488077,TRUE,FALSE,FALSE,"S250421526"
"283","chwwid","Chuck-will's-widow","Antrostomus carolinensis","L46813455","Bear Swamp Rd, Salisbury US-MD 38.30550, -75.46038","2025-06-14 20:02",1,38.305502,-75.460381,TRUE,FALSE,TRUE,"S250416915"
"284","chwwid","Chuck-will's-widow","Antrostomus carolinensis","L1046929","Sandy Hook--Scout Camp & Randolph Drive","2025-06-14 20:01",1,40.4505966,-73.9972544,TRUE,FALSE,FALSE,"S251216841"
"285","chwwid","Chuck-will's-widow","Antrostomus carolinensis","L724290","Cedars of Lebanon SF--Vesta Cedar Glade SNA","2025-06-14 18:53",1,36.0770072,-86.3986864,TRUE,FALSE,FALSE,"S250427842"
"286","chwwid","Chuck-will's-widow","Antrostomus carolinensis","L16223808","125 Coeur Dalene, Montevallo US-AL (33.1144,-86.8471)","2025-06-14 10:17",1,33.114385,-86.847146,TRUE,FALSE,TRUE,"S250226144"
"287","chwwid","Chuck-will's-widow","Antrostomus carolinensis","L47611202","41501–41523 CR-112, Bay Minette US-AL (30.7853,-87.6130)","2025-06-14 08:44",4,30.785297,-87.612951,TRUE,FALSE,TRUE,"S250309624"
"288","chwwid","Chuck-will's-widow","Antrostomus carolinensis","L9452234","20368–20630 Old Brady Rd, Bay Minette US-AL (30.8061,-87.6950)","2025-06-14 08:27",4,30.806116,-87.69499,TRUE,FALSE,TRUE,"S250252015"
"289","chwwid","Chuck-will's-widow","Antrostomus carolinensis","L142170","Park Place","2025-06-14 06:45",1,29.8576916,-98.7555456,TRUE,FALSE,TRUE,"S250349926"
"290","chwwid","Chuck-will's-widow","Antrostomus carolinensis","L6979593","Picayune Strand SF--Merritt Pump Station","2025-06-14 06:18",2,26.14132,-81.492508,TRUE,FALSE,FALSE,"S250132038"
"291","chwwid","Chuck-will's-widow","Antrostomus carolinensis","L677081","Tiger Bay Forest WMA","2025-06-14 06:15",1,29.168351,-81.1649323,TRUE,FALSE,FALSE,"S250204250"
"292","chwwid","Chuck-will's-widow","Antrostomus carolinensis","L8757805","Picayune Strand SF--Belle Mead Horse Trail","2025-06-14 06:01",2,26.1406552,-81.653894,TRUE,FALSE,FALSE,"S250201084"
"293","chwwid","Chuck-will's-widow","Antrostomus carolinensis","L31992991","AA6","2025-06-14 06:00",1,31.5024831,-83.3533071,TRUE,FALSE,TRUE,"S250104673"
"294","chwwid","Chuck-will's-widow","Antrostomus carolinensis","L26890122","School Bus Road, Frostproof, Florida, US (27.657, -81.393)","2025-06-14 05:58",8,27.6572799,-81.3929008,TRUE,FALSE,TRUE,"S250148801"
"295","chwwid","Chuck-will's-widow","Antrostomus carolinensis","L8723938","Panola Mountain SP--Power of Flight Area","2025-06-14 05:53",1,33.6397188,-84.157496,TRUE,FALSE,FALSE,"S250849570"
"296","chwwid","Chuck-will's-widow","Antrostomus carolinensis","L1439093","Hal Scott Regional Preserve and Park","2025-06-14 05:50",4,28.486186,-81.1079327,TRUE,FALSE,FALSE,"S250272730"
"297","chwwid","Chuck-will's-widow","Antrostomus carolinensis","L11047271","Milton Reimers Ranch Park--Entrance road & booth","2025-06-14 05:45",1,30.3423023,-98.1145496,TRUE,FALSE,FALSE,"S250126415"
"298","chwwid","Chuck-will's-widow","Antrostomus carolinensis","L23018086","N River Farms Rd, Beaufort US-NC (34.7669,-76.5378)","2025-06-14 05:37",1,34.766887,-76.537751,TRUE,FALSE,TRUE,"S250200522"
"299","chwwid","Chuck-will's-widow","Antrostomus carolinensis","L47627037","Stonecreek Lodge","2025-06-14 05:32",1,34.166113,-94.794416,TRUE,FALSE,TRUE,"S250376419"
"300","chwwid","Chuck-will's-widow","Antrostomus carolinensis","L674999","Lake Ramsay Savannah WMA","2025-06-14 05:27",1,30.5248569,-90.1656532,TRUE,FALSE,FALSE,"S250177393"
"301","chwwid","Chuck-will's-widow","Antrostomus carolinensis","L33036673","Franklin County portion of BBS Gupton","2025-06-14 05:25",2,36.17697,-78.211362,TRUE,FALSE,TRUE,"S250384637"
"302","chwwid","Chuck-will's-widow","Antrostomus carolinensis","L40814040","Hooligan House","2025-06-14 05:24",1,30.463267,-89.087571,TRUE,FALSE,TRUE,"S250111674"
"303","chwwid","Chuck-will's-widow","Antrostomus carolinensis","L30228575","Respite","2025-06-14 05:23",NA,36.908662,-93.2359,TRUE,FALSE,TRUE,"S250136553"
"304","chwwid","Chuck-will's-widow","Antrostomus carolinensis","L1030273","James River NWR (restricted access)","2025-06-14 05:15",3,37.281702,-77.1177578,TRUE,FALSE,FALSE,"S250420302"
"305","chwwid","Chuck-will's-widow","Antrostomus carolinensis","L31327128","Dupree Street, Lexington, Georgia, US (33.867, -83.105) Private Residences in Lexington Ga.","2025-06-14 02:55",1,33.8670085,-83.1053454,TRUE,FALSE,TRUE,"S250851136"
"306","chwwid","Chuck-will's-widow","Antrostomus carolinensis","L47552079","Gulf State Park - Headquarters, Gulf Shores US-AL 30.26711, -87.67697","2025-06-14 01:01",1,30.267113,-87.676969,TRUE,FALSE,TRUE,"S250063053"
"307","chwwid","Chuck-will's-widow","Antrostomus carolinensis","L3836526","Cedar Creek Lake","2025-06-14 00:51",NA,37.8204,-94.79466,TRUE,FALSE,FALSE,"S250061568"
"308","chwwid","Chuck-will's-widow","Antrostomus carolinensis","L33889298","39287 N Kinnakeet Dr, Avon US-NC 35.36956, -75.49696","2025-06-14 00:40",1,35.36956,-75.496955,TRUE,FALSE,TRUE,"S251012147"
"309","chwwid","Chuck-will's-widow","Antrostomus carolinensis","L47551261","7601 84th St, Slaughterville US-OK 35.12635, -97.31721","2025-06-14 00:26",1,35.126351,-97.317213,TRUE,FALSE,TRUE,"S250058689"
"310","chwwid","Chuck-will's-widow","Antrostomus carolinensis","L38219822","Home LBP","2025-06-13 23:57",1,39.067255,-74.847358,TRUE,FALSE,TRUE,"S250049462"
"311","chwwid","Chuck-will's-widow","Antrostomus carolinensis","L47545815","Auto selected 37.52935, -75.91371","2025-06-13 21:46",1,37.529353,-75.913711,TRUE,FALSE,TRUE,"S250033997"
"312","chwwid","Chuck-will's-widow","Antrostomus carolinensis","L47545759","7500 East Allens Creek Road, Bloomington, Indiana, US (39.033, -86.417)","2025-06-13 21:36",1,39.0326397,-86.417287,TRUE,FALSE,TRUE,"S250033765"
"313","chwwid","Chuck-will's-widow","Antrostomus carolinensis","L40909080","Coast Cottage","2025-06-13 21:35",1,30.462615,-89.058372,TRUE,FALSE,TRUE,"S250040261"
"314","chwwid","Chuck-will's-widow","Antrostomus carolinensis","L9186550","Highway 303 Agricultural Fields","2025-06-13 21:29",1,36.185211,-93.91492,TRUE,FALSE,TRUE,"S250242499"
"315","chwwid","Chuck-will's-widow","Antrostomus carolinensis","L47547158","824 Jay Kelley Ln, Sunset US-TX 33.42884, -97.78016","2025-06-13 21:28",1,33.428843,-97.780164,TRUE,FALSE,TRUE,"S250039485"
"316","chwwid","Chuck-will's-widow","Antrostomus carolinensis","L27880483","1036 Joppa Mill Road, Bedford, Virginia, US (37.275, -79.554)","2025-06-13 21:27",1,37.2752937,-79.5543478,TRUE,FALSE,TRUE,"S250030620"
"317","chwwid","Chuck-will's-widow","Antrostomus carolinensis","L977042","Brooker Creek Headwaters Nature Preserve","2025-06-13 21:25",1,28.1376399,-82.556355,TRUE,FALSE,FALSE,"S250030367"
"318","chwwid","Chuck-will's-widow","Antrostomus carolinensis","L47579138","6590 West 80th Street, Perkins, Oklahoma, US (36.029, -97.146)","2025-06-13 21:23",1,36.0288483,-97.14627,TRUE,FALSE,TRUE,"S250186242"
"319","chwwid","Chuck-will's-widow","Antrostomus carolinensis","L47255248","Folly Beach House","2025-06-13 21:17",1,32.667457,-79.916839,TRUE,FALSE,TRUE,"S250029375"
"320","chwwid","Chuck-will's-widow","Antrostomus carolinensis","L45189532","141 Goshen Swainton Rd, Cape May Court House US-NJ 39.12629, -74.81575","2025-06-13 21:15",1,39.126288,-74.815746,TRUE,FALSE,TRUE,"S250582717"
"321","chwwid","Chuck-will's-widow","Antrostomus carolinensis","L47544274","206–252 Hillcrest Dr, Southern Shores US-NC 36.13440, -75.73854","2025-06-13 21:11",2,36.134403,-75.73854,TRUE,FALSE,TRUE,"S250027488"
"322","chwwid","Chuck-will's-widow","Antrostomus carolinensis","L40387011","8510 Coulter Lake Rd, Little Rock US-AR 34.63390, -92.37356","2025-06-13 21:08",2,34.633899,-92.373561,TRUE,FALSE,TRUE,"S250036954"
"323","chwwid","Chuck-will's-widow","Antrostomus carolinensis","L1151874","Wichita Mtns Wildlife Refuge--Doris Campground","2025-06-13 21:07",2,34.7178935,-98.6472058,TRUE,FALSE,FALSE,"S250217102"
"324","chwwid","Chuck-will's-widow","Antrostomus carolinensis","L5774976","Sand Central Station","2025-06-13 21:04",1,35.0735,-79.557,TRUE,FALSE,TRUE,"S250026431"
"325","chwwid","Chuck-will's-widow","Antrostomus carolinensis","L1764036","Table Rock SP—Lake Oolenoy","2025-06-13 21:04",1,35.0183715,-82.6935993,TRUE,FALSE,FALSE,"S250027597"
"326","chwwid","Chuck-will's-widow","Antrostomus carolinensis","L47544055","Hill test drive","2025-06-13 21:03",1,36.141826,-75.743777,TRUE,FALSE,TRUE,"S250026691"
"327","chwwid","Chuck-will's-widow","Antrostomus carolinensis","L6696634","jordan home","2025-06-13 21:03",2,37.630955,-93.6511517,TRUE,FALSE,TRUE,"S250037796"
"328","chwwid","Chuck-will's-widow","Antrostomus carolinensis","L47402047","2803–3097 Tree Farm Rd, Hillsborough US-NC 36.02558, -79.15046","2025-06-13 21:02",2,36.02558,-79.150456,TRUE,FALSE,TRUE,"S250025989"
"329","chwwid","Chuck-will's-widow","Antrostomus carolinensis","L20366879","Aerial Way,Hernando County Airport Grounds","2025-06-13 21:00",1,28.4773329,-82.4791619,TRUE,FALSE,TRUE,"S250031582"
"330","chwwid","Chuck-will's-widow","Antrostomus carolinensis","L11027323","Villas Home and Woods","2025-06-13 21:00",1,39.0107273,-74.9359294,TRUE,FALSE,TRUE,"S250025596"
"331","chwwid","Chuck-will's-widow","Antrostomus carolinensis","L4558457","Bernheim Arboretum & Research Forest (Bullitt Co.)--Garden Pavilion","2025-06-13 20:59",1,37.918854,-85.668487,TRUE,FALSE,FALSE,"S250045924"
"332","chwwid","Chuck-will's-widow","Antrostomus carolinensis","L14017003","Hichitee Creek Farm","2025-06-13 20:57",1,32.252037,-84.748472,TRUE,FALSE,TRUE,"S250035285"
"333","chwwid","Chuck-will's-widow","Antrostomus carolinensis","L22023499","King Ranch (Private Property)","2025-06-13 20:55",1,35.250316,-96.094357,TRUE,FALSE,TRUE,"S250035311"
"334","chwwid","Chuck-will's-widow","Antrostomus carolinensis","L19334167","Church on Hamilton rd","2025-06-13 20:52",6,38.757243,-83.390769,TRUE,FALSE,TRUE,"S250044457"
"335","chwwid","Chuck-will's-widow","Antrostomus carolinensis","L16599632","3233 Middle Dam Ct, Seabrook Island US-SC 32.57528, -80.16288","2025-06-13 20:51",3,32.575281,-80.16288,TRUE,FALSE,TRUE,"S250023968"
"336","chwwid","Chuck-will's-widow","Antrostomus carolinensis","L46866943","Areli’s yard 3310 Broad Street Rd, Gum Spring US-VA 37.77938, -77.90120","2025-06-13 20:51",1,37.779385,-77.901203,TRUE,FALSE,TRUE,"S250023885"
"337","chwwid","Chuck-will's-widow","Antrostomus carolinensis","L22254676","Del Webb","2025-06-13 20:51",1,30.0942039,-81.4057693,TRUE,FALSE,TRUE,"S250024408"
"338","chwwid","Chuck-will's-widow","Antrostomus carolinensis","L947071","Camp Fincastle","2025-06-13 20:37",1,37.4982015,-79.9321246,TRUE,FALSE,TRUE,"S250026553"
"339","chwwid","Chuck-will's-widow","Antrostomus carolinensis","L40077970","River Rd, Callahan","2025-06-13 20:28",2,30.555039,-81.880592,TRUE,FALSE,TRUE,"S250400673"
"340","chwwid","Chuck-will's-widow","Antrostomus carolinensis","L342636","Truman Reservoir","2025-06-13 20:15",1,38.2599722,-93.4127028,TRUE,FALSE,FALSE,"S250035934"
"341","chwwid","Chuck-will's-widow","Antrostomus carolinensis","L47549248","Bibb County 24, Brierfield, Alabama, US (33.109, -87.079)","2025-06-13 20:05",4,33.1093782,-87.0787111,TRUE,FALSE,TRUE,"S250048443"
"342","chwwid","Chuck-will's-widow","Antrostomus carolinensis","L200357","Ferne Clyffe State Park","2025-06-13 19:53",2,37.5327029,-88.9759932,TRUE,FALSE,FALSE,"S250037555"
"343","chwwid","Chuck-will's-widow","Antrostomus carolinensis","L490932","Twilley's Bridge","2025-06-13 19:50",1,38.3202455,-75.4703665,TRUE,FALSE,FALSE,"S250034730"
"344","chwwid","Chuck-will's-widow","Antrostomus carolinensis","L591879","Oktibbeha County Lake","2025-06-13 19:40",1,33.507264,-88.9395618,TRUE,FALSE,FALSE,"S250027856"
"345","chwwid","Chuck-will's-widow","Antrostomus carolinensis","L47259915","7680 Fieldstone Ranch Square, Vero Beach US-FL 27.73158, -80.44926","2025-06-13 19:35",1,27.731578,-80.449259,TRUE,FALSE,TRUE,"S250032191"
"346","chwwid","Chuck-will's-widow","Antrostomus carolinensis","L10987728","335 Little Choestoea Road","2025-06-13 19:00",1,34.5678188,-83.0654234,TRUE,FALSE,TRUE,"S250435005"
"347","chwwid","Chuck-will's-widow","Antrostomus carolinensis","L8649719","Brownie Wise Park","2025-06-13 17:20",1,28.2762918,-81.3876181,TRUE,FALSE,FALSE,"S250006398"
"348","chwwid","Chuck-will's-widow","Antrostomus carolinensis","L365026","Bonita Lakes","2025-06-13 07:01",1,32.3595908,-88.6601508,TRUE,FALSE,FALSE,"S249839436"
"349","chwwid","Chuck-will's-widow","Antrostomus carolinensis","L2656806","Fairfield harbour","2025-06-13 07:00",1,35.0939753,-77.0014,TRUE,FALSE,TRUE,"S250205239"
"350","chwwid","Chuck-will's-widow","Antrostomus carolinensis","L234114","Natural Bridge SRP","2025-06-13 06:59",1,37.7669095,-83.6743032,TRUE,FALSE,FALSE,"S249773809"
"351","chwwid","Chuck-will's-widow","Antrostomus carolinensis","L22359074","Laity Lodge","2025-06-13 06:33",1,29.860277,-99.658781,TRUE,FALSE,FALSE,"S249932192"
"352","chwwid","Chuck-will's-widow","Antrostomus carolinensis","L13608902","OK Corral and Spa","2025-06-13 06:07",2,26.994512,-81.888328,TRUE,FALSE,TRUE,"S249761691"
"353","chwwid","Chuck-will's-widow","Antrostomus carolinensis","L47516013","101–399 Spring Rd, Ashland US-AL 33.23132, -85.73899","2025-06-13 06:05",1,33.231321,-85.738994,TRUE,FALSE,TRUE,"S249909335"
"354","chwwid","Chuck-will's-widow","Antrostomus carolinensis","L12308425","Arcadia Lake--Carl Reherman Park","2025-06-13 06:03",1,35.6240815,-97.3985898,TRUE,FALSE,FALSE,"S249811803"
"355","chwwid","Chuck-will's-widow","Antrostomus carolinensis","L129016","Lost Maples SNA (HOTW 061)","2025-06-13 06:02",2,29.8155087,-99.5762582,TRUE,FALSE,FALSE,"S250439586"
"356","chwwid","Chuck-will's-widow","Antrostomus carolinensis","L44241930","14512 Greater Pines Blvd, Clermont US-FL (28.5350,-81.7127)","2025-06-13 06:02",1,28.534998,-81.712653,TRUE,FALSE,TRUE,"S249760775"
"357","chwwid","Chuck-will's-widow","Antrostomus carolinensis","L9365249","Austin Cary Forest (access restricted)","2025-06-13 06:00",1,29.7332843,-82.2201777,TRUE,FALSE,FALSE,"S250183257"
"358","chwwid","Chuck-will's-widow","Antrostomus carolinensis","L2828146","Triple N Ranch WMA","2025-06-13 05:58",2,28.1307024,-81.0206187,TRUE,FALSE,FALSE,"S250560449"
"359","chwwid","Chuck-will's-widow","Antrostomus carolinensis","L3188498","L31W Canal","2025-06-13 05:55",1,25.3978115,-80.5725288,TRUE,FALSE,FALSE,"S249811491"
"360","chwwid","Chuck-will's-widow","Antrostomus carolinensis","L15827100","Waccamaw Middle Schools Pawleys Island","2025-06-13 05:50",1,33.492147,-79.096065,TRUE,FALSE,TRUE,"S249761983"
"361","chwwid","Chuck-will's-widow","Antrostomus carolinensis","L4959205","Bob's Yard","2025-06-13 05:50",1,31.351389,-84.923889,TRUE,FALSE,TRUE,"S249760076"
"362","chwwid","Chuck-will's-widow","Antrostomus carolinensis","L47508208","Fort Bragg, Cameron US-NC (35.2302,-79.0365)","2025-06-13 05:50",1,35.230153,-79.036513,TRUE,FALSE,TRUE,"S249877069"
"363","chwwid","Chuck-will's-widow","Antrostomus carolinensis","L2885771","Ave. L Wetlands","2025-06-13 05:45",2,37.222925,-99.2587455,TRUE,FALSE,FALSE,"S249978078"
"364","chwwid","Chuck-will's-widow","Antrostomus carolinensis","L357287","Raven Rock SP","2025-06-13 05:38",1,35.46067,-78.9065552,TRUE,FALSE,FALSE,"S249828928"
"365","chwwid","Chuck-will's-widow","Antrostomus carolinensis","L11246182","Yard","2025-06-13 05:30",1,35.2569382,-97.2754184,TRUE,FALSE,TRUE,"S249766117"
"366","chwwid","Chuck-will's-widow","Antrostomus carolinensis","L47515794","366–388 Providence Rd, Ashland US-AL 33.23091, -85.74862","2025-06-13 05:30",1,33.230911,-85.748623,TRUE,FALSE,TRUE,"S249908549"
"367","chwwid","Chuck-will's-widow","Antrostomus carolinensis","L47483255","Allens Creek Road","2025-06-13 05:26",1,39.0343839,-86.4092573,TRUE,FALSE,TRUE,"S249757597"
"368","chwwid","Chuck-will's-widow","Antrostomus carolinensis","L7911188","Sandy Point Rd","2025-06-13 05:16",1,37.2727724,-76.9589439,TRUE,FALSE,TRUE,"S250252235"
"369","chwwid","Chuck-will's-widow","Antrostomus carolinensis","L46492649","Mooretown SE, Navillus Boulevard, Rocky Point US-NC 34.41236, -77.77646","2025-06-13 05:14",2,34.412365,-77.776462,TRUE,FALSE,TRUE,"S249932083"
"370","chwwid","Chuck-will's-widow","Antrostomus carolinensis","L47484637","11486–11574 US-45, Fruitdale US-AL 31.28884, -88.34987","2025-06-13 05:12",1,31.288844,-88.349868,TRUE,FALSE,TRUE,"S249763759"
"371","chwwid","Chuck-will's-widow","Antrostomus carolinensis","L47519148","Skippers SE, Jack Swamp Rd,36.51700, -77.55849","2025-06-13 05:11",1,36.517001,-77.558494,TRUE,FALSE,TRUE,"S249922125"
"372","chwwid","Chuck-will's-widow","Antrostomus carolinensis","L46835145","Margarettsville SE - Sharron Church Rd (36.5119,-77.3068)","2025-06-13 05:09",1,36.511934,-77.306794,TRUE,FALSE,TRUE,"S249985290"
"373","chwwid","Chuck-will's-widow","Antrostomus carolinensis","L718342","Brownsville Preserve","2025-06-13 04:57",2,37.4689,-75.8327,TRUE,FALSE,FALSE,"S249751130"
"374","chwwid","Chuck-will's-widow","Antrostomus carolinensis","L47519028","Skippers SE, Jack Swamp Rd, 36.51541, -77.54310","2025-06-13 04:51",2,36.515405,-77.543101,TRUE,FALSE,TRUE,"S249921688"
"375","chwwid","Chuck-will's-widow","Antrostomus carolinensis","L47716478","Poston Lane, Gordonsville","2025-06-13 04:40",1,36.2494966,-86.0561247,TRUE,FALSE,TRUE,"S250774328"
"376","chwwid","Chuck-will's-widow","Antrostomus carolinensis","L5563129","US-North Carolina-Clinton-3161-3377 Big Piney Grove Road - 34.909x-78.415","2025-06-13 04:33",1,34.9087335,-78.4145514,TRUE,FALSE,TRUE,"S249747784"
"377","chwwid","Chuck-will's-widow","Antrostomus carolinensis","L15134022","Maryland Point Rd, Nanjemoy","2025-06-13 03:38",1,38.4041284,-77.2017216,TRUE,FALSE,TRUE,"S249765321"
"378","chwwid","Chuck-will's-widow","Antrostomus carolinensis","L20134263","Smith Point Rd, Nanjemoy","2025-06-13 02:50",1,38.4003248,-77.218983,TRUE,FALSE,TRUE,"S249762764"
"379","chwwid","Chuck-will's-widow","Antrostomus carolinensis","L10802728","In the country","2025-06-13 00:04",2,33.590338,-96.525656,TRUE,FALSE,TRUE,"S249822415"
"380","chwwid","Chuck-will's-widow","Antrostomus carolinensis","L10886321","Wildway Rd, Gladstone US-VA 37.48742, -78.81054","2025-06-12 23:30",1,37.487416,-78.810535,TRUE,FALSE,TRUE,"S249713627"
"381","chwwid","Chuck-will's-widow","Antrostomus carolinensis","L41393138","Roadrunner House","2025-06-12 23:20",1,30.1950294,-97.930858,TRUE,FALSE,TRUE,"S249718244"
"382","chwwid","Chuck-will's-widow","Antrostomus carolinensis","L1149591","Edge of Appalachia Preserve--Buzzardroost Rock","2025-06-12 23:12",1,38.7734916,-83.4385872,TRUE,FALSE,FALSE,"S249721755"
"383","chwwid","Chuck-will's-widow","Antrostomus carolinensis","L47379653","Rosa Lee Manor","2025-06-12 21:31",1,36.457964,-80.472755,TRUE,FALSE,TRUE,"S249699722"
"384","chwwid","Chuck-will's-widow","Antrostomus carolinensis","L34453297","Feeder","2025-06-12 21:30",1,35.808894,-81.522554,TRUE,FALSE,TRUE,"S249699713"
"385","chwwid","Chuck-will's-widow","Antrostomus carolinensis","L4608652","Oak Openings--Girdham Rd. @ Sager Rd.","2025-06-12 21:30",1,41.5746417,-83.8539916,TRUE,TRUE,FALSE,"S249704083"
"386","chwwid","Chuck-will's-widow","Antrostomus carolinensis","L30852956","Honeydew Ridge, San Antonio US-TX 29.47988, -98.75098","2025-06-12 21:26",1,29.47988,-98.750981,TRUE,FALSE,TRUE,"S249706668"
"387","chwwid","Chuck-will's-widow","Antrostomus carolinensis","L3166299","Sautee Nacoochee Area","2025-06-12 21:20",1,34.703707,-83.6800933,TRUE,FALSE,TRUE,"S249700933"
"388","chwwid","Chuck-will's-widow","Antrostomus carolinensis","L22578669","Dunkleburg","2025-06-12 21:19",1,34.8276363,-83.0292546,TRUE,FALSE,TRUE,"S249701595"
"389","chwwid","Chuck-will's-widow","Antrostomus carolinensis","L12597686","6800 Thorneton Rd, Easton US-MD 38.73623, -76.19485","2025-06-12 21:18",1,38.736234,-76.194851,TRUE,FALSE,TRUE,"S249697992"
"390","chwwid","Chuck-will's-widow","Antrostomus carolinensis","L7131777","Lakewood Ranch Blvd N","2025-06-12 21:14",1,27.3733819,-82.4319863,TRUE,FALSE,TRUE,"S249700307"
"391","chwwid","Chuck-will's-widow","Antrostomus carolinensis","L12825725","546 Luminary Blvd, Osprey US-FL 27.17385, -82.47611","2025-06-12 21:10",1,27.173847,-82.47611,TRUE,FALSE,TRUE,"S249697057"
"392","chwwid","Chuck-will's-widow","Antrostomus carolinensis","L47470231","2769 Top Hill Ct, Minneola US-FL (28.6236,-81.7251)","2025-06-12 21:09",1,28.623588,-81.725119,TRUE,FALSE,TRUE,"S249696391"
"393","chwwid","Chuck-will's-widow","Antrostomus carolinensis","L38970989","22903, Charlottesville US-VA (Private1) 38.01451, -78.72951","2025-06-12 21:08",1,38.01451,-78.729505,TRUE,FALSE,TRUE,"S249696689"
"394","chwwid","Chuck-will's-widow","Antrostomus carolinensis","L4308095","DeFriese Road","2025-06-12 21:02",1,35.3584219,-84.9863291,TRUE,FALSE,TRUE,"S249699002"
"395","chwwid","Chuck-will's-widow","Antrostomus carolinensis","L15151668","114 North Brig Drive, Hampstead, North Carolina, US (34.446, -77.58)","2025-06-12 21:02",1,34.4461805,-77.5796127,TRUE,FALSE,TRUE,"S249695027"
"396","chwwid","Chuck-will's-widow","Antrostomus carolinensis","L481406","Nauset Light Beach, Eastham","2025-06-12 21:00",1,41.8586304,-69.9517322,TRUE,TRUE,FALSE,"S249701589"
"397","chwwid","Chuck-will's-widow","Antrostomus carolinensis","L47643078","35109 Ranch to Market Road 187, Vanderpool, Texas, US (29.781, -99.569)","2025-06-12 20:59",6,29.7808847,-99.5690009,TRUE,FALSE,TRUE,"S250439603"
"398","chwwid","Chuck-will's-widow","Antrostomus carolinensis","L19246051","107 Overlook Dr, Pickens US-SC 34.92679, -82.65193","2025-06-12 20:56",1,34.926788,-82.651932,TRUE,FALSE,TRUE,"S249697227"
"399","chwwid","Chuck-will's-widow","Antrostomus carolinensis","L2908444","Big Woods WMA","2025-06-12 20:55",1,36.9283428,-77.0800996,TRUE,FALSE,FALSE,"S249701899"
"400","chwwid","Chuck-will's-widow","Antrostomus carolinensis","L38790389","Dad’s house","2025-06-12 20:55",1,26.904364,-82.250675,TRUE,FALSE,TRUE,"S249693629"
"401","chwwid","Chuck-will's-widow","Antrostomus carolinensis","L13173281","Sandy Island Road Pawleys Island","2025-06-12 20:51",3,33.503827,-79.106634,TRUE,FALSE,TRUE,"S249694895"
"402","chwwid","Chuck-will's-widow","Antrostomus carolinensis","L29798516","15443 NC-55, Stonewall US-NC (35.1401,-76.7632)","2025-06-12 20:50",1,35.140095,-76.763165,TRUE,FALSE,TRUE,"S249698325"
"403","chwwid","Chuck-will's-widow","Antrostomus carolinensis","L2730967","Wekiwa Springs SP--Prevatt Lake","2025-06-12 20:49",2,28.7116919,-81.4879577,TRUE,FALSE,FALSE,"S249693311"
"404","chwwid","Chuck-will's-widow","Antrostomus carolinensis","L47469886","Tenth Ave walkway","2025-06-12 20:47",1,36.145551,-75.744133,TRUE,FALSE,TRUE,"S249694732"
"405","chwwid","Chuck-will's-widow","Antrostomus carolinensis","L44865943","2001 Motlow College Blvd, Smyrna US-TN 35.99536, -86.53920","2025-06-12 20:47",2,35.99536,-86.539197,TRUE,FALSE,TRUE,"S249707818"
"406","chwwid","Chuck-will's-widow","Antrostomus carolinensis","L30383599","Bayard Rd, Green Cove Springs US-FL 29.93863, -81.66203","2025-06-12 20:39",15,29.938633,-81.662034,TRUE,FALSE,TRUE,"S249697469"
"407","chwwid","Chuck-will's-widow","Antrostomus carolinensis","L475132","Bells Bend Park","2025-06-12 20:35",1,36.1521921,-86.9284072,TRUE,TRUE,FALSE,"S249864843"
"408","chwwid","Chuck-will's-widow","Antrostomus carolinensis","L474100","Nassawango Creek Preserve","2025-06-12 20:32",2,38.205944,-75.468104,TRUE,FALSE,FALSE,"S249702598"
"409","chwwid","Chuck-will's-widow","Antrostomus carolinensis","L1043368","Blind Pass","2025-06-12 20:30",1,26.4810218,-82.1818542,TRUE,FALSE,FALSE,"S249690510"
"410","chwwid","Chuck-will's-widow","Antrostomus carolinensis","L148725","Camp Helen SP","2025-06-12 20:13",1,30.2726402,-85.9923859,TRUE,FALSE,FALSE,"S249698791"
"411","chwwid","Chuck-will's-widow","Antrostomus carolinensis","L1532036","Lake Georgetown--Dam area","2025-06-12 19:57",3,30.6656228,-97.7266115,TRUE,FALSE,FALSE,"S249853569"
"412","chwwid","Chuck-will's-widow","Antrostomus carolinensis","L504106","Assateague I. NS--Life of the Forest","2025-06-12 19:29",1,38.1979474,-75.1578355,TRUE,FALSE,FALSE,"S252156628"
"413","chwwid","Chuck-will's-widow","Antrostomus carolinensis","L47071198","Turtle Point Golf Course, Kiawah Island","2025-06-12 19:12",1,32.608772,-80.072684,TRUE,FALSE,TRUE,"S249708512"
"414","chwwid","Chuck-will's-widow","Antrostomus carolinensis","L392828","Camp Robinson Special Use Area","2025-06-12 19:10",4,34.9833154,-92.3728752,TRUE,FALSE,FALSE,"S249714261"
"415","chwwid","Chuck-will's-widow","Antrostomus carolinensis","L47680822","Postcard Cabins Hill Country - Travis Cabin","2025-06-12 19:00",1,30.06915,-98.2010364,TRUE,FALSE,TRUE,"S250626834"
"416","chwwid","Chuck-will's-widow","Antrostomus carolinensis","L728087","Cedars of Lebanon SP","2025-06-12 18:00",2,36.0757422,-86.3105679,TRUE,FALSE,FALSE,"S249945360"
"417","chwwid","Chuck-will's-widow","Antrostomus carolinensis","L17961675","Knobs State Forest","2025-06-12 15:33",8,37.8896896,-85.6908524,TRUE,FALSE,FALSE,"S249713125"
"418","chwwid","Chuck-will's-widow","Antrostomus carolinensis","L7913252","Ed Radice Sports Complex","2025-06-12 12:36",3,28.0831977,-82.6085669,TRUE,FALSE,FALSE,"S249603164"
"419","chwwid","Chuck-will's-widow","Antrostomus carolinensis","L14003905","3720 Duckett Mill Rd, Gainesville US-GA 34.30669, -83.93259","2025-06-12 06:30",1,34.306686,-83.932588,TRUE,FALSE,TRUE,"S249463636"
"420","chwwid","Chuck-will's-widow","Antrostomus carolinensis","L2578530","Savannah River Site--Restricted Access","2025-06-12 06:06",2,33.2424642,-81.5791941,TRUE,FALSE,FALSE,"S249584934"
"421","chwwid","Chuck-will's-widow","Antrostomus carolinensis","L10848529","Pine Valley Dr, Paisley US-FL 28.96547, -81.52072","2025-06-12 05:57",1,28.965472,-81.52072,TRUE,FALSE,TRUE,"S249444630"
"422","chwwid","Chuck-will's-widow","Antrostomus carolinensis","L631019","246 Forest Drive N","2025-06-12 05:43",1,30.6838353,-84.4567966,TRUE,FALSE,TRUE,"S249448331"
"423","chwwid","Chuck-will's-widow","Antrostomus carolinensis","L18989004","(Private) Robertville Rd, Pineland US-SC","2025-06-12 05:36",1,32.580119,-81.207774,TRUE,FALSE,TRUE,"S249770227"
"424","chwwid","Chuck-will's-widow","Antrostomus carolinensis","L47008791","1600–1792 Mulberry Rd, McGrady US-NC (36.2590,-81.1775)","2025-06-12 05:36",1,36.25896,-81.177535,TRUE,FALSE,TRUE,"S249437005"
"425","chwwid","Chuck-will's-widow","Antrostomus carolinensis","L1078923","First Landing SP--Campground/Beach","2025-06-12 05:31",NA,36.9182984,-76.0542297,TRUE,FALSE,FALSE,"S249438331"
"426","chwwid","Chuck-will's-widow","Antrostomus carolinensis","L9491304","9 Sanchez Way, Hot Springs Village, Arkansas, US (34.645, -92.899)","2025-06-12 05:29",1,34.6448412,-92.8988745,TRUE,FALSE,TRUE,"S249444410"
"427","chwwid","Chuck-will's-widow","Antrostomus carolinensis","L46371510","Topsail SE, Lodge Rd, Hampstead US-NC 34.41584, -77.67815","2025-06-12 05:26",3,34.415838,-77.678154,TRUE,FALSE,TRUE,"S249540984"
"428","chwwid","Chuck-will's-widow","Antrostomus carolinensis","L47452317","Scotland Neck SE - 1140–1264 River Rd, 36.16224, -77.38077","2025-06-12 05:22",1,36.16224,-77.380771,TRUE,FALSE,TRUE,"S249608197"
"429","chwwid","Chuck-will's-widow","Antrostomus carolinensis","L46881409","Murchisontown SE - 1–787 Briggs Rd, Cameron US-NC (35.2615,-79.1853)","2025-06-12 05:21",2,35.261539,-79.185349,TRUE,FALSE,TRUE,"S249605680"
"430","chwwid","Chuck-will's-widow","Antrostomus carolinensis","L29745904","48 Cranberry Blossom Way, Dallas US-GA 33.99070, -84.77113","2025-06-12 05:18",1,33.990703,-84.77113,TRUE,FALSE,TRUE,"S249432672"
"431","chwwid","Chuck-will's-widow","Antrostomus carolinensis","L39798434","6278 Sparta Rd, North Wilkesboro US-NC 36.26514, -81.18748","2025-06-12 05:18",1,36.265144,-81.187477,TRUE,FALSE,TRUE,"S249433161"
"432","chwwid","Chuck-will's-widow","Antrostomus carolinensis","L47454337","Center Hill SE: 1041–1185 W Bear Swamp Rd, Hertford US-NC (36.1512,-76.5379)","2025-06-12 05:16",3,36.151219,-76.537949,TRUE,FALSE,TRUE,"S249615874"
"433","chwwid","Chuck-will's-widow","Antrostomus carolinensis","L4955870","12675 Waxwing Ave. (private)","2025-06-12 05:15",1,30.68596,-87.8065796,TRUE,FALSE,TRUE,"S249447754"
"434","chwwid","Chuck-will's-widow","Antrostomus carolinensis","L47436077","Topsail SE, Lodge Rd, Hampstead US-NC 34.41135, -77.67248","2025-06-12 05:13",3,34.41135,-77.672484,TRUE,FALSE,TRUE,"S249540365"
"435","chwwid","Chuck-will's-widow","Antrostomus carolinensis","L47451704","Claresville SE, Jordan Mill Rd, 36.52078, -77.39453","2025-06-12 05:10",2,36.520783,-77.394531,TRUE,FALSE,TRUE,"S249604565"
"436","chwwid","Chuck-will's-widow","Antrostomus carolinensis","L47456683","Erwin SE W Thornton Rd, Dunn US-NC 35.25282, -78.66687","2025-06-12 05:10",2,35.252823,-78.666871,TRUE,FALSE,TRUE,"S249626010"
"437","chwwid","Chuck-will's-widow","Antrostomus carolinensis","L47460370","Dawson Crossroads SE - Barnhill Rd 36.13850, -77.55838","2025-06-12 05:09",1,36.138505,-77.558385,TRUE,FALSE,TRUE,"S249642718"
"438","chwwid","Chuck-will's-widow","Antrostomus carolinensis","L7383740","Begin Center Road At Mt. Vernon Rd, Eupora, MS (33.559, -89.39)","2025-06-12 05:05",2,33.5590234,-89.3900647,TRUE,FALSE,TRUE,"S250744092"
"439","chwwid","Chuck-will's-widow","Antrostomus carolinensis","L46371750","Topsail SE, 28443, Hampstead US-NC (34.4115,-77.6627)","2025-06-12 05:02",2,34.411468,-77.662683,TRUE,FALSE,TRUE,"S249540179"
"440","chwwid","Chuck-will's-widow","Antrostomus carolinensis","L7385364","605 Jay Hutchings Rd, Sparta US-TN (35.9582,-85.6644)","2025-06-12 04:56",2,35.958227,-85.664364,TRUE,TRUE,TRUE,"S249440653"
"441","chwwid","Chuck-will's-widow","Antrostomus carolinensis","L47456459","Erwin SE NC-82, Dunn US-NC 35.26502, -78.67262","2025-06-12 04:56",1,35.265023,-78.672619,TRUE,FALSE,TRUE,"S249625075"
"442","chwwid","Chuck-will's-widow","Antrostomus carolinensis","L47539369","Center Hill SE: 1597–1853 E Bear Swamp Rd, Hertford US-NC (36.1374,-76.5016)","2025-06-12 04:54",2,36.13738,-76.50158,TRUE,FALSE,TRUE,"S250005258"
"443","chwwid","Chuck-will's-widow","Antrostomus carolinensis","L47416441","5180–5194 Cragford Rd, Ashland US-AL 33.25744, -85.74835","2025-06-12 04:53",1,33.257437,-85.748349,TRUE,FALSE,TRUE,"S249440765"
"444","chwwid","Chuck-will's-widow","Antrostomus carolinensis","L46371461","Topsail SE, Lodge Rd, Hampstead US-NC 34.41019, -77.65709","2025-06-12 04:52",1,34.410189,-77.657089,TRUE,FALSE,TRUE,"S249540093"
"445","chwwid","Chuck-will's-widow","Antrostomus carolinensis","L47183216","Home","2025-06-12 04:42",1,37.735471,-90.4873329,TRUE,FALSE,TRUE,"S249437901"
"446","chwwid","Chuck-will's-widow","Antrostomus carolinensis","L47451928","Murchisontown SE - 1049–1435 McKoy Town Rd, Cameron US-NC (35.2697,-79.1474)","2025-06-12 04:30",3,35.269736,-79.147414,TRUE,FALSE,TRUE,"S249605472"
"447","chwwid","Chuck-will's-widow","Antrostomus carolinensis","L7159579","Nation Homestead,  Vine","2025-06-12 04:15",2,36.0409101,-86.3519453,TRUE,FALSE,TRUE,"S249432197"
"448","chwwid","Chuck-will's-widow","Antrostomus carolinensis","L1938751","Hickory Withe Yard Feeder Area","2025-06-12 03:27",1,35.2540303,-89.5880127,TRUE,FALSE,TRUE,"S249427329"
"449","chwwid","Chuck-will's-widow","Antrostomus carolinensis","L3119590","Cooper Lake SP--Doctors Creek Unit","2025-06-12 02:21",1,33.3448696,-95.6663704,TRUE,FALSE,FALSE,"S249418760"
"450","chwwid","Chuck-will's-widow","Antrostomus carolinensis","L37254504","Nuclear Science Rd (30.58157, -96.35748)","2025-06-12 01:58",2,30.581566,-96.35748,TRUE,FALSE,TRUE,"S249644787"
"451","chwwid","Chuck-will's-widow","Antrostomus carolinensis","L47409094","312–348 Sellers Rd, Davisville US-MO 37.77190, -91.17459","2025-06-12 00:48",2,37.771897,-91.174588,TRUE,FALSE,TRUE,"S249408248"
"452","chwwid","Chuck-will's-widow","Antrostomus carolinensis","L12979312","30 Sandhill Crane Dr, Saint Marys US-GA 30.75458, -81.60741","2025-06-12 00:33",1,30.754576,-81.607406,TRUE,FALSE,TRUE,"S249400417"
"453","chwwid","Chuck-will's-widow","Antrostomus carolinensis","L3597021","James H. Sloppy Floyd SP","2025-06-11 23:33",1,34.439433,-85.3387413,TRUE,FALSE,FALSE,"S249395136"
"454","chwwid","Chuck-will's-widow","Antrostomus carolinensis","L47407342","457–557 County Road 5300, Boss US-MO (37.6141,-91.1963)","2025-06-11 23:10",1,37.614087,-91.196323,TRUE,FALSE,TRUE,"S249398457"
"455","chwwid","Chuck-will's-widow","Antrostomus carolinensis","L9142080","Lick Creek beaver ponds","2025-06-11 22:48",2,35.680922,-87.925847,TRUE,FALSE,TRUE,"S249397908"
"456","chwwid","Chuck-will's-widow","Antrostomus carolinensis","L47405556","3 Wimbledon Court, Hilton Head Island, South Carolina, US (32.21, -80.685)","2025-06-11 22:44",1,32.2096635,-80.6848048,TRUE,FALSE,TRUE,"S249390361"
"457","chwwid","Chuck-will's-widow","Antrostomus carolinensis","L31631276","Smith Cemetery Rd, Linden US-TN","2025-06-11 22:41",2,35.6999,-87.930824,TRUE,FALSE,TRUE,"S249397922"
"458","chwwid","Chuck-will's-widow","Antrostomus carolinensis","L47407208","SR-438, Linden US-TN 35.69395, -87.92553","2025-06-11 22:35",2,35.693948,-87.925527,TRUE,FALSE,TRUE,"S249397868"
"459","chwwid","Chuck-will's-widow","Antrostomus carolinensis","L32393890","Pat’s home, Manteo US-NC (35.9248,-75.7046)","2025-06-11 22:28",1,35.9244038,-75.7043546,TRUE,FALSE,TRUE,"S249388392"
"460","chwwid","Chuck-will's-widow","Antrostomus carolinensis","L628828","Home","2025-06-11 22:26",1,34.9335611,-82.3222109,TRUE,FALSE,TRUE,"S249388391"
"461","chwwid","Chuck-will's-widow","Antrostomus carolinensis","L47407190","12001–12763 SR-438, Linden US-TN 35.68182, -87.94544","2025-06-11 22:20",1,35.681816,-87.945436,TRUE,FALSE,TRUE,"S249397786"
"462","chwwid","Chuck-will's-widow","Antrostomus carolinensis","L38856599","12000–12762 SR-438, Linden US-TN 35.67700, -87.94559","2025-06-11 22:18",2,35.676999,-87.945589,TRUE,FALSE,TRUE,"S249397987"
"463","chwwid","Chuck-will's-widow","Antrostomus carolinensis","L47407236","12765–13237 SR-438, Linden US-TN 35.67211, -87.94120","2025-06-11 22:16",4,35.672108,-87.9412,TRUE,TRUE,TRUE,"S249398020"
"464","chwwid","Chuck-will's-widow","Antrostomus carolinensis","L47407242","13239–13859 SR-438, Linden US-TN 35.66709, -87.93903","2025-06-11 22:09",3,35.667085,-87.93903,TRUE,TRUE,TRUE,"S249398044"
"465","chwwid","Chuck-will's-widow","Antrostomus carolinensis","L47407247","13239–13859 SR-438, Linden US-TN 35.66178, -87.94086","2025-06-11 22:07",2,35.661782,-87.940858,TRUE,FALSE,TRUE,"S249398071"
"466","chwwid","Chuck-will's-widow","Antrostomus carolinensis","L47403845","8727–8745 Farys Mill Rd, Gloucester US-VA 37.45082, -76.56842","2025-06-11 21:41",1,37.450822,-76.568421,TRUE,FALSE,TRUE,"S249382319"
"467","chwwid","Chuck-will's-widow","Antrostomus carolinensis","L47237397","Camp Woodruff","2025-06-11 21:41",1,34.93435,-84.140375,TRUE,FALSE,TRUE,"S249384796"
"468","chwwid","Chuck-will's-widow","Antrostomus carolinensis","L8466195","TN--Hendon Rd. (central, Hendon)","2025-06-11 21:23",1,35.4227336,-85.2415972,TRUE,FALSE,TRUE,"S249447290"
"469","chwwid","Chuck-will's-widow","Antrostomus carolinensis","L47407260","37096, Linden US-TN 35.62954, -87.94917","2025-06-11 21:20",1,35.629538,-87.94917,TRUE,FALSE,TRUE,"S249398130"
"470","chwwid","Chuck-will's-widow","Antrostomus carolinensis","L14693400","504 East Old Mill Road, Travelers Rest, South Carolina, US (35.003, -82.388)","2025-06-11 21:19",1,35.0031624,-82.3878447,TRUE,FALSE,TRUE,"S249377927"
"471","chwwid","Chuck-will's-widow","Antrostomus carolinensis","L723908","Brookgreen Botanical Gardens (please do not report captive birds)","2025-06-11 21:18",3,33.5188928,-79.0930974,TRUE,FALSE,FALSE,"S249377197"
"472","chwwid","Chuck-will's-widow","Antrostomus carolinensis","L25000948","2019–2051 Secretarys Rd, Scottsville US-VA 37.89778, -78.47341","2025-06-11 21:18",1,37.897783,-78.47341,TRUE,FALSE,TRUE,"S249377794"
"473","chwwid","Chuck-will's-widow","Antrostomus carolinensis","L47402839","37097 Double Bridges Road, Frankford, Delaware, US (38.514, -75.094)","2025-06-11 21:17",3,38.5136635,-75.093659,TRUE,FALSE,TRUE,"S249377523"
"474","chwwid","Chuck-will's-widow","Antrostomus carolinensis","L47407290","Perry-Decatur Gravel Quarry, Linden US-TN","2025-06-11 21:14",4,35.6348,-87.949826,TRUE,TRUE,TRUE,"S249398245"
"475","chwwid","Chuck-will's-widow","Antrostomus carolinensis","L3609722","Knox Scout Reservation","2025-06-11 21:10",2,33.7706573,-82.2957408,TRUE,FALSE,TRUE,"S249375670"
"476","chwwid","Chuck-will's-widow","Antrostomus carolinensis","L44360433","Custard Castle - Route 9 in Marmora","2025-06-11 21:05",2,39.259935,-74.651986,TRUE,FALSE,TRUE,"S249374702"
"477","chwwid","Chuck-will's-widow","Antrostomus carolinensis","L39087986","201 BDY LN","2025-06-11 21:00",1,30.5008237,-95.2086523,TRUE,FALSE,TRUE,"S249384995"
"478","chwwid","Chuck-will's-widow","Antrostomus carolinensis","L5391361","Pea Patch(Main Yard)","2025-06-11 21:00",4,29.2150852,-96.9345587,TRUE,FALSE,TRUE,"S249605791"
"479","chwwid","Chuck-will's-widow","Antrostomus carolinensis","L47407306","134–498 Buckfork Rd, Linden US-TN 35.60822, -87.93215","2025-06-11 21:00",2,35.608216,-87.932146,TRUE,FALSE,TRUE,"S249398296"
"480","chwwid","Chuck-will's-widow","Antrostomus carolinensis","L13834026","8475 Boykin Bridge Road, Clinton, North Carolina, US (34.91, -78.41)","2025-06-11 21:00",1,34.9096186,-78.4100874,TRUE,FALSE,TRUE,"S249373466"
"481","chwwid","Chuck-will's-widow","Antrostomus carolinensis","L47404317","Jekyll Island Golf Club, Jekyll Island US-GA (31.0694,-81.4198)","2025-06-11 20:55",2,31.069401,-81.419838,TRUE,FALSE,TRUE,"S249384551"
"482","chwwid","Chuck-will's-widow","Antrostomus carolinensis","L47406211","47581 South 134 Road, Wymore, Nebraska, US (40.045, -96.539)","2025-06-11 20:51",2,40.044692,-96.5392997,TRUE,FALSE,TRUE,"S249393007"
"483","chwwid","Chuck-will's-widow","Antrostomus carolinensis","L47407331","Linden Farm Rd, Linden US-TN","2025-06-11 20:47",3,35.620515,-87.903848,TRUE,TRUE,TRUE,"S249398414"
"484","chwwid","Chuck-will's-widow","Antrostomus carolinensis","L47407302","2956 US-412, Linden US-TN 35.62124, -87.87556","2025-06-11 20:37",1,35.621244,-87.875562,TRUE,FALSE,TRUE,"S249398280"
"485","chwwid","Chuck-will's-widow","Antrostomus carolinensis","L9822131","US-FL-Sebring: Elf Drive/Bambi Court Neighborhood","2025-06-11 20:34",4,27.4577396,-81.4476191,TRUE,FALSE,TRUE,"S249370568"
"486","chwwid","Chuck-will's-widow","Antrostomus carolinensis","L47400696","1–441 Olives Chapel Rd, Apex US-NC 35.72448, -78.96632","2025-06-11 20:33",1,35.724483,-78.966322,TRUE,FALSE,TRUE,"S249366658"
"487","chwwid","Chuck-will's-widow","Antrostomus carolinensis","L47407295","490 Fire Tower Rd, Linden US-TN 35.63155, -87.87133","2025-06-11 20:31",2,35.631548,-87.871332,TRUE,FALSE,TRUE,"S249398262"
"488","chwwid","Chuck-will's-widow","Antrostomus carolinensis","L47402181","32536, Crestview US-FL 30.67130, -86.63437","2025-06-11 20:28",1,30.671297,-86.634373,TRUE,FALSE,TRUE,"S249379164"
"489","chwwid","Chuck-will's-widow","Antrostomus carolinensis","L5063906","Saddle Lake Farms Neighborhood (Private Property)","2025-06-11 20:25",2,33.2296346,-86.7681681,TRUE,FALSE,TRUE,"S249381918"
"490","chwwid","Chuck-will's-widow","Antrostomus carolinensis","L47401086","52 Old Lighthouse, Oriental, NC","2025-06-11 20:17",2,35.0788629,-76.6108634,TRUE,FALSE,TRUE,"S249368701"
"491","chwwid","Chuck-will's-widow","Antrostomus carolinensis","L19658490","Cape Henlopen State Park, Lewes, Delaware, US (38.776, -75.097)","2025-06-11 20:00",1,38.7759652,-75.0972375,TRUE,FALSE,TRUE,"S249376327"
"492","chwwid","Chuck-will's-widow","Antrostomus carolinensis","L109524","Silver Bluff Audubon Center & Sanctuary","2025-06-11 19:46",6,33.325,-81.8541667,TRUE,FALSE,FALSE,"S249529882"
"493","chwwid","Chuck-will's-widow","Antrostomus carolinensis","L35376835","348 Polpis Road, Nantucket, Massachusetts, US (41.292, -69.988)Caines Pond","2025-06-11 17:50",3,41.2916149,-69.9880864,TRUE,TRUE,TRUE,"S249377317"
"494","chwwid","Chuck-will's-widow","Antrostomus carolinensis","L47448088","Auto selected 36.67548, -90.88574","2025-06-11 17:23",1,36.675479,-90.885741,TRUE,FALSE,TRUE,"S249589184"
"495","chwwid","Chuck-will's-widow","Antrostomus carolinensis","L1038395","Assateague SP--Shell Road","2025-06-11 14:15",1,38.2385678,-75.1375794,TRUE,FALSE,FALSE,"S252156644"
"496","chwwid","Chuck-will's-widow","Antrostomus carolinensis","L38024398","6 Clove Hitch Ct, Hilton Head Island US-SC 32.22501, -80.72070","2025-06-11 10:50",1,32.225014,-80.720701,TRUE,FALSE,TRUE,"S249196298"
"497","chwwid","Chuck-will's-widow","Antrostomus carolinensis","L47639475","Leander (General)","2025-06-11 09:00",1,30.5291308,-97.9185891,TRUE,FALSE,TRUE,"S250425172"
"498","chwwid","Chuck-will's-widow","Antrostomus carolinensis","L47391236","Brushy Creek Headwaters Moore Township, Missouri, US (37.307, -91.269)","2025-06-11 08:45",1,37.3069991,-91.2690934,TRUE,FALSE,TRUE,"S249319302"
"499","chwwid","Chuck-will's-widow","Antrostomus carolinensis","L127248","St. Vincent NWR","2025-06-11 08:06",1,29.6613,-85.1336,TRUE,FALSE,FALSE,"S249902447"
"500","chwwid","Chuck-will's-widow","Antrostomus carolinensis","L9266367","Cape Island - Foster Home","2025-06-11 08:00",1,38.9639402,-74.9329309,TRUE,FALSE,TRUE,"S249455893"
"501","chwwid","Chuck-will's-widow","Antrostomus carolinensis","L43875528","Appalachian Foothills RV Park","2025-06-11 07:55",1,33.97618,-87.776964,TRUE,FALSE,TRUE,"S249156996"
"502","chwwid","Chuck-will's-widow","Antrostomus carolinensis","L45480106","DA2 Uss Mariano G Vallejo Avenue, St. Marys, Georgia, US (30.808, -81.532)","2025-06-11 06:43",1,30.8084609,-81.5316794,TRUE,FALSE,TRUE,"S249263025"
"503","chwwid","Chuck-will's-widow","Antrostomus carolinensis","L189003","Emerson Point Preserve","2025-06-11 06:17",2,27.5320111,-82.6256604,TRUE,FALSE,FALSE,"S249462911"
"504","chwwid","Chuck-will's-widow","Antrostomus carolinensis","L17170966","Pelican Cove (Private Community)","2025-06-11 06:01",1,27.2287138,-82.4992595,TRUE,FALSE,FALSE,"S249102843"
"505","chwwid","Chuck-will's-widow","Antrostomus carolinensis","L29627379","Prairie Creek Lodge/Banding Station","2025-06-11 05:55",2,29.586359,-82.240845,TRUE,FALSE,TRUE,"S249103355"
"506","chwwid","Chuck-will's-widow","Antrostomus carolinensis","L17635948","Main house","2025-06-11 05:55",1,34.397927,-97.552678,TRUE,FALSE,TRUE,"S249119332"
"507","chwwid","Chuck-will's-widow","Antrostomus carolinensis","L38561256","170 Flatwoods Loop, Davenport US-FL 28.21252, -81.65168","2025-06-11 05:51",1,28.212516,-81.65168,TRUE,FALSE,TRUE,"S249121085"
"508","chwwid","Chuck-will's-widow","Antrostomus carolinensis","L31407481","Fallen Rock Hollow Road, Clearfield, Kentucky, US (38.126, -83.527)","2025-06-11 05:47",1,38.1256427,-83.5265764,TRUE,FALSE,TRUE,"S249101167"
"509","chwwid","Chuck-will's-widow","Antrostomus carolinensis","L3215347","Cypress Falls, North Port, Florida","2025-06-11 05:41",1,27.0876851,-82.1428388,TRUE,FALSE,TRUE,"S249105595"
"510","chwwid","Chuck-will's-widow","Antrostomus carolinensis","L40956400","Prairie Creek Banding Station (UFBO) - Circuit nets, Gainesville US-FL (29.5880,-82.2410)","2025-06-11 05:40",4,29.588035,-82.241009,TRUE,FALSE,TRUE,"S249109071"
"511","chwwid","Chuck-will's-widow","Antrostomus carolinensis","L46251128","Pin Hook SE—Angola Bay GL, Maple Hill US-NC (34.6470,-77.7673)","2025-06-11 05:23",1,34.647009,-77.767273,TRUE,FALSE,TRUE,"S249430302"
"512","chwwid","Chuck-will's-widow","Antrostomus carolinensis","L47413944","Pin Hook SE—Angola Bay GL, Maple Hill US-NC (34.6454,-77.7673)","2025-06-11 05:19",1,34.645368,-77.767256,TRUE,FALSE,TRUE,"S249430244"
"513","chwwid","Chuck-will's-widow","Antrostomus carolinensis","L47342158","324 Kerrie St, Currie US-NC 34.39123, -78.02913","2025-06-11 05:18",1,34.391229,-78.029131,TRUE,FALSE,TRUE,"S249095483"
"514","chwwid","Chuck-will's-widow","Antrostomus carolinensis","L47457235","Barbour WMA -- State Lake Road","2025-06-11 05:18",1,31.97348,-85.4399956,TRUE,FALSE,TRUE,"S249688711"
"515","chwwid","Chuck-will's-widow","Antrostomus carolinensis","L47360459","1044 Harrington Rd, Broadway US-NC (35.4108,-79.0058)","2025-06-11 05:14",2,35.410802,-79.005842,TRUE,FALSE,TRUE,"S249187783"
"516","chwwid","Chuck-will's-widow","Antrostomus carolinensis","L46568353","1101 Selma Collins Rd, Dermott US-AR 33.60704, -91.55097","2025-06-11 05:12",2,33.607044,-91.550975,TRUE,FALSE,TRUE,"S249142455"
"517","chwwid","Chuck-will's-widow","Antrostomus carolinensis","L46800041","Broadway SE Blanch Johnson Rd, Broadway US-NC 35.41448, -79.00545","2025-06-11 05:11",2,35.414482,-79.005449,TRUE,FALSE,TRUE,"S249187429"
"518","chwwid","Chuck-will's-widow","Antrostomus carolinensis","L47398342","Aurelian Springs SE, Qualls Farm Rd, 36.25803, -77.79707","2025-06-11 05:11",3,36.258033,-77.79707,TRUE,FALSE,TRUE,"S249353677"
"519","chwwid","Chuck-will's-widow","Antrostomus carolinensis","L47405432","Kings River Campsite","2025-06-11 05:10",1,36.202744,-93.642091,TRUE,FALSE,TRUE,"S249389829"
"520","chwwid","Chuck-will's-widow","Antrostomus carolinensis","L31913595","85 Marina Circle, Creal Springs, Illinois, US (37.589, -88.895)","2025-06-11 05:10",1,37.5894605,-88.8951453,TRUE,FALSE,TRUE,"S249134853"
"521","chwwid","Chuck-will's-widow","Antrostomus carolinensis","L30673041","Big Star Farm","2025-06-11 05:08",NA,34.6859339,-89.7604041,TRUE,FALSE,TRUE,"S249107020"
"522","chwwid","Chuck-will's-widow","Antrostomus carolinensis","L47378210","Wade SE - 4600–4618 Lonnie Matthews Rd, Wade US-NC (35.1266,-78.6453)","2025-06-11 04:57",1,35.126628,-78.645268,TRUE,FALSE,TRUE,"S249263141"
"523","chwwid","Chuck-will's-widow","Antrostomus carolinensis","L47341669","Currie SE—1353–1545 Blueberry Rd, Currie US-NC 34.40167, -78.05513","2025-06-11 04:55",3,34.401667,-78.055131,TRUE,FALSE,TRUE,"S249093394"
"524","chwwid","Chuck-will's-widow","Antrostomus carolinensis","L46799716","Broadway SE Blanch Johnson Rd, Broadway US-NC 35.41443, -79.00129","2025-06-11 04:55",1,35.414431,-79.001292,TRUE,FALSE,TRUE,"S249186467"
"525","chwwid","Chuck-will's-widow","Antrostomus carolinensis","L47360265","Broadway SE Blanch Johnson Rd, Broadway US-NC 35.41442, -79.00379","2025-06-11 04:46",1,35.414419,-79.003793,TRUE,FALSE,TRUE,"S249186749"
"526","chwwid","Chuck-will's-widow","Antrostomus carolinensis","L46810787","Wade SE - 6600–6856 Barefoot Rd, Wade US-NC (35.1349,-78.6621)","2025-06-11 04:46",2,35.134869,-78.662122,TRUE,FALSE,TRUE,"S249262721"
"527","chwwid","Chuck-will's-widow","Antrostomus carolinensis","L9525565","113 1st Ave, Cape May US-NJ","2025-06-11 04:46",1,38.932968,-74.932237,TRUE,FALSE,TRUE,"S249091457"
"528","chwwid","Chuck-will's-widow","Antrostomus carolinensis","L47341195","Currie SE—1546–2440 Blueberry Rd, Currie US-NC (34.4054,-78.0590)","2025-06-11 04:44",4,34.405364,-78.059022,TRUE,FALSE,TRUE,"S249091428"
