"","speciesCode","comName","sciName","locId","locName","obsDt","howMany","lat","lng","obsValid","obsReviewed","locationPrivate","subId"
"1","greyel","Greater Yellowlegs","Tringa melanoleuca","L47531869","1452–1492 106th St NE, Bottineau US-ND (48.9509,-100.3877)","2025-06-13 16:39",1,48.95094,-100.387744,TRUE,FALSE,TRUE,"S249976245"
"2","greyel","Greater Yellowlegs","Tringa melanoleuca","L47539362","Sandy Beach, Petersburg, SK","2025-06-13 15:32",1,56.805588,-132.919358,TRUE,FALSE,TRUE,"S250005229"
"3","greyel","Greater Yellowlegs","Tringa melanoleuca","L936733","Parker River NWR--Salt Pannes","2025-06-13 14:18",1,42.7758211,-70.8074325,TRUE,FALSE,FALSE,"S249926273"
"4","greyel","Greater Yellowlegs","Tringa melanoleuca","L788284","Homer--Beluga Slough & Bishops Beach","2025-06-13 14:09",1,59.6385129,-151.5362263,TRUE,FALSE,FALSE,"S249997289"
"5","greyel","Greater Yellowlegs","Tringa melanoleuca","L21818842","High Island--W. End of 2nd St.","2025-06-13 13:27",1,29.5569189,-94.3954256,TRUE,FALSE,FALSE,"S249921050"
"6","greyel","Greater Yellowlegs","Tringa melanoleuca","L16705807","Gateway National Recreation Area - Sandy Hook, Highlands US-NJ 40.40741, -73.97846","2025-06-13 12:24",1,40.407407,-73.978458,TRUE,FALSE,TRUE,"S249891785"
"7","greyel","Greater Yellowlegs","Tringa melanoleuca","L1103086","Sandy Hook--South Beach area","2025-06-13 12:24",1,40.4063521,-73.9757538,TRUE,FALSE,FALSE,"S249891642"
"8","greyel","Greater Yellowlegs","Tringa melanoleuca","L1125706","Big Talbot Island SP--Spoonbill Pond (includes parking & boat ramp)","2025-06-13 12:03",9,30.5101704,-81.4585671,TRUE,FALSE,FALSE,"S249880988"
"9","greyel","Greater Yellowlegs","Tringa melanoleuca","L92448","Edwin B. Forsythe NWR--Wildlife Drive (8-mile auto tour loop only)","2025-06-13 11:30",2,39.464298,-74.417612,TRUE,FALSE,FALSE,"S249917491"
"10","greyel","Greater Yellowlegs","Tringa melanoleuca","L890715","The Crossings","2025-06-13 11:05",1,42.7126511,-73.7964267,TRUE,FALSE,FALSE,"S249859190"
"11","greyel","Greater Yellowlegs","Tringa melanoleuca","L815005","Baskett Slough NWR--The Narrows and Cottonwood Pond","2025-06-13 10:47",2,44.9592377,-123.2700262,TRUE,FALSE,FALSE,"S249946584"
"12","greyel","Greater Yellowlegs","Tringa melanoleuca","L740431","Block Island--Andy's Way","2025-06-13 10:38",1,41.2000255,-71.5740716,TRUE,FALSE,FALSE,"S249843514"
"13","greyel","Greater Yellowlegs","Tringa melanoleuca","L126637","Bombay Hook National Wildlife Refuge","2025-06-13 10:30",2,39.2670818,-75.4695511,TRUE,FALSE,FALSE,"S249883197"
"14","greyel","Greater Yellowlegs","Tringa melanoleuca","L109133","Edwin B. Forsythe NWR (formerly Brig)","2025-06-13 09:39",1,39.465,-74.4477778,TRUE,FALSE,FALSE,"S249926136"
"15","greyel","Greater Yellowlegs","Tringa melanoleuca","L590812","Napa-Sonoma Marshes WA--Huichica Creek Unit","2025-06-13 09:35",3,38.2076388,-122.3329353,TRUE,FALSE,FALSE,"S249933903"
"16","greyel","Greater Yellowlegs","Tringa melanoleuca","L8538502","Chincoteague NWR","2025-06-13 08:05",1,37.898812,-75.3438642,TRUE,FALSE,TRUE,"S249825355"
"17","greyel","Greater Yellowlegs","Tringa melanoleuca","L929964","Beluga--South Bog","2025-06-13 07:53",1,61.1223093,-151.1026955,TRUE,FALSE,FALSE,"S249921233"
"18","greyel","Greater Yellowlegs","Tringa melanoleuca","L468673","Frances A. Crane WMA","2025-06-13 07:51",1,41.6348031,-70.5607738,TRUE,FALSE,FALSE,"S249829651"
"19","greyel","Greater Yellowlegs","Tringa melanoleuca","L422541","Leonabelle Turnbull Birding Ctr. (CTC 057)","2025-06-13 07:33",6,27.8275297,-97.0789558,TRUE,FALSE,FALSE,"S249838536"
"20","greyel","Greater Yellowlegs","Tringa melanoleuca","L1141792","Back Bay NWR - Impoundments","2025-06-13 07:31",1,36.6459721,-75.9062576,TRUE,FALSE,TRUE,"S249918831"
"21","greyel","Greater Yellowlegs","Tringa melanoleuca","L124353","Huntington Beach SP","2025-06-13 07:30",1,33.5083,-79.0659,TRUE,FALSE,FALSE,"S249882659"
"22","greyel","Greater Yellowlegs","Tringa melanoleuca","L761141","San Elijo Lagoon--west","2025-06-13 07:21",1,33.0087881,-117.2720733,TRUE,FALSE,FALSE,"S249879036"
"23","greyel","Greater Yellowlegs","Tringa melanoleuca","L2620375","Stony Brook Harbor","2025-06-13 07:10",2,40.9210416,-73.150173,TRUE,FALSE,FALSE,"S249827409"
"24","greyel","Greater Yellowlegs","Tringa melanoleuca","L40534820","Odiorne Point State Park, Rye US-NH (43.0485,-70.7275)","2025-06-13 06:52",1,43.048528,-70.727481,TRUE,FALSE,TRUE,"S249816592"
"25","greyel","Greater Yellowlegs","Tringa melanoleuca","L352958","Fish Springs NWR","2025-06-13 06:48",2,39.865343,-113.3936175,TRUE,FALSE,FALSE,"S249916504"
"26","greyel","Greater Yellowlegs","Tringa melanoleuca","L7552670","Moosehorn NWR, Edmunds Division--Crane Mill Road","2025-06-13 06:23",1,44.8415078,-67.1912241,TRUE,FALSE,FALSE,"S249785784"
"27","greyel","Greater Yellowlegs","Tringa melanoleuca","L129046","Parker River NWR","2025-06-13 05:45",1,42.7639008,-70.8022995,TRUE,FALSE,FALSE,"S249937168"
"28","greyel","Greater Yellowlegs","Tringa melanoleuca","L450041","Poplar Island","2025-06-13 05:44",1,38.7648589,-76.3814163,TRUE,FALSE,FALSE,"S249944724"
"29","greyel","Greater Yellowlegs","Tringa melanoleuca","L247953","Sweetwater Reservoir","2025-06-13 05:40",1,32.6909342,-116.9966808,TRUE,FALSE,FALSE,"S249928061"
"30","greyel","Greater Yellowlegs","Tringa melanoleuca","L47495073","Sandy Point Beach Park","2025-06-13 05:35",1,44.5046154,-68.8047245,TRUE,FALSE,TRUE,"S249819935"
"31","greyel","Greater Yellowlegs","Tringa melanoleuca","L275227","Piute Ponds (permit required)","2025-06-13 05:33",2,34.7901193,-118.1181776,TRUE,FALSE,FALSE,"S249988975"
"32","greyel","Greater Yellowlegs","Tringa melanoleuca","L937659","Kenai--Tarbox Wildlife Viewing Platform","2025-06-12 19:35",1,60.5420341,-151.2194681,TRUE,FALSE,FALSE,"S249739104"
"33","greyel","Greater Yellowlegs","Tringa melanoleuca","L2840221","Strawberry Hill","2025-06-12 19:32",1,42.6967487,-70.824008,TRUE,FALSE,FALSE,"S249688552"
"34","greyel","Greater Yellowlegs","Tringa melanoleuca","L466299","Quonochontaug Breachway","2025-06-12 19:21",2,41.3362,-71.722224,TRUE,FALSE,FALSE,"S249676401"
"35","greyel","Greater Yellowlegs","Tringa melanoleuca","L127258","St. Marks NWR (please consider using a more precise location)","2025-06-12 19:14",2,30.1515653,-84.1473314,TRUE,FALSE,FALSE,"S249883219"
"36","greyel","Greater Yellowlegs","Tringa melanoleuca","L1339539","Kenai Flats--Sea Catch Dr. & Cannery Rd.","2025-06-12 18:45",1,60.5351637,-151.2629414,TRUE,FALSE,FALSE,"S249738435"
"37","greyel","Greater Yellowlegs","Tringa melanoleuca","L35597549","Hernando County Airport Water Reclamation Facility","2025-06-12 18:35",5,28.4520015,-82.4815986,TRUE,TRUE,FALSE,"S249676530"
"38","greyel","Greater Yellowlegs","Tringa melanoleuca","L129129","Westchester Lagoon","2025-06-12 18:07",1,61.2070462,-149.9198785,TRUE,FALSE,FALSE,"S249707098"
"39","greyel","Greater Yellowlegs","Tringa melanoleuca","L11725232","Nicholai Slough fishcamp","2025-06-12 17:49",1,60.722001,-161.699383,TRUE,FALSE,TRUE,"S249702972"
"40","greyel","Greater Yellowlegs","Tringa melanoleuca","L2181197","Municipality of Anchorage--former Anchorage Regional Compost Facility","2025-06-12 17:23",1,61.1753158,-150.0330267,TRUE,FALSE,FALSE,"S249701276"
"41","greyel","Greater Yellowlegs","Tringa melanoleuca","L47465734","7581–7583 Road 39, Glenn US-CA 39.58204, -122.06952","2025-06-12 16:29",1,39.582043,-122.069519,TRUE,FALSE,TRUE,"S249671278"
"42","greyel","Greater Yellowlegs","Tringa melanoleuca","L1861949","Ormond Beach--Arnold Rd.","2025-06-12 16:28",4,34.1226943,-119.156529,TRUE,FALSE,FALSE,"S249705915"
"43","greyel","Greater Yellowlegs","Tringa melanoleuca","L615794","Coal Oil Point Reserve--Devereux Slough","2025-06-12 15:48",1,34.4136013,-119.8756027,TRUE,FALSE,FALSE,"S249681237"
"44","greyel","Greater Yellowlegs","Tringa melanoleuca","L18017515","Chevak (town)","2025-06-12 15:21",3,61.5275414,-165.5900811,TRUE,FALSE,FALSE,"S249901330"
"45","greyel","Greater Yellowlegs","Tringa melanoleuca","L44411565","220th Street Wetland - 46.89140, -96.03047","2025-06-12 15:19",1,46.891396,-96.030473,TRUE,FALSE,TRUE,"S249623747"
"46","greyel","Greater Yellowlegs","Tringa melanoleuca","L450388","Lake Hood & Lake Spenard","2025-06-12 15:14",NA,61.1787982,-149.9607182,TRUE,FALSE,FALSE,"S249674493"
"47","greyel","Greater Yellowlegs","Tringa melanoleuca","L4124172","Home - Spring Green (private residence)","2025-06-12 15:05",1,41.7362735,-71.396547,TRUE,FALSE,TRUE,"S249632210"
"48","greyel","Greater Yellowlegs","Tringa melanoleuca","L197609","Cape Henlopen SP--Gordon's Pond","2025-06-12 14:20",1,38.7522693,-75.0893841,TRUE,FALSE,FALSE,"S249624338"
"49","greyel","Greater Yellowlegs","Tringa melanoleuca","L961319","Beluga--North Bog","2025-06-12 14:05",1,61.2094437,-151.0248041,TRUE,FALSE,FALSE,"S249729148"
"50","greyel","Greater Yellowlegs","Tringa melanoleuca","L47501599","Auto selected 57.86785, -155.95957","2025-06-12 14:00",1,57.867851,-155.959568,TRUE,FALSE,TRUE,"S249849068"
"51","greyel","Greater Yellowlegs","Tringa melanoleuca","L1423930","*DI Causeway","2025-06-12 14:00",2,30.3347445,-88.1295727,TRUE,FALSE,TRUE,"S249704696"
"52","greyel","Greater Yellowlegs","Tringa melanoleuca","L2220366","Hayward Regional Shoreline--Hayward Marsh","2025-06-12 13:41",1,37.6298244,-122.138958,TRUE,FALSE,FALSE,"S249715705"
"53","greyel","Greater Yellowlegs","Tringa melanoleuca","L445366","Mecox Inlet","2025-06-12 13:40",1,40.8923492,-72.3284175,TRUE,FALSE,FALSE,"S249586134"
"54","greyel","Greater Yellowlegs","Tringa melanoleuca","L547888","Heckscher SP, East Islip","2025-06-12 11:37",2,40.7129149,-73.1650615,TRUE,FALSE,FALSE,"S249647454"
"55","greyel","Greater Yellowlegs","Tringa melanoleuca","L128537","Creamer's Field MWR","2025-06-12 11:02",2,64.86305,-147.7381727,TRUE,FALSE,FALSE,"S249631638"
"56","greyel","Greater Yellowlegs","Tringa melanoleuca","L129010","Balmorhea Lake (fee access)","2025-06-12 10:56",1,30.9617996,-103.7192993,TRUE,FALSE,FALSE,"S249576708"
"57","greyel","Greater Yellowlegs","Tringa melanoleuca","L10505895","Katmai NP--Hallo Bay","2025-06-12 10:48",1,58.428553,-154.0235286,TRUE,FALSE,FALSE,"S249595565"
"58","greyel","Greater Yellowlegs","Tringa melanoleuca","L47534551","Kejulik River US-AK (57.8537,-155.8831)","2025-06-12 10:48",2,57.853693,-155.883076,TRUE,FALSE,TRUE,"S249983586"
"59","greyel","Greater Yellowlegs","Tringa melanoleuca","L1061551","Kalifornsky - Yard-Buoy Avenue","2025-06-12 10:15",1,60.4946536,-151.2665227,TRUE,FALSE,TRUE,"S249739668"
"60","greyel","Greater Yellowlegs","Tringa melanoleuca","L246739","Furnace Creek Ranch--The Ranch at Death Valley","2025-06-12 10:15",1,36.4588031,-116.8723547,TRUE,FALSE,FALSE,"S249656326"
"61","greyel","Greater Yellowlegs","Tringa melanoleuca","L12968236","Bolsa Chica Ecological Reserve-Backside (restricted access)","2025-06-12 10:10",4,33.7025628,-118.035571,TRUE,FALSE,FALSE,"S249567486"
"62","greyel","Greater Yellowlegs","Tringa melanoleuca","L483019","Bombay Hook NWR--Shearness Pool","2025-06-12 10:02",2,39.2684108,-75.4772758,TRUE,FALSE,FALSE,"S249565679"
"63","greyel","Greater Yellowlegs","Tringa melanoleuca","L739062","South Carlsbad SB--South Ponto","2025-06-12 10:00",2,33.0857842,-117.312869,TRUE,FALSE,FALSE,"S249696981"
"64","greyel","Greater Yellowlegs","Tringa melanoleuca","L820867","UCSB North Campus Open Space (formerly Ocean Meadows Golf Course)","2025-06-12 09:54",1,34.4198459,-119.8792197,TRUE,FALSE,FALSE,"S249635901"
"65","greyel","Greater Yellowlegs","Tringa melanoleuca","L47533705","Kejulik River US-AK (57.8551,-155.7585)","2025-06-12 09:28",2,57.855111,-155.758486,TRUE,FALSE,TRUE,"S249981142"
"66","greyel","Greater Yellowlegs","Tringa melanoleuca","L159270","Elderberry Park","2025-06-12 09:12",1,61.217772,-149.9060869,TRUE,FALSE,FALSE,"S249865230"
"67","greyel","Greater Yellowlegs","Tringa melanoleuca","L1273605","Cotchpincut Rd. Landing","2025-06-12 09:10",1,41.7078238,-69.9537076,TRUE,FALSE,FALSE,"S249496813"
"68","greyel","Greater Yellowlegs","Tringa melanoleuca","L5980353","Bridge Creek Reservoir","2025-06-12 08:49",1,59.678553,-151.5487517,TRUE,FALSE,FALSE,"S249566218"
"69","greyel","Greater Yellowlegs","Tringa melanoleuca","L14725361","Pea Island South Pond, Southern End (35.6939,-75.4857)","2025-06-12 08:36",6,35.693855,-75.485659,TRUE,FALSE,TRUE,"S249506591"
"70","greyel","Greater Yellowlegs","Tringa melanoleuca","L3192597","Damonte Ranch Wetlands--Veterans Pkwy Lake and Wetlands","2025-06-12 08:33",1,39.4202899,-119.7332203,TRUE,FALSE,FALSE,"S249582400"
"71","greyel","Greater Yellowlegs","Tringa melanoleuca","L716993","Chester Creek & Fish Creek Mouths (Audubon Bench & Fish Creek Bench)","2025-06-12 08:30",5,61.2075708,-149.9289732,TRUE,FALSE,FALSE,"S249596796"
"72","greyel","Greater Yellowlegs","Tringa melanoleuca","L773277","Isles of Shoals--Appledore Island","2025-06-12 08:30",2,42.9919653,-70.6149243,TRUE,FALSE,FALSE,"S249992756"
"73","greyel","Greater Yellowlegs","Tringa melanoleuca","L14217048","Pea Island NWR, South Pond NE Lookout Platform","2025-06-12 08:15",2,35.7024608,-75.4886222,TRUE,FALSE,TRUE,"S249507036"
"74","greyel","Greater Yellowlegs","Tringa melanoleuca","L469546","Skagit Wildlife Area--Fir Island Farm Reserve (Hayton Reserve)","2025-06-12 08:03",2,48.3356338,-122.4131659,TRUE,FALSE,FALSE,"S249530172"
"75","greyel","Greater Yellowlegs","Tringa melanoleuca","L17303720","Bombay Hook NWT","2025-06-12 07:58",4,39.2597719,-75.4730701,TRUE,FALSE,TRUE,"S249606353"
"76","greyel","Greater Yellowlegs","Tringa melanoleuca","L1552663","Ken Malloy Harbor Regional Park","2025-06-12 07:38",1,33.7874582,-118.2939363,TRUE,FALSE,FALSE,"S249593282"
"77","greyel","Greater Yellowlegs","Tringa melanoleuca","L2104268","Coyote Hills Regional Park--Quarry Staging Area","2025-06-12 07:27",2,37.5511782,-122.0863867,TRUE,FALSE,FALSE,"S249549061"
"78","greyel","Greater Yellowlegs","Tringa melanoleuca","L216132","Coyote Hills Regional Park","2025-06-12 07:15",2,37.553764,-122.0875025,TRUE,FALSE,FALSE,"S249613267"
"79","greyel","Greater Yellowlegs","Tringa melanoleuca","L450139","Savannah NWR--Laurel Hill Wildlife Dr","2025-06-12 06:57",2,32.1655799,-81.1152447,TRUE,FALSE,FALSE,"S249493000"
"80","greyel","Greater Yellowlegs","Tringa melanoleuca","L47264144","47442 S Yancey Dr, Talkeetna US-AK 62.02631, -150.07041","2025-06-12 06:40",1,62.026312,-150.070411,TRUE,FALSE,TRUE,"S249541763"
"81","greyel","Greater Yellowlegs","Tringa melanoleuca","L9820130","New Round Island (restricted access)","2025-06-12 06:39",1,30.3055357,-88.5953804,TRUE,FALSE,FALSE,"S249525069"
"82","greyel","Greater Yellowlegs","Tringa melanoleuca","L165143","Jamaica Bay Wildlife Refuge","2025-06-12 06:35",1,40.6170296,-73.8244561,TRUE,FALSE,FALSE,"S249592164"
"83","greyel","Greater Yellowlegs","Tringa melanoleuca","L2843110","Missouri Headwaters SP--Campground area","2025-06-12 06:30",1,45.9192593,-111.501596,TRUE,FALSE,FALSE,"S249642171"
"84","greyel","Greater Yellowlegs","Tringa melanoleuca","L860015","Towd Point","2025-06-12 06:30",1,40.9472647,-72.4141502,TRUE,FALSE,FALSE,"S249459679"
"85","greyel","Greater Yellowlegs","Tringa melanoleuca","L578782","Grassy Key","2025-06-12 06:24",1,24.7580603,-80.9612507,TRUE,FALSE,FALSE,"S249514417"
"86","greyel","Greater Yellowlegs","Tringa melanoleuca","L11222417","Bear Lake NWR--general (please consider using a more specific hotspot)","2025-06-12 06:15",3,42.2615256,-111.3411677,TRUE,FALSE,FALSE,"S249571885"
"87","greyel","Greater Yellowlegs","Tringa melanoleuca","L481415","Powers Landing","2025-06-12 05:59",3,41.9300758,-70.0486135,TRUE,FALSE,FALSE,"S249612806"
"88","greyel","Greater Yellowlegs","Tringa melanoleuca","L367627","Salton Sea--Young Rd. (west end)","2025-06-12 05:54",1,33.1330196,-115.6666589,TRUE,FALSE,FALSE,"S249644830"
"89","greyel","Greater Yellowlegs","Tringa melanoleuca","L46831918","Douglas Is. Rental across From mouth of Lemon Creek, Juneau, Alaska, US (58.338, -134.515)","2025-06-12 05:34",1,58.3375783,-134.515297,TRUE,FALSE,TRUE,"S249516103"
"90","greyel","Greater Yellowlegs","Tringa melanoleuca","L12096704","Maverick Lake towards Goose Lake","2025-06-12 05:19",1,41.7971105,-102.4128198,TRUE,FALSE,TRUE,"S249711715"
"91","greyel","Greater Yellowlegs","Tringa melanoleuca","L32044329","Beluga—Airstrip Bog","2025-06-11 20:14",1,61.174467,-151.056734,TRUE,FALSE,TRUE,"S249409377"
"92","greyel","Greater Yellowlegs","Tringa melanoleuca","L129047","Parker River NWR--Hellcat Dike","2025-06-11 19:12",1,42.7408429,-70.796873,TRUE,FALSE,FALSE,"S249353886"
"93","greyel","Greater Yellowlegs","Tringa melanoleuca","L1017638","Peaceful Waters Sanctuary","2025-06-11 18:20",1,26.631443,-80.2332294,TRUE,FALSE,FALSE,"S249383854"
"94","greyel","Greater Yellowlegs","Tringa melanoleuca","L35376835","348 Polpis Road, Nantucket, Massachusetts, US (41.292, -69.988)Caines Pond","2025-06-11 17:50",1,41.2916149,-69.9880864,TRUE,FALSE,TRUE,"S249377317"
"95","greyel","Greater Yellowlegs","Tringa melanoleuca","L823474","Red River Beach","2025-06-11 17:36",1,41.6680873,-70.039537,TRUE,FALSE,FALSE,"S249401055"
"96","greyel","Greater Yellowlegs","Tringa melanoleuca","L168785","Sacramento NWR","2025-06-11 17:20",2,39.405434,-122.17191,TRUE,FALSE,FALSE,"S249885173"
"97","greyel","Greater Yellowlegs","Tringa melanoleuca","L163561","San Jacinto Wildlife Area","2025-06-11 16:48",2,33.8854488,-117.104104,TRUE,FALSE,FALSE,"S249393933"
"98","greyel","Greater Yellowlegs","Tringa melanoleuca","L266875","Willcox--Lake Cochise and Twin Lakes Golf Course","2025-06-11 16:45",1,32.2298515,-109.8243175,TRUE,FALSE,FALSE,"S249388850"
"99","greyel","Greater Yellowlegs","Tringa melanoleuca","L37036009","18 Wauwinet Road, Nantucket, Massachusetts, US (41.305, -70.01) POLPIS HARBOR BOAT LAUNCH","2025-06-11 16:40",1,41.3052764,-70.01013,TRUE,FALSE,TRUE,"S249319796"
"100","greyel","Greater Yellowlegs","Tringa melanoleuca","L109145","Jamaica Bay Wildlife Refuge--West Pond","2025-06-11 16:35",3,40.6188482,-73.8307995,TRUE,FALSE,FALSE,"S249380148"
"101","greyel","Greater Yellowlegs","Tringa melanoleuca","L358619","Fort Hill, Eastham","2025-06-11 15:37",1,41.818792,-69.9644995,TRUE,FALSE,FALSE,"S249349588"
"102","greyel","Greater Yellowlegs","Tringa melanoleuca","L47534943","ALMS Kejulik Camp","2025-06-11 15:30",2,57.874671,-155.724902,TRUE,FALSE,TRUE,"S249985905"
"103","greyel","Greater Yellowlegs","Tringa melanoleuca","L1663502","Pea Island NWR--North Pond Wildlife Trail","2025-06-11 13:45",2,35.7156212,-75.4935891,TRUE,FALSE,FALSE,"S249497678"
"104","greyel","Greater Yellowlegs","Tringa melanoleuca","L598944","Blackwater NWR--Wildlife Drive","2025-06-11 13:31",1,38.4456871,-76.0915446,TRUE,FALSE,FALSE,"S249273237"
"105","greyel","Greater Yellowlegs","Tringa melanoleuca","L8955099","Mt Edgecumbe Trail - sea to summit","2025-06-11 13:17",2,57.0642905,-135.6139898,TRUE,FALSE,TRUE,"S249394095"
"106","greyel","Greater Yellowlegs","Tringa melanoleuca","L109535","Ocean Shores--Oyhut Wildlife Area","2025-06-11 12:59",1,46.9444663,-124.1522412,TRUE,FALSE,FALSE,"S249309865"
"107","greyel","Greater Yellowlegs","Tringa melanoleuca","L3642863","Winous Point Shooting Club (Ottawa Co.) (restricted access)","2025-06-11 12:55",1,41.4615,-82.9973,TRUE,FALSE,FALSE,"S249307405"
"108","greyel","Greater Yellowlegs","Tringa melanoleuca","L487048","Fern Ridge WMA--Royal Ave. area (general)","2025-06-11 11:51",1,44.0705825,-123.2574606,TRUE,FALSE,FALSE,"S249314789"
"109","greyel","Greater Yellowlegs","Tringa melanoleuca","L207462","Wellfleet Bay Wildlife Sanctuary (Mass Audubon)","2025-06-11 11:50",2,41.8825315,-69.995712,TRUE,FALSE,FALSE,"S249439175"
"110","greyel","Greater Yellowlegs","Tringa melanoleuca","L47304963","2018 Oak Creek Cove, Corpus Christi US-TX 27.66075, -97.31233","2025-06-11 11:50",1,27.660753,-97.312334,TRUE,FALSE,TRUE,"S249251617"
"111","greyel","Greater Yellowlegs","Tringa melanoleuca","L192297","Wells Harbor--Marshes and Beach","2025-06-11 11:25",1,43.3199326,-70.562769,TRUE,FALSE,FALSE,"S249217132"
"112","greyel","Greater Yellowlegs","Tringa melanoleuca","L483327","Bombay Hook NWR--Raymond Pool","2025-06-11 10:49",4,39.2600377,-75.4642296,TRUE,FALSE,FALSE,"S249272053"
"113","greyel","Greater Yellowlegs","Tringa melanoleuca","L4379639","Parker River NWR--Lot 3","2025-06-11 10:24",1,42.7728661,-70.8059482,TRUE,FALSE,FALSE,"S249187472"
"114","greyel","Greater Yellowlegs","Tringa melanoleuca","L12578086","Pea Island NWR--North Pond Photo Blind","2025-06-11 10:00",1,35.732008,-75.50033,TRUE,FALSE,FALSE,"S249187840"
"115","greyel","Greater Yellowlegs","Tringa melanoleuca","L1585635","Eagle Lake","2025-06-11 09:58",3,59.8267119,-151.1338682,TRUE,FALSE,FALSE,"S249266412"
"116","greyel","Greater Yellowlegs","Tringa melanoleuca","L33712380","Sandy River Lodge","2025-06-11 09:46",6,56.231547,-160.067524,TRUE,FALSE,TRUE,"S249397046"
"117","greyel","Greater Yellowlegs","Tringa melanoleuca","L577740","San Elijo Lagoon--east","2025-06-11 09:35",1,33.0108355,-117.2505125,TRUE,FALSE,FALSE,"S250002511"
"118","greyel","Greater Yellowlegs","Tringa melanoleuca","L450133","Seapoint Beach","2025-06-11 09:30",1,43.0883224,-70.6629038,TRUE,FALSE,FALSE,"S249195691"
"119","greyel","Greater Yellowlegs","Tringa melanoleuca","L33949651","SVR  6  3 (restricted access)","2025-06-11 08:44",1,44.789655,-122.93662,TRUE,FALSE,TRUE,"S249326033"
"120","greyel","Greater Yellowlegs","Tringa melanoleuca","L5988406","Fern Ridge WMA--Fisher Butte Unit north (dikes around Pond 4, 5, 6, and west edge of 3)","2025-06-11 08:24",1,44.0667313,-123.263855,TRUE,FALSE,FALSE,"S249297351"
"121","greyel","Greater Yellowlegs","Tringa melanoleuca","L8202655","MLK Jr. Shoreline Regional Shoreline--Garretson Pt. Trail","2025-06-11 08:21",1,37.7436488,-122.2073432,TRUE,FALSE,FALSE,"S249230078"
"122","greyel","Greater Yellowlegs","Tringa melanoleuca","L448084","Woodland WTP","2025-06-11 08:20",2,38.6624345,-121.7173585,TRUE,FALSE,FALSE,"S249377034"
"123","greyel","Greater Yellowlegs","Tringa melanoleuca","L22740349","Mary's home","2025-06-11 08:08",1,30.4805809,-84.1852474,TRUE,FALSE,TRUE,"S249140332"
"124","greyel","Greater Yellowlegs","Tringa melanoleuca","L161083","MLK Jr. Regional Shoreline--Arrowhead Marsh","2025-06-11 08:06",1,37.7421628,-122.2112274,TRUE,FALSE,FALSE,"S249247811"
"125","greyel","Greater Yellowlegs","Tringa melanoleuca","L33744148","Dos Rios Norte (Restricted Access)","2025-06-11 08:00",1,38.7946973,-121.6419036,TRUE,FALSE,TRUE,"S249382179"
"126","greyel","Greater Yellowlegs","Tringa melanoleuca","L9577710","Napeague SP--Lazy Point","2025-06-11 07:57",1,41.0117351,-72.0589849,TRUE,FALSE,FALSE,"S249142870"
"127","greyel","Greater Yellowlegs","Tringa melanoleuca","L2311484","Lake Tolowa Mouth","2025-06-11 07:44",1,41.8298092,-124.2246437,TRUE,FALSE,FALSE,"S249546109"
"128","greyel","Greater Yellowlegs","Tringa melanoleuca","L127332","Fort De Soto Park","2025-06-11 07:41",1,27.6327266,-82.718157,TRUE,FALSE,FALSE,"S249178606"
"129","greyel","Greater Yellowlegs","Tringa melanoleuca","L33531175","Auto selected 55.99094, -160.57704","2025-06-11 07:39",4,55.990938,-160.57704,TRUE,FALSE,TRUE,"S249216901"
"130","greyel","Greater Yellowlegs","Tringa melanoleuca","L1254749","Browns Lake","2025-06-11 07:38",1,46.9576129,-113.0110359,TRUE,FALSE,FALSE,"S249331026"
"131","greyel","Greater Yellowlegs","Tringa melanoleuca","L47373810","Mott Creek, Absecon US-NJ 39.52230, -74.43115","2025-06-11 06:51",1,39.5223,-74.431149,TRUE,FALSE,TRUE,"S249245357"
"132","greyel","Greater Yellowlegs","Tringa melanoleuca","L163529","Fernhill Wetlands (general)","2025-06-11 06:44",1,45.5064875,-123.0851855,TRUE,FALSE,FALSE,"S249231274"
"133","greyel","Greater Yellowlegs","Tringa melanoleuca","L46636531","A-2 Reservoir","2025-06-11 06:40",1,26.470038,-80.697312,TRUE,FALSE,TRUE,"S249249056"
"134","greyel","Greater Yellowlegs","Tringa melanoleuca","L164961","Bear River MBR--Auto Tour Loop","2025-06-11 06:33",1,41.4692291,-112.2947788,TRUE,FALSE,FALSE,"S249220393"
"135","greyel","Greater Yellowlegs","Tringa melanoleuca","L269491","Plymouth Beach","2025-06-11 06:30",1,41.9765658,-70.6505452,TRUE,FALSE,FALSE,"S249170564"
"136","greyel","Greater Yellowlegs","Tringa melanoleuca","L6705638","Brookfield Park","2025-06-11 06:08",1,40.5618248,-74.1601933,TRUE,FALSE,FALSE,"S249128133"
"137","greyel","Greater Yellowlegs","Tringa melanoleuca","L159273","Tony Knowles Coastal Trail--Chester Creek to Ship Creek","2025-06-11 06:03",1,61.2155506,-149.9119878,TRUE,FALSE,FALSE,"S249220288"
"138","greyel","Greater Yellowlegs","Tringa melanoleuca","L508481","Pelican Island NWR","2025-06-11 06:03",4,27.8035911,-80.426723,TRUE,FALSE,FALSE,"S249153598"
"139","greyel","Greater Yellowlegs","Tringa melanoleuca","L837173","Ten Thousand Islands NWR--Marsh Trail & Observation Tower","2025-06-11 05:53",1,25.973478,-81.5542603,TRUE,FALSE,FALSE,"S249127027"
"140","greyel","Greater Yellowlegs","Tringa melanoleuca","L199461","Lake Woodruff NWR","2025-06-11 05:50",1,29.1092685,-81.3752445,TRUE,FALSE,FALSE,"S249206983"
"141","greyel","Greater Yellowlegs","Tringa melanoleuca","L47448649","Duck Harbor, Wellfleet","2025-06-11 05:46",3,41.9485464,-70.0676861,TRUE,FALSE,TRUE,"S249591684"
"142","greyel","Greater Yellowlegs","Tringa melanoleuca","L4884349","Lynn Ary Park","2025-06-10 22:59",1,61.2017763,-149.9465725,TRUE,FALSE,FALSE,"S249085015"
"143","greyel","Greater Yellowlegs","Tringa melanoleuca","L131039","Fairbanks International Airport--ponds","2025-06-10 19:57",1,64.8213599,-147.8650492,TRUE,FALSE,FALSE,"S249062313"
"144","greyel","Greater Yellowlegs","Tringa melanoleuca","L4733078","Muskrat Lake (Okanogan Co.)","2025-06-10 19:24",1,48.8799541,-119.1597962,TRUE,FALSE,FALSE,"S249295620"
"145","greyel","Greater Yellowlegs","Tringa melanoleuca","L1841412","Flood Gate","2025-06-10 19:00",1,39.8312826,-75.3319645,TRUE,FALSE,FALSE,"S249040739"
"146","greyel","Greater Yellowlegs","Tringa melanoleuca","L4653074","Headquarters Plantation Drive","2025-06-10 18:54",3,32.7565665,-80.0232339,TRUE,FALSE,FALSE,"S249029084"
"147","greyel","Greater Yellowlegs","Tringa melanoleuca","L47331910","Anaheim Coves","2025-06-10 18:00",1,33.835036,-117.864161,TRUE,FALSE,TRUE,"S249250663"
"148","greyel","Greater Yellowlegs","Tringa melanoleuca","L4491430","Cordova--Ibeck Pond (MP 6.6 Copper River Hwy)","2025-06-10 17:11",1,60.5181231,-145.5881086,TRUE,FALSE,FALSE,"S249038710"
"149","greyel","Greater Yellowlegs","Tringa melanoleuca","L353732","Scarborough Marsh--Pine Point","2025-06-10 16:55",1,43.5445303,-70.3331662,TRUE,FALSE,FALSE,"S249673675"
"150","greyel","Greater Yellowlegs","Tringa melanoleuca","L34913128","Halfway Trail to City Creek","2025-06-10 16:10",1,56.803627,-132.909778,TRUE,FALSE,TRUE,"S249039942"
"151","greyel","Greater Yellowlegs","Tringa melanoleuca","L9187205","My Haven","2025-06-10 16:02",1,59.72982,-151.763797,TRUE,FALSE,TRUE,"S249030524"
"152","greyel","Greater Yellowlegs","Tringa melanoleuca","L3895716","Mill Park","2025-06-10 15:49",1,44.324365,-69.7716551,TRUE,FALSE,FALSE,"S248974291"
"153","greyel","Greater Yellowlegs","Tringa melanoleuca","L17169615","1 Yard NIB: HB, Cobblestone Lane","2025-06-10 15:45",1,33.711109,-118.034427,TRUE,FALSE,TRUE,"S249257210"
"154","greyel","Greater Yellowlegs","Tringa melanoleuca","L249800","Short Beach Park","2025-06-10 15:39",1,41.1648434,-73.1104136,TRUE,FALSE,FALSE,"S248959780"
"155","greyel","Greater Yellowlegs","Tringa melanoleuca","L109339","IRWD San Joaquin Marsh & Wildlife Sanctuary, Irvine","2025-06-10 15:09",2,33.6637274,-117.8426814,TRUE,FALSE,FALSE,"S249036215"
"156","greyel","Greater Yellowlegs","Tringa melanoleuca","L42121172","Washington","2025-06-10 15:00",1,40.7614679,-74.9575605,TRUE,TRUE,TRUE,"S249033603"
"157","greyel","Greater Yellowlegs","Tringa melanoleuca","L330652","Ocean City Preserve","2025-06-10 14:54",2,39.2611385,-74.6041728,TRUE,FALSE,FALSE,"S248954246"
"158","greyel","Greater Yellowlegs","Tringa melanoleuca","L597658","Malibu Lagoon--State Beach including Lagoon","2025-06-10 14:42",2,34.0333857,-118.6822987,TRUE,FALSE,FALSE,"S249003234"
"159","greyel","Greater Yellowlegs","Tringa melanoleuca","L152823","Mendenhall Wetlands SGR--Airport Dike Trail","2025-06-10 13:54",1,58.3523993,-134.5945144,TRUE,FALSE,FALSE,"S249023773"
"160","greyel","Greater Yellowlegs","Tringa melanoleuca","L463228","White City Lagoons (Kirtland Rd. Ponds)","2025-06-10 12:52",2,42.4336881,-122.9128075,TRUE,TRUE,FALSE,"S249401347"
"161","greyel","Greater Yellowlegs","Tringa melanoleuca","L42218189","Washburn Ave,Washington","2025-06-10 12:50",1,40.7613882,-74.9570995,TRUE,TRUE,TRUE,"S249354216"
"162","greyel","Greater Yellowlegs","Tringa melanoleuca","L47337793","Kenai Municipal Airport, Kenai US-AK 60.56821, -151.26139","2025-06-10 12:44",1,60.568208,-151.261391,TRUE,FALSE,TRUE,"S249076303"
"163","greyel","Greater Yellowlegs","Tringa melanoleuca","L1852459","Washington Twp--Warren Co","2025-06-10 11:44",1,40.7694863,-74.9879136,TRUE,TRUE,TRUE,"S249012174"
"164","greyel","Greater Yellowlegs","Tringa melanoleuca","L2047403","South Bay Salt Works--interior & bay (restricted access)","2025-06-10 11:20",2,32.6049209,-117.1062324,TRUE,FALSE,FALSE,"S249362712"
"165","greyel","Greater Yellowlegs","Tringa melanoleuca","L759446","Crittenden Marsh (Stevens Creek Nature Study Area)","2025-06-10 11:14",1,37.4309097,-122.0660019,TRUE,FALSE,FALSE,"S248972162"
"166","greyel","Greater Yellowlegs","Tringa melanoleuca","L2865928","Captree Island","2025-06-10 11:05",2,40.6469348,-73.2632673,TRUE,FALSE,FALSE,"S249010776"
"167","greyel","Greater Yellowlegs","Tringa melanoleuca","L2135075","Coal Oil Point Reserve--Dune Pond","2025-06-10 10:42",1,34.4136777,-119.881839,TRUE,FALSE,FALSE,"S248944139"
"168","greyel","Greater Yellowlegs","Tringa melanoleuca","L16673167","Copper River Highway, Cordova, Alaska, US (60.541, -145.694)","2025-06-10 10:26",5,60.5411279,-145.6938929,TRUE,FALSE,TRUE,"S249034329"
"169","greyel","Greater Yellowlegs","Tringa melanoleuca","L367640","Bayshore Bikeway--7th Street (Ponds 10/10A)","2025-06-10 10:25",1,32.5915005,-117.1180604,TRUE,FALSE,FALSE,"S248923061"
"170","greyel","Greater Yellowlegs","Tringa melanoleuca","L11360204","Sunny Point Tree Swallow Nest Box Site","2025-06-10 10:15",1,58.3564394,-134.5346036,TRUE,FALSE,TRUE,"S249024583"
"171","greyel","Greater Yellowlegs","Tringa melanoleuca","L9722537","Hwy. 330 loop","2025-06-10 09:15",1,29.8823975,-92.0558343,TRUE,FALSE,TRUE,"S248938144"
"172","greyel","Greater Yellowlegs","Tringa melanoleuca","L3970327","Homer--Portlock-Fernwood walking loop","2025-06-10 09:11",1,59.6936159,-151.3953996,TRUE,FALSE,FALSE,"S248918188"
"173","greyel","Greater Yellowlegs","Tringa melanoleuca","L247316","Ninepipe NWR","2025-06-10 09:02",2,47.4379957,-114.1184238,TRUE,TRUE,FALSE,"S248881051"
"174","greyel","Greater Yellowlegs","Tringa melanoleuca","L29227681","Orlando Apopka Airport Industrial Area","2025-06-10 08:47",3,28.7067118,-81.5827368,TRUE,FALSE,TRUE,"S248891885"
"175","greyel","Greater Yellowlegs","Tringa melanoleuca","L47332892","Fisherman's Cove Conservation Area, Manasquan US-NJ (40.1065,-74.0380)","2025-06-10 08:05",1,40.106509,-74.038001,TRUE,FALSE,TRUE,"S249051775"
"176","greyel","Greater Yellowlegs","Tringa melanoleuca","L500360","Don Edwards NWR (ALA Co.)","2025-06-10 08:00",5,37.5316305,-122.0733619,TRUE,FALSE,FALSE,"S248914381"
"177","greyel","Greater Yellowlegs","Tringa melanoleuca","L44064099","Scow Bay Waterline Access Rd, Petersburg US-AK 56.80174, -132.93649","2025-06-10 08:00",2,56.801738,-132.936491,TRUE,FALSE,TRUE,"S249645955"
"178","greyel","Greater Yellowlegs","Tringa melanoleuca","L784803","Allens Pond WS--Beach Loop (Mass Audubon)","2025-06-10 07:45",1,41.5070668,-71.023618,TRUE,FALSE,FALSE,"S249300904"
"179","greyel","Greater Yellowlegs","Tringa melanoleuca","L20097262","Mesa St - Morro Bay","2025-06-10 07:43",1,35.362936,-120.840478,TRUE,FALSE,TRUE,"S248864190"
"180","greyel","Greater Yellowlegs","Tringa melanoleuca","L829816","Dowses Beach, Osterville","2025-06-10 07:03",1,41.6221797,-70.3663588,TRUE,FALSE,FALSE,"S248797127"
"181","greyel","Greater Yellowlegs","Tringa melanoleuca","L8649719","Brownie Wise Park","2025-06-10 07:01",2,28.2762918,-81.3876181,TRUE,FALSE,FALSE,"S248793645"
"182","greyel","Greater Yellowlegs","Tringa melanoleuca","L274946","Bitter Lake NWR","2025-06-10 07:00",1,33.4512089,-104.3998146,TRUE,FALSE,FALSE,"S248983832"
"183","greyel","Greater Yellowlegs","Tringa melanoleuca","L44186235","DA-2","2025-06-10 06:59",4,30.8086025,-81.5319941,TRUE,FALSE,TRUE,"S248826399"
"184","greyel","Greater Yellowlegs","Tringa melanoleuca","L791806","Pawleys Island--South End","2025-06-10 06:58",6,33.400172,-79.138513,TRUE,FALSE,FALSE,"S248793613"
"185","greyel","Greater Yellowlegs","Tringa melanoleuca","L5070186","Gustavus (town)","2025-06-10 06:40",1,58.4137425,-135.7313045,TRUE,FALSE,FALSE,"S249062442"
"186","greyel","Greater Yellowlegs","Tringa melanoleuca","L20035315","The Cut, PINWR, -NC 35.73200, -75.50034","2025-06-10 06:33",2,35.732003,-75.500335,TRUE,FALSE,TRUE,"S248785362"
"187","greyel","Greater Yellowlegs","Tringa melanoleuca","L3574409","Pine Ridge","2025-06-10 06:30",1,45.7075579,-123.923378,TRUE,FALSE,TRUE,"S248901893"
"188","greyel","Greater Yellowlegs","Tringa melanoleuca","L127382","Playalinda Beach","2025-06-10 06:26",1,28.6816,-80.6515,TRUE,FALSE,FALSE,"S248796155"
"189","greyel","Greater Yellowlegs","Tringa melanoleuca","L12920868","Great Island Trailhead","2025-06-10 06:25",1,41.932601,-70.068991,TRUE,FALSE,FALSE,"S248853358"
"190","greyel","Greater Yellowlegs","Tringa melanoleuca","L15417364","Chula Vista, Bayfront Park, J Street","2025-06-10 06:20",1,32.6196412,-117.101512,TRUE,FALSE,TRUE,"S249392305"
"191","greyel","Greater Yellowlegs","Tringa melanoleuca","L466636","Herring River, Wellfleet","2025-06-10 06:11",8,41.9348807,-70.0597715,TRUE,FALSE,FALSE,"S249594765"
"192","greyel","Greater Yellowlegs","Tringa melanoleuca","L41118059","51 Hammock Rd, Clinton US-CT 41.25885, -72.51617","2025-06-10 05:57",2,41.258851,-72.516168,TRUE,FALSE,TRUE,"S248776315"
"193","greyel","Greater Yellowlegs","Tringa melanoleuca","L761341","Pine Point Beach--Jetty","2025-06-10 05:42",1,43.5404355,-70.3284806,TRUE,FALSE,FALSE,"S248841352"
"194","greyel","Greater Yellowlegs","Tringa melanoleuca","L1067145","Kasilof--Kasilof River Mouth","2025-06-09 21:53",1,60.3859137,-151.302166,TRUE,FALSE,FALSE,"S248938160"
"195","greyel","Greater Yellowlegs","Tringa melanoleuca","L14927991","Homer--Bishops Beach","2025-06-09 18:31",1,59.637564,-151.540142,TRUE,FALSE,FALSE,"S248840144"
"196","greyel","Greater Yellowlegs","Tringa melanoleuca","L2113967","Timber Point Golf Course--East Marina","2025-06-09 18:22",2,40.7202869,-73.1412855,TRUE,FALSE,FALSE,"S248688840"
"197","greyel","Greater Yellowlegs","Tringa melanoleuca","L109136","Cape Island--South Cape May Meadows (SCMM)","2025-06-09 17:40",1,38.9359287,-74.9434519,TRUE,FALSE,FALSE,"S248687441"
"198","greyel","Greater Yellowlegs","Tringa melanoleuca","L3218485","Edwin B. Forsythe NWR--Bayshore Dr Impoundments","2025-06-09 17:22",1,39.7558585,-74.1918064,TRUE,FALSE,FALSE,"S248668325"
"199","greyel","Greater Yellowlegs","Tringa melanoleuca","L47534894","Lake And Peninsula Borough US-AK (57.9118,-155.6765)","2025-06-09 16:15",1,57.911815,-155.676451,TRUE,FALSE,TRUE,"S249985603"
"200","greyel","Greater Yellowlegs","Tringa melanoleuca","L2949325","US-NJ-Cape May-Cove and beach","2025-06-09 16:13",1,38.931017,-74.935902,TRUE,FALSE,TRUE,"S248709615"
"201","greyel","Greater Yellowlegs","Tringa melanoleuca","L657122","Bombay Hook NWR--Refuge Headquarters","2025-06-09 15:34",2,39.2597968,-75.4731452,TRUE,FALSE,FALSE,"S248982924"
"202","greyel","Greater Yellowlegs","Tringa melanoleuca","L47249589","Big Bend WMA--Sink Creek Road","2025-06-09 14:29",2,29.568048,-83.389317,TRUE,FALSE,TRUE,"S248660358"
"203","greyel","Greater Yellowlegs","Tringa melanoleuca","L2094076","Timber Point Golf Course","2025-06-09 14:20",2,40.7171362,-73.1445837,TRUE,FALSE,FALSE,"S248872521"
"204","greyel","Greater Yellowlegs","Tringa melanoleuca","L109132","Cape Island--Cape May Point SP (CMPSP)","2025-06-09 11:44",1,38.9338272,-74.9550854,TRUE,FALSE,FALSE,"S248603005"
"205","greyel","Greater Yellowlegs","Tringa melanoleuca","L504111","Assateague I. NS--Life of the Dunes","2025-06-09 11:37",1,38.1906284,-75.1593912,TRUE,TRUE,FALSE,"S248701292"
"206","greyel","Greater Yellowlegs","Tringa melanoleuca","L4524052","Campbell Lake","2025-06-09 11:34",2,41.7918727,-102.4274683,TRUE,FALSE,FALSE,"S248705720"
"207","greyel","Greater Yellowlegs","Tringa melanoleuca","L47249423","Billy Frank Jr. Nisqually National Wildlife Refuge, Olympia US-WA 47.07562, -122.70996","2025-06-09 11:19",1,47.075618,-122.70996,TRUE,FALSE,TRUE,"S248659602"
"208","greyel","Greater Yellowlegs","Tringa melanoleuca","L10537514","Blackwater National Wildlife Refuge, Cambridge US-MD (38.4481,-76.0954)","2025-06-09 11:00",3,38.448097,-76.095383,TRUE,TRUE,TRUE,"S248605273"
"209","greyel","Greater Yellowlegs","Tringa melanoleuca","L903856","Ft. Moultrie National Monument","2025-06-09 10:47",1,32.7588311,-79.8567868,TRUE,FALSE,FALSE,"S248578906"
"210","greyel","Greater Yellowlegs","Tringa melanoleuca","L810505","Water Street Marsh, Yarmouth","2025-06-09 10:38",2,41.7107104,-70.2602398,TRUE,FALSE,FALSE,"S248702975"
"211","greyel","Greater Yellowlegs","Tringa melanoleuca","L504106","Assateague I. NS--Life of the Forest","2025-06-09 10:19",1,38.1979474,-75.1578355,TRUE,TRUE,FALSE,"S248698999"
"212","greyel","Greater Yellowlegs","Tringa melanoleuca","L12093246","Heckscher SP--Field 7","2025-06-09 09:42",1,40.6998413,-73.1633551,TRUE,FALSE,FALSE,"S248533087"
"213","greyel","Greater Yellowlegs","Tringa melanoleuca","L29045100","Barnstable Clean Water Coalition Cranberry Bogs","2025-06-09 09:32",1,41.6714674,-70.4275267,TRUE,FALSE,FALSE,"S248536515"
"214","greyel","Greater Yellowlegs","Tringa melanoleuca","L2372882","Island Beach SP--Spizzle Creek Blind Trail","2025-06-09 09:31",1,39.7941774,-74.0972793,TRUE,FALSE,FALSE,"S248573601"
"215","greyel","Greater Yellowlegs","Tringa melanoleuca","L365394","Pea Island NWR--South Pond","2025-06-09 09:17",1,35.693971,-75.485696,TRUE,FALSE,FALSE,"S248517024"
"216","greyel","Greater Yellowlegs","Tringa melanoleuca","L47533912","Rainbow lake","2025-06-09 09:14",1,60.374844,-149.696405,TRUE,FALSE,TRUE,"S249982653"
"217","greyel","Greater Yellowlegs","Tringa melanoleuca","L207664","Las Gallinas Valley Sanitary District","2025-06-09 09:09",1,38.0274109,-122.515583,TRUE,FALSE,FALSE,"S248674585"
"218","greyel","Greater Yellowlegs","Tringa melanoleuca","L3129074","Waves soundfront","2025-06-09 08:40",1,35.5622821,-75.4715037,TRUE,FALSE,TRUE,"S248535061"
"219","greyel","Greater Yellowlegs","Tringa melanoleuca","L169563","Lake Hollingsworth","2025-06-09 08:30",1,28.020617,-81.95168,TRUE,FALSE,FALSE,"S248518614"
"220","greyel","Greater Yellowlegs","Tringa melanoleuca","L552710","Powder Point Bridge","2025-06-09 08:14",1,42.047986,-70.648613,TRUE,FALSE,FALSE,"S248512027"
"221","greyel","Greater Yellowlegs","Tringa melanoleuca","L5100157","Cape Henlopen SP--Gordon's Pond Trail North","2025-06-09 07:52",1,38.7608875,-75.085907,TRUE,FALSE,TRUE,"S248530157"
"222","greyel","Greater Yellowlegs","Tringa melanoleuca","L16725034","Oil Well Road, Immokalee, Florida, US (26.294, -81.486)","2025-06-09 07:34",1,26.2940155,-81.486425,TRUE,FALSE,TRUE,"S248477269"
"223","greyel","Greater Yellowlegs","Tringa melanoleuca","L827977","Bayfront Park (J St.)","2025-06-09 07:06",1,32.6186091,-117.1033868,TRUE,FALSE,FALSE,"S248539985"
"224","greyel","Greater Yellowlegs","Tringa melanoleuca","L282253","Billy Frank Jr. Nisqually NWR","2025-06-09 06:50",1,47.0812514,-122.7180576,TRUE,FALSE,FALSE,"S248589555"
"225","greyel","Greater Yellowlegs","Tringa melanoleuca","L376186","""Viera"" Ritch Grissom Memorial Wetlands","2025-06-09 06:50",1,28.228577,-80.7604659,TRUE,FALSE,FALSE,"S248541453"
"226","greyel","Greater Yellowlegs","Tringa melanoleuca","L127438","Everglades NP--Flamingo","2025-06-09 06:45",1,25.1416,-80.9255,TRUE,FALSE,FALSE,"S248654419"
"227","greyel","Greater Yellowlegs","Tringa melanoleuca","L4400453","Perico Preserve","2025-06-09 06:42",1,27.4972082,-82.6779646,TRUE,FALSE,FALSE,"S248490981"
"228","greyel","Greater Yellowlegs","Tringa melanoleuca","L14724854","Pea Island south pond, NE Corner Platform (35.7022,-75.4887)","2025-06-09 06:42",2,35.702168,-75.488737,TRUE,FALSE,TRUE,"S248484433"
"229","greyel","Greater Yellowlegs","Tringa melanoleuca","L1100498","Captain Cook SRA","2025-06-09 06:30",1,60.8054551,-151.015234,TRUE,FALSE,FALSE,"S248885148"
"230","greyel","Greater Yellowlegs","Tringa melanoleuca","L1450545","Rachel Carson NWR--Furbish Road","2025-06-09 05:37",3,43.2818137,-70.5812466,TRUE,FALSE,FALSE,"S248594425"
"231","greyel","Greater Yellowlegs","Tringa melanoleuca","L36606421","Inner Point Kruzof Island","2025-06-09",16,57.0873723,-135.5758419,TRUE,TRUE,TRUE,"S248746272"
"232","greyel","Greater Yellowlegs","Tringa melanoleuca","L47183401","20350 Summerlin Road, Fort Myers, Florida, US (26.495, -81.974)","2025-06-08 19:56",6,26.4954371,-81.9740561,TRUE,TRUE,TRUE,"S248361989"
"233","greyel","Greater Yellowlegs","Tringa melanoleuca","L9444055","Castle Neck River Reservation (ECGA)","2025-06-08 19:46",1,42.6538164,-70.8136409,TRUE,FALSE,FALSE,"S248360879"
"234","greyel","Greater Yellowlegs","Tringa melanoleuca","L793778","Port Aransas Nature Preserve at Charlie's Pasture","2025-06-08 19:30",1,27.8327765,-97.0873833,TRUE,FALSE,FALSE,"S248376214"
"235","greyel","Greater Yellowlegs","Tringa melanoleuca","L47176172","7360 East C 48, Center Hill, Florida, US (28.658, -81.981)","2025-06-08 18:44",1,28.6581458,-81.9809365,TRUE,FALSE,TRUE,"S248327009"
"236","greyel","Greater Yellowlegs","Tringa melanoleuca","L2689586","Ripon WTP West--including adjacent river trail","2025-06-08 18:07",1,37.724134,-121.141995,TRUE,FALSE,FALSE,"S248515746"
"237","greyel","Greater Yellowlegs","Tringa melanoleuca","L32716074","Lawton Drive Extension Kenai, Alaska, US","2025-06-08 17:24",2,60.5601139,-151.1729153,TRUE,FALSE,TRUE,"S248380516"
"238","greyel","Greater Yellowlegs","Tringa melanoleuca","L37964022","sjwa","2025-06-08 17:00",1,33.8711357,-117.0958937,TRUE,FALSE,TRUE,"S248385830"
"239","greyel","Greater Yellowlegs","Tringa melanoleuca","L7327356","County Rd 23, Tioga US-ND (48.2067,-102.9165)","2025-06-08 16:32",1,48.20669,-102.916476,TRUE,FALSE,TRUE,"S248305907"
"240","greyel","Greater Yellowlegs","Tringa melanoleuca","L285931","Tuckahoe WMA (Cape May Co.)","2025-06-08 16:15",1,39.2855132,-74.7241616,TRUE,FALSE,FALSE,"S248363839"
"241","greyel","Greater Yellowlegs","Tringa melanoleuca","L10939364","Homer--Beluga Slough Trail","2025-06-08 15:59",3,59.637732,-151.5404749,TRUE,FALSE,FALSE,"S248370968"
"242","greyel","Greater Yellowlegs","Tringa melanoleuca","L47160891","143 Whitney Ave, Tryon US-NC 35.20480, -82.23318","2025-06-08 15:22",1,35.204803,-82.233182,TRUE,FALSE,TRUE,"S248262313"
"243","greyel","Greater Yellowlegs","Tringa melanoleuca","L3985587","Sockeye Burn 2015--Sockeye Ave./Landlocked Ave./Randal Dr.","2025-06-08 15:16",1,61.8430403,-150.104703,TRUE,FALSE,FALSE,"S248398668"
"244","greyel","Greater Yellowlegs","Tringa melanoleuca","L1284667","Esther's Island","2025-06-08 15:15",1,41.2764476,-70.214653,TRUE,FALSE,TRUE,"S248296911"
"245","greyel","Greater Yellowlegs","Tringa melanoleuca","L33959870","3051 N Meadow Lakes Dr, Wasilla US-AK 61.61377, -149.67012","2025-06-08 14:49",1,61.613768,-149.670123,TRUE,FALSE,TRUE,"S248338199"
"246","greyel","Greater Yellowlegs","Tringa melanoleuca","L1805876","Campbell Bay / Mouth of Charcoal Creek","2025-06-08 14:40",1,44.991912,-73.1700738,TRUE,FALSE,FALSE,"S248334055"
"247","greyel","Greater Yellowlegs","Tringa melanoleuca","L42899138","Lalen Lake","2025-06-08 14:19",1,61.6046584,-149.6893687,TRUE,FALSE,FALSE,"S248325007"
"248","greyel","Greater Yellowlegs","Tringa melanoleuca","L2825191","Soldotna Creek Park","2025-06-08 14:00",1,60.483129,-151.0611749,TRUE,FALSE,FALSE,"S248395725"
"249","greyel","Greater Yellowlegs","Tringa melanoleuca","L47155561","1165 Summerwind Ln, Seabrook Island US-SC 32.56515, -80.17460","2025-06-08 13:45",1,32.565154,-80.1746,TRUE,FALSE,TRUE,"S248241684"
"250","greyel","Greater Yellowlegs","Tringa melanoleuca","L11026151","Middle Creek WMA--Auto Tour (Lancaster Co.)","2025-06-08 12:11",1,40.2845228,-76.2315486,TRUE,FALSE,FALSE,"S248354319"
"251","greyel","Greater Yellowlegs","Tringa melanoleuca","L168335","Odiorne Point SP, Rye","2025-06-08 12:06",1,43.045555,-70.71444,TRUE,FALSE,FALSE,"S248536939"
"252","greyel","Greater Yellowlegs","Tringa melanoleuca","L850355","Tule Lake NWR--Auto Tour and Sump 1B (SIS Co.)","2025-06-08 12:05",1,41.8496929,-121.4777098,TRUE,FALSE,FALSE,"S248256888"
"253","greyel","Greater Yellowlegs","Tringa melanoleuca","L757642","Umbagog NWR--Leonard Marsh, Errol","2025-06-08 12:05",2,44.8011116,-71.0514364,TRUE,FALSE,FALSE,"S248185117"
"254","greyel","Greater Yellowlegs","Tringa melanoleuca","L26661641","Forsythe NWR 8-mile Loop","2025-06-08 12:00",3,39.4691435,-74.4523283,TRUE,FALSE,TRUE,"S248325053"
"255","greyel","Greater Yellowlegs","Tringa melanoleuca","L446674","Parker River NWR--North Pool Overlook","2025-06-08 11:50",2,42.7541657,-70.8027005,TRUE,FALSE,FALSE,"S248197764"
"256","greyel","Greater Yellowlegs","Tringa melanoleuca","L132063","Tennessee NWR--Duck River Unit","2025-06-08 11:39",4,35.945837,-87.96413,TRUE,FALSE,FALSE,"S248323976"
"257","greyel","Greater Yellowlegs","Tringa melanoleuca","L25806920","5713 Peace Pipe Lane, Kingston, Oklahoma, US (33.981, -96.634)","2025-06-08 11:30",NA,33.9814528,-96.6339893,TRUE,FALSE,TRUE,"S248374942"
"258","greyel","Greater Yellowlegs","Tringa melanoleuca","L11200641","Tuckahoe WMA","2025-06-08 11:30",5,39.2688909,-74.7231142,TRUE,FALSE,TRUE,"S248251590"
"259","greyel","Greater Yellowlegs","Tringa melanoleuca","L127374","Harney Pond Canal Recreation Area","2025-06-08 11:28",2,26.995414,-81.0675573,TRUE,FALSE,FALSE,"S248187946"
"260","greyel","Greater Yellowlegs","Tringa melanoleuca","L805096","Allens Pond WS--Quansett Trail (Mass Audubon)","2025-06-08 11:23",1,41.51298,-71.0225773,TRUE,FALSE,FALSE,"S248201046"
"261","greyel","Greater Yellowlegs","Tringa melanoleuca","L3972156","San Andreas Trail","2025-06-08 10:40",1,37.608673,-122.4333143,TRUE,FALSE,FALSE,"S248412550"
"262","greyel","Greater Yellowlegs","Tringa melanoleuca","L913533","Ottawa NWR--Wildlife Drive (Ottawa Co.)","2025-06-08 10:37",1,41.6113354,-83.213625,TRUE,FALSE,FALSE,"S248157053"
"263","greyel","Greater Yellowlegs","Tringa melanoleuca","L47170399","South point Ocracoke Island, Ocracoke US-NC (35.0696,-76.0054)","2025-06-08 10:33",1,35.069616,-76.005386,TRUE,FALSE,TRUE,"S248301094"
"264","greyel","Greater Yellowlegs","Tringa melanoleuca","L598882","Edwin B. Forsythe NWR--Gull Pond","2025-06-08 10:13",1,39.46952,-74.4455696,TRUE,FALSE,FALSE,"S248249551"
"265","greyel","Greater Yellowlegs","Tringa melanoleuca","L589213","Modoc NWR","2025-06-08 10:06",2,41.4575229,-120.5219078,TRUE,FALSE,FALSE,"S248256081"
"266","greyel","Greater Yellowlegs","Tringa melanoleuca","L338659","Ten Mile Pond CA","2025-06-08 10:04",1,36.7108364,-89.3362771,TRUE,FALSE,FALSE,"S248146098"
"267","greyel","Greater Yellowlegs","Tringa melanoleuca","L557007","Cape Hatteras NS--Salt Pond","2025-06-08 10:02",4,35.2300561,-75.5322504,TRUE,FALSE,FALSE,"S248159994"
"268","greyel","Greater Yellowlegs","Tringa melanoleuca","L2195467","DEC Wetlands--Gidds Bay","2025-06-08 10:00",4,41.134023,-72.281739,TRUE,FALSE,TRUE,"S248130482"
"269","greyel","Greater Yellowlegs","Tringa melanoleuca","L1517390","Corral de Tierra--lower (MP 0-3 & Calera Cyn)","2025-06-08 10:00",1,36.5567141,-121.7326232,TRUE,FALSE,FALSE,"S248332220"
"270","greyel","Greater Yellowlegs","Tringa melanoleuca","L109206","Hammonasset Beach SP--Willard Island","2025-06-08 09:45",1,41.2568798,-72.5446236,TRUE,FALSE,FALSE,"S248271243"
"271","greyel","Greater Yellowlegs","Tringa melanoleuca","L3968972","Sebasticook Lake--West End","2025-06-08 09:27",1,44.8415289,-69.2781202,TRUE,FALSE,FALSE,"S248093387"
"272","greyel","Greater Yellowlegs","Tringa melanoleuca","L270936","Monomoy NWR--Morris Island","2025-06-08 09:19",1,41.6568485,-69.9582152,TRUE,FALSE,FALSE,"S248172900"
"273","greyel","Greater Yellowlegs","Tringa melanoleuca","L506275","San Diego River mudflats (including Robb Field & north side)","2025-06-08 09:16",1,32.7568803,-117.2401432,TRUE,FALSE,FALSE,"S248208693"
"274","greyel","Greater Yellowlegs","Tringa melanoleuca","L39195582","North Cove Yardbirds","2025-06-08 09:09",1,41.28861,-72.354381,TRUE,FALSE,TRUE,"S248076021"
"275","greyel","Greater Yellowlegs","Tringa melanoleuca","L8336075","IRC Stormwater Egret Marsh (Permission Required)","2025-06-08 09:09",2,27.6084606,-80.4772731,TRUE,FALSE,FALSE,"S248106593"
"276","greyel","Greater Yellowlegs","Tringa melanoleuca","L16871073","Coal Oil Point Reserve (if possible, use more specific hotspot)","2025-06-08 09:05",2,34.4151882,-119.8799569,TRUE,FALSE,FALSE,"S248276501"
"277","greyel","Greater Yellowlegs","Tringa melanoleuca","L473168","Cape Hatteras NS--Cape Point","2025-06-08 09:05",6,35.2234655,-75.5286026,TRUE,FALSE,FALSE,"S248303085"
"278","greyel","Greater Yellowlegs","Tringa melanoleuca","L375214","Humboldt Bay NWR--Salmon Creek Unit","2025-06-08 08:53",8,40.684888,-124.211354,TRUE,FALSE,FALSE,"S248726174"
"279","greyel","Greater Yellowlegs","Tringa melanoleuca","L1025768","Franklin Delano Roosevelt (FDR) Park","2025-06-08 08:50",1,39.9027901,-75.1819754,TRUE,FALSE,FALSE,"S248141269"
"280","greyel","Greater Yellowlegs","Tringa melanoleuca","L582780","St. Marks NWR--Stoney Bayou 2","2025-06-08 08:27",3,30.1151367,-84.1286659,TRUE,FALSE,FALSE,"S248073859"
"281","greyel","Greater Yellowlegs","Tringa melanoleuca","L16637081","Lena Beach Picnic Site","2025-06-08 08:25",1,58.3935821,-134.7481298,TRUE,FALSE,TRUE,"S248190967"
"282","greyel","Greater Yellowlegs","Tringa melanoleuca","L3797793","Ocean City Welcome Center","2025-06-08 08:22",1,39.2881767,-74.5824587,TRUE,FALSE,FALSE,"S248210925"
"283","greyel","Greater Yellowlegs","Tringa melanoleuca","L1118706","Elliott Island Rd.--Gadwall Bend","2025-06-08 08:11",1,38.3213229,-75.9627342,TRUE,FALSE,FALSE,"S248073723"
"284","greyel","Greater Yellowlegs","Tringa melanoleuca","L1555375","Pea Island NWR--Salt Flats Wildlife Trail","2025-06-08 08:05",3,35.7355509,-75.5053226,TRUE,FALSE,FALSE,"S248108450"
"285","greyel","Greater Yellowlegs","Tringa melanoleuca","L843011","Rose Memorial Park","2025-06-08 07:55",1,39.4519516,-123.8028502,TRUE,FALSE,FALSE,"S248373482"
"286","greyel","Greater Yellowlegs","Tringa melanoleuca","L33937493","The Berm","2025-06-08 07:46",1,61.611793,-149.211351,TRUE,FALSE,TRUE,"S248195570"
"287","greyel","Greater Yellowlegs","Tringa melanoleuca","L2498310","Yolo Bypass Wildlife Area--Auto Tour Route","2025-06-08 07:33",1,38.5483668,-121.6266346,TRUE,FALSE,FALSE,"S248383552"
"288","greyel","Greater Yellowlegs","Tringa melanoleuca","L3659024","Tony Knowles Coastal Trail--Pete's Place to Audubon Wayside","2025-06-08 07:33",2,61.2022996,-149.9509227,TRUE,FALSE,FALSE,"S248244662"
"289","greyel","Greater Yellowlegs","Tringa melanoleuca","L31564350","Cousins River Field & Marsh","2025-06-08 07:20",2,43.8211365,-70.1572537,TRUE,FALSE,FALSE,"S248228618"
"290","greyel","Greater Yellowlegs","Tringa melanoleuca","L207348","Belle Isle Marsh Reservation","2025-06-08 07:18",1,42.3910639,-70.9930195,TRUE,FALSE,FALSE,"S248061993"
"291","greyel","Greater Yellowlegs","Tringa melanoleuca","L580980","St. Marks NWR--Stoney Bayou 1 & Twin Dikes","2025-06-08 07:15",1,30.1257123,-84.1436863,TRUE,FALSE,FALSE,"S248434787"
"292","greyel","Greater Yellowlegs","Tringa melanoleuca","L1252427","St. Marks NWR--Mounds Pool No. 3","2025-06-08 07:08",2,30.0989771,-84.1477203,TRUE,FALSE,FALSE,"S248051686"
"293","greyel","Greater Yellowlegs","Tringa melanoleuca","L855856","Stump Pass Beach SP","2025-06-08 06:57",1,26.9022934,-82.346805,TRUE,FALSE,FALSE,"S248059029"
"294","greyel","Greater Yellowlegs","Tringa melanoleuca","L11733713","Kingsbay Naval Submarine Base (Restricted Access)","2025-06-08 06:23",3,30.78509,-81.5699366,TRUE,FALSE,FALSE,"S248322971"
"295","greyel","Greater Yellowlegs","Tringa melanoleuca","L7429408","Air Power Park","2025-06-08 06:06",1,37.0433746,-76.365779,TRUE,TRUE,FALSE,"S248020565"
"296","greyel","Greater Yellowlegs","Tringa melanoleuca","L7199800","Road C NE","2025-06-08 05:01",1,47.0836243,-119.4282103,TRUE,FALSE,FALSE,"S248149330"
"297","greyel","Greater Yellowlegs","Tringa melanoleuca","L2056359","South Waterfront","2025-06-08 03:45",1,45.4977745,-122.6678038,TRUE,FALSE,FALSE,"S248109283"
"298","greyel","Greater Yellowlegs","Tringa melanoleuca","L47091442","Reflections Lake Trail, Wasilla US-AK 61.48684, -149.24835","2025-06-07 21:14",1,61.486839,-149.248348,TRUE,FALSE,TRUE,"S247959722"
"299","greyel","Greater Yellowlegs","Tringa melanoleuca","L18256923","Mexico Farms (restricted access)","2025-06-07 19:38",1,39.6016723,-78.7608707,TRUE,TRUE,TRUE,"S247935288"
"300","greyel","Greater Yellowlegs","Tringa melanoleuca","L660064","Chincoteague NWR--Wildlife Loop","2025-06-07 19:16",1,37.9045392,-75.3517216,TRUE,FALSE,FALSE,"S247880401"
"301","greyel","Greater Yellowlegs","Tringa melanoleuca","L443535","Yolo Bypass Wildlife Area","2025-06-07 19:03",1,38.551789,-121.6208018,TRUE,FALSE,FALSE,"S247948178"
"302","greyel","Greater Yellowlegs","Tringa melanoleuca","L2685255","Pine Glades Natural Area","2025-06-07 18:33",1,26.9416978,-80.257144,TRUE,FALSE,FALSE,"S247886364"
"303","greyel","Greater Yellowlegs","Tringa melanoleuca","L3070938","Goose Pond FWA--Main Pool West south bridge (CR1200W)","2025-06-07 17:26",1,38.9598009,-87.1674049,TRUE,FALSE,FALSE,"S247851350"
"304","greyel","Greater Yellowlegs","Tringa melanoleuca","L47068595","Westminster Cornfield 05158, Westminster US-VT (43.0779,-72.4441)","2025-06-07 17:12",1,43.07788,-72.444127,TRUE,TRUE,TRUE,"S247852741"
"305","greyel","Greater Yellowlegs","Tringa melanoleuca","L45209987","Spring Lake","2025-06-07 17:07",2,61.2843299,-149.8199508,TRUE,FALSE,TRUE,"S247925425"
"306","greyel","Greater Yellowlegs","Tringa melanoleuca","L508152","Raft River Mtns -- Lynn Reservoir","2025-06-07 16:09",1,41.8479538,-113.7246323,TRUE,FALSE,FALSE,"S247914449"
"307","greyel","Greater Yellowlegs","Tringa melanoleuca","L14021925","Westminster cornfield","2025-06-07 16:00",1,43.080374,-72.4396987,TRUE,TRUE,TRUE,"S247855763"
"308","greyel","Greater Yellowlegs","Tringa melanoleuca","L14023302","Westminster Farm cornfield","2025-06-07 16:00",1,43.0772912,-72.4429485,TRUE,TRUE,TRUE,"S247858711"
"309","greyel","Greater Yellowlegs","Tringa melanoleuca","L1571511","Westminster Corn Field Rt 5","2025-06-07 15:30",1,43.0824196,-72.4396642,TRUE,TRUE,TRUE,"S247903580"
"310","greyel","Greater Yellowlegs","Tringa melanoleuca","L1148948","Missouri Headwaters SP--Boat Launch","2025-06-07 15:26",1,45.9399295,-111.4905453,TRUE,FALSE,FALSE,"S248176309"
"311","greyel","Greater Yellowlegs","Tringa melanoleuca","L2878457","Hansen Spreading Grounds","2025-06-07 14:48",1,34.2532614,-118.3924055,TRUE,FALSE,FALSE,"S248820612"
"312","greyel","Greater Yellowlegs","Tringa melanoleuca","L14123569","Westminster Farm cornfield","2025-06-07 14:44",1,43.0773886,-72.4442146,TRUE,TRUE,TRUE,"S247838478"
"313","greyel","Greater Yellowlegs","Tringa melanoleuca","L44805831","Succotash Marsh, Wakefield US-RI 41.37983, -71.52642","2025-06-07 14:20",1,41.379831,-71.526416,TRUE,FALSE,TRUE,"S247797783"
"314","greyel","Greater Yellowlegs","Tringa melanoleuca","L389007","Richard W. DeKorte Park","2025-06-07 14:00",1,40.7833,-74.1025167,TRUE,FALSE,FALSE,"S247940927"
"315","greyel","Greater Yellowlegs","Tringa melanoleuca","L1135300","Squantum Marshes","2025-06-07 13:57",2,42.2941991,-71.0211182,TRUE,FALSE,FALSE,"S247843732"
"316","greyel","Greater Yellowlegs","Tringa melanoleuca","L357310","Succotash Marsh","2025-06-07 13:44",1,41.3809304,-71.5233135,TRUE,FALSE,FALSE,"S247838042"
"317","greyel","Greater Yellowlegs","Tringa melanoleuca","L10487395","Passeonkquis Cove Fishing Access, Warwick","2025-06-07 13:32",1,41.747803,-71.38402,TRUE,FALSE,FALSE,"S247769611"
"318","greyel","Greater Yellowlegs","Tringa melanoleuca","L278303","Chapmans Landing, Stratham","2025-06-07 13:20",1,43.0395781,-70.9273133,TRUE,FALSE,FALSE,"S247778991"
"319","greyel","Greater Yellowlegs","Tringa melanoleuca","L296392","Tuckerton--Great Bay Bvld. WMA","2025-06-07 12:50",1,39.5301285,-74.3183899,TRUE,FALSE,FALSE,"S247873995"
"320","greyel","Greater Yellowlegs","Tringa melanoleuca","L694889","Kodiak Is.--Womens Bay-Head","2025-06-07 12:30",3,57.7059242,-152.5714839,TRUE,FALSE,FALSE,"S247951681"
"321","greyel","Greater Yellowlegs","Tringa melanoleuca","L129044","Parker River NWR--Pines Trail","2025-06-07 12:22",1,42.733799,-70.7903976,TRUE,FALSE,FALSE,"S247752738"
"322","greyel","Greater Yellowlegs","Tringa melanoleuca","L27684316","Seldon Road, Wasilla, Alaska, US (61.616, -149.542)","2025-06-07 12:12",1,61.6161014,-149.5418888,TRUE,FALSE,TRUE,"S247826503"
"323","greyel","Greater Yellowlegs","Tringa melanoleuca","L34600088","Walden Rock","2025-06-07 12:05",1,55.278673,-131.605519,TRUE,FALSE,TRUE,"S248251441"
"324","greyel","Greater Yellowlegs","Tringa melanoleuca","L1906442","Rt. 1A, Second Pullout South of Odiorne Point, Rye","2025-06-07 11:30",1,43.0400379,-70.7150774,TRUE,FALSE,FALSE,"S247926792"
"325","greyel","Greater Yellowlegs","Tringa melanoleuca","L860305","O'Connor Pond (Bayshore Pond) area - Bay Trail and Faber-Laumeister Trails to Bay Rd. (SM)","2025-06-07 11:30",2,37.46605,-122.1226287,TRUE,FALSE,FALSE,"S247798908"
"326","greyel","Greater Yellowlegs","Tringa melanoleuca","L1909257","Cove South of Odiorne Point SP, Rye","2025-06-07 11:19",1,43.0404771,-70.7153893,TRUE,FALSE,FALSE,"S247833752"
"327","greyel","Greater Yellowlegs","Tringa melanoleuca","L14071832","440 East Squantum Street, Quincy, Massachusetts, US (42.29, -71.024)","2025-06-07 10:59",1,42.2901585,-71.0237697,TRUE,FALSE,TRUE,"S247704045"
"328","greyel","Greater Yellowlegs","Tringa melanoleuca","L2129881","Timber Point Golf Course East Marina","2025-06-07 10:30",1,40.7201143,-73.1419086,TRUE,FALSE,TRUE,"S247906712"
"329","greyel","Greater Yellowlegs","Tringa melanoleuca","L248017","Bolivar Flats Shorebird Sanctuary","2025-06-07 10:05",1,29.3711371,-94.7287083,TRUE,FALSE,FALSE,"S247755416"
"330","greyel","Greater Yellowlegs","Tringa melanoleuca","L1296469","West Ship Island","2025-06-07 09:44",1,30.2122016,-88.9542389,TRUE,FALSE,FALSE,"S247801179"
"331","greyel","Greater Yellowlegs","Tringa melanoleuca","L800336","Argilla-Northgate-Essex Rd. Fields Complex","2025-06-07 09:42",4,42.6613998,-70.8144121,TRUE,FALSE,FALSE,"S247896692"
"332","greyel","Greater Yellowlegs","Tringa melanoleuca","L10902957","Oak Harbor","2025-06-07 09:32",1,27.6788275,-80.3980395,TRUE,FALSE,TRUE,"S247730378"
"333","greyel","Greater Yellowlegs","Tringa melanoleuca","L268372","Bottle Beach","2025-06-07 09:06",1,46.893277,-124.0468136,TRUE,FALSE,FALSE,"S247763782"
"334","greyel","Greater Yellowlegs","Tringa melanoleuca","L390227","Eagle Beach SRA","2025-06-07 09:00",1,58.5283716,-134.8270512,TRUE,FALSE,FALSE,"S247851204"
"335","greyel","Greater Yellowlegs","Tringa melanoleuca","L31380468","LAKE HOOD NORTH SIDE","2025-06-07 08:54",2,61.180195,-149.954697,TRUE,FALSE,TRUE,"S247758219"
"336","greyel","Greater Yellowlegs","Tringa melanoleuca","L493566","East Beach, Watch Hill","2025-06-07 08:49",1,41.3100502,-71.8505859,TRUE,FALSE,FALSE,"S247848036"
"337","greyel","Greater Yellowlegs","Tringa melanoleuca","L596427","Little River Salt Marsh, North Hampton","2025-06-07 08:31",1,42.9584954,-70.7854271,TRUE,FALSE,FALSE,"S247633664"
"338","greyel","Greater Yellowlegs","Tringa melanoleuca","L1300999","Cheney Lake Park","2025-06-07 08:14",1,61.2002484,-149.7619794,TRUE,FALSE,FALSE,"S247750011"
"339","greyel","Greater Yellowlegs","Tringa melanoleuca","L127396","Babcock-Webb WMA","2025-06-07 08:06",1,26.8582653,-81.9401121,TRUE,FALSE,FALSE,"S247748145"
"340","greyel","Greater Yellowlegs","Tringa melanoleuca","L47332453","Kidder 30th St SE (E of McPhail Slough)","2025-06-07 08:04",1,46.980624,-99.652088,TRUE,FALSE,TRUE,"S249049917"
"341","greyel","Greater Yellowlegs","Tringa melanoleuca","L771306","Jarvis Sound","2025-06-07 08:00",1,38.967751,-74.8683929,TRUE,FALSE,FALSE,"S247902380"
"342","greyel","Greater Yellowlegs","Tringa melanoleuca","L464099","Prime Hook NWR--Dike Trail (formerly Observation Point Trail)","2025-06-07 07:56",2,38.831785,-75.2446157,TRUE,FALSE,FALSE,"S247726396"
"343","greyel","Greater Yellowlegs","Tringa melanoleuca","L730351","Charleston Slough/Coast Casey Forebay","2025-06-07 07:54",1,37.4359191,-122.098918,TRUE,FALSE,FALSE,"S247762720"
"344","greyel","Greater Yellowlegs","Tringa melanoleuca","L266125","Bedwell Bayfront Park-Menlo Park","2025-06-07 07:38",4,37.4916981,-122.1765947,TRUE,FALSE,FALSE,"S247779380"
"345","greyel","Greater Yellowlegs","Tringa melanoleuca","L502729","Orient Beach SP","2025-06-07 07:33",1,41.1286489,-72.2700955,TRUE,FALSE,FALSE,"S247709344"
"346","greyel","Greater Yellowlegs","Tringa melanoleuca","L47050756","Pine Island Sound--central","2025-06-07 07:31",1,26.599679,-82.164811,TRUE,TRUE,TRUE,"S247783526"
"347","greyel","Greater Yellowlegs","Tringa melanoleuca","L6004908","Little Saint Simons Island--Myrtle Pond South Dike","2025-06-07 07:26",1,31.2763842,-81.2945309,TRUE,FALSE,FALSE,"S247653904"
"348","greyel","Greater Yellowlegs","Tringa melanoleuca","L209446","Goose Pond","2025-06-07 07:19",1,43.3183381,-89.3661599,TRUE,TRUE,FALSE,"S247882399"
"349","greyel","Greater Yellowlegs","Tringa melanoleuca","L890006","Manchester-Essex Woods","2025-06-07 07:15",1,42.6023149,-70.7796764,TRUE,FALSE,FALSE,"S247816505"
"350","greyel","Greater Yellowlegs","Tringa melanoleuca","L3435308","Bombay Hook NWR","2025-06-07 07:14",1,39.2647682,-75.4651093,TRUE,FALSE,TRUE,"S247913202"
"351","greyel","Greater Yellowlegs","Tringa melanoleuca","L276890","Headlands Beach SP","2025-06-07 06:49",2,41.7581556,-81.2895048,TRUE,TRUE,FALSE,"S247639402"
"352","greyel","Greater Yellowlegs","Tringa melanoleuca","L39062058","Pea Island roadside Sand Flat","2025-06-07 06:48",2,35.732244,-75.500451,TRUE,FALSE,TRUE,"S247583549"
"353","greyel","Greater Yellowlegs","Tringa melanoleuca","L11802645","32 Captree Island, Oak Beach US-NY (40.6450,-73.2670)","2025-06-07 06:45",1,40.645005,-73.267021,TRUE,FALSE,TRUE,"S247596053"
"354","greyel","Greater Yellowlegs","Tringa melanoleuca","L128971","Fred Hervey WTP (FWTX 4)","2025-06-07 06:44",1,31.9493008,-106.3423004,TRUE,FALSE,FALSE,"S247943728"
"355","greyel","Greater Yellowlegs","Tringa melanoleuca","L28916339","Wrightsville Beach--Crystal Pier","2025-06-07 06:43",1,34.1932346,-77.8042392,TRUE,FALSE,FALSE,"S247595545"
"356","greyel","Greater Yellowlegs","Tringa melanoleuca","L17714048","The Cut/ North Pond US-NC 35.73216, -75.50040","2025-06-07 06:41",2,35.732163,-75.5004,TRUE,FALSE,TRUE,"S247625151"
"357","greyel","Greater Yellowlegs","Tringa melanoleuca","L4606931","Palmer Hay Flats SGR--Wasilla Creek Boardwalk","2025-06-07 06:33",1,61.5504655,-149.2958629,TRUE,FALSE,FALSE,"S247733244"
"358","greyel","Greater Yellowlegs","Tringa melanoleuca","L47012660","7069 Key Haven Rd, Seminole US-FL 27.83658, -82.77429","2025-06-07 06:30",1,27.836583,-82.774288,TRUE,FALSE,TRUE,"S247624217"
"359","greyel","Greater Yellowlegs","Tringa melanoleuca","L483861","Broadkill Beach","2025-06-07 06:20",3,38.8196486,-75.2010727,TRUE,FALSE,FALSE,"S247584451"
"360","greyel","Greater Yellowlegs","Tringa melanoleuca","L159619","Malheur NWR--Headquarters","2025-06-07 06:17",2,43.2658741,-118.8448941,TRUE,FALSE,FALSE,"S247767850"
"361","greyel","Greater Yellowlegs","Tringa melanoleuca","L617867","Headlands Dunes State Nature Preserve","2025-06-07 06:10",1,41.7642698,-81.2838936,TRUE,FALSE,FALSE,"S247723690"
"362","greyel","Greater Yellowlegs","Tringa melanoleuca","L43992859","Parker River National Wildlife Refuge, Newbury US-MA 42.77247, -70.80590","2025-06-07 06:00",1,42.772465,-70.805902,TRUE,FALSE,TRUE,"S247595386"
"363","greyel","Greater Yellowlegs","Tringa melanoleuca","L29486569","John C. and Mariana Jones/Hungryland Wildlife and Environmental Area (Palm Beach County)","2025-06-07 05:52",1,26.943293,-80.32062,TRUE,FALSE,FALSE,"S247883094"
"364","greyel","Greater Yellowlegs","Tringa melanoleuca","L718307","**Back Bay NWR","2025-06-07 05:39",1,36.672127,-75.915661,TRUE,FALSE,FALSE,"S247579239"
"365","greyel","Greater Yellowlegs","Tringa melanoleuca","L830335","Plum Island (please use more refined location)","2025-06-07 05:25",4,42.7987508,-70.8114526,TRUE,FALSE,FALSE,"S247645625"
"366","greyel","Greater Yellowlegs","Tringa melanoleuca","L443195","Sitka (town)","2025-06-07",1,57.049881,-135.3335381,TRUE,FALSE,FALSE,"S247769326"
"367","greyel","Greater Yellowlegs","Tringa melanoleuca","L10067912","Knik River PUA--Rippy Trail (trailhead to Jim Creek Overlook)","2025-06-06 21:27",1,61.5590338,-148.9187793,TRUE,FALSE,FALSE,"S247529680"
"368","greyel","Greater Yellowlegs","Tringa melanoleuca","L18524773","Ollie's Pond Park, Port Charlotte US-FL 26.98471, -82.14991","2025-06-06 18:09",1,26.984714,-82.149906,TRUE,FALSE,TRUE,"S247462204"
"369","greyel","Greater Yellowlegs","Tringa melanoleuca","L304213","Moriches Island","2025-06-06 17:29",2,40.7926886,-72.7459378,TRUE,FALSE,FALSE,"S247443491"
"370","greyel","Greater Yellowlegs","Tringa melanoleuca","L44514160","99652, Big Lake US-AK 61.81799, -150.36179","2025-06-06 16:23",2,61.817992,-150.361789,TRUE,FALSE,TRUE,"S247506926"
"371","greyel","Greater Yellowlegs","Tringa melanoleuca","L34382000","Batiquitos North Bluff Trial","2025-06-06 16:07",1,33.090235,-117.310043,TRUE,FALSE,TRUE,"S247476104"
"372","greyel","Greater Yellowlegs","Tringa melanoleuca","L15734916","18627–18725 Baseline Rd, Three Forks US-MT 45.78700, -111.57582","2025-06-06 14:56",1,45.787003,-111.57582,TRUE,FALSE,TRUE,"S247436366"
"373","greyel","Greater Yellowlegs","Tringa melanoleuca","L534241","Fairbanks--Peat Ponds Wildlife Area","2025-06-06 14:55",1,64.9110145,-147.9393518,TRUE,FALSE,FALSE,"S247923734"
"374","greyel","Greater Yellowlegs","Tringa melanoleuca","L1333782","Malheur NWR--Wright's Pond","2025-06-06 14:42",NA,43.2299022,-118.8752213,TRUE,FALSE,FALSE,"S247760868"
"375","greyel","Greater Yellowlegs","Tringa melanoleuca","L714512","Sunset Lake  (Portland)","2025-06-06 14:40",2,27.8679131,-97.3274088,TRUE,FALSE,FALSE,"S247425092"
"376","greyel","Greater Yellowlegs","Tringa melanoleuca","L128553","Chugach NF--Tern Lake","2025-06-06 14:11",2,60.5340384,-149.5476663,TRUE,FALSE,FALSE,"S247518721"
"377","greyel","Greater Yellowlegs","Tringa melanoleuca","L732004","Demarest Lloyd SP","2025-06-06 14:00",1,41.5271179,-70.9857559,TRUE,FALSE,FALSE,"S247382237"
"378","greyel","Greater Yellowlegs","Tringa melanoleuca","L19335562","Fort Saybrook Monument Park","2025-06-06 12:56",1,41.2847733,-72.3517968,TRUE,FALSE,FALSE,"S248941047"
"379","greyel","Greater Yellowlegs","Tringa melanoleuca","L3375569","East Beach, Westport","2025-06-06 12:42",1,41.5016352,-71.0284996,TRUE,FALSE,TRUE,"S247577227"
"380","greyel","Greater Yellowlegs","Tringa melanoleuca","L1830921","E Catlett Rd.","2025-06-06 12:17",2,38.846193,-121.3968873,TRUE,FALSE,FALSE,"S247411841"
"381","greyel","Greater Yellowlegs","Tringa melanoleuca","L35048363","Ohmer Creek Trail, Petersburg US-AK 56.58192, -132.74437","2025-06-06 10:40",6,56.581924,-132.744369,TRUE,FALSE,TRUE,"S247564831"
"382","greyel","Greater Yellowlegs","Tringa melanoleuca","L109149","Marshlands Conservancy","2025-06-06 10:40",1,40.9531117,-73.7012273,TRUE,FALSE,FALSE,"S247428575"
"383","greyel","Greater Yellowlegs","Tringa melanoleuca","L46989044","Kodiak, AK--Lake Rose Tead outlet","2025-06-06 10:30",2,57.475606,-152.4643624,TRUE,FALSE,TRUE,"S247516350"
"384","greyel","Greater Yellowlegs","Tringa melanoleuca","L33292569","Seward Hwy, Anchorage US-AK 60.93332, -149.15531","2025-06-06 10:25",2,60.933319,-149.155312,TRUE,FALSE,TRUE,"S247379302"
"385","greyel","Greater Yellowlegs","Tringa melanoleuca","L2473134","Jim King Park and Boat Ramp at Sisters Creek Marina","2025-06-06 09:35",7,30.3953606,-81.4584947,TRUE,FALSE,FALSE,"S247286101"
"386","greyel","Greater Yellowlegs","Tringa melanoleuca","L16240353","Humboldt Bay National Wildlife Refuge, Loleta US-CA 40.68615, -124.20683","2025-06-06 09:32",4,40.68615,-124.206833,TRUE,FALSE,TRUE,"S247812262"
"387","greyel","Greater Yellowlegs","Tringa melanoleuca","L20318024","Neka Bay","2025-06-06 09:27",1,58.0517331,-135.6710195,TRUE,FALSE,FALSE,"S247515680"
"388","greyel","Greater Yellowlegs","Tringa melanoleuca","L505854","Sagg Bridge","2025-06-06 08:53",4,40.9185757,-72.2912621,TRUE,FALSE,FALSE,"S247281928"
"389","greyel","Greater Yellowlegs","Tringa melanoleuca","L127322","Upper Tampa Bay Regional Park","2025-06-06 08:52",1,28.0146,-82.6347,TRUE,FALSE,FALSE,"S247482626"
"390","greyel","Greater Yellowlegs","Tringa melanoleuca","L22410914","Baywood Nature Trail","2025-06-06 08:34",1,48.0179423,-122.2109686,TRUE,FALSE,FALSE,"S247345799"
"391","greyel","Greater Yellowlegs","Tringa melanoleuca","L32809263","2552 Second Ave, Manahawkin US-NJ 39.65586, -74.18674","2025-06-06 08:23",1,39.655863,-74.18674,TRUE,FALSE,TRUE,"S247250773"
"392","greyel","Greater Yellowlegs","Tringa melanoleuca","L678246","Sandy Hook--Platform & North Pond","2025-06-06 08:23",1,40.4716,-74.0059876,TRUE,FALSE,FALSE,"S247261106"
"393","greyel","Greater Yellowlegs","Tringa melanoleuca","L3631645","Sitka--Indian River-East Tidal Flat","2025-06-06 08:17",1,57.044769,-135.3130417,TRUE,FALSE,FALSE,"S247526616"
"394","greyel","Greater Yellowlegs","Tringa melanoleuca","L3109497","St. Marks NWR--East River Pool","2025-06-06 08:15",1,30.1319741,-84.1467762,TRUE,FALSE,FALSE,"S247256797"
"395","greyel","Greater Yellowlegs","Tringa melanoleuca","L46986711","7231 Tropical Drive, Spring Hill, Florida, US (28.534, -82.628)","2025-06-06 08:12",1,28.5336041,-82.6281549,TRUE,FALSE,TRUE,"S247506073"
"396","greyel","Greater Yellowlegs","Tringa melanoleuca","L446585","Magnolia Plantation & Gardens","2025-06-06 08:05",1,32.8746855,-80.0863409,TRUE,FALSE,FALSE,"S247359767"
"397","greyel","Greater Yellowlegs","Tringa melanoleuca","L127303","Gulf Islands National Seashore--Fort Pickens","2025-06-06 08:00",1,30.3231,-87.2829,TRUE,FALSE,FALSE,"S247381072"
"398","greyel","Greater Yellowlegs","Tringa melanoleuca","L130800","Pea Island NWR--North Pond","2025-06-06 07:56",1,35.7175756,-75.4985794,TRUE,FALSE,FALSE,"S247281976"
"399","greyel","Greater Yellowlegs","Tringa melanoleuca","L578857","Stick Marsh (Indian River Co.)","2025-06-06 07:40",1,27.8127215,-80.7080555,TRUE,FALSE,FALSE,"S247263490"
"400","greyel","Greater Yellowlegs","Tringa melanoleuca","L20536131","Oil Well Rd—Flooded Tomato Field","2025-06-06 07:18",1,26.294181,-81.486965,TRUE,FALSE,FALSE,"S247325215"
"401","greyel","Greater Yellowlegs","Tringa melanoleuca","L4159526","Mecox Bay and Inlet","2025-06-06 07:15",1,40.892429,-72.3284268,TRUE,FALSE,TRUE,"S247345991"
"402","greyel","Greater Yellowlegs","Tringa melanoleuca","L284155","Pelham Bay Park","2025-06-06 07:10",1,40.8681047,-73.809474,TRUE,FALSE,FALSE,"S247306962"
"403","greyel","Greater Yellowlegs","Tringa melanoleuca","L4755060","Napa-Sonoma Marsh, Huichica Cr Unit, Far W. Pond","2025-06-06 07:05",30,38.2116536,-122.3551762,TRUE,TRUE,TRUE,"S247369535"
"404","greyel","Greater Yellowlegs","Tringa melanoleuca","L805361","New River Inlet","2025-06-06 06:43",1,34.529576,-77.3440719,TRUE,FALSE,FALSE,"S247262360"
"405","greyel","Greater Yellowlegs","Tringa melanoleuca","L5281758","Harbor Island Beach (restricted access)","2025-06-06 06:09",1,32.4041792,-80.4275179,TRUE,FALSE,FALSE,"S247468935"
"406","greyel","Greater Yellowlegs","Tringa melanoleuca","L177775","Cable Crossing Road, Southwest Harbor","2025-06-06 04:43",1,44.2564713,-68.2944961,TRUE,FALSE,FALSE,"S247474134"
"407","greyel","Greater Yellowlegs","Tringa melanoleuca","L46947942","99603, Homer US-AK 59.84029, -151.17264","2025-06-05 18:59",1,59.840294,-151.172636,TRUE,FALSE,TRUE,"S247333813"
"408","greyel","Greater Yellowlegs","Tringa melanoleuca","L7563800","Joint Base Elmendorf–Richardson--Hillberg Lake & Ski Area (restricted access)","2025-06-05 18:34",1,61.2759441,-149.8210965,TRUE,FALSE,FALSE,"S247794089"
"409","greyel","Greater Yellowlegs","Tringa melanoleuca","L9792780","Mendenhall Wetlands SGR (E of Mendenhall River mouth)","2025-06-05 18:19",1,58.3504297,-134.6000631,TRUE,FALSE,FALSE,"S247180474"
"410","greyel","Greater Yellowlegs","Tringa melanoleuca","L526888","Tanana Lakes Recreation Area","2025-06-05 18:08",1,64.7966492,-147.7180481,TRUE,FALSE,FALSE,"S247173868"
"411","greyel","Greater Yellowlegs","Tringa melanoleuca","L1540547","Jamaica Bay Wildlife Refuge--Terrapin Point, Brooklyn","2025-06-05 18:04",1,40.6157648,-73.8349968,TRUE,TRUE,FALSE,"S247251696"
"412","greyel","Greater Yellowlegs","Tringa melanoleuca","L275032","Hackberry Flat WMA","2025-06-05 17:50",1,34.2846781,-98.9394741,TRUE,FALSE,FALSE,"S247835767"
"413","greyel","Greater Yellowlegs","Tringa melanoleuca","L11737103","Joint Base Elmendorf-Richardson--Green Lake (restricted access)","2025-06-05 17:40",2,61.279381,-149.8371558,TRUE,FALSE,FALSE,"S247791293"
"414","greyel","Greater Yellowlegs","Tringa melanoleuca","L1458029","The Monastery, Cumberland","2025-06-05 17:08",1,41.9350531,-71.4075396,TRUE,TRUE,FALSE,"S247721129"
"415","greyel","Greater Yellowlegs","Tringa melanoleuca","L18281419","Basket Slough NWR, N Cottonwood Pond","2025-06-05 16:00",15,44.9598889,-123.268042,TRUE,TRUE,TRUE,"S247381399"
"416","greyel","Greater Yellowlegs","Tringa melanoleuca","L1273677","Acadia NP--Thompson Island","2025-06-05 15:36",1,44.4267926,-68.3651733,TRUE,FALSE,FALSE,"S247056630"
"417","greyel","Greater Yellowlegs","Tringa melanoleuca","L46899391","260th St, Wendell US-MN 45.99260, -96.25605","2025-06-05 15:26",2,45.992597,-96.256046,TRUE,FALSE,TRUE,"S247095153"
"418","greyel","Greater Yellowlegs","Tringa melanoleuca","L127324","Honeymoon Island SP","2025-06-05 14:46",1,28.0706,-82.8314,TRUE,FALSE,FALSE,"S247088355"
"419","greyel","Greater Yellowlegs","Tringa melanoleuca","L46887811","134 Harbor Road, Wells, Maine, US (43.321, -70.574)","2025-06-05 13:54",1,43.3211802,-70.5744225,TRUE,FALSE,TRUE,"S247040461"
"420","greyel","Greater Yellowlegs","Tringa melanoleuca","L46903313","Far North Bicentennial Park, Anchorage US-AK 61.15847, -149.74818","2025-06-05 13:43",2,61.158467,-149.748175,TRUE,FALSE,TRUE,"S247115260"
"421","greyel","Greater Yellowlegs","Tringa melanoleuca","L455722","Para/McCain's Ponds","2025-06-05 13:15",1,46.8574296,-119.1854596,TRUE,FALSE,FALSE,"S247163874"
"422","greyel","Greater Yellowlegs","Tringa melanoleuca","L1896322","Jocelyn Nungaray NWR-- Shoveler Pond Loop","2025-06-05 13:15",1,29.6138335,-94.5452351,TRUE,FALSE,FALSE,"S248391470"
"423","greyel","Greater Yellowlegs","Tringa melanoleuca","L46896775","959–981 County Road 115, Alturas US-CA 41.42578, -120.52570","2025-06-05 13:05",1,41.425778,-120.525699,TRUE,FALSE,TRUE,"S247082097"
"424","greyel","Greater Yellowlegs","Tringa melanoleuca","L5070194","Gustavus--Small Boat Harbor","2025-06-05 12:28",1,58.4040117,-135.7322924,TRUE,FALSE,FALSE,"S247096779"
"425","greyel","Greater Yellowlegs","Tringa melanoleuca","L763879","Potter Marsh Boardwalk","2025-06-05 12:28",1,61.0775802,-149.8262,TRUE,FALSE,FALSE,"S247084530"
"426","greyel","Greater Yellowlegs","Tringa melanoleuca","L340370","Hollister WTP","2025-06-05 12:09",2,36.8544884,-121.4469051,TRUE,FALSE,FALSE,"S247489189"
"427","greyel","Greater Yellowlegs","Tringa melanoleuca","L23642152","Back porch","2025-06-05 11:52",1,41.108432,-72.359892,TRUE,FALSE,TRUE,"S247015696"
"428","greyel","Greater Yellowlegs","Tringa melanoleuca","L25239248","Los Alamitos Retarding Basin","2025-06-05 11:37",1,33.7546211,-118.0922973,TRUE,FALSE,FALSE,"S247040363"
"429","greyel","Greater Yellowlegs","Tringa melanoleuca","L1889617","Cox Community Park","2025-06-05 11:16",1,33.58326,-79.00113,TRUE,FALSE,FALSE,"S247134099"
"430","greyel","Greater Yellowlegs","Tringa melanoleuca","L31093704","Mendenhall Peninsula Nest Boxes","2025-06-05 11:10",1,58.3566568,-134.6275127,TRUE,FALSE,TRUE,"S249022620"
"431","greyel","Greater Yellowlegs","Tringa melanoleuca","L4209447","Ninigret Pond Mudflats (east of the breach)","2025-06-05 10:55",2,41.3644898,-71.637404,TRUE,FALSE,FALSE,"S247001447"
"432","greyel","Greater Yellowlegs","Tringa melanoleuca","L578455","Merritt Island NWR--East Gator Creek","2025-06-05 10:48",4,28.6431628,-80.7664437,TRUE,FALSE,FALSE,"S246979674"
"433","greyel","Greater Yellowlegs","Tringa melanoleuca","L167876","Murphy-Hanrehan Park Reserve--Pet Trails","2025-06-05 10:47",1,44.7058838,-93.3356917,TRUE,FALSE,FALSE,"S246993457"
"434","greyel","Greater Yellowlegs","Tringa melanoleuca","L164186","Reed's Beach and Road","2025-06-05 10:21",2,39.1167451,-74.8916665,TRUE,FALSE,FALSE,"S246988797"
"435","greyel","Greater Yellowlegs","Tringa melanoleuca","L10953467","Cross Bar Ranch (private)","2025-06-05 10:20",1,28.3629029,-82.4553698,TRUE,FALSE,FALSE,"S247111221"
"436","greyel","Greater Yellowlegs","Tringa melanoleuca","L9022401","Spurwink Marsh at Sawyer Road","2025-06-05 10:16",2,43.5879076,-70.2631695,TRUE,FALSE,FALSE,"S246954633"
"437","greyel","Greater Yellowlegs","Tringa melanoleuca","L474885","Rachel Carson NWR--Granite Point Rd.","2025-06-05 10:15",3,43.416263,-70.3878808,TRUE,FALSE,FALSE,"S246953308"
"438","greyel","Greater Yellowlegs","Tringa melanoleuca","L46869838","43 Brevoort Ln, Rye US-NY 40.94934, -73.71303","2025-06-05 09:16",1,40.949343,-73.713029,TRUE,FALSE,TRUE,"S246960266"
"439","greyel","Greater Yellowlegs","Tringa melanoleuca","L46985778","Ted Stevens Anchorage International Airport, Anchorage US-AK (61.1736,-149.9810)","2025-06-05 09:15",NA,61.173623,-149.981007,TRUE,FALSE,TRUE,"S247502090"
"440","greyel","Greater Yellowlegs","Tringa melanoleuca","L749295","Hayward Regional Shoreline--Grant Ave. access","2025-06-05 09:10",7,37.6679579,-122.1614027,TRUE,FALSE,FALSE,"S247020432"
"441","greyel","Greater Yellowlegs","Tringa melanoleuca","L5841068","Bombay Hook NWR--Parson Point Trail","2025-06-05 09:02",4,39.2752182,-75.4801941,TRUE,FALSE,FALSE,"S247007204"
"442","greyel","Greater Yellowlegs","Tringa melanoleuca","L4259750","Los Cerritos Wetlands Hellman property","2025-06-05 08:56",1,33.7522998,-118.0984426,TRUE,FALSE,FALSE,"S247002410"
"443","greyel","Greater Yellowlegs","Tringa melanoleuca","L4041091","Sand Lake Recreation Area","2025-06-05 08:35",1,45.2811284,-123.9612608,TRUE,FALSE,FALSE,"S247387302"
"444","greyel","Greater Yellowlegs","Tringa melanoleuca","L372837","Oyster Rocks Rd.","2025-06-05 08:32",3,38.8020757,-75.2032077,TRUE,FALSE,FALSE,"S246976792"
"445","greyel","Greater Yellowlegs","Tringa melanoleuca","L3835756","Lynn Canal--William Henry Bay","2025-06-05 08:28",1,58.709941,-135.2413559,TRUE,FALSE,FALSE,"S247164273"
"446","greyel","Greater Yellowlegs","Tringa melanoleuca","L988745","Kenai Fjords NP--Kenai Fjords Glacier Lodge","2025-06-05 08:21",1,59.8842862,-149.7302628,TRUE,FALSE,FALSE,"S247073003"
"447","greyel","Greater Yellowlegs","Tringa melanoleuca","L249812","Blacks Creek Bird Reserve","2025-06-05 08:12",2,43.4584433,-116.1426544,TRUE,TRUE,FALSE,"S247012095"
"448","greyel","Greater Yellowlegs","Tringa melanoleuca","L791196","Jamaica Bay Wildlife Refuge--South Garden","2025-06-05 08:07",2,40.6175467,-73.825745,TRUE,FALSE,FALSE,"S246924645"
"449","greyel","Greater Yellowlegs","Tringa melanoleuca","L10908867","Pea Island NWR--Visitor Center","2025-06-05 07:44",1,35.7166887,-75.4940924,TRUE,FALSE,FALSE,"S246907085"
"450","greyel","Greater Yellowlegs","Tringa melanoleuca","L3560622","Fort De Soto Park--North Beach","2025-06-05 07:40",1,27.63934,-82.73837,TRUE,FALSE,TRUE,"S246942922"
"451","greyel","Greater Yellowlegs","Tringa melanoleuca","L1130115","Kodiak Is.--Anton Larsen Pass","2025-06-05 07:30",1,57.8008254,-152.6083374,TRUE,FALSE,FALSE,"S247131988"
"452","greyel","Greater Yellowlegs","Tringa melanoleuca","L37207249","NC-12, Rodanthe US-NC 35.70237, -75.48868","2025-06-05 06:59",2,35.702371,-75.488682,TRUE,FALSE,TRUE,"S246896306"
"453","greyel","Greater Yellowlegs","Tringa melanoleuca","L718439","False Cape State Park","2025-06-05 06:53",1,36.6207,-75.894,TRUE,FALSE,FALSE,"S246900717"
"454","greyel","Greater Yellowlegs","Tringa melanoleuca","L793120","Chincoteague NWR--Visitor Center","2025-06-05 06:52",13,37.9086194,-75.3553963,TRUE,FALSE,FALSE,"S247117744"
"455","greyel","Greater Yellowlegs","Tringa melanoleuca","L298649","Lake Apopka Wildlife Drive","2025-06-05 06:52",1,28.6691945,-81.5598149,TRUE,FALSE,FALSE,"S246900340"
"456","greyel","Greater Yellowlegs","Tringa melanoleuca","L840315","Seal Island NWR (island vicinity ONLY)","2025-06-05 06:05",1,43.8894651,-68.7374814,TRUE,FALSE,FALSE,"S247140412"
"457","greyel","Greater Yellowlegs","Tringa melanoleuca","L422517","Sachuest Pt. NWR--Salt Marsh","2025-06-05 06:00",1,41.4858521,-71.2469602,TRUE,FALSE,FALSE,"S249590754"
"458","greyel","Greater Yellowlegs","Tringa melanoleuca","L32088963","Slag Point (Morgan Park Mudflats)","2025-06-04 20:06",1,46.6867,-92.201862,TRUE,TRUE,FALSE,"S246828872"
"459","greyel","Greater Yellowlegs","Tringa melanoleuca","L1228184","Scarborough Marsh--Mill Brook","2025-06-04 19:08",1,43.5629396,-70.3503084,TRUE,FALSE,FALSE,"S246793490"
"460","greyel","Greater Yellowlegs","Tringa melanoleuca","L583949","Homestead Racetrack fields","2025-06-04 18:50",2,25.4627658,-80.4036999,TRUE,FALSE,FALSE,"S246803355"
"461","greyel","Greater Yellowlegs","Tringa melanoleuca","L448190","Scarborough Marsh--Pelreco Building","2025-06-04 18:48",1,43.5435712,-70.3495789,TRUE,FALSE,FALSE,"S246778536"
"462","greyel","Greater Yellowlegs","Tringa melanoleuca","L32242693","Sherman’s Bridge Landing","2025-06-04 18:20",2,42.3967928,-71.3641512,TRUE,TRUE,TRUE,"S246817600"
"463","greyel","Greater Yellowlegs","Tringa melanoleuca","L6218891","Hillsboro--Woodland Park","2025-06-04 16:45",2,47.4083267,-97.0568812,TRUE,FALSE,FALSE,"S246786174"
"464","greyel","Greater Yellowlegs","Tringa melanoleuca","L22270979","Gulf Islands NS—Beach Access 19A","2025-06-04 16:42",1,30.322828,-87.208429,TRUE,FALSE,TRUE,"S246757082"
"465","greyel","Greater Yellowlegs","Tringa melanoleuca","L1127913","Chebeague Island","2025-06-04 16:30",1,43.7324063,-70.1202393,TRUE,FALSE,FALSE,"S247139202"
"466","greyel","Greater Yellowlegs","Tringa melanoleuca","L298379","Hammonasset Beach SP","2025-06-04 16:21",1,41.2619859,-72.5548234,TRUE,FALSE,FALSE,"S246738433"
"467","greyel","Greater Yellowlegs","Tringa melanoleuca","L2063935","Echo Cove Campground","2025-06-04 16:07",1,58.662565,-134.9058587,TRUE,FALSE,FALSE,"S246845748"
"468","greyel","Greater Yellowlegs","Tringa melanoleuca","L387182","Stewart B. McKinney NWR--Railroad Track Tr.","2025-06-04 16:01",1,41.1626415,-73.1512515,TRUE,FALSE,FALSE,"S246755437"
"469","greyel","Greater Yellowlegs","Tringa melanoleuca","L2141998","Damons Point, Marshfield","2025-06-04 15:14",1,42.16,-70.732427,TRUE,FALSE,FALSE,"S247137231"
"470","greyel","Greater Yellowlegs","Tringa melanoleuca","L718378","Chincoteague NWR* (general area)","2025-06-04 15:12",2,37.9106228,-75.3479719,TRUE,FALSE,FALSE,"S246817541"
"471","greyel","Greater Yellowlegs","Tringa melanoleuca","L46823375","217 Bayview Dr, Stumpy Point US-NC 35.70223, -75.74613","2025-06-04 14:43",1,35.702226,-75.746126,TRUE,FALSE,TRUE,"S246720611"
"472","greyel","Greater Yellowlegs","Tringa melanoleuca","L1151555","Dekalb: County Rt. 17 marshy pond","2025-06-04 14:10",1,44.4985524,-75.2969241,TRUE,FALSE,TRUE,"S247077838"
"473","greyel","Greater Yellowlegs","Tringa melanoleuca","L2144035","Palmer Hay Flats SGR general area","2025-06-04 13:59",2,61.5321881,-149.2884064,TRUE,FALSE,FALSE,"S246821675"
"474","greyel","Greater Yellowlegs","Tringa melanoleuca","L25393722","Ponemah And Point","2025-06-04 13:53",1,48.0195043,-94.9077069,TRUE,FALSE,TRUE,"S246733456"
"475","greyel","Greater Yellowlegs","Tringa melanoleuca","L3543611","Fernhill Wetlands--Natural Treatment System (ASoP/CWS survey)","2025-06-04 13:52",1,45.507174,-123.0879879,TRUE,FALSE,FALSE,"S246820750"
"476","greyel","Greater Yellowlegs","Tringa melanoleuca","L109217","Milford Point — Sandbars","2025-06-04 11:20",1,41.1725812,-73.1003666,TRUE,FALSE,FALSE,"S246679288"
"477","greyel","Greater Yellowlegs","Tringa melanoleuca","L683229","San Francisco Bay Trail--Coyote Creek Lagoon","2025-06-04 11:13",2,37.468331,-121.939219,TRUE,FALSE,FALSE,"S246707747"
"478","greyel","Greater Yellowlegs","Tringa melanoleuca","L271098","Bethel Beach Natural Area Preserve","2025-06-04 10:50",1,37.4106814,-76.2503958,TRUE,FALSE,FALSE,"S246713199"
"479","greyel","Greater Yellowlegs","Tringa melanoleuca","L422817","Coal Oil Point, Devereux Beach, Sands Beach, and bluff trails","2025-06-04 10:46",1,34.4071359,-119.8783064,TRUE,FALSE,FALSE,"S246787442"
"480","greyel","Greater Yellowlegs","Tringa melanoleuca","L46856062","Sedge Island Research Station","2025-06-04 10:30",6,39.794848,-74.118919,TRUE,FALSE,TRUE,"S246880354"
"481","greyel","Greater Yellowlegs","Tringa melanoleuca","L620466","Rocky Neck SP","2025-06-04 10:23",1,41.3028935,-72.2409868,TRUE,FALSE,FALSE,"S246720194"
"482","greyel","Greater Yellowlegs","Tringa melanoleuca","L1533244","SandyBeach ","2025-06-04 09:36",2,56.8026666,-132.916507,TRUE,FALSE,TRUE,"S246701810"
"483","greyel","Greater Yellowlegs","Tringa melanoleuca","L46809324","North-South Freeway, New Washoe City, Nevada, US (39.265, -119.818)","2025-06-04 09:17",2,39.2645389,-119.8176524,TRUE,FALSE,TRUE,"S246661285"
"484","greyel","Greater Yellowlegs","Tringa melanoleuca","L5722405","Merritt Island NWR--Catfish Creek","2025-06-04 09:17",2,28.6273603,-80.7737374,TRUE,FALSE,FALSE,"S246611932"
"485","greyel","Greater Yellowlegs","Tringa melanoleuca","L46765501","Fern Harbor","2025-06-04 09:08",2,58.308869,-136.479327,TRUE,FALSE,TRUE,"S247181070"
"486","greyel","Greater Yellowlegs","Tringa melanoleuca","L716945","Richard A. Rutkowski Park","2025-06-04 08:58",2,40.6877528,-74.1107252,TRUE,FALSE,FALSE,"S246649594"
"487","greyel","Greater Yellowlegs","Tringa melanoleuca","L446569","Truitts Landing","2025-06-04 08:52",3,38.0995098,-75.3380585,TRUE,TRUE,FALSE,"S246638296"
"488","greyel","Greater Yellowlegs","Tringa melanoleuca","L740881","Upper Newport Bay--Back Bay Dr.","2025-06-04 08:45",1,33.6235893,-117.886734,TRUE,FALSE,FALSE,"S246700427"
"489","greyel","Greater Yellowlegs","Tringa melanoleuca","L572072","Edwin B. Forsythe NWR--Cedar Bonnet Island","2025-06-04 08:43",2,39.6571874,-74.1938168,TRUE,FALSE,FALSE,"S246610547"
"490","greyel","Greater Yellowlegs","Tringa melanoleuca","L297765","Buffalo Lake NWR (PHP 039)","2025-06-04 08:42",2,34.9101471,-102.1138,TRUE,FALSE,FALSE,"S246732771"
"491","greyel","Greater Yellowlegs","Tringa melanoleuca","L127381","Merritt Island NWR--Black Point Wildlife Drive","2025-06-04 08:18",2,28.6575241,-80.7545391,TRUE,FALSE,FALSE,"S246598605"
"492","greyel","Greater Yellowlegs","Tringa melanoleuca","L213276","Sandy Ridge Reservation","2025-06-04 08:16",1,41.3944763,-82.0488911,TRUE,FALSE,FALSE,"S246650076"
"493","greyel","Greater Yellowlegs","Tringa melanoleuca","L22064747","Heckscher SP--Field 5","2025-06-04 08:13",1,40.7069369,-73.1762438,TRUE,FALSE,FALSE,"S246595886"
"494","greyel","Greater Yellowlegs","Tringa melanoleuca","L580981","Merritt Island NWR--West Gator Creek","2025-06-04 07:59",2,28.6283331,-80.7873852,TRUE,FALSE,FALSE,"S246577299"
"495","greyel","Greater Yellowlegs","Tringa melanoleuca","L43631075","Timberlake, Eglin","2025-06-04 07:51",1,30.487292,-86.609442,TRUE,FALSE,TRUE,"S246601595"
"496","greyel","Greater Yellowlegs","Tringa melanoleuca","L41208617","Horace--Diversion Ponds","2025-06-04 07:47",1,46.736309,-96.882928,TRUE,FALSE,FALSE,"S246603670"
"497","greyel","Greater Yellowlegs","Tringa melanoleuca","L267204","Suter Wildlife Refuge (CTC 069)","2025-06-04 07:44",1,27.7085274,-97.3379721,TRUE,FALSE,FALSE,"S246603585"
"498","greyel","Greater Yellowlegs","Tringa melanoleuca","L192679","Indian River Inlet","2025-06-04 07:36",1,38.6082524,-75.0613403,TRUE,FALSE,FALSE,"S246578218"
"499","greyel","Greater Yellowlegs","Tringa melanoleuca","L1072372","UCSB--Campus Lagoon","2025-06-04 07:36",1,34.4076516,-119.845165,TRUE,FALSE,FALSE,"S246683057"
"500","greyel","Greater Yellowlegs","Tringa melanoleuca","L13168248","Amalfi Dr. Retention Pond","2025-06-04 07:05",1,39.2755592,-75.6441749,TRUE,FALSE,FALSE,"S246561325"
"501","greyel","Greater Yellowlegs","Tringa melanoleuca","L27142567","Gravel Pit Road, Gustavus, Alaska, US (58.442, -135.732)","2025-06-04 06:40",1,58.4416984,-135.7320681,TRUE,FALSE,TRUE,"S247169614"
"502","greyel","Greater Yellowlegs","Tringa melanoleuca","L46732106","SSW","2025-06-04 06:15",1,44.0130843,-69.379643,TRUE,FALSE,TRUE,"S246817838"
"503","greyel","Greater Yellowlegs","Tringa melanoleuca","L109200","Greenwich Point Park","2025-06-04 06:01",1,41.0029132,-73.5719419,TRUE,FALSE,FALSE,"S246761362"
"504","greyel","Greater Yellowlegs","Tringa melanoleuca","L248862","Wilderness SP","2025-06-04 06:00",1,45.7449463,-84.8994684,TRUE,TRUE,FALSE,"S246811265"
"505","greyel","Greater Yellowlegs","Tringa melanoleuca","L1396236","Anaheim Coves Park (aka Burris Basin)","2025-06-04 05:54",3,33.8257044,-117.869868,TRUE,FALSE,FALSE,"S246687823"
"506","greyel","Greater Yellowlegs","Tringa melanoleuca","L600372","Philbrick Marsh, N. Hampton","2025-06-04 05:38",1,42.9671947,-70.7730246,TRUE,FALSE,FALSE,"S246564452"
"507","greyel","Greater Yellowlegs","Tringa melanoleuca","L448189","Scarborough Marsh--Eastern Trail","2025-06-04 05:30",3,43.5649691,-70.3639502,TRUE,FALSE,FALSE,"S246660591"
