"","speciesCode","comName","sciName","locId","locName","obsDt","howMany","lat","lng","obsValid","obsReviewed","locationPrivate","subId"
"1","botspa","Botteri's Sparrow","Peucaea botterii","L2489849","McCleary Wash (historical Buff-collared Nightjar spot 1985-1994)","2025-06-07 18:25",1,31.7591884,-110.885691,TRUE,FALSE,FALSE,"S248207023"
"2","botspa","Botteri's Sparrow","Peucaea botterii","L504328","Sacahuistale Flats (LTC 013) and woodlands along SH186","2025-06-07 16:41",2,26.5038367,-97.4975252,TRUE,FALSE,FALSE,"S247890136"
"3","botspa","Botteri's Sparrow","Peucaea botterii","L47080042","SH-186, Raymondville US-TX 26.48095, -97.60859","2025-06-07 16:33",1,26.480953,-97.60859,TRUE,FALSE,TRUE,"S247907724"
"4","botspa","Botteri's Sparrow","Peucaea botterii","L514799","Palo Alto Battlefield NHP (LTC 031)","2025-06-07 14:13",1,26.0191488,-97.4760676,TRUE,FALSE,FALSE,"S247802132"
"5","botspa","Botteri's Sparrow","Peucaea botterii","L765027","Las Cienegas NCA--Empire Gulch","2025-06-07 07:50",1,31.7878465,-110.6365728,TRUE,FALSE,FALSE,"S247838100"
"6","botspa","Botteri's Sparrow","Peucaea botterii","L47026070","S Madera Canyon Rd, Green Valley US-AZ 31.75363, -110.88779","2025-06-07 07:29",1,31.753629,-110.887795,TRUE,FALSE,TRUE,"S247686798"
"7","botspa","Botteri's Sparrow","Peucaea botterii","L6718077","3 Canyons Ranch (west of Deer Ridge Trail)","2025-06-07 06:37",6,31.4089416,-110.2331257,TRUE,FALSE,TRUE,"S247731097"
"8","botspa","Botteri's Sparrow","Peucaea botterii","L9968763","Double B Ranchito","2025-06-07 05:43",1,31.40989,-110.22613,TRUE,FALSE,TRUE,"S247681157"
"9","botspa","Botteri's Sparrow","Peucaea botterii","L1546530","Brown Canyon Ranch (opened 2011)","2025-06-06 17:45",1,31.4740051,-110.2977887,TRUE,FALSE,FALSE,"S247503291"
"10","botspa","Botteri's Sparrow","Peucaea botterii","L1040130","West Box Canyon Rd--desert scrub/mesquite grasslands","2025-06-06 10:07",1,31.7916584,-110.8193064,TRUE,FALSE,FALSE,"S247516630"
"11","botspa","Botteri's Sparrow","Peucaea botterii","L46949668","Madera Canyon Rd--Old Helibase Pulloff","2025-06-06 09:11",2,31.7537531,-110.8874567,TRUE,FALSE,TRUE,"S247340430"
"12","botspa","Botteri's Sparrow","Peucaea botterii","L33345916","85614, Green Valley US-AZ 31.76278, -110.88992","2025-06-06 08:33",1,31.762781,-110.889924,TRUE,FALSE,TRUE,"S247446927"
"13","botspa","Botteri's Sparrow","Peucaea botterii","L46942571","Heli Pad Area.  (31.754, -110.887)","2025-06-06 07:14",1,31.753626,-110.8874485,TRUE,FALSE,TRUE,"S247312375"
"14","botspa","Botteri's Sparrow","Peucaea botterii","L211809","Madera Canyon--Proctor Rd.","2025-06-06 06:50",1,31.739938,-110.886147,TRUE,FALSE,FALSE,"S247289540"
"15","botspa","Botteri's Sparrow","Peucaea botterii","L749795","Grasslands between Proctor Rd and Florida Wash","2025-06-06 06:12",1,31.769332,-110.8873272,TRUE,FALSE,FALSE,"S247279899"
"16","botspa","Botteri's Sparrow","Peucaea botterii","L45832337","85614, Green Valley US-AZ 31.76278, -110.89001","2025-06-06 05:44",1,31.762777,-110.890012,TRUE,FALSE,TRUE,"S247266473"
"17","botspa","Botteri's Sparrow","Peucaea botterii","L27373176","Allen-Mathis Home, Hereford, Arizona, US (31.424, -110.126)","2025-06-05 17:23",1,31.4240896,-110.1256971,TRUE,FALSE,TRUE,"S247160465"
"18","botspa","Botteri's Sparrow","Peucaea botterii","L39201476","13510 E Singing Hills Trail, Sonoita US-AZ 31.75961, -110.70571 (restricted access)","2025-06-05 06:16",3,31.759605,-110.70571,TRUE,FALSE,TRUE,"S247096596"
"19","botspa","Botteri's Sparrow","Peucaea botterii","L16346374","Las Cienegas NCA--Cieneguita Primitive Campground","2025-06-05 04:59",2,31.7648989,-110.6314552,TRUE,FALSE,FALSE,"S246923633"
"20","botspa","Botteri's Sparrow","Peucaea botterii","L46844367","East Yucca Farm Road, Sonoita, Arizona, US (31.745, -110.592)","2025-06-04 19:13",1,31.7451472,-110.5919616,TRUE,FALSE,TRUE,"S246825360"
"21","botspa","Botteri's Sparrow","Peucaea botterii","L46771035","East White House Canyon Road, Sahuarita, Arizona, US (31.791, -110.879)","2025-06-03 17:05",1,31.7914322,-110.8793399,TRUE,FALSE,TRUE,"S246466461"
"22","botspa","Botteri's Sparrow","Peucaea botterii","L46751919","Botteri Stake Out, South Madera Canyon Road, Sahuarita, Arizona, US (31.753, -110.888)","2025-06-03 11:38",1,31.7534958,-110.8875543,TRUE,FALSE,TRUE,"S246370314"
"23","botspa","Botteri's Sparrow","Peucaea botterii","L106949","Wild Horse - Hereford","2025-06-03 09:34",1,31.401968,-110.2308004,TRUE,FALSE,TRUE,"S246331221"
"24","botspa","Botteri's Sparrow","Peucaea botterii","L7996516","8660 South Palisades Drive, Hereford, Arizona, US (31.411, -110.224)","2025-06-03 08:53",1,31.4111237,-110.2238097,TRUE,FALSE,TRUE,"S246340908"
"25","botspa","Botteri's Sparrow","Peucaea botterii","L46737684","S Madera Canyon Rd, Sonoita US-AZ 31.75612, -110.88702","2025-06-03 08:17",1,31.756121,-110.887022,TRUE,FALSE,TRUE,"S246308266"
"26","botspa","Botteri's Sparrow","Peucaea botterii","L128965","Florida Wash at Madera Canyon Rd","2025-06-03 05:55",1,31.7835694,-110.8863696,TRUE,FALSE,FALSE,"S246256438"
"27","botspa","Botteri's Sparrow","Peucaea botterii","L128986","San Pedro RNCA--Hereford Bridge","2025-06-03 05:40",1,31.4384285,-110.1076526,TRUE,FALSE,FALSE,"S246373674"
"28","botspa","Botteri's Sparrow","Peucaea botterii","L21018733","The Mesa","2025-06-02 07:51",2,31.534741,-110.746433,TRUE,FALSE,TRUE,"S245968397"
"29","botspa","Botteri's Sparrow","Peucaea botterii","L12232801","Sonoita/Patagonia Home","2025-06-02 05:10",3,31.61107,-110.729694,TRUE,FALSE,TRUE,"S245918550"
"30","botspa","Botteri's Sparrow","Peucaea botterii","L37753065","S Madera Canyon Rd, Green Valley US-AZ 31.75319, -110.88713","2025-06-01 06:25",5,31.753191,-110.887127,TRUE,FALSE,TRUE,"S245662238"
"31","botspa","Botteri's Sparrow","Peucaea botterii","L46489592","85614, Green Valley US-AZ (31.7628,-110.8898)","2025-06-01 06:08",4,31.76284,-110.889811,TRUE,FALSE,TRUE,"S245430813"
"32","botspa","Botteri's Sparrow","Peucaea botterii","L6695785","Casa Doyle","2025-06-01 04:23",2,31.4100244,-110.2277579,TRUE,FALSE,TRUE,"S245380120"
"33","botspa","Botteri's Sparrow","Peucaea botterii","L46509455","UA Santa Rita site","2025-05-31 12:30",3,31.7868258,-110.8711263,TRUE,FALSE,TRUE,"S245204582"
"34","botspa","Botteri's Sparrow","Peucaea botterii","L507911","King Ranch--Norias Division (Kenedy Co.)","2025-05-31 07:01",1,26.7876524,-97.7707243,TRUE,FALSE,FALSE,"S245093982"
"35","botspa","Botteri's Sparrow","Peucaea botterii","L46413337","S Madera Canyon Rd, Sonoita US-AZ 31.74578, -110.88725","2025-05-30 17:58",1,31.745783,-110.887253,TRUE,FALSE,TRUE,"S244775576"
"36","botspa","Botteri's Sparrow","Peucaea botterii","L46408651","Auto selected 31.75634, -110.88694","2025-05-30 16:12",2,31.756336,-110.886941,TRUE,FALSE,TRUE,"S244753698"
"37","botspa","Botteri's Sparrow","Peucaea botterii","L3570855","Lower Gardner Canyon Rd--grasslands","2025-05-30 05:54",1,31.7309321,-110.6856412,TRUE,FALSE,FALSE,"S244615944"
