"","speciesCode","comName","sciName","locId","locName","obsDt","howMany","lat","lng","obsValid","obsReviewed","locationPrivate","subId"
"1","gilwoo","Gila Woodpecker","Melanerpes uropygialis","L47874852","Scottsdale Quarter","2025-06-17 14:49",2,33.6240811,-111.9238628,TRUE,FALSE,TRUE,"S251501660"
"2","gilwoo","Gila Woodpecker","Melanerpes uropygialis","L433357","Rio Bend RV Park and Golf Course","2025-06-17 14:28",1,32.7671044,-115.6936741,TRUE,FALSE,FALSE,"S251503293"
"3","gilwoo","Gila Woodpecker","Melanerpes uropygialis","L47873813","Harris Hawk location","2025-06-17 14:18",1,31.8965204,-110.9807986,TRUE,FALSE,TRUE,"S251497336"
"4","gilwoo","Gila Woodpecker","Melanerpes uropygialis","L14792167","Blenman-Elm Yard","2025-06-17 13:51",2,32.2403251,-110.9312982,TRUE,FALSE,TRUE,"S251490788"
"5","gilwoo","Gila Woodpecker","Melanerpes uropygialis","L19555544","Almartin Street Neighborhood","2025-06-17 12:51",2,32.2567875,-110.924359,TRUE,FALSE,TRUE,"S251482131"
"6","gilwoo","Gila Woodpecker","Melanerpes uropygialis","L12041748","Peggy's House","2025-06-17 11:59",3,32.334523,-111.022757,TRUE,FALSE,TRUE,"S251470293"
"7","gilwoo","Gila Woodpecker","Melanerpes uropygialis","L247122","Paton Center for Hummingbirds (Patons' Yard)","2025-06-17 11:37",6,31.5390131,-110.7606337,TRUE,FALSE,FALSE,"S251493687"
"8","gilwoo","Gila Woodpecker","Melanerpes uropygialis","L37897350","West Side Starr Pass Loop","2025-06-17 11:32",2,32.215742,-111.052028,TRUE,FALSE,TRUE,"S251514094"
"9","gilwoo","Gila Woodpecker","Melanerpes uropygialis","L12495505","East Lawn Palms Cemetery","2025-06-17 11:22",3,32.2524506,-110.8688954,TRUE,FALSE,FALSE,"S251456007"
"10","gilwoo","Gila Woodpecker","Melanerpes uropygialis","L21883530","Piest home in Vail","2025-06-17 10:50",2,32.07903,-110.6577817,TRUE,FALSE,TRUE,"S251447107"
"11","gilwoo","Gila Woodpecker","Melanerpes uropygialis","L624897","Michael Skinner's Yard","2025-06-17 10:15",2,32.2457687,-111.0678801,TRUE,FALSE,TRUE,"S251439256"
"12","gilwoo","Gila Woodpecker","Melanerpes uropygialis","L25543501","2102 West Legends Way, New River, Arizona, US (33.871, -112.104)","2025-06-17 10:11",NA,33.8710415,-112.1042014,TRUE,FALSE,TRUE,"S251428007"
"13","gilwoo","Gila Woodpecker","Melanerpes uropygialis","L44914486","402 E Burrows Pl, Tucson US-AZ (32.2951,-110.9656)","2025-06-17 09:06",1,32.295055,-110.965585,TRUE,FALSE,TRUE,"S251414653"
"14","gilwoo","Gila Woodpecker","Melanerpes uropygialis","L1546530","Brown Canyon Ranch (opened 2011)","2025-06-17 08:58",1,31.4740051,-110.2977887,TRUE,FALSE,FALSE,"S251423938"
"15","gilwoo","Gila Woodpecker","Melanerpes uropygialis","L43097944","Sunrise Patio Homes","2025-06-17 08:53",1,32.2886442,-110.8741938,TRUE,FALSE,TRUE,"S251455227"
"16","gilwoo","Gila Woodpecker","Melanerpes uropygialis","L106949","Wild Horse - Hereford","2025-06-17 08:36",1,31.401968,-110.2308004,TRUE,FALSE,TRUE,"S251397756"
"17","gilwoo","Gila Woodpecker","Melanerpes uropygialis","L10235391","1188 YardBirds, Green Valley US-AZ (31.8562,-110.9608)","2025-06-17 08:35",2,31.8561598,-110.9606013,TRUE,FALSE,TRUE,"S251405873"
"18","gilwoo","Gila Woodpecker","Melanerpes uropygialis","L128870","Agua Caliente Park","2025-06-17 08:32",6,32.2806015,-110.7303009,TRUE,FALSE,FALSE,"S251432330"
"19","gilwoo","Gila Woodpecker","Melanerpes uropygialis","L2410480","Gila Box RNCA--Spring Canyon Picnic Area","2025-06-17 08:25",1,32.8880203,-109.4971758,TRUE,FALSE,FALSE,"S251432811"
"20","gilwoo","Gila Woodpecker","Melanerpes uropygialis","L3570855","Lower Gardner Canyon Rd--grasslands","2025-06-17 08:21",1,31.7309321,-110.6856412,TRUE,FALSE,FALSE,"S251399279"
"21","gilwoo","Gila Woodpecker","Melanerpes uropygialis","L44576130","Sunrise Pointe and SRP Vistas","2025-06-17 08:13",2,31.834169,-110.996251,TRUE,FALSE,TRUE,"S251408320"
"22","gilwoo","Gila Woodpecker","Melanerpes uropygialis","L46296916","1467 South Lee Street, Saint David, Arizona, US (31.879, -110.211)","2025-06-17 07:55",4,31.8791537,-110.2106193,TRUE,FALSE,TRUE,"S251414676"
"23","gilwoo","Gila Woodpecker","Melanerpes uropygialis","L370788","Quail Creek Country Club","2025-06-17 07:54",1,31.8886356,-110.9454346,TRUE,FALSE,FALSE,"S251421218"
"24","gilwoo","Gila Woodpecker","Melanerpes uropygialis","L744803","Plumtree","2025-06-17 07:51",4,32.2610446,-110.9017322,TRUE,FALSE,TRUE,"S251390006"
"25","gilwoo","Gila Woodpecker","Melanerpes uropygialis","L281846","The Lakes at Castle Rock","2025-06-17 07:40",2,32.2491071,-110.7933046,TRUE,FALSE,FALSE,"S251412936"
"26","gilwoo","Gila Woodpecker","Melanerpes uropygialis","L43736683","W Calle Paraiso","2025-06-17 07:34",NA,32.216744,-111.0234077,TRUE,FALSE,TRUE,"S251379136"
"27","gilwoo","Gila Woodpecker","Melanerpes uropygialis","L208918","Sweetwater Wetlands","2025-06-17 07:34",2,32.2790144,-111.0216061,TRUE,FALSE,FALSE,"S251400347"
"28","gilwoo","Gila Woodpecker","Melanerpes uropygialis","L622087","McCormick Park","2025-06-17 07:30",6,32.2612251,-110.8999872,TRUE,FALSE,FALSE,"S251382196"
"29","gilwoo","Gila Woodpecker","Melanerpes uropygialis","L11229243","Our 'Habitat at Home'","2025-06-17 07:30",3,32.3066877,-110.9521783,TRUE,FALSE,TRUE,"S251398294"
"30","gilwoo","Gila Woodpecker","Melanerpes uropygialis","L13526336","Home  back porch, Tonto Basin, AZ (33.8606,-111.2939)","2025-06-17 07:30",5,33.860554,-111.293872,TRUE,FALSE,TRUE,"S251400135"
"31","gilwoo","Gila Woodpecker","Melanerpes uropygialis","L2883481","The Ice House","2025-06-17 07:25",2,31.4920438,-110.9900558,TRUE,FALSE,TRUE,"S251393187"
"32","gilwoo","Gila Woodpecker","Melanerpes uropygialis","L144858","Riparian Preserve at Gilbert Water Ranch","2025-06-17 07:23",1,33.3614502,-111.7339478,TRUE,FALSE,FALSE,"S251457056"
"33","gilwoo","Gila Woodpecker","Melanerpes uropygialis","L2410489","Gila Box RNCA--Riverview Campground","2025-06-17 07:19",4,32.884849,-109.4799775,TRUE,FALSE,FALSE,"S251432535"
"34","gilwoo","Gila Woodpecker","Melanerpes uropygialis","L5948468","Moon Valley Park","2025-06-17 07:18",1,33.6273485,-112.0809075,TRUE,FALSE,FALSE,"S251466632"
"35","gilwoo","Gila Woodpecker","Melanerpes uropygialis","L2331591","Home and Royal Palm Park","2025-06-17 07:15",1,33.5578585,-112.0897293,TRUE,FALSE,TRUE,"S251390132"
"36","gilwoo","Gila Woodpecker","Melanerpes uropygialis","L199300","Ash Canyon Bird Sanctuary (closed Thursday morning)","2025-06-17 07:11",2,31.3904516,-110.2392496,TRUE,FALSE,FALSE,"S251385388"
"37","gilwoo","Gila Woodpecker","Melanerpes uropygialis","L20447444","Home WW Arrow","2025-06-17 07:06",3,32.144047,-111.114195,TRUE,FALSE,TRUE,"S251382640"
"38","gilwoo","Gila Woodpecker","Melanerpes uropygialis","L913627","Green Valley--Desert Meadows Park","2025-06-17 06:56",1,31.8552155,-110.9860539,TRUE,FALSE,FALSE,"S251370790"
"39","gilwoo","Gila Woodpecker","Melanerpes uropygialis","L45260416","Alamo Wash -- Ft Lowell to Glenn","2025-06-17 06:52",3,32.2614836,-110.8857643,TRUE,FALSE,TRUE,"S251398910"
"40","gilwoo","Gila Woodpecker","Melanerpes uropygialis","L17512069","Canoa Hills Trails Park","2025-06-17 06:50",1,31.8215076,-111.0156773,TRUE,FALSE,FALSE,"S251476867"
"41","gilwoo","Gila Woodpecker","Melanerpes uropygialis","L4261526","815 N. Posthole Lane","2025-06-17 06:48",1,32.2313851,-110.7708657,TRUE,FALSE,TRUE,"S251375653"
"42","gilwoo","Gila Woodpecker","Melanerpes uropygialis","L2439998","Desert Breeze Park","2025-06-17 06:48",2,33.312903,-111.9197041,TRUE,FALSE,FALSE,"S251383490"
"43","gilwoo","Gila Woodpecker","Melanerpes uropygialis","L45546002","Tubac Nature Center","2025-06-17 06:47",7,31.6179434,-111.0434344,TRUE,FALSE,TRUE,"S251454433"
"44","gilwoo","Gila Woodpecker","Melanerpes uropygialis","L129050","Patagonia Lake State Park","2025-06-17 06:45",2,31.4951992,-110.8566971,TRUE,FALSE,FALSE,"S251505208"
"45","gilwoo","Gila Woodpecker","Melanerpes uropygialis","L12826796","Fort Huachuca--Officer's Pond","2025-06-17 06:40",1,31.5482307,-110.3606754,TRUE,FALSE,FALSE,"S251451974"
"46","gilwoo","Gila Woodpecker","Melanerpes uropygialis","L47845419","White Tank Mountain Regional Park, Waddell US-AZ 33.59355, -112.51173","2025-06-17 06:37",2,33.593547,-112.511731,TRUE,FALSE,TRUE,"S251377018"
"47","gilwoo","Gila Woodpecker","Melanerpes uropygialis","L46179474","Mayo Clinic Hospital PHX-1, Phoenix US-AZ 33.65576, -111.95290","2025-06-17 06:37",3,33.655762,-111.952901,TRUE,FALSE,TRUE,"S251364419"
"48","gilwoo","Gila Woodpecker","Melanerpes uropygialis","L17264691","Anza Trail--north of Desert Meadows Park","2025-06-17 06:37",1,31.8592836,-110.9851899,TRUE,FALSE,FALSE,"S251365948"
"49","gilwoo","Gila Woodpecker","Melanerpes uropygialis","L1871151","Tres Rios Overbank Wetlands (permit required)","2025-06-17 06:30",2,33.389402,-112.2597653,TRUE,FALSE,FALSE,"S251476659"
"50","gilwoo","Gila Woodpecker","Melanerpes uropygialis","L14058931","Topacios","2025-06-17 06:30",2,31.860249,-110.9997695,TRUE,FALSE,TRUE,"S251418022"
"51","gilwoo","Gila Woodpecker","Melanerpes uropygialis","L30700429","La Posada Campus (Private Access)","2025-06-17 06:28",5,31.859562,-110.973835,TRUE,FALSE,TRUE,"S251375201"
"52","gilwoo","Gila Woodpecker","Melanerpes uropygialis","L35994674","Miyamoto Tucson Home","2025-06-17 06:27",1,32.3018138,-110.7760851,TRUE,FALSE,TRUE,"S251357588"
"53","gilwoo","Gila Woodpecker","Melanerpes uropygialis","L16411903","Backyard","2025-06-17 06:27",1,33.396783,-111.930539,TRUE,FALSE,TRUE,"S251372245"
"54","gilwoo","Gila Woodpecker","Melanerpes uropygialis","L43843668","9525 E Kramer Cir, Mesa US-AZ 33.45256, -111.62532","2025-06-17 06:24",1,33.452565,-111.625319,TRUE,FALSE,TRUE,"S251396901"
"55","gilwoo","Gila Woodpecker","Melanerpes uropygialis","L234314","Anza Trail--Tubac","2025-06-17 06:23",5,31.6128313,-111.040829,TRUE,FALSE,FALSE,"S251396156"
"56","gilwoo","Gila Woodpecker","Melanerpes uropygialis","L44833508","Hill Farms","2025-06-17 06:18",4,32.263148,-110.8813126,TRUE,FALSE,TRUE,"S251398832"
"57","gilwoo","Gila Woodpecker","Melanerpes uropygialis","L17138033","AZ: Green Valley, BBAP Bird Sanctuary 2","2025-06-17 06:15",1,31.8023549,-111.029918,TRUE,FALSE,TRUE,"S251371786"
"58","gilwoo","Gila Woodpecker","Melanerpes uropygialis","L47845580","417 East Street Isadores Way, Saint David, Arizona, US (31.875, -110.214)","2025-06-17 06:15",3,31.8750189,-110.2142485,TRUE,FALSE,TRUE,"S251377739"
"59","gilwoo","Gila Woodpecker","Melanerpes uropygialis","L304521","Santa Cruz River--Sasco Rd","2025-06-17 06:14",1,32.544589,-111.406889,TRUE,FALSE,FALSE,"S251481006"
"60","gilwoo","Gila Woodpecker","Melanerpes uropygialis","L128938","Catalina SP","2025-06-17 06:13",3,32.4244027,-110.9123905,TRUE,FALSE,FALSE,"S251429072"
"61","gilwoo","Gila Woodpecker","Melanerpes uropygialis","L2410483","Gila Box RNCA--Serna Cabin/Bonita Creek","2025-06-17 06:11",1,32.8940384,-109.4789529,TRUE,FALSE,FALSE,"S251432018"
"62","gilwoo","Gila Woodpecker","Melanerpes uropygialis","L44833671","Bosque Creek Preserve","2025-06-17 06:08",2,32.2665019,-110.8802003,TRUE,FALSE,TRUE,"S251398465"
"63","gilwoo","Gila Woodpecker","Melanerpes uropygialis","L3633807","1 - Our Yard in Pima","2025-06-17 06:07",1,32.8941555,-109.8318538,TRUE,FALSE,TRUE,"S251378794"
"64","gilwoo","Gila Woodpecker","Melanerpes uropygialis","L290333","Arthur Pack Regional Park","2025-06-17 06:05",7,32.3733753,-111.0535231,TRUE,FALSE,FALSE,"S251425766"
"65","gilwoo","Gila Woodpecker","Melanerpes uropygialis","L5238840","E Mountain View Road (private residence)","2025-06-17 06:00",2,31.3853692,-110.2273214,TRUE,FALSE,TRUE,"S251397403"
"66","gilwoo","Gila Woodpecker","Melanerpes uropygialis","L128986","San Pedro RNCA--Hereford Bridge","2025-06-17 05:58",6,31.4384285,-110.1076526,TRUE,FALSE,FALSE,"S251372459"
"67","gilwoo","Gila Woodpecker","Melanerpes uropygialis","L12831020","Backyard","2025-06-17 05:57",1,32.1975166,-111.0045938,TRUE,FALSE,TRUE,"S251357672"
"68","gilwoo","Gila Woodpecker","Melanerpes uropygialis","L746272","Randolph GC/Hardesty Building","2025-06-17 05:51",1,32.2085164,-110.9111881,TRUE,FALSE,FALSE,"S251365099"
"69","gilwoo","Gila Woodpecker","Melanerpes uropygialis","L1115897","Canoa Ranch Conservation Park","2025-06-17 05:48",1,31.7948045,-111.0156226,TRUE,FALSE,FALSE,"S251363346"
"70","gilwoo","Gila Woodpecker","Melanerpes uropygialis","L350281","El Rio Open Space Preserve","2025-06-17 05:45",1,32.392141,-111.1384898,TRUE,FALSE,FALSE,"S251465744"
"71","gilwoo","Gila Woodpecker","Melanerpes uropygialis","L47839109","Gila Box RNCA—West Entrance Information Kiosk","2025-06-17 05:44",1,32.878569,-109.511906,TRUE,FALSE,TRUE,"S251346714"
"72","gilwoo","Gila Woodpecker","Melanerpes uropygialis","L35513979","Placita Cresta Loma-Back","2025-06-17 05:39",3,32.3015168,-110.9840233,TRUE,FALSE,TRUE,"S251353886"
"73","gilwoo","Gila Woodpecker","Melanerpes uropygialis","L710850","Glendale Recharge Ponds","2025-06-17 05:38",1,33.5242237,-112.286582,TRUE,FALSE,FALSE,"S251400535"
"74","gilwoo","Gila Woodpecker","Melanerpes uropygialis","L17643546","374 Gull Ct Rio Rico Az.","2025-06-17 05:37",4,31.4792388,-110.9800287,TRUE,FALSE,TRUE,"S251379475"
"75","gilwoo","Gila Woodpecker","Melanerpes uropygialis","L22091545","Anthem—Southeast Parkside","2025-06-17 05:35",6,33.847651,-112.103797,TRUE,FALSE,TRUE,"S251361158"
"76","gilwoo","Gila Woodpecker","Melanerpes uropygialis","L21728254","Pistol Hill","2025-06-17 05:30",1,32.0650642,-110.6547667,TRUE,FALSE,TRUE,"S251348758"
"77","gilwoo","Gila Woodpecker","Melanerpes uropygialis","L129080","San Pedro RNCA--San Pedro House and trails","2025-06-17 05:26",16,31.5478992,-110.1408997,TRUE,FALSE,FALSE,"S251421131"
"78","gilwoo","Gila Woodpecker","Melanerpes uropygialis","L245447","Fort Lowell Park and Pantano Wash","2025-06-17 05:24",6,32.2605631,-110.8727628,TRUE,FALSE,FALSE,"S251365278"
"79","gilwoo","Gila Woodpecker","Melanerpes uropygialis","L9245857","BW's Yard","2025-06-17 05:20",2,32.2349959,-110.9037019,TRUE,FALSE,TRUE,"S251351093"
"80","gilwoo","Gila Woodpecker","Melanerpes uropygialis","L8626038","SRP ponds","2025-06-17 05:11",2,33.441654,-111.95136,TRUE,FALSE,FALSE,"S251499587"
"81","gilwoo","Gila Woodpecker","Melanerpes uropygialis","L19709966","Lower Verde River--Sheep Bridge to Chalk Mountain","2025-06-17 05:05",10,34.071134,-111.7193666,TRUE,FALSE,TRUE,"S251522222"
"82","gilwoo","Gila Woodpecker","Melanerpes uropygialis","L39231155","4305 N Camino del Obispo, Tucson US-AZ 32.28514, -110.93001","2025-06-17 05:05",7,32.285138,-110.930008,TRUE,FALSE,TRUE,"S251354425"
"83","gilwoo","Gila Woodpecker","Melanerpes uropygialis","L17948450","Yard List","2025-06-17 05:04",1,33.5851075,-112.2179359,TRUE,FALSE,TRUE,"S251343576"
"84","gilwoo","Gila Woodpecker","Melanerpes uropygialis","L800002","Anthem--Southeast Parkside","2025-06-17 04:25",1,33.8466096,-112.1118844,TRUE,FALSE,TRUE,"S251339309"
"85","gilwoo","Gila Woodpecker","Melanerpes uropygialis","L331921","Salt River--Phon D. Sutton Recreation Area","2025-06-17 04:15",2,33.54611,-111.65944,TRUE,FALSE,FALSE,"S251386534"
"86","gilwoo","Gila Woodpecker","Melanerpes uropygialis","L18078847","210 West 2nd Avenue, Ajo","2025-06-16 18:42",2,32.3800019,-112.8640239,TRUE,FALSE,TRUE,"S251240375"
"87","gilwoo","Gila Woodpecker","Melanerpes uropygialis","L387263","Scottsdale Community College","2025-06-16 18:22",4,33.5120588,-111.8850231,TRUE,FALSE,FALSE,"S251256247"
"88","gilwoo","Gila Woodpecker","Melanerpes uropygialis","L4226928","E Whitton Ave","2025-06-16 18:04",1,33.4889201,-112.0678183,TRUE,FALSE,TRUE,"S251233260"
"89","gilwoo","Gila Woodpecker","Melanerpes uropygialis","L2438871","Sahuarita--North Santa Cruz Park","2025-06-16 17:53",1,31.9873804,-110.9630556,TRUE,FALSE,FALSE,"S251233597"
"90","gilwoo","Gila Woodpecker","Melanerpes uropygialis","L29125749","Desert Willow House","2025-06-16 17:42",1,33.31633,-112.028847,TRUE,FALSE,TRUE,"S251246446"
"91","gilwoo","Gila Woodpecker","Melanerpes uropygialis","L46523977","Stetson Casita","2025-06-16 17:33",1,32.270726,-110.752451,TRUE,FALSE,TRUE,"S251227255"
"92","gilwoo","Gila Woodpecker","Melanerpes uropygialis","L250145","Sam Lena Park and KERP","2025-06-16 17:03",1,32.1812,-110.932,TRUE,FALSE,FALSE,"S251234286"
"93","gilwoo","Gila Woodpecker","Melanerpes uropygialis","L210015","Desert Botanical Garden","2025-06-16 16:14",3,33.4618165,-111.9436349,TRUE,FALSE,FALSE,"S251231531"
"94","gilwoo","Gila Woodpecker","Melanerpes uropygialis","L2574444","Sun City Grand--Desert Springs Golf Course","2025-06-16 14:31",5,33.661639,-112.4049586,TRUE,FALSE,FALSE,"S251225086"
"95","gilwoo","Gila Woodpecker","Melanerpes uropygialis","L23094796","Reid Park Zoo","2025-06-16 12:29",1,32.2098811,-110.920511,TRUE,FALSE,TRUE,"S251177218"
"96","gilwoo","Gila Woodpecker","Melanerpes uropygialis","L474140","Anza Trail--Rio Rico (Guy Tobin Trailhead)","2025-06-16 11:25",1,31.4679656,-110.9918475,TRUE,FALSE,FALSE,"S251167607"
"97","gilwoo","Gila Woodpecker","Melanerpes uropygialis","L47792493","South Tucson, Arizona, US (32.2, -110.969)","2025-06-16 11:20",1,32.1995144,-110.9688114,TRUE,FALSE,TRUE,"S251119307"
"98","gilwoo","Gila Woodpecker","Melanerpes uropygialis","L21987482","Tallercito Tumamoc","2025-06-16 11:07",5,32.234609,-111.000559,TRUE,FALSE,TRUE,"S251359474"
"99","gilwoo","Gila Woodpecker","Melanerpes uropygialis","L352346","Santa Gertrudis Lane (foot access only)","2025-06-16 10:04",2,31.5620883,-111.0473766,TRUE,FALSE,FALSE,"S251167852"
"100","gilwoo","Gila Woodpecker","Melanerpes uropygialis","L2065012","Yard List","2025-06-16 09:34",2,32.2496115,-110.7883483,TRUE,FALSE,TRUE,"S251112119"
"101","gilwoo","Gila Woodpecker","Melanerpes uropygialis","L4233573","Ocotillo Community Area, Chandler","2025-06-16 09:15",1,33.2512743,-111.8714277,TRUE,FALSE,TRUE,"S251221578"
"102","gilwoo","Gila Woodpecker","Melanerpes uropygialis","L2759867","Anza Trail--Palo Parado Rd (Richard Williams Trailhead)","2025-06-16 08:40",5,31.5309397,-111.0165882,TRUE,FALSE,FALSE,"S251169096"
"103","gilwoo","Gila Woodpecker","Melanerpes uropygialis","L10515847","Power Ranch--South Pond","2025-06-16 08:37",3,33.2697068,-111.6954477,TRUE,FALSE,FALSE,"S251083075"
"104","gilwoo","Gila Woodpecker","Melanerpes uropygialis","L3717605","2410 E Adams St","2025-06-16 08:30",1,32.240544,-110.9362829,TRUE,FALSE,TRUE,"S251188291"
"105","gilwoo","Gila Woodpecker","Melanerpes uropygialis","L47779290","Tucson Jewish Community Center, Tucson","2025-06-16 08:25",2,32.274225,-110.911186,TRUE,FALSE,TRUE,"S251064119"
"106","gilwoo","Gila Woodpecker","Melanerpes uropygialis","L18472075","Foothills Neighborhood","2025-06-16 08:05",1,33.296302,-112.067436,TRUE,FALSE,TRUE,"S251140113"
"107","gilwoo","Gila Woodpecker","Melanerpes uropygialis","L12371210","Arizona Birding Guides feeders--Visitors Welcome","2025-06-16 08:03",4,31.5432844,-110.7519356,TRUE,FALSE,FALSE,"S251254226"
"108","gilwoo","Gila Woodpecker","Melanerpes uropygialis","L4132512","Sunrise Pointe and The Legends walk","2025-06-16 07:57",2,31.836946,-110.995505,TRUE,FALSE,TRUE,"S251077572"
"109","gilwoo","Gila Woodpecker","Melanerpes uropygialis","L7605038","Veterans Memorial Park, Sierra Vista","2025-06-16 07:43",1,31.5568043,-110.2681768,TRUE,FALSE,FALSE,"S251078551"
"110","gilwoo","Gila Woodpecker","Melanerpes uropygialis","L5044127","Green Valley yard","2025-06-16 07:33",1,31.8196182,-111.0124657,TRUE,FALSE,TRUE,"S251049288"
"111","gilwoo","Gila Woodpecker","Melanerpes uropygialis","L266621","Page Springs Fish Hatchery--Bubbling Ponds Preserve","2025-06-16 07:22",4,34.7669646,-111.8950832,TRUE,FALSE,FALSE,"S251127696"
"112","gilwoo","Gila Woodpecker","Melanerpes uropygialis","L12460894","Claire Weeks Terra del Sol Park","2025-06-16 07:20",3,32.1976621,-110.8484653,TRUE,FALSE,FALSE,"S251044507"
"113","gilwoo","Gila Woodpecker","Melanerpes uropygialis","L817656","Vista del Camino Park--McKellips Lake","2025-06-16 07:17",1,33.4527127,-111.9127464,TRUE,FALSE,FALSE,"S251055036"
"114","gilwoo","Gila Woodpecker","Melanerpes uropygialis","L128879","Arizona-Sonora Desert Museum (please do not report captive birds)","2025-06-16 07:16",4,32.2437113,-111.168125,TRUE,FALSE,FALSE,"S251073007"
"115","gilwoo","Gila Woodpecker","Melanerpes uropygialis","L1385889","3213 E Pima St","2025-06-16 07:16",1,32.2435994,-110.9238002,TRUE,FALSE,TRUE,"S251054370"
"116","gilwoo","Gila Woodpecker","Melanerpes uropygialis","L30435638","5462 W Arrowhead Lakes Dr, Glendale US-AZ 33.67961, -112.17651","2025-06-16 07:13",3,33.679611,-112.176506,TRUE,FALSE,TRUE,"S251046876"
"117","gilwoo","Gila Woodpecker","Melanerpes uropygialis","L27373176","Allen-Mathis Home, Hereford, Arizona, US (31.424, -110.126)","2025-06-16 07:08",3,31.4240896,-110.1256971,TRUE,FALSE,TRUE,"S251048887"
"118","gilwoo","Gila Woodpecker","Melanerpes uropygialis","L819322","Gilbert and Chandler Heights Rds. pond","2025-06-16 06:55",2,33.2386696,-111.7912853,TRUE,FALSE,FALSE,"S251223878"
"119","gilwoo","Gila Woodpecker","Melanerpes uropygialis","L47787188","Little Horn Peak","2025-06-16 06:55",3,33.732757,-113.185157,TRUE,FALSE,TRUE,"S251097291"
"120","gilwoo","Gila Woodpecker","Melanerpes uropygialis","L689527","Sabino Dam and downstream riparian","2025-06-16 06:53",4,32.3131068,-110.8113941,TRUE,FALSE,FALSE,"S251067087"
"121","gilwoo","Gila Woodpecker","Melanerpes uropygialis","L2040651","Seneca/Margaret","2025-06-16 06:51",3,32.2468168,-110.9289336,TRUE,FALSE,TRUE,"S251066294"
"122","gilwoo","Gila Woodpecker","Melanerpes uropygialis","L42896475","10049 S Wilderness Rd, Hereford US-AZ 31.38677, -110.22033","2025-06-16 06:46",3,31.386769,-110.220329,TRUE,FALSE,TRUE,"S251039078"
"123","gilwoo","Gila Woodpecker","Melanerpes uropygialis","L270969","Catalina Regional Park--pond","2025-06-16 06:38",8,32.4635648,-110.9018976,TRUE,FALSE,FALSE,"S251083464"
"124","gilwoo","Gila Woodpecker","Melanerpes uropygialis","L999878","Northsight Park","2025-06-16 06:29",8,33.6122247,-111.8988848,TRUE,FALSE,FALSE,"S251049805"
"125","gilwoo","Gila Woodpecker","Melanerpes uropygialis","L7899304","9525 E Kramer Cir, Mesa US-AZ (33.4525,-111.6254)","2025-06-16 06:27",1,33.452485,-111.625365,TRUE,FALSE,TRUE,"S251074342"
"126","gilwoo","Gila Woodpecker","Melanerpes uropygialis","L6686511","Vista del Camino Park--north end","2025-06-16 06:26",2,33.4608582,-111.9148493,TRUE,FALSE,FALSE,"S251037556"
"127","gilwoo","Gila Woodpecker","Melanerpes uropygialis","L299012","Oracle State Park","2025-06-16 06:25",1,32.6083177,-110.7335132,TRUE,FALSE,FALSE,"S251103595"
"128","gilwoo","Gila Woodpecker","Melanerpes uropygialis","L7420665","Page Springs--South Wildlife Viewing Area","2025-06-16 06:14",4,34.7595237,-111.8898694,TRUE,FALSE,FALSE,"S251127327"
"129","gilwoo","Gila Woodpecker","Melanerpes uropygialis","L715412","Higley and Ocotillo Rds. ponds","2025-06-16 06:09",1,33.2533311,-111.7181683,TRUE,FALSE,FALSE,"S251050089"
"130","gilwoo","Gila Woodpecker","Melanerpes uropygialis","L21728627","Mountain Creek Ranch East","2025-06-16 06:08",4,32.0736092,-110.6572808,TRUE,FALSE,TRUE,"S251021507"
"131","gilwoo","Gila Woodpecker","Melanerpes uropygialis","L29117391","Arizona National Golf Club, Tucson US-AZ","2025-06-16 06:07",6,32.301393,-110.777901,TRUE,FALSE,TRUE,"S251066797"
"132","gilwoo","Gila Woodpecker","Melanerpes uropygialis","L27874838","myLocation","2025-06-16 06:04",1,33.5284708,-112.0954492,TRUE,FALSE,TRUE,"S251015227"
"133","gilwoo","Gila Woodpecker","Melanerpes uropygialis","L11047160","Home list","2025-06-16 06:00",2,31.417106,-110.245284,TRUE,FALSE,TRUE,"S251175113"
"134","gilwoo","Gila Woodpecker","Melanerpes uropygialis","L227274","Reid Park","2025-06-16 05:58",7,32.2102866,-110.9235907,TRUE,FALSE,FALSE,"S251155132"
"135","gilwoo","Gila Woodpecker","Melanerpes uropygialis","L44497431","Bambi's Mom","2025-06-16 05:58",1,33.6732,-112.082004,TRUE,FALSE,TRUE,"S251032007"
"136","gilwoo","Gila Woodpecker","Melanerpes uropygialis","L729118","Santa Cruz River--Sunset Rd. to Camino del Cerro","2025-06-16 05:50",2,32.2993125,-111.0430877,TRUE,FALSE,FALSE,"S251093932"
"137","gilwoo","Gila Woodpecker","Melanerpes uropygialis","L8609141","Daj House","2025-06-16 05:50",5,33.7269499,-111.6683322,TRUE,FALSE,TRUE,"S251018894"
"138","gilwoo","Gila Woodpecker","Melanerpes uropygialis","L2891001","Ajo Community Golf Course","2025-06-16 05:47",5,32.4499385,-112.850318,TRUE,FALSE,FALSE,"S251054847"
"139","gilwoo","Gila Woodpecker","Melanerpes uropygialis","L12259291","Calle Lottie Tucson","2025-06-16 05:46",1,32.3254475,-110.9561947,TRUE,FALSE,TRUE,"S251170170"
"140","gilwoo","Gila Woodpecker","Melanerpes uropygialis","L2627481","Rimrock House","2025-06-16 05:45",3,34.6308394,-111.7931843,TRUE,FALSE,TRUE,"S251397933"
"141","gilwoo","Gila Woodpecker","Melanerpes uropygialis","L4179908","Rillito River Park--Swan to Craycroft","2025-06-16 05:40",5,32.268967,-110.882987,TRUE,FALSE,FALSE,"S251075537"
"142","gilwoo","Gila Woodpecker","Melanerpes uropygialis","L6718077","3 Canyons Ranch (west of Deer Ridge Trail)","2025-06-16 05:37",2,31.4089416,-110.2331257,TRUE,FALSE,TRUE,"S251075924"
"143","gilwoo","Gila Woodpecker","Melanerpes uropygialis","L250958","Lakeside Park","2025-06-16 05:34",8,32.1861206,-110.8162263,TRUE,FALSE,FALSE,"S251035235"
"144","gilwoo","Gila Woodpecker","Melanerpes uropygialis","L4964826","Quail Creek","2025-06-16 05:30",1,31.890653,-110.949453,TRUE,FALSE,TRUE,"S251001696"
"145","gilwoo","Gila Woodpecker","Melanerpes uropygialis","L13330280","Patty’s Yard, Tucson, AZ","2025-06-16 05:27",1,32.402364,-111.062303,TRUE,FALSE,TRUE,"S250999776"
"146","gilwoo","Gila Woodpecker","Melanerpes uropygialis","L46987135","Blue River Loop","2025-06-16 05:22",1,31.954315,-110.756155,TRUE,FALSE,TRUE,"S251011393"
"147","gilwoo","Gila Woodpecker","Melanerpes uropygialis","L1396778","Tucson--Atturbury Wash S of Lakeside Park","2025-06-16 05:17",1,32.1830644,-110.8157989,TRUE,FALSE,TRUE,"S251000027"
"148","gilwoo","Gila Woodpecker","Melanerpes uropygialis","L346021","Vernon Ave yard","2025-06-16 05:14",2,33.4740986,-111.9596002,TRUE,FALSE,TRUE,"S251257105"
"149","gilwoo","Gila Woodpecker","Melanerpes uropygialis","L10831073","Rillito River Park, Tucson US-AZ 32.28412, -110.94397","2025-06-16 04:53",1,32.284122,-110.943966,TRUE,FALSE,TRUE,"S251006652"
"150","gilwoo","Gila Woodpecker","Melanerpes uropygialis","L2714898","The Jail Trail","2025-06-15 19:18",2,34.7496668,-112.0269971,TRUE,FALSE,FALSE,"S250905483"
"151","gilwoo","Gila Woodpecker","Melanerpes uropygialis","L28971476","Backyard","2025-06-15 19:07",10,32.244384,-111.017191,TRUE,FALSE,TRUE,"S251055975"
"152","gilwoo","Gila Woodpecker","Melanerpes uropygialis","L47745914","6654 E Sugarloaf St, Mesa US-AZ 33.48590, -111.68644","2025-06-15 18:53",2,33.485901,-111.686443,TRUE,FALSE,TRUE,"S250899116"
"153","gilwoo","Gila Woodpecker","Melanerpes uropygialis","L32258596","Sabino Vista yard nr Crestwood / Larrea, Tucson","2025-06-15 18:34",1,32.27733,-110.815652,TRUE,FALSE,TRUE,"S250896992"
"154","gilwoo","Gila Woodpecker","Melanerpes uropygialis","L387543","Papago Park","2025-06-15 18:28",4,33.4564,-111.95,TRUE,FALSE,FALSE,"S250912592"
"155","gilwoo","Gila Woodpecker","Melanerpes uropygialis","L21540762","610 Hoatson Ave, Bisbee US-AZ 31.41193, -109.87562","2025-06-15 17:45",1,31.411931,-109.875624,TRUE,FALSE,TRUE,"S250905362"
"156","gilwoo","Gila Woodpecker","Melanerpes uropygialis","L14204791","1875 East Purple Martin Lane, Green Valley, Arizona, US (31.893, -110.947)","2025-06-15 17:15",1,31.8926724,-110.9468542,TRUE,FALSE,TRUE,"S250893353"
"157","gilwoo","Gila Woodpecker","Melanerpes uropygialis","L47739421","Gilbert Town Square, Gilbert US-AZ (33.3292,-111.7951)","2025-06-15 16:39",2,33.329221,-111.795097,TRUE,FALSE,TRUE,"S250868805"
"158","gilwoo","Gila Woodpecker","Melanerpes uropygialis","L47734656","Kino's Park Cambell And Grant (32.25, -110.945)","2025-06-15 12:59",2,32.2503861,-110.9453942,TRUE,FALSE,TRUE,"S250846043"
"159","gilwoo","Gila Woodpecker","Melanerpes uropygialis","L385285","Encanto Park","2025-06-15 12:49",2,33.4740415,-112.0898581,TRUE,FALSE,FALSE,"S250803699"
"160","gilwoo","Gila Woodpecker","Melanerpes uropygialis","L4490836","Placita De Suerte area","2025-06-15 12:30",1,32.2463227,-111.0678104,TRUE,FALSE,TRUE,"S250807941"
"161","gilwoo","Gila Woodpecker","Melanerpes uropygialis","L129052","Patagonia-Sonoita Creek Preserve","2025-06-15 10:39",5,31.528,-110.775,TRUE,FALSE,FALSE,"S250841092"
"162","gilwoo","Gila Woodpecker","Melanerpes uropygialis","L5237897","Quail Creek Golf Course Pond","2025-06-15 10:37",1,31.894247,-110.948425,TRUE,FALSE,TRUE,"S250725804"
"163","gilwoo","Gila Woodpecker","Melanerpes uropygialis","L757626","WolfSoul's house","2025-06-15 10:28",1,32.3934835,-111.1412881,TRUE,FALSE,TRUE,"S250732091"
"164","gilwoo","Gila Woodpecker","Melanerpes uropygialis","L16622647","85629, Sahuarita US-AZ (32.0039,-110.9884)","2025-06-15 09:50",2,32.003926,-110.988357,TRUE,FALSE,TRUE,"S251383071"
"165","gilwoo","Gila Woodpecker","Melanerpes uropygialis","L47718934","Briar Patch Inn","2025-06-15 09:44",1,34.8994118,-111.7313207,TRUE,FALSE,TRUE,"S250780532"
"166","gilwoo","Gila Woodpecker","Melanerpes uropygialis","L480168","Veterans Oasis Park","2025-06-15 09:38",3,33.2347837,-111.7695838,TRUE,FALSE,FALSE,"S250721982"
"167","gilwoo","Gila Woodpecker","Melanerpes uropygialis","L1416114","Riggs and Price Rds. ponds","2025-06-15 09:20",1,33.2193147,-111.892638,TRUE,FALSE,FALSE,"S250883905"
"168","gilwoo","Gila Woodpecker","Melanerpes uropygialis","L6830237","Sunrise Pointe neighborhood","2025-06-15 09:05",1,31.83646,-110.997762,TRUE,FALSE,TRUE,"S250689981"
"169","gilwoo","Gila Woodpecker","Melanerpes uropygialis","L47694026","Mississippi Kite Stakeout","2025-06-15 08:55",1,31.540546,-110.7561,TRUE,FALSE,TRUE,"S250680933"
"170","gilwoo","Gila Woodpecker","Melanerpes uropygialis","L13773733","Agua Dulce","2025-06-15 08:54",1,32.2752911,-111.0518951,TRUE,FALSE,TRUE,"S250704380"
"171","gilwoo","Gila Woodpecker","Melanerpes uropygialis","L1064140","WOW Arizona B&B","2025-06-15 08:46",3,32.5081331,-110.8764428,TRUE,FALSE,FALSE,"S250726925"
"172","gilwoo","Gila Woodpecker","Melanerpes uropygialis","L11172959","East Verde River--Doll Baby Trailhead","2025-06-15 08:37",1,34.2146612,-111.4810536,TRUE,FALSE,FALSE,"S250820584"
"173","gilwoo","Gila Woodpecker","Melanerpes uropygialis","L21645220","Scottsdale--Hayden and McDonald Pond","2025-06-15 08:36",1,33.5249418,-111.9074726,TRUE,FALSE,FALSE,"S250801735"
"174","gilwoo","Gila Woodpecker","Melanerpes uropygialis","L357654","Fountain Hills Lake","2025-06-15 08:32",1,33.602074,-111.7119938,TRUE,FALSE,FALSE,"S250698471"
"175","gilwoo","Gila Woodpecker","Melanerpes uropygialis","L46677983","Sycamore Leaf (from Smooth Opal to the dead end)","2025-06-15 08:16",4,31.9349555,-110.8048437,TRUE,FALSE,TRUE,"S250665428"
"176","gilwoo","Gila Woodpecker","Melanerpes uropygialis","L393566","Casa de San Pedro B&B--Visitors Welcome","2025-06-15 07:51",2,31.4088134,-110.1067829,TRUE,FALSE,FALSE,"S250898922"
"177","gilwoo","Gila Woodpecker","Melanerpes uropygialis","L39714720","UTM: 12R 519000 3534000","2025-06-15 07:48",2,31.941779,-110.798974,TRUE,FALSE,TRUE,"S250652475"
"178","gilwoo","Gila Woodpecker","Melanerpes uropygialis","L2605557","Santa Cruz River--Congress St. to Silverlake Rd.","2025-06-15 07:43",2,32.2105498,-110.9848738,TRUE,FALSE,FALSE,"S250668823"
"179","gilwoo","Gila Woodpecker","Melanerpes uropygialis","L32114055","Paiute Park","2025-06-15 07:21",1,33.484808,-111.939374,TRUE,FALSE,FALSE,"S250798131"
"180","gilwoo","Gila Woodpecker","Melanerpes uropygialis","L21351112","215-247 N. Cody Loop, Oracle Az","2025-06-15 07:20",1,32.6024655,-110.7586688,TRUE,FALSE,TRUE,"S250906955"
"181","gilwoo","Gila Woodpecker","Melanerpes uropygialis","L129072","Sabino Canyon Recreation Area","2025-06-15 07:20",4,32.3300526,-110.7944301,TRUE,FALSE,FALSE,"S250725165"
"182","gilwoo","Gila Woodpecker","Melanerpes uropygialis","L7671203","San Pedro Trail-Waters Rd to Hereford Rd","2025-06-15 07:15",15,31.416206,-110.106658,TRUE,FALSE,TRUE,"S250722485"
"183","gilwoo","Gila Woodpecker","Melanerpes uropygialis","L15559321","Villas West","2025-06-15 07:10",2,31.8657175,-110.9982275,TRUE,FALSE,TRUE,"S250626290"
"184","gilwoo","Gila Woodpecker","Melanerpes uropygialis","L968404","Lincoln Park","2025-06-15 07:10",3,32.1738689,-110.8182335,TRUE,FALSE,FALSE,"S250894983"
"185","gilwoo","Gila Woodpecker","Melanerpes uropygialis","L169112","Hassayampa River Preserve","2025-06-15 07:03",2,33.9333419,-112.6946297,TRUE,FALSE,FALSE,"S251247402"
"186","gilwoo","Gila Woodpecker","Melanerpes uropygialis","L33129145","Power Ranch Home 4223 South Soboba Street, Gilbert, Arizona, US (33.274, -111.708)","2025-06-15 06:51",1,33.2739879,-111.7081914,TRUE,FALSE,TRUE,"S250620192"
"187","gilwoo","Gila Woodpecker","Melanerpes uropygialis","L45929440","stakeout Rose-throated Becard, Harshaw Creek Rd (2025)","2025-06-15 06:42",1,31.5162598,-110.6928891,TRUE,FALSE,FALSE,"S250641824"
"188","gilwoo","Gila Woodpecker","Melanerpes uropygialis","L837847","Hayden & Osborne Golf Course Pond","2025-06-15 06:39",2,33.4860775,-111.911754,TRUE,FALSE,FALSE,"S250601597"
"189","gilwoo","Gila Woodpecker","Melanerpes uropygialis","L505270","Anza Trail--Tumacacori","2025-06-15 06:35",3,31.5694771,-111.0472888,TRUE,FALSE,FALSE,"S250853880"
"190","gilwoo","Gila Woodpecker","Melanerpes uropygialis","L190219","Papago Park--Southeast Pond","2025-06-15 06:33",3,33.4394532,-111.9317262,TRUE,FALSE,FALSE,"S250627127"
"191","gilwoo","Gila Woodpecker","Melanerpes uropygialis","L357591","Saguaro Lake--Butcher Jones Beach","2025-06-15 06:27",1,33.5758784,-111.5154147,TRUE,FALSE,FALSE,"S250753562"
"192","gilwoo","Gila Woodpecker","Melanerpes uropygialis","L7740220","Saguaro NP--East--Broadway trailhead","2025-06-15 06:25",2,32.2207405,-110.7261643,TRUE,FALSE,FALSE,"S250618232"
"193","gilwoo","Gila Woodpecker","Melanerpes uropygialis","L4187377","Torres Blancas Golf Club","2025-06-15 06:22",1,31.821209,-110.998697,TRUE,FALSE,TRUE,"S250891119"
"194","gilwoo","Gila Woodpecker","Melanerpes uropygialis","L1845005","US-AZ-Tucson-5835 S Old Spanish Trail","2025-06-15 06:11",3,32.145961,-110.730413,TRUE,FALSE,TRUE,"S250602274"
"195","gilwoo","Gila Woodpecker","Melanerpes uropygialis","L13265417","Vail-Coyote Creek Gated Community-Restricted Access","2025-06-15 06:00",2,32.0969444,-110.6661111,TRUE,FALSE,TRUE,"S250642190"
"196","gilwoo","Gila Woodpecker","Melanerpes uropygialis","L5201724","16638 Yard List","2025-06-15 06:00",1,33.2946645,-112.0714366,TRUE,FALSE,TRUE,"S250905116"
"197","gilwoo","Gila Woodpecker","Melanerpes uropygialis","L4935482","Rio Vista Community Park/Riparian Area","2025-06-15 05:50",2,33.615206,-112.246615,TRUE,FALSE,FALSE,"S250631719"
"198","gilwoo","Gila Woodpecker","Melanerpes uropygialis","L46464966","10669 Yard","2025-06-15 05:45",1,32.2204659,-110.7653852,TRUE,FALSE,TRUE,"S250582539"
"199","gilwoo","Gila Woodpecker","Melanerpes uropygialis","L5856370","Wind Cave Trail","2025-06-15 05:25",4,33.4749096,-111.6068673,TRUE,FALSE,FALSE,"S250654596"
"200","gilwoo","Gila Woodpecker","Melanerpes uropygialis","L129095","Sierra Vista EOP","2025-06-15 05:22",1,31.5627101,-110.2027562,TRUE,FALSE,FALSE,"S250706283"
"201","gilwoo","Gila Woodpecker","Melanerpes uropygialis","L47811954","Near Riverview Golf Course","2025-06-15 04:29",NA,33.6315979,-112.2761495,TRUE,FALSE,TRUE,"S251396806"
"202","gilwoo","Gila Woodpecker","Melanerpes uropygialis","L47551184","Saguaro NP Auto Loop","2025-06-14 19:38",1,32.185687,-110.730829,TRUE,FALSE,TRUE,"S250590546"
"203","gilwoo","Gila Woodpecker","Melanerpes uropygialis","L13099889","Arizona House","2025-06-14 18:04",2,33.6424151,-111.945698,TRUE,FALSE,TRUE,"S250414477"
"204","gilwoo","Gila Woodpecker","Melanerpes uropygialis","L826166","Arrowhead Lake","2025-06-14 17:29",2,33.6842108,-112.1857309,TRUE,FALSE,FALSE,"S250408150"
"205","gilwoo","Gila Woodpecker","Melanerpes uropygialis","L36661617","E Sorbonne Dr, Sahuarita US-AZ","2025-06-14 16:43",2,31.8955901,-110.9290714,TRUE,FALSE,TRUE,"S250394076"
"206","gilwoo","Gila Woodpecker","Melanerpes uropygialis","L15092756","Patagonia--Sonoita Ave. x 4th Ave","2025-06-14 16:20",1,31.5400694,-110.7569132,TRUE,FALSE,TRUE,"S250794511"
"207","gilwoo","Gila Woodpecker","Melanerpes uropygialis","L129114","Tumacacori NHP","2025-06-14 16:20",1,31.5683867,-111.0506648,TRUE,FALSE,FALSE,"S250401657"
"208","gilwoo","Gila Woodpecker","Melanerpes uropygialis","L2064166","Patagonia Lake SP--Birding Trail","2025-06-14 15:45",2,31.496718,-110.848945,TRUE,FALSE,FALSE,"S251168542"
"209","gilwoo","Gila Woodpecker","Melanerpes uropygialis","L2600507","Elgin Road","2025-06-14 14:29",1,31.6588668,-110.564518,TRUE,FALSE,FALSE,"S251234443"
"210","gilwoo","Gila Woodpecker","Melanerpes uropygialis","L340562","Montezuma Castle NM","2025-06-14 13:46",2,34.6116667,-111.8391667,TRUE,FALSE,FALSE,"S250355728"
"211","gilwoo","Gila Woodpecker","Melanerpes uropygialis","L340020","ASU Main Campus","2025-06-14 12:34",2,33.4207756,-111.9340445,TRUE,FALSE,FALSE,"S250364241"
"212","gilwoo","Gila Woodpecker","Melanerpes uropygialis","L340405","Box Canyon","2025-06-14 11:14",1,31.7974086,-110.7868486,TRUE,FALSE,FALSE,"S250320205"
"213","gilwoo","Gila Woodpecker","Melanerpes uropygialis","L47604008","13200–13306 E Greaterville Rd, Sonoita US-AZ 31.77499, -110.71755","2025-06-14 10:55",1,31.774993,-110.717551,TRUE,FALSE,TRUE,"S250282665"
"214","gilwoo","Gila Woodpecker","Melanerpes uropygialis","L44699939","Casas adobes","2025-06-14 10:50",1,32.3063063,-111.0027038,TRUE,FALSE,TRUE,"S250282102"
"215","gilwoo","Gila Woodpecker","Melanerpes uropygialis","L47375341","Parque Del Rio Trail, Sahuarita US-AZ (","2025-06-14 10:36",4,31.967163,-110.98064,TRUE,FALSE,TRUE,"S250295118"
"216","gilwoo","Gila Woodpecker","Melanerpes uropygialis","L272736","Kennedy Park","2025-06-14 09:31",1,32.1805717,-111.0074136,TRUE,FALSE,FALSE,"S250274685"
"217","gilwoo","Gila Woodpecker","Melanerpes uropygialis","L4712195","Sycamore Creek--upper Beeline Hwy","2025-06-14 09:24",1,33.9117312,-111.4825845,TRUE,FALSE,FALSE,"S250295568"
"218","gilwoo","Gila Woodpecker","Melanerpes uropygialis","L38901606","1740 East Hedrick Drive, Tucson, Arizona, US (32.262, -110.945)","2025-06-14 09:15",1,32.2622944,-110.9453943,TRUE,FALSE,TRUE,"S250245130"
"219","gilwoo","Gila Woodpecker","Melanerpes uropygialis","L47070198","Cottonwood Clubhouse Area","2025-06-14 09:12",1,33.2141863,-111.8669772,TRUE,FALSE,TRUE,"S250395492"
"220","gilwoo","Gila Woodpecker","Melanerpes uropygialis","L40606583","Country Glenn—Sequoyah St/Tucson Blvd","2025-06-14 08:37",1,32.254717,-110.935204,TRUE,FALSE,TRUE,"S250231725"
"221","gilwoo","Gila Woodpecker","Melanerpes uropygialis","L45463752","Casita","2025-06-14 08:06",1,33.481905,-112.09616,TRUE,FALSE,TRUE,"S250226607"
"222","gilwoo","Gila Woodpecker","Melanerpes uropygialis","L300609","Salt River--Granite Reef Recreation Area","2025-06-14 08:05",4,33.5145045,-111.6815139,TRUE,FALSE,FALSE,"S250273142"
"223","gilwoo","Gila Woodpecker","Melanerpes uropygialis","L819335","Gilbert and Riggs Rds. pond","2025-06-14 08:05",1,33.2241133,-111.7906094,TRUE,FALSE,FALSE,"S250392461"
"224","gilwoo","Gila Woodpecker","Melanerpes uropygialis","L47586598","16501 West Northern Avenue, Litchfield Park, Arizona, US (33.55, -112.411)","2025-06-14 08:01",1,33.5504184,-112.4114929,TRUE,FALSE,TRUE,"S250217193"
"225","gilwoo","Gila Woodpecker","Melanerpes uropygialis","L765027","Las Cienegas NCA--Empire Gulch","2025-06-14 08:00",13,31.7878465,-110.6365728,TRUE,FALSE,FALSE,"S250311517"
"226","gilwoo","Gila Woodpecker","Melanerpes uropygialis","L1103455","Finger Rock trailhead","2025-06-14 07:51",1,32.3361251,-110.9100842,TRUE,FALSE,TRUE,"S250210289"
"227","gilwoo","Gila Woodpecker","Melanerpes uropygialis","L47597499","Birding Trail, Tucson, Arizona, US (32.423, -110.909)","2025-06-14 07:45",2,32.4228856,-110.9087804,TRUE,FALSE,TRUE,"S250258369"
"228","gilwoo","Gila Woodpecker","Melanerpes uropygialis","L46331464","Lone Star Rd Backyard Birding","2025-06-14 07:32",1,32.816684,-109.700218,TRUE,FALSE,TRUE,"S250217216"
"229","gilwoo","Gila Woodpecker","Melanerpes uropygialis","L17349225","Voyager RV Resort pond (view from road)","2025-06-14 07:31",1,32.0901235,-110.8296376,TRUE,FALSE,FALSE,"S250242646"
"230","gilwoo","Gila Woodpecker","Melanerpes uropygialis","L47049329","High Mountain View Place","2025-06-14 07:23",1,32.454928,-110.932539,TRUE,FALSE,TRUE,"S250264587"
"231","gilwoo","Gila Woodpecker","Melanerpes uropygialis","L9310338","Tempe Women's Club Park","2025-06-14 07:21",2,33.443123,-111.931006,TRUE,FALSE,FALSE,"S250208125"
"232","gilwoo","Gila Woodpecker","Melanerpes uropygialis","L17120366","Home","2025-06-14 07:19",1,32.450747,-111.069334,TRUE,FALSE,TRUE,"S250248550"
"233","gilwoo","Gila Woodpecker","Melanerpes uropygialis","L47581029","5420 S Marigold Way, Gilbert US-AZ 33.25159, -111.70002","2025-06-14 07:17",2,33.251585,-111.700017,TRUE,FALSE,TRUE,"S250194763"
"234","gilwoo","Gila Woodpecker","Melanerpes uropygialis","L35253415","My yard Green Valley","2025-06-14 07:00",1,31.870396,-111.009451,TRUE,FALSE,TRUE,"S250208813"
"235","gilwoo","Gila Woodpecker","Melanerpes uropygialis","L1430233","Finger Rock Trail--trailhead to spring","2025-06-14 06:55",15,32.34433,-110.90819,TRUE,FALSE,TRUE,"S250207329"
"236","gilwoo","Gila Woodpecker","Melanerpes uropygialis","L38078087","Queen Creek Wash Trail (Pecan Circle)","2025-06-14 06:53",1,33.2317196,-111.6101168,TRUE,FALSE,TRUE,"S250198950"
"237","gilwoo","Gila Woodpecker","Melanerpes uropygialis","L585842","Agua Fria NM--Badger Springs Wash","2025-06-14 06:45",2,34.2291015,-112.0992243,TRUE,FALSE,FALSE,"S250314776"
"238","gilwoo","Gila Woodpecker","Melanerpes uropygialis","L1142953","Mission Road Home","2025-06-14 06:41",1,32.1939715,-110.99757,TRUE,FALSE,TRUE,"S250196080"
"239","gilwoo","Gila Woodpecker","Melanerpes uropygialis","L623683","Betty's Kitchen/Laguna Dam","2025-06-14 06:37",3,32.8194716,-114.4882978,TRUE,FALSE,FALSE,"S250191256"
"240","gilwoo","Gila Woodpecker","Melanerpes uropygialis","L166979","Boyce Thompson Arboretum","2025-06-14 06:37",6,33.2795082,-111.158756,TRUE,FALSE,FALSE,"S250378074"
"241","gilwoo","Gila Woodpecker","Melanerpes uropygialis","L681751","Lo Lo Mai Springs CG","2025-06-14 06:30",2,34.7748083,-111.9006979,TRUE,FALSE,FALSE,"S250206875"
"242","gilwoo","Gila Woodpecker","Melanerpes uropygialis","L39226925","CBJB Home","2025-06-14 06:28",1,31.4270693,-110.2484136,TRUE,FALSE,TRUE,"S250182296"
"243","gilwoo","Gila Woodpecker","Melanerpes uropygialis","L12162514","Roundhouse at The Boulders","2025-06-14 06:25",1,33.7972431,-111.9223662,TRUE,FALSE,TRUE,"S250246931"
"244","gilwoo","Gila Woodpecker","Melanerpes uropygialis","L47494032","Sister Nancy house","2025-06-14 06:15",2,34.0754886,-112.1304795,TRUE,FALSE,TRUE,"S250191840"
"245","gilwoo","Gila Woodpecker","Melanerpes uropygialis","L1430237","Finger Rock Spring","2025-06-14 06:09",3,32.3478054,-110.9039579,TRUE,FALSE,TRUE,"S250182595"
"246","gilwoo","Gila Woodpecker","Melanerpes uropygialis","L1400591","Rio Vista Natural Resource Park","2025-06-14 06:08",6,32.2800719,-110.9326502,TRUE,FALSE,FALSE,"S250320483"
"247","gilwoo","Gila Woodpecker","Melanerpes uropygialis","L11188318","18432 North 5th Avenue, Phoenix, Arizona, US (33.653, -112.08)","2025-06-14 06:01",1,33.6532221,-112.0804184,TRUE,FALSE,TRUE,"S250217241"
"248","gilwoo","Gila Woodpecker","Melanerpes uropygialis","L1023602","Pinnacle Peak Park","2025-06-14 06:01",1,33.7274211,-111.8645221,TRUE,FALSE,FALSE,"S250198409"
"249","gilwoo","Gila Woodpecker","Melanerpes uropygialis","L267156","Christopher Columbus Park (soon to be Danny Lopez Park)","2025-06-14 06:00",6,32.2856814,-111.0346556,TRUE,FALSE,FALSE,"S250304701"
"250","gilwoo","Gila Woodpecker","Melanerpes uropygialis","L284334","Estrella Mountain Regional Park","2025-06-14 06:00",5,33.3844217,-112.3823583,TRUE,FALSE,FALSE,"S250344045"
"251","gilwoo","Gila Woodpecker","Melanerpes uropygialis","L128978","Guadalupe Canyon (Hidalgo Co.)","2025-06-14 05:52",4,31.3661995,-109.0233994,TRUE,FALSE,FALSE,"S250583559"
"252","gilwoo","Gila Woodpecker","Melanerpes uropygialis","L679197","Tucson Mountain Park--Gilbert Ray CG","2025-06-14 05:50",NA,32.2192754,-111.1448076,TRUE,FALSE,FALSE,"S250178161"
"253","gilwoo","Gila Woodpecker","Melanerpes uropygialis","L3246283","Green Valley Country Club Estates (private)","2025-06-14 05:40",2,31.8852376,-110.9795026,TRUE,FALSE,FALSE,"S250832736"
"254","gilwoo","Gila Woodpecker","Melanerpes uropygialis","L18571446","Indian Bend Park","2025-06-14 05:38",1,33.4491501,-111.9188837,TRUE,FALSE,FALSE,"S250164401"
"255","gilwoo","Gila Woodpecker","Melanerpes uropygialis","L3334807","Bubbling Ponds, Page Springs Fish Hatchery","2025-06-14 05:35",7,34.7655186,-111.8948078,TRUE,FALSE,TRUE,"S250333778"
"256","gilwoo","Gila Woodpecker","Melanerpes uropygialis","L2065747","Prospector Park","2025-06-14 05:35",2,33.4421314,-111.5432936,TRUE,FALSE,FALSE,"S250160495"
"257","gilwoo","Gila Woodpecker","Melanerpes uropygialis","L497742","Yuma East Wetlands","2025-06-14 05:24",2,32.7207934,-114.6065962,TRUE,FALSE,FALSE,"S250233083"
"258","gilwoo","Gila Woodpecker","Melanerpes uropygialis","L18461951","Neighborhood","2025-06-14 05:23",11,32.299075,-110.833703,TRUE,FALSE,TRUE,"S250176475"
"259","gilwoo","Gila Woodpecker","Melanerpes uropygialis","L5203823","Little Cat Mountain loop trail","2025-06-14 05:05",4,32.1910127,-111.0758972,TRUE,FALSE,TRUE,"S250192000"
"260","gilwoo","Gila Woodpecker","Melanerpes uropygialis","L33206211","Alamo Rd, Salome US-AZ (34.1547,-113.5011)","2025-06-14 04:48",8,34.154695,-113.501142,TRUE,FALSE,TRUE,"S251068185"
"261","gilwoo","Gila Woodpecker","Melanerpes uropygialis","L697052","Cave Creek Regional Park","2025-06-13 19:47",1,33.8311845,-112.001034,TRUE,FALSE,FALSE,"S250050865"
"262","gilwoo","Gila Woodpecker","Melanerpes uropygialis","L838090","Seneca/Ridgeway area","2025-06-13 19:22",1,32.2475404,-110.8653452,TRUE,FALSE,FALSE,"S250038580"
"263","gilwoo","Gila Woodpecker","Melanerpes uropygialis","L15664989","Camelback Golf Club","2025-06-13 19:13",2,33.576936,-111.962425,TRUE,FALSE,TRUE,"S250041789"
"264","gilwoo","Gila Woodpecker","Melanerpes uropygialis","L32414894","Blenman-Elm—Elm/Norton","2025-06-13 19:09",1,32.242759,-110.936647,TRUE,FALSE,TRUE,"S250038685"
"265","gilwoo","Gila Woodpecker","Melanerpes uropygialis","L35966793","Sabino Vista Hills neighborhood","2025-06-13 18:51",1,32.279368,-110.815178,TRUE,FALSE,TRUE,"S250039574"
"266","gilwoo","Gila Woodpecker","Melanerpes uropygialis","L17840540","stakeout Golden-winged Warbler, Salt River Rec. Area (2022)","2025-06-13 17:33",1,33.517422,-111.674054,TRUE,FALSE,FALSE,"S250426869"
"267","gilwoo","Gila Woodpecker","Melanerpes uropygialis","L24265586","11320 East Calle Catalina, Tucson, Arizona, US (32.202, -110.751)","2025-06-13 16:30",1,32.2018066,-110.7506209,TRUE,FALSE,TRUE,"S250380040"
"268","gilwoo","Gila Woodpecker","Melanerpes uropygialis","L368175","Red Mountain Ranch Country Club","2025-06-13 14:52",1,33.4897551,-111.6852736,TRUE,FALSE,FALSE,"S250017870"
"269","gilwoo","Gila Woodpecker","Melanerpes uropygialis","L47576783","11185 East Old Schoolhouse Road, Cornville, Arizona, US (34.778, -111.902)","2025-06-13 14:26",1,34.7783687,-111.9022318,TRUE,FALSE,TRUE,"S250175861"
"270","gilwoo","Gila Woodpecker","Melanerpes uropygialis","L46693352","26 Ninth St, Clarkdale US-AZ 34.77217, -112.05789","2025-06-13 13:08",1,34.772174,-112.05789,TRUE,FALSE,TRUE,"S249952446"
"271","gilwoo","Gila Woodpecker","Melanerpes uropygialis","L20167964","My Yard","2025-06-13 12:14",3,32.3059661,-110.8357962,TRUE,FALSE,TRUE,"S249971340"
"272","gilwoo","Gila Woodpecker","Melanerpes uropygialis","L47550858","47225–47627 N Grand Ave, Wickenburg US-AZ 33.91230, -112.67609","2025-06-13 09:42",1,33.912301,-112.676089,TRUE,FALSE,TRUE,"S250056340"
"273","gilwoo","Gila Woodpecker","Melanerpes uropygialis","L768735","Harshaw Creek Road","2025-06-13 09:26",2,31.506978,-110.6798543,TRUE,FALSE,FALSE,"S250684531"
"274","gilwoo","Gila Woodpecker","Melanerpes uropygialis","L3036994","My Yard - Chandler, AZ","2025-06-13 09:25",1,33.2332314,-111.8625301,TRUE,FALSE,TRUE,"S249975674"
"275","gilwoo","Gila Woodpecker","Melanerpes uropygialis","L4523170","Tucson International Airport","2025-06-13 09:17",1,32.119728,-110.938253,TRUE,FALSE,FALSE,"S250147477"
"276","gilwoo","Gila Woodpecker","Melanerpes uropygialis","L47507685","2033 N 21st Ave, Phoenix US-AZ 33.57954, -112.10384","2025-06-13 09:14",1,33.579541,-112.103844,TRUE,FALSE,TRUE,"S249874895"
"277","gilwoo","Gila Woodpecker","Melanerpes uropygialis","L3220807","Fulton Ranch Blvd., Chandler","2025-06-13 09:05",1,33.2378979,-111.8459702,TRUE,FALSE,TRUE,"S249976418"
"278","gilwoo","Gila Woodpecker","Melanerpes uropygialis","L20329824","Oro Valley Home (private)","2025-06-13 09:00",1,32.4330004,-110.9912966,TRUE,FALSE,TRUE,"S250042092"
"279","gilwoo","Gila Woodpecker","Melanerpes uropygialis","L3471222","Roosevelt Lake--Orange Peel Day Use Area","2025-06-13 08:58",1,33.7623381,-111.2540992,TRUE,FALSE,FALSE,"S249982914"
"280","gilwoo","Gila Woodpecker","Melanerpes uropygialis","L38476212","Sunrise Pointe, and Vista and Legends","2025-06-13 08:24",1,31.834782,-110.995906,TRUE,FALSE,TRUE,"S249896056"
"281","gilwoo","Gila Woodpecker","Melanerpes uropygialis","L3186111","US-AZ-Scottsdale-4800 N 68th St (Private)","2025-06-13 08:19",1,33.505878,-111.93664,TRUE,FALSE,TRUE,"S250261786"
"282","gilwoo","Gila Woodpecker","Melanerpes uropygialis","L36616356","Rancho Cancion north-central","2025-06-13 08:16",2,32.169196,-110.7614135,TRUE,FALSE,TRUE,"S249867168"
"283","gilwoo","Gila Woodpecker","Melanerpes uropygialis","L47502377","Grandparent's House","2025-06-13 08:05",NA,33.5297841,-111.9365307,TRUE,FALSE,TRUE,"S249852408"
"284","gilwoo","Gila Woodpecker","Melanerpes uropygialis","L47261238","Airbnb E Powder Horn Place","2025-06-13 08:02",1,32.248215,-110.776302,TRUE,FALSE,TRUE,"S250147441"
"285","gilwoo","Gila Woodpecker","Melanerpes uropygialis","L6175589","Market House","2025-06-13 07:43",3,31.603425,-111.046801,TRUE,FALSE,TRUE,"S250270937"
"286","gilwoo","Gila Woodpecker","Melanerpes uropygialis","L273411","Tucson Bird Alliance Mason Center","2025-06-13 07:37",1,32.3655786,-111.0477639,TRUE,FALSE,FALSE,"S249854049"
"287","gilwoo","Gila Woodpecker","Melanerpes uropygialis","L46319789","Box Canyon Wash mouth at Big Sandy River","2025-06-13 07:36",5,34.6170474,-113.5690637,TRUE,FALSE,TRUE,"S251399528"
"288","gilwoo","Gila Woodpecker","Melanerpes uropygialis","L367115","Eldorado Park","2025-06-13 07:33",3,33.4701843,-111.9160938,TRUE,FALSE,FALSE,"S249868721"
"289","gilwoo","Gila Woodpecker","Melanerpes uropygialis","L274619","Ventana Canyon","2025-06-13 07:30",3,32.3342163,-110.8553747,TRUE,FALSE,FALSE,"S250442628"
"290","gilwoo","Gila Woodpecker","Melanerpes uropygialis","L47530036","Boulders Resort and Spa","2025-06-13 07:30",14,33.802761,-111.925309,TRUE,FALSE,TRUE,"S249968068"
"291","gilwoo","Gila Woodpecker","Melanerpes uropygialis","L190925","Salt River--Coon Bluff Recreation Area","2025-06-13 07:30",4,33.5471399,-111.6454576,TRUE,FALSE,FALSE,"S249889354"
"292","gilwoo","Gila Woodpecker","Melanerpes uropygialis","L47499401","7541 E Beach Dr, Tucson US-AZ (32.2544,-110.8313)","2025-06-13 07:28",1,32.25441,-110.831285,TRUE,FALSE,TRUE,"S249839211"
"293","gilwoo","Gila Woodpecker","Melanerpes uropygialis","L18912246","My yard","2025-06-13 07:26",1,32.2569885,-110.9241867,TRUE,FALSE,TRUE,"S249872468"
"294","gilwoo","Gila Woodpecker","Melanerpes uropygialis","L930389","Del Urich GC--west pond","2025-06-13 07:25",1,32.2133185,-110.9178829,TRUE,FALSE,TRUE,"S249839929"
"295","gilwoo","Gila Woodpecker","Melanerpes uropygialis","L15247130","Casa de Coverdill (Private Residence)","2025-06-13 07:22",3,32.2755781,-110.8335759,TRUE,FALSE,TRUE,"S249857418"
"296","gilwoo","Gila Woodpecker","Melanerpes uropygialis","L47466877","7525 E Park View Dr, Tucson US-AZ (32.2614,-110.8319)","2025-06-13 07:06",1,32.261421,-110.831934,TRUE,FALSE,TRUE,"S249838678"
"297","gilwoo","Gila Woodpecker","Melanerpes uropygialis","L47498113","43851 N Arizona Hwy 188, Tonto Basin US-AZ 33.82882, -111.29700","2025-06-13 07:05",1,33.82882,-111.296997,TRUE,FALSE,TRUE,"S249833184"
"298","gilwoo","Gila Woodpecker","Melanerpes uropygialis","L29170854","3831 Garzota","2025-06-13 06:55",4,31.8144329,-111.0253869,TRUE,FALSE,TRUE,"S249837114"
"299","gilwoo","Gila Woodpecker","Melanerpes uropygialis","L19431001","1335 E Chula Vista Rd, Tucson US-AZ 32.32996, -110.95156","2025-06-13 06:45",4,32.329957,-110.951565,TRUE,FALSE,TRUE,"S249849991"
"300","gilwoo","Gila Woodpecker","Melanerpes uropygialis","L16900328","Colorado River, Yuma US-AZ (32.7278,-114.6028)","2025-06-13 06:33",2,32.727776,-114.602831,TRUE,FALSE,TRUE,"S249833404"
"301","gilwoo","Gila Woodpecker","Melanerpes uropygialis","L29223905","Sonoran Reserve Apartments (no public access)","2025-06-13 06:30",1,32.221578,-111.025705,TRUE,FALSE,TRUE,"S249878300"
"302","gilwoo","Gila Woodpecker","Melanerpes uropygialis","L3471199","Roosevelt Lake--Cottonwood Cove Picnic Area","2025-06-13 06:25",2,33.6686219,-111.1290345,TRUE,FALSE,FALSE,"S250056574"
"303","gilwoo","Gila Woodpecker","Melanerpes uropygialis","L23374706","Scottsdale--Apache Park","2025-06-13 06:23",1,33.45998,-111.896074,TRUE,FALSE,FALSE,"S249838029"
"304","gilwoo","Gila Woodpecker","Melanerpes uropygialis","L47426684","El Rio Acres Home","2025-06-13 06:14",4,32.2430062,-111.0023678,TRUE,FALSE,TRUE,"S249836862"
"305","gilwoo","Gila Woodpecker","Melanerpes uropygialis","L1091644","La Posta Quemada Ranch","2025-06-13 06:10",5,32.0512984,-110.6363797,TRUE,FALSE,FALSE,"S249858350"
"306","gilwoo","Gila Woodpecker","Melanerpes uropygialis","L1997308","Clear Creek Campground","2025-06-13 06:10",1,34.5163433,-111.7680252,TRUE,FALSE,FALSE,"S250355900"
"307","gilwoo","Gila Woodpecker","Melanerpes uropygialis","L47500009","Arthur Pack Regional Park, Tucson US-AZ 32.37316, -111.05355","2025-06-13 06:06",1,32.373165,-111.05355,TRUE,FALSE,TRUE,"S249841954"
"308","gilwoo","Gila Woodpecker","Melanerpes uropygialis","L1842657","Greenwood Memory Lawn Cemetery","2025-06-13 05:53",2,33.4567568,-112.1135585,TRUE,FALSE,FALSE,"S249814055"
"309","gilwoo","Gila Woodpecker","Melanerpes uropygialis","L35995436","Near Vi","2025-06-13 05:50",1,33.66721,-111.915081,TRUE,FALSE,TRUE,"S249808661"
"310","gilwoo","Gila Woodpecker","Melanerpes uropygialis","L47550902","2270–2296 US-60 E, Globe US-AZ (33.4162,-110.8283)","2025-06-13 05:40",2,33.416247,-110.828319,TRUE,FALSE,TRUE,"S250056652"
"311","gilwoo","Gila Woodpecker","Melanerpes uropygialis","L11172420","SHARP (Southeast Houghton Area Recharge Project)","2025-06-13 05:39",4,32.1475886,-110.7812904,TRUE,FALSE,FALSE,"S249884524"
"312","gilwoo","Gila Woodpecker","Melanerpes uropygialis","L213926","Yuma West Wetlands","2025-06-13 05:30",3,32.7306138,-114.6386325,TRUE,FALSE,FALSE,"S249876685"
"313","gilwoo","Gila Woodpecker","Melanerpes uropygialis","L234307","Arizona City Lake","2025-06-13 05:30",6,32.7376219,-111.6787993,TRUE,FALSE,FALSE,"S249825720"
"314","gilwoo","Gila Woodpecker","Melanerpes uropygialis","L21191323","2241 E Aire Libre Ave, Phoenix US-AZ 33.63702, -112.03304","2025-06-13 05:17",1,33.637018,-112.03304,TRUE,FALSE,TRUE,"S249796556"
"315","gilwoo","Gila Woodpecker","Melanerpes uropygialis","L45545473","Big Sandy North","2025-06-13 05:08",2,34.624012,-113.567893,TRUE,FALSE,TRUE,"S251399130"
"316","gilwoo","Gila Woodpecker","Melanerpes uropygialis","L4553933","Big Sandy River at S-curves","2025-06-13 04:50",5,34.604175,-113.567681,TRUE,FALSE,TRUE,"S250039519"
"317","gilwoo","Gila Woodpecker","Melanerpes uropygialis","L16235462","Saguaro NP--East--Javelina Rocks","2025-06-12 19:37",1,32.1741867,-110.7174039,TRUE,FALSE,FALSE,"S249708297"
"318","gilwoo","Gila Woodpecker","Melanerpes uropygialis","L6793538","Home","2025-06-12 19:12",2,32.3133954,-111.1823273,TRUE,FALSE,TRUE,"S249708662"
"319","gilwoo","Gila Woodpecker","Melanerpes uropygialis","L28675464","Camp Verde property","2025-06-12 19:01",1,34.6048675,-111.8945592,TRUE,FALSE,TRUE,"S249706185"
"320","gilwoo","Gila Woodpecker","Melanerpes uropygialis","L6313295","Mittry Lake Marsh (north end)","2025-06-12 18:53",1,32.8706576,-114.4543272,TRUE,FALSE,FALSE,"S249799672"
"321","gilwoo","Gila Woodpecker","Melanerpes uropygialis","L47475097","San Juan Wash","2025-06-12 18:43",1,31.815271,-111.326601,TRUE,FALSE,TRUE,"S249718469"
"322","gilwoo","Gila Woodpecker","Melanerpes uropygialis","L815678","Granada Park","2025-06-12 18:42",2,33.5324095,-112.036517,TRUE,FALSE,FALSE,"S249712194"
"323","gilwoo","Gila Woodpecker","Melanerpes uropygialis","L31566719","Front Yard","2025-06-12 17:19",1,33.602729,-112.157129,TRUE,FALSE,TRUE,"S249688513"
"324","gilwoo","Gila Woodpecker","Melanerpes uropygialis","L37332307","7741 S Solomon Ave, Tucson US-AZ 32.11103, -110.78143 (Private)","2025-06-12 17:06",1,32.111028,-110.781427,TRUE,FALSE,TRUE,"S249929779"
"325","gilwoo","Gila Woodpecker","Melanerpes uropygialis","L37627349","19777 N 76th St, Scottsdale US-AZ 33.66627, -111.91309","2025-06-12 15:23",1,33.666271,-111.913093,TRUE,FALSE,TRUE,"S249653773"
"326","gilwoo","Gila Woodpecker","Melanerpes uropygialis","L27074949","Ranieri Tank","2025-06-12 13:19",1,33.80422,-112.013702,TRUE,FALSE,TRUE,"S249623686"
"327","gilwoo","Gila Woodpecker","Melanerpes uropygialis","L23558258","273 camino Panama","2025-06-12 12:36",1,31.489506,-110.991979,TRUE,FALSE,TRUE,"S249625868"
"328","gilwoo","Gila Woodpecker","Melanerpes uropygialis","L47579533","North Ajo Sonoita Highway, Ajo, Arizona, US (32.099, -112.772)","2025-06-12 12:13",1,32.0993598,-112.7716393,TRUE,FALSE,TRUE,"S250188004"
"329","gilwoo","Gila Woodpecker","Melanerpes uropygialis","L47458220","Patagonia--Mississippi Kite spot (31.54092, -110.75657)","2025-06-12 11:50",1,31.540917,-110.756571,TRUE,FALSE,TRUE,"S249632718"
"330","gilwoo","Gila Woodpecker","Melanerpes uropygialis","L16450921","E Calle Barril, Tucson US-AZ 32.29437, -110.88130","2025-06-12 11:00",1,32.294371,-110.881304,TRUE,FALSE,TRUE,"S249732273"
"331","gilwoo","Gila Woodpecker","Melanerpes uropygialis","L12922971","Goldfinch Gardens","2025-06-12 09:57",1,32.277034,-110.952036,TRUE,FALSE,TRUE,"S249586745"
"332","gilwoo","Gila Woodpecker","Melanerpes uropygialis","L40609776","9525 E Kramer Cir, Mesa US-AZ 33.45260, -111.62535","2025-06-12 09:21",2,33.452602,-111.625355,TRUE,FALSE,TRUE,"S249593474"
"333","gilwoo","Gila Woodpecker","Melanerpes uropygialis","L40131616","Rooney Ranch Shopping Center","2025-06-12 09:04",1,32.403391,-110.953618,TRUE,FALSE,TRUE,"S249595988"
"334","gilwoo","Gila Woodpecker","Melanerpes uropygialis","L21143400","Pontatoc Canyon","2025-06-12 08:53",1,32.3399538,-110.9034241,TRUE,FALSE,FALSE,"S249589765"
"335","gilwoo","Gila Woodpecker","Melanerpes uropygialis","L266622","Red Rock SP","2025-06-12 08:45",4,34.8117069,-111.8288603,TRUE,FALSE,FALSE,"S249713248"
"336","gilwoo","Gila Woodpecker","Melanerpes uropygialis","L12927559","Snedigar Park","2025-06-12 08:20",1,33.2394833,-111.8588704,TRUE,FALSE,FALSE,"S249646164"
"337","gilwoo","Gila Woodpecker","Melanerpes uropygialis","L25247899","Papago Springs, Sonoita AZ","2025-06-12 08:15",1,31.6496951,-110.6517127,TRUE,FALSE,TRUE,"S249571159"
"338","gilwoo","Gila Woodpecker","Melanerpes uropygialis","L5219326","Anza Trail--Tubac kiosk area","2025-06-12 08:11",7,31.6047365,-111.0429811,TRUE,FALSE,FALSE,"S249842649"
"339","gilwoo","Gila Woodpecker","Melanerpes uropygialis","L4404950","West Lambert Lane Park","2025-06-12 08:05",2,32.3962986,-111.003833,TRUE,FALSE,FALSE,"S249542585"
"340","gilwoo","Gila Woodpecker","Melanerpes uropygialis","L7062306","CB Home","2025-06-12 08:04",1,31.8598189,-110.9660544,TRUE,FALSE,TRUE,"S249647322"
"341","gilwoo","Gila Woodpecker","Melanerpes uropygialis","L40697192","SRP, SRP Vista. Silver Springs","2025-06-12 08:00",3,31.833516,-110.993977,TRUE,FALSE,TRUE,"S251383019"
"342","gilwoo","Gila Woodpecker","Melanerpes uropygialis","L47549719","Adobe Canyon Road, Patagonia, Arizona, US (31.656, -110.734)","2025-06-12 07:50",1,31.6558583,-110.7340567,TRUE,FALSE,TRUE,"S250050617"
"343","gilwoo","Gila Woodpecker","Melanerpes uropygialis","L2627869","Arizona, Sun City","2025-06-12 07:48",1,33.6317985,-112.2881269,TRUE,FALSE,TRUE,"S249534172"
"344","gilwoo","Gila Woodpecker","Melanerpes uropygialis","L47365988","5180 E Comanche Dr, Cottonwood US-AZ 34.70043, -111.97138","2025-06-12 07:31",2,34.700425,-111.971379,TRUE,FALSE,TRUE,"S249543627"
"345","gilwoo","Gila Woodpecker","Melanerpes uropygialis","L1035985","Mission Garden","2025-06-12 07:30",2,32.2134183,-110.9871268,TRUE,FALSE,FALSE,"S249547309"
"346","gilwoo","Gila Woodpecker","Melanerpes uropygialis","L15465970","St. Cyrils Neighborhood","2025-06-12 07:23",3,32.2453599,-110.8866827,TRUE,FALSE,TRUE,"S249897251"
"347","gilwoo","Gila Woodpecker","Melanerpes uropygialis","L29206850","1825 Monroe Lane, Camp Verde, Arizona, US (34.543, -111.868)","2025-06-12 07:12",3,34.5433098,-111.8684359,TRUE,FALSE,TRUE,"S249523870"
"348","gilwoo","Gila Woodpecker","Melanerpes uropygialis","L40945283","Shoshone Park","2025-06-12 06:50",1,33.5433586,-111.9034424,TRUE,FALSE,FALSE,"S249583495"
"349","gilwoo","Gila Woodpecker","Melanerpes uropygialis","L27176123","Estrella Foothills High School Parking","2025-06-12 06:43",2,33.327792,-112.418939,TRUE,FALSE,TRUE,"S249511590"
"350","gilwoo","Gila Woodpecker","Melanerpes uropygialis","L211809","Madera Canyon--Proctor Rd.","2025-06-12 06:38",1,31.739938,-110.886147,TRUE,FALSE,FALSE,"S249582834"
"351","gilwoo","Gila Woodpecker","Melanerpes uropygialis","L28568284","Unnamed Road, Tucson, Arizona, US (31.813, -111.315)","2025-06-12 06:33",5,31.8134485,-111.3148999,TRUE,FALSE,TRUE,"S249549473"
"352","gilwoo","Gila Woodpecker","Melanerpes uropygialis","L589332","Jewel of the Creek Preserve","2025-06-12 06:30",3,33.8839627,-111.9550375,TRUE,FALSE,FALSE,"S249548456"
"353","gilwoo","Gila Woodpecker","Melanerpes uropygialis","L47427350","Hereford Bridge Trailhead","2025-06-12 06:23",2,31.4360211,-110.1101753,TRUE,FALSE,TRUE,"S249500652"
"354","gilwoo","Gila Woodpecker","Melanerpes uropygialis","L34325905","Karchner Caverns State Park","2025-06-12 06:01",2,31.835548,-110.353122,TRUE,FALSE,TRUE,"S249708032"
"355","gilwoo","Gila Woodpecker","Melanerpes uropygialis","L6695785","Casa Doyle","2025-06-12 06:00",1,31.4100244,-110.2277579,TRUE,FALSE,TRUE,"S249884771"
"356","gilwoo","Gila Woodpecker","Melanerpes uropygialis","L128943","San Pedro RNCA--Charleston Bridge","2025-06-12 05:53",6,31.6257,-110.1735992,TRUE,FALSE,FALSE,"S249589278"
"357","gilwoo","Gila Woodpecker","Melanerpes uropygialis","L834429","Kiwanis Park","2025-06-12 05:51",2,33.3739933,-111.939311,TRUE,FALSE,FALSE,"S249501942"
"358","gilwoo","Gila Woodpecker","Melanerpes uropygialis","L47835208","85736, Tucson US-AZ (31.8153,-111.3265)","2025-06-12 05:50",4,31.815256,-111.326489,TRUE,FALSE,TRUE,"S251326006"
"359","gilwoo","Gila Woodpecker","Melanerpes uropygialis","L7480215","Dave White Regional Park","2025-06-12 05:48",4,32.9124203,-111.7758322,TRUE,FALSE,FALSE,"S249522456"
"360","gilwoo","Gila Woodpecker","Melanerpes uropygialis","L12582226","YardBell-J, Tempe, Arizona, US (33.363, -111.917)","2025-06-12 05:35",2,33.362742,-111.9171356,TRUE,FALSE,TRUE,"S249488521"
"361","gilwoo","Gila Woodpecker","Melanerpes uropygialis","L47424744","East of TCT","2025-06-12 05:35",1,32.132184,-110.920019,TRUE,FALSE,TRUE,"S249487105"
"362","gilwoo","Gila Woodpecker","Melanerpes uropygialis","L9968763","Double B Ranchito","2025-06-12 05:25",1,31.40989,-110.22613,TRUE,FALSE,TRUE,"S249525825"
"363","gilwoo","Gila Woodpecker","Melanerpes uropygialis","L357432","Gila Box Riparian NCA","2025-06-12 05:23",1,32.8834795,-109.5051527,TRUE,FALSE,FALSE,"S249717037"
"364","gilwoo","Gila Woodpecker","Melanerpes uropygialis","L45685043","Big Sandy River at Madril Wash","2025-06-12 05:21",4,34.439984,-113.610012,TRUE,FALSE,TRUE,"S249628363"
"365","gilwoo","Gila Woodpecker","Melanerpes uropygialis","L14288665","Paloma Community Park","2025-06-12 05:15",2,33.7509803,-112.2498518,TRUE,FALSE,FALSE,"S249596108"
"366","gilwoo","Gila Woodpecker","Melanerpes uropygialis","L31061534","0-Jalapa Ct, RIO RICO, AZ","2025-06-11 23:28",1,31.517142,-111.045631,TRUE,FALSE,TRUE,"S249523892"
"367","gilwoo","Gila Woodpecker","Melanerpes uropygialis","L47354242","Holiday Inn Express Peoria","2025-06-11 19:15",1,33.636435,-112.241506,TRUE,FALSE,TRUE,"S249395277"
"368","gilwoo","Gila Woodpecker","Melanerpes uropygialis","L1462617","Catalina Foothills High School/Sky Club Wash","2025-06-11 18:02",1,32.3068431,-110.9014834,TRUE,FALSE,TRUE,"S249376154"
"369","gilwoo","Gila Woodpecker","Melanerpes uropygialis","L1894989","Tubac Golf Resort","2025-06-11 17:45",2,31.6256785,-111.0445304,TRUE,FALSE,FALSE,"S249388072"
"370","gilwoo","Gila Woodpecker","Melanerpes uropygialis","L20499982","La Reserve","2025-06-11 17:34",3,32.3993947,-110.9446924,TRUE,FALSE,TRUE,"S249398820"
"371","gilwoo","Gila Woodpecker","Melanerpes uropygialis","L31082971","My Home","2025-06-11 17:03",1,32.327118,-111.083378,TRUE,FALSE,TRUE,"S249360081"
"372","gilwoo","Gila Woodpecker","Melanerpes uropygialis","L993428","Ron Morriss Park","2025-06-11 14:14",2,31.6090037,-111.0424018,TRUE,FALSE,FALSE,"S249341815"
"373","gilwoo","Gila Woodpecker","Melanerpes uropygialis","L47385272","N Abrego Dr, Green Valley (31.89697, -110.98079)","2025-06-11 12:02",2,31.896969,-110.980785,TRUE,FALSE,TRUE,"S249292426"
"374","gilwoo","Gila Woodpecker","Melanerpes uropygialis","L47391755","San Juan Ranch Road, Tucson US-AZ (31.8154,-111.2512)","2025-06-11 10:50",1,31.815412,-111.251177,TRUE,FALSE,TRUE,"S249321666"
"375","gilwoo","Gila Woodpecker","Melanerpes uropygialis","L721572","Base and Meridian WA","2025-06-11 10:41",1,33.3791718,-112.3074389,TRUE,FALSE,FALSE,"S249280195"
"376","gilwoo","Gila Woodpecker","Melanerpes uropygialis","L24516627","Personal","2025-06-11 10:30",3,32.1083663,-110.8524137,TRUE,FALSE,TRUE,"S249360540"
"377","gilwoo","Gila Woodpecker","Melanerpes uropygialis","L953575","Gila River Preserve--Iron Bridge Conservation Area","2025-06-11 10:20",1,32.9400071,-108.6066073,TRUE,FALSE,FALSE,"S250222288"
"378","gilwoo","Gila Woodpecker","Melanerpes uropygialis","L26461493","Neighborhood","2025-06-11 09:35",3,33.311056,-112.019272,TRUE,FALSE,TRUE,"S249245358"
"379","gilwoo","Gila Woodpecker","Melanerpes uropygialis","L2648188","6732","2025-06-11 09:30",1,32.2196414,-110.8480865,TRUE,FALSE,TRUE,"S249375676"
"380","gilwoo","Gila Woodpecker","Melanerpes uropygialis","L334455","Gila River Preserve--Gila River Farm","2025-06-11 09:10",3,33.0156539,-108.5531616,TRUE,FALSE,FALSE,"S250222340"
"381","gilwoo","Gila Woodpecker","Melanerpes uropygialis","L10121847","Yard/Feeders","2025-06-11 08:47",1,32.2622359,-110.9561849,TRUE,FALSE,TRUE,"S249978810"
"382","gilwoo","Gila Woodpecker","Melanerpes uropygialis","L7122014","17th St and Pleasant Dr (Private)","2025-06-11 08:46",4,33.5535483,-112.0465461,TRUE,FALSE,TRUE,"S249225921"
"383","gilwoo","Gila Woodpecker","Melanerpes uropygialis","L1298829","Sabino Canyon Rec Area--Sabino Canyon Rd 1st 0.7 mile","2025-06-11 08:30",4,32.314417,-110.8184141,TRUE,FALSE,TRUE,"S249221569"
"384","gilwoo","Gila Woodpecker","Melanerpes uropygialis","L47367798","Acacia Health Center Sagewood","2025-06-11 08:10",2,33.666463,-111.981715,TRUE,FALSE,TRUE,"S249219763"
"385","gilwoo","Gila Woodpecker","Melanerpes uropygialis","L3975322","Sabino Canyon Rec Area--Rattlesnake Trailhead","2025-06-11 08:06",1,32.3219024,-110.8117479,TRUE,FALSE,TRUE,"S249205696"
"386","gilwoo","Gila Woodpecker","Melanerpes uropygialis","L963484","Bill Williams River NWR--Planet Ranch Rd","2025-06-11 08:03",2,34.2891337,-114.0837908,TRUE,FALSE,FALSE,"S249212254"
"387","gilwoo","Gila Woodpecker","Melanerpes uropygialis","L7698893","Rancho Santa Cruz","2025-06-11 07:53",8,31.5437758,-111.0414027,TRUE,FALSE,FALSE,"S249842488"
"388","gilwoo","Gila Woodpecker","Melanerpes uropygialis","L24613939","Tiffany Loop Shuttle Lot","2025-06-11 07:39",1,32.381719,-111.11515,TRUE,FALSE,TRUE,"S249197732"
"389","gilwoo","Gila Woodpecker","Melanerpes uropygialis","L22378469","Agua Caliente Park","2025-06-11 07:35",5,32.282621,-110.730394,TRUE,FALSE,TRUE,"S250910340"
"390","gilwoo","Gila Woodpecker","Melanerpes uropygialis","L39084002","RCE Sierra Vista AZ","2025-06-11 07:21",1,31.57065,-110.2580843,TRUE,FALSE,TRUE,"S249331734"
"391","gilwoo","Gila Woodpecker","Melanerpes uropygialis","L190223","LoPiano Mesquite Bosque","2025-06-11 07:21",2,33.4355823,-111.9353132,TRUE,FALSE,FALSE,"S249298164"
"392","gilwoo","Gila Woodpecker","Melanerpes uropygialis","L38917102","North St. Andrews Way, Scottsdale, Az.","2025-06-11 07:15",5,33.5888978,-111.9543292,TRUE,FALSE,TRUE,"S249319801"
"393","gilwoo","Gila Woodpecker","Melanerpes uropygialis","L865856","Villa Serena Park","2025-06-11 07:14",3,32.2450292,-110.8647108,TRUE,FALSE,FALSE,"S249191224"
"394","gilwoo","Gila Woodpecker","Melanerpes uropygialis","L24498057","1939 E Andalusian Loop, San Tan Valley US-AZ 33.24167, -111.54499","2025-06-11 07:11",3,33.241673,-111.544994,TRUE,FALSE,TRUE,"S249189122"
"395","gilwoo","Gila Woodpecker","Melanerpes uropygialis","L1110838","Sabino Canyon Rec Area--Creek Trail #52--Shuttle Stop 1","2025-06-11 07:04",2,32.3214523,-110.8102834,TRUE,FALSE,TRUE,"S249200905"
"396","gilwoo","Gila Woodpecker","Melanerpes uropygialis","L39144582","840 N Solar Dr, Vail US-AZ 31.97893, -110.71480","2025-06-11 07:03",1,31.978933,-110.714797,TRUE,FALSE,TRUE,"S249200446"
"397","gilwoo","Gila Woodpecker","Melanerpes uropygialis","L19312407","White Tanks--Ford Canyon Trail","2025-06-11 07:00",2,33.600024,-112.510056,TRUE,FALSE,FALSE,"S249205272"
"398","gilwoo","Gila Woodpecker","Melanerpes uropygialis","L128953","Dudleyville","2025-06-11 06:42",4,32.917,-110.735,TRUE,FALSE,FALSE,"S249291324"
"399","gilwoo","Gila Woodpecker","Melanerpes uropygialis","L265072","Indian School Park","2025-06-11 06:40",2,33.496,-111.91,TRUE,FALSE,FALSE,"S249188044"
"400","gilwoo","Gila Woodpecker","Melanerpes uropygialis","L42633809","4315 N Camino del Obispo, Tucson US-AZ (32.2857,-110.9300)#2","2025-06-11 06:29",2,32.285672,-110.930024,TRUE,FALSE,TRUE,"S249175220"
"401","gilwoo","Gila Woodpecker","Melanerpes uropygialis","L128958","San Pedro RNCA--Escapule Wash","2025-06-11 06:11",8,31.6100006,-110.1669998,TRUE,FALSE,FALSE,"S249396244"
"402","gilwoo","Gila Woodpecker","Melanerpes uropygialis","L38677317","Alamo Wash - Rillito to Ft Lowell Rd.","2025-06-11 06:08",5,32.2642833,-110.8883003,TRUE,FALSE,TRUE,"S249207869"
"403","gilwoo","Gila Woodpecker","Melanerpes uropygialis","L6302493","Wild Burro Canyon trailhead","2025-06-11 06:05",6,32.4755263,-111.0909376,TRUE,FALSE,FALSE,"S250208952"
"404","gilwoo","Gila Woodpecker","Melanerpes uropygialis","L28094313","Verde River Greenway, Cottonwood US-AZ (34.7535,-112.0068)","2025-06-11 06:00",6,34.753499,-112.006849,TRUE,FALSE,TRUE,"S249221048"
"405","gilwoo","Gila Woodpecker","Melanerpes uropygialis","L41486245","Tucson home","2025-06-11 05:57",2,32.245876,-110.907863,TRUE,FALSE,TRUE,"S249168935"
"406","gilwoo","Gila Woodpecker","Melanerpes uropygialis","L18203385","Rillito River Park Oracle to La Canada","2025-06-11 05:56",1,32.292501,-110.990597,TRUE,FALSE,TRUE,"S249192290"
"407","gilwoo","Gila Woodpecker","Melanerpes uropygialis","L14182939","Monterey Park","2025-06-11 05:45",3,33.3671527,-111.682347,TRUE,FALSE,FALSE,"S249165502"
"408","gilwoo","Gila Woodpecker","Melanerpes uropygialis","L32379214","House of Payne","2025-06-11 05:38",1,32.261308,-111.017658,TRUE,FALSE,TRUE,"S249208210"
"409","gilwoo","Gila Woodpecker","Melanerpes uropygialis","L1586823","Saguaro NP--East--Lower Chiminea Canyon","2025-06-11 05:28",4,32.1534807,-110.6086395,TRUE,FALSE,FALSE,"S249158796"
"410","gilwoo","Gila Woodpecker","Melanerpes uropygialis","L47746824","4127 E La Cienega Dr, Tucson US-AZ 32.26302, -110.90438","2025-06-11 05:22",1,32.263017,-110.904383,TRUE,FALSE,TRUE,"S250903265"
"411","gilwoo","Gila Woodpecker","Melanerpes uropygialis","L1276509","Sabino Canyon Rec Area--Bear Canyon Trail #29 west","2025-06-11 05:21",4,32.3095632,-110.8155513,TRUE,FALSE,TRUE,"S249153480"
"412","gilwoo","Gila Woodpecker","Melanerpes uropygialis","L18374697","Neighborhood","2025-06-11 05:20",19,32.299102,-110.835621,TRUE,FALSE,TRUE,"S249171500"
"413","gilwoo","Gila Woodpecker","Melanerpes uropygialis","L2958808","Sabino Canyon Visitor Center (2710')","2025-06-11 05:16",1,32.3097446,-110.822643,TRUE,FALSE,TRUE,"S249142422"
"414","gilwoo","Gila Woodpecker","Melanerpes uropygialis","L4813914","backyard in Oro Valley","2025-06-11 05:15",1,32.431846,-110.9916544,TRUE,FALSE,TRUE,"S249390999"
"415","gilwoo","Gila Woodpecker","Melanerpes uropygialis","L6641721","Sierra Vista Golf Center at Pueblo del Sol","2025-06-11 05:05",22,31.5201792,-110.2647999,TRUE,FALSE,FALSE,"S249251735"
"416","gilwoo","Gila Woodpecker","Melanerpes uropygialis","L15991701","Gila River near Hatden between two tailings piles.","2025-06-11 04:50",4,32.9990619,-110.819028,TRUE,FALSE,TRUE,"S251114407"
"417","gilwoo","Gila Woodpecker","Melanerpes uropygialis","L1406596","Saguaro NP--West--Desert Discovery Trail","2025-06-10 19:06",2,32.2625304,-111.2106575,TRUE,FALSE,FALSE,"S249063025"
"418","gilwoo","Gila Woodpecker","Melanerpes uropygialis","L35484805","RR15","2025-06-10 18:50",4,33.84229,-111.946468,TRUE,FALSE,TRUE,"S249045710"
"419","gilwoo","Gila Woodpecker","Melanerpes uropygialis","L47332906","Pump Mine","2025-06-10 18:48",1,33.801208,-113.1914,TRUE,FALSE,TRUE,"S249051830"
"420","gilwoo","Gila Woodpecker","Melanerpes uropygialis","L865058","Paradise Memorial Gardens","2025-06-10 18:26",2,33.5841106,-111.8805599,TRUE,FALSE,FALSE,"S249083692"
"421","gilwoo","Gila Woodpecker","Melanerpes uropygialis","L47329634","1528 E Allen Road","2025-06-10 17:54",1,32.275683,-110.949194,TRUE,FALSE,TRUE,"S249036612"
"422","gilwoo","Gila Woodpecker","Melanerpes uropygialis","L47322918","6409 W Gambit Trail, Phoenix US-AZ 33.73415, -112.19773","2025-06-10 15:53",1,33.734155,-112.197731,TRUE,FALSE,TRUE,"S249001430"
"423","gilwoo","Gila Woodpecker","Melanerpes uropygialis","L18726082","Vista Canyon Park","2025-06-10 13:23",1,33.3000089,-112.0194405,TRUE,FALSE,FALSE,"S248974718"
"424","gilwoo","Gila Woodpecker","Melanerpes uropygialis","L47321672","Juan Bautista de Anza National Historic Trail, Tubac US-AZ 31.61244, -111.04230","2025-06-10 13:23",6,31.612444,-111.042299,TRUE,FALSE,TRUE,"S248995474"
"425","gilwoo","Gila Woodpecker","Melanerpes uropygialis","L3601258","Isabella Lee Natural Preserve","2025-06-10 11:53",2,32.2426592,-110.7814242,TRUE,FALSE,FALSE,"S248974205"
"426","gilwoo","Gila Woodpecker","Melanerpes uropygialis","L8346460","Griffin Riley Home","2025-06-10 10:25",2,33.7281594,-111.7343015,TRUE,FALSE,TRUE,"S248958421"
"427","gilwoo","Gila Woodpecker","Melanerpes uropygialis","L17587069","Lomita Park","2025-06-10 10:10",1,33.373502,-111.673947,TRUE,FALSE,TRUE,"S250178384"
"428","gilwoo","Gila Woodpecker","Melanerpes uropygialis","L1370819","Tucson Mountain Park--Ironwood Picnic Area","2025-06-10 10:04",3,32.1992203,-111.1305553,TRUE,FALSE,FALSE,"S248956248"
"429","gilwoo","Gila Woodpecker","Melanerpes uropygialis","L720448","Vekol Valley (Maricopa Co.)","2025-06-10 09:53",1,32.6980441,-112.2232819,TRUE,FALSE,FALSE,"S248948446"
"430","gilwoo","Gila Woodpecker","Melanerpes uropygialis","L7417702","Tapco Access, Clarkdale, Arizona, US (34.795, -112.059)","2025-06-10 09:05",1,34.7948728,-112.0590257,TRUE,FALSE,TRUE,"S248925315"
"431","gilwoo","Gila Woodpecker","Melanerpes uropygialis","L835792","Tumbleweed Park","2025-06-10 08:40",1,33.2724215,-111.828804,TRUE,FALSE,FALSE,"S248989033"
"432","gilwoo","Gila Woodpecker","Melanerpes uropygialis","L8543652","Adero Canyon Trailhead","2025-06-10 07:28",1,33.6212308,-111.777091,TRUE,FALSE,FALSE,"S248930709"
"433","gilwoo","Gila Woodpecker","Melanerpes uropygialis","L128878","Buenos Aires NWR--Arivaca Cienega","2025-06-10 07:20",1,31.5735272,-111.3242853,TRUE,FALSE,FALSE,"S248974776"
"434","gilwoo","Gila Woodpecker","Melanerpes uropygialis","L47287987","Desert Poppy Drive, Sedona, Arizona, US","2025-06-10 07:05",1,34.8575735,-111.7985372,TRUE,FALSE,TRUE,"S248843040"
"435","gilwoo","Gila Woodpecker","Melanerpes uropygialis","L15483556","36th St and Oak","2025-06-10 06:52",1,33.473076,-111.99555,TRUE,FALSE,TRUE,"S248844677"
"436","gilwoo","Gila Woodpecker","Melanerpes uropygialis","L29830899","San Miguel (Restricted Access)","2025-06-10 06:41",4,32.2639503,-110.8738859,TRUE,FALSE,TRUE,"S248893411"
"437","gilwoo","Gila Woodpecker","Melanerpes uropygialis","L1967722","McCormick Ranch--Comanche Park","2025-06-10 06:26",3,33.5488,-111.8985,TRUE,FALSE,FALSE,"S248840083"
"438","gilwoo","Gila Woodpecker","Melanerpes uropygialis","L190217","Evelyn Hallman Park","2025-06-10 06:15",3,33.4480905,-111.9371943,TRUE,FALSE,FALSE,"S249533001"
"439","gilwoo","Gila Woodpecker","Melanerpes uropygialis","L15407012","Coconino National Forest, Sedona US-AZ 34.77820, -111.7809. My house Sedona, Az","2025-06-10 06:06",1,34.778204,-111.780899,TRUE,FALSE,TRUE,"S248835594"
"440","gilwoo","Gila Woodpecker","Melanerpes uropygialis","L5437327","US-Arizona-Gilbert-Riparian Preserve Trail - 33.362x-111.735","2025-06-10 05:56",3,33.3622453,-111.7352979,TRUE,FALSE,TRUE,"S248877000"
"441","gilwoo","Gila Woodpecker","Melanerpes uropygialis","L280327","Tohono Chul Park","2025-06-10 05:45",4,32.339313,-110.9812742,TRUE,FALSE,FALSE,"S248863931"
"442","gilwoo","Gila Woodpecker","Melanerpes uropygialis","L16465694","Placita Salud","2025-06-10 05:45",6,32.3103179,-110.8849909,TRUE,FALSE,TRUE,"S248845854"
"443","gilwoo","Gila Woodpecker","Melanerpes uropygialis","L47308121","1257 W Molinetto Dr, Oro Valley US-AZ 32.44902, -110.99234","2025-06-10 05:34",1,32.449023,-110.992336,TRUE,FALSE,TRUE,"S248938149"
"444","gilwoo","Gila Woodpecker","Melanerpes uropygialis","L30708544","Pilot House","2025-06-10 05:20",1,31.5825573,-110.9907267,TRUE,FALSE,TRUE,"S248808584"
"445","gilwoo","Gila Woodpecker","Melanerpes uropygialis","L2061829","Milagro","2025-06-10 05:18",1,32.2624198,-111.0307235,TRUE,FALSE,TRUE,"S249010834"
"446","gilwoo","Gila Woodpecker","Melanerpes uropygialis","L43836150","29616 N 140th St, Scottsdale US-AZ 33.75470, -111.77926","2025-06-10 05:08",2,33.754704,-111.779262,TRUE,FALSE,TRUE,"S248806859"
"447","gilwoo","Gila Woodpecker","Melanerpes uropygialis","L47299599","85360, Wikieup US-AZ 34.68990, -113.59246","2025-06-10 05:04",1,34.689901,-113.59246,TRUE,FALSE,TRUE,"S248899310"
"448","gilwoo","Gila Woodpecker","Melanerpes uropygialis","L21646834","AZLegendsSuperiorTrail","2025-06-10 04:50",2,33.277437,-111.139952,TRUE,FALSE,TRUE,"S248885895"
"449","gilwoo","Gila Woodpecker","Melanerpes uropygialis","L47121387","Corona De Tucson","2025-06-09 19:03",2,31.949868,-110.756858,TRUE,FALSE,TRUE,"S248732933"
"450","gilwoo","Gila Woodpecker","Melanerpes uropygialis","L44256095","Hampton House","2025-06-09 18:16",2,32.248583,-110.912817,TRUE,FALSE,TRUE,"S248723378"
"451","gilwoo","Gila Woodpecker","Melanerpes uropygialis","L47264777","San Juan Wash","2025-06-09 18:09",2,31.816403,-111.324966,TRUE,FALSE,TRUE,"S248733786"
"452","gilwoo","Gila Woodpecker","Melanerpes uropygialis","L1878820","Dos Lagos Park","2025-06-09 17:48",1,33.661085,-112.195773,TRUE,FALSE,FALSE,"S248719538"
"453","gilwoo","Gila Woodpecker","Melanerpes uropygialis","L20970787","Mining Camp St, Apache Junction US-AZ","2025-06-09 17:38",3,33.450963,-111.4901083,TRUE,FALSE,TRUE,"S248724609"
"454","gilwoo","Gila Woodpecker","Melanerpes uropygialis","L129082","San Xavier del Bac Mission","2025-06-09 14:58",2,32.1072006,-111.0074997,TRUE,FALSE,FALSE,"S248914252"
"455","gilwoo","Gila Woodpecker","Melanerpes uropygialis","L1735043","Saguaro NP--East--Cactus Forest Dr Loop","2025-06-09 14:39",10,32.191219,-110.7076505,TRUE,FALSE,FALSE,"S248710323"
"456","gilwoo","Gila Woodpecker","Melanerpes uropygialis","L47246129","Highway 60, Superior, Arizona, US (33.275, -111.201)","2025-06-09 12:52",1,33.275131,-111.2008849,TRUE,FALSE,TRUE,"S248644385"
"457","gilwoo","Gila Woodpecker","Melanerpes uropygialis","L39036107","The Castle Aaaaarrrrrrggghhh (Yard)","2025-06-09 12:31",1,33.3366808,-111.908964,TRUE,FALSE,TRUE,"S248641306"
"458","gilwoo","Gila Woodpecker","Melanerpes uropygialis","L47243517","228 W Chandler Heights Rd, Chandler US-AZ 33.23363, -111.84301","2025-06-09 12:00",1,33.233626,-111.843014,TRUE,FALSE,TRUE,"S248633099"
"459","gilwoo","Gila Woodpecker","Melanerpes uropygialis","L47245986","Harris hawk nest spot","2025-06-09 11:50",3,31.896715,-110.980779,TRUE,FALSE,TRUE,"S248643745"
"460","gilwoo","Gila Woodpecker","Melanerpes uropygialis","L15819087","Rankin yard—Wickenburg/Morristown","2025-06-09 11:28",4,33.922001,-112.680937,TRUE,FALSE,TRUE,"S248664437"
"461","gilwoo","Gila Woodpecker","Melanerpes uropygialis","L39104882","San Pedro - Hereford Bridge","2025-06-09 11:23",4,31.439679,-110.136211,TRUE,FALSE,TRUE,"S248623627"
"462","gilwoo","Gila Woodpecker","Melanerpes uropygialis","L47240930","12371–13181 W Ajo Hwy, Tucson US-AZ 32.10792, -111.23508","2025-06-09 11:18",1,32.10792,-111.235076,TRUE,FALSE,TRUE,"S248622258"
"463","gilwoo","Gila Woodpecker","Melanerpes uropygialis","L47242364","East Butcher Jones Beach Road, Fort McDowell, Arizona, US (33.584, -111.528)","2025-06-09 10:00",1,33.5836296,-111.5278396,TRUE,FALSE,TRUE,"S248628169"
"464","gilwoo","Gila Woodpecker","Melanerpes uropygialis","L44346863","Riparian Habitat North End Of Ace Parking Lot (From Sidewalk) (32.259, -110.803)","2025-06-09 09:35",1,32.2594777,-110.8027079,TRUE,FALSE,TRUE,"S248584581"
"465","gilwoo","Gila Woodpecker","Melanerpes uropygialis","L36209658","Chandler Heights and Arizona Ave","2025-06-09 09:30",1,33.2336089,-111.8426816,TRUE,FALSE,TRUE,"S248721626"
"466","gilwoo","Gila Woodpecker","Melanerpes uropygialis","L43917780","backyard","2025-06-09 08:48",1,33.3661858,-111.9020248,TRUE,FALSE,TRUE,"S248710010"
"467","gilwoo","Gila Woodpecker","Melanerpes uropygialis","L47226206","6114 North Scottsdale Road, Scottsdale, Arizona, US (33.528, -111.929)","2025-06-09 08:19",NA,33.5282937,-111.929253,TRUE,FALSE,TRUE,"S248555233"
"468","gilwoo","Gila Woodpecker","Melanerpes uropygialis","L28245406","HQ, Phoenix, Arizona, US (33.701, -112.071)","2025-06-09 08:16",2,33.7011609,-112.0714523,TRUE,FALSE,TRUE,"S249041916"
"469","gilwoo","Gila Woodpecker","Melanerpes uropygialis","L8412770","Painted Hills Trailhead (Tucson Mountains)--opened 2019","2025-06-09 08:14",4,32.2274879,-111.038544,TRUE,FALSE,FALSE,"S248591394"
"470","gilwoo","Gila Woodpecker","Melanerpes uropygialis","L2932961","Verde River--Tuzigoot Rd.","2025-06-09 07:59",1,34.7671756,-112.0384052,TRUE,FALSE,FALSE,"S250013184"
"471","gilwoo","Gila Woodpecker","Melanerpes uropygialis","L284044","Lost Dutchman SP","2025-06-09 07:26",1,33.459,-111.482,TRUE,FALSE,FALSE,"S248566690"
"472","gilwoo","Gila Woodpecker","Melanerpes uropygialis","L37081085","Agua Linda Park","2025-06-09 07:19",1,33.524679,-111.893303,TRUE,FALSE,FALSE,"S248537895"
"473","gilwoo","Gila Woodpecker","Melanerpes uropygialis","L47225658","San Juan Wash","2025-06-09 07:13",4,31.815853,-111.319378,TRUE,FALSE,TRUE,"S248552918"
"474","gilwoo","Gila Woodpecker","Melanerpes uropygialis","L2102705","Palo Verde Neighborhood, Tucson","2025-06-09 07:11",7,32.243659,-110.9196854,TRUE,FALSE,TRUE,"S248552624"
"475","gilwoo","Gila Woodpecker","Melanerpes uropygialis","L16608766","HB³ Casa (private)","2025-06-09 07:04",1,31.3957735,-110.2419635,TRUE,FALSE,TRUE,"S248533853"
"476","gilwoo","Gila Woodpecker","Melanerpes uropygialis","L128984","Harshaw Canyon","2025-06-09 06:30",2,31.5051994,-110.7031021,TRUE,FALSE,FALSE,"S248642145"
"477","gilwoo","Gila Woodpecker","Melanerpes uropygialis","L20886068","Talking Stick Fields / USS Arizona Memorial Gardens at Salt River","2025-06-09 06:28",2,33.5448932,-111.8882816,TRUE,FALSE,FALSE,"S248527016"
"478","gilwoo","Gila Woodpecker","Melanerpes uropygialis","L6750468","Reach 11--Bullfrog Pond","2025-06-09 06:03",2,33.6551267,-111.9686402,TRUE,FALSE,FALSE,"S248547369"
"479","gilwoo","Gila Woodpecker","Melanerpes uropygialis","L8936302","1245 W Calzada Ct","2025-06-09 06:00",1,32.3458072,-110.9932477,TRUE,FALSE,TRUE,"S248588109"
"480","gilwoo","Gila Woodpecker","Melanerpes uropygialis","L13918843","A Birding Spot Sedona AZ - private residence","2025-06-09 05:33",1,34.878085,-111.765957,TRUE,FALSE,TRUE,"S248748002"
"481","gilwoo","Gila Woodpecker","Melanerpes uropygialis","L7843372","Vekol Valley--South Vekol Well","2025-06-09 05:10",2,32.7379985,-112.2309233,TRUE,FALSE,FALSE,"S248654910"
"482","gilwoo","Gila Woodpecker","Melanerpes uropygialis","L17345174","Vistoso Trails Nature Preserve","2025-06-09 04:45",1,32.4544094,-110.9822788,TRUE,FALSE,FALSE,"S248721799"
"483","gilwoo","Gila Woodpecker","Melanerpes uropygialis","L10783458","Kate’s Place Petirrojo, Green Valley US-AZ 31.81442, -111.01367","2025-06-08 19:45",1,31.814398,-111.0136164,TRUE,FALSE,TRUE,"S248383349"
"484","gilwoo","Gila Woodpecker","Melanerpes uropygialis","L47190773","Near Charlie Bell Pass","2025-06-08 18:00",2,32.3936412,-113.0865344,TRUE,FALSE,TRUE,"S248395859"
"485","gilwoo","Gila Woodpecker","Melanerpes uropygialis","L5131981","Mom's Yard - 830 Kings Court","2025-06-08 17:45",1,32.8207707,-109.7179987,TRUE,FALSE,TRUE,"S248573533"
"486","gilwoo","Gila Woodpecker","Melanerpes uropygialis","L40321641","25 East Navajo Road, Tucson, Arizona, US","2025-06-08 17:34",2,32.2664701,-110.9713405,TRUE,FALSE,TRUE,"S248361233"
"487","gilwoo","Gila Woodpecker","Melanerpes uropygialis","L7430556","Reynold’s Creek Trailhead","2025-06-08 17:07",1,33.847777,-110.926388,TRUE,FALSE,FALSE,"S248352589"
"488","gilwoo","Gila Woodpecker","Melanerpes uropygialis","L13898741","SaddleBrooke Ranch Home","2025-06-08 17:05",1,32.593535,-110.906979,TRUE,FALSE,TRUE,"S248398074"
"489","gilwoo","Gila Woodpecker","Melanerpes uropygialis","L19808077","5701 East Glenn Street, Tucson Arizona, US (32.259, -110.87) 136","2025-06-08 13:30",1,32.258968,-110.8698603,TRUE,FALSE,TRUE,"S248355016"
"490","gilwoo","Gila Woodpecker","Melanerpes uropygialis","L762169","Himmel Park","2025-06-08 12:53",6,32.2334226,-110.9327316,TRUE,FALSE,FALSE,"S248325629"
"491","gilwoo","Gila Woodpecker","Melanerpes uropygialis","L14125514","Casas Adobes Park","2025-06-08 12:19",2,32.320333,-111.02659,TRUE,FALSE,FALSE,"S248262083"
"492","gilwoo","Gila Woodpecker","Melanerpes uropygialis","L47259280","Maison du Maddy and Ethan","2025-06-08 11:30",1,33.299159,-111.817274,TRUE,FALSE,TRUE,"S248708189"
"493","gilwoo","Gila Woodpecker","Melanerpes uropygialis","L2415419","Tahoe Park","2025-06-08 10:53",4,32.2481192,-110.9417029,TRUE,FALSE,FALSE,"S248225980"
"494","gilwoo","Gila Woodpecker","Melanerpes uropygialis","L12415296","Olya's Patch","2025-06-08 10:44",2,32.3446003,-111.0368212,TRUE,FALSE,TRUE,"S248238019"
"495","gilwoo","Gila Woodpecker","Melanerpes uropygialis","L353980","Tucson Mountain Park--Gates Pass","2025-06-08 10:40",2,32.2227528,-111.1004416,TRUE,FALSE,FALSE,"S248267071"
"496","gilwoo","Gila Woodpecker","Melanerpes uropygialis","L5491240","Camelback Park","2025-06-08 10:25",3,33.505709,-111.90788,TRUE,FALSE,FALSE,"S248232733"
"497","gilwoo","Gila Woodpecker","Melanerpes uropygialis","L10829007","Verde River--Lower TAPCO river access point","2025-06-08 10:11",2,34.7930034,-112.0597214,TRUE,FALSE,FALSE,"S248267614"
"498","gilwoo","Gila Woodpecker","Melanerpes uropygialis","L27248738","Neighborhood","2025-06-08 09:33",2,33.310247,-112.019853,TRUE,FALSE,TRUE,"S248194687"
"499","gilwoo","Gila Woodpecker","Melanerpes uropygialis","L46985129","1365 East Augusta Avenue, Chandler, Arizona, US (33.218, -111.817)","2025-06-08 09:19",1,33.2180177,-111.8172904,TRUE,FALSE,TRUE,"S248182870"
"500","gilwoo","Gila Woodpecker","Melanerpes uropygialis","L15076278","1020 W Webb Dr, San Manuel US-AZ 32.59795, -110.64181","2025-06-08 09:07",1,32.59795,-110.641814,TRUE,FALSE,TRUE,"S248843099"
"501","gilwoo","Gila Woodpecker","Melanerpes uropygialis","L46815384","SRP, Legends, Desert Meadows, Don’s Garden","2025-06-08 08:53",5,31.844029,-110.991743,TRUE,FALSE,TRUE,"S248189474"
"502","gilwoo","Gila Woodpecker","Melanerpes uropygialis","L2831783","Daley Park","2025-06-08 08:46",1,33.4101199,-111.932584,TRUE,FALSE,FALSE,"S248184337"
"503","gilwoo","Gila Woodpecker","Melanerpes uropygialis","L27449900","Clem","2025-06-08 08:32",1,33.933576,-113.17368,TRUE,FALSE,TRUE,"S248342990"
"504","gilwoo","Gila Woodpecker","Melanerpes uropygialis","L6363897","Verrado area","2025-06-08 08:30",1,33.495866,-112.5137349,TRUE,FALSE,TRUE,"S248201500"
"505","gilwoo","Gila Woodpecker","Melanerpes uropygialis","L47136831","369 Sonoita Ave, Patagonia US-AZ 31.54046, -110.75625","2025-06-08 07:51",2,31.540463,-110.756247,TRUE,FALSE,TRUE,"S248168194"
"506","gilwoo","Gila Woodpecker","Melanerpes uropygialis","L373230","Tucson Mountain Park--David Yetman Trail-Camino de Oeste Trailhead","2025-06-08 07:30",3,32.2263561,-111.062863,TRUE,FALSE,FALSE,"S248270829"
"507","gilwoo","Gila Woodpecker","Melanerpes uropygialis","L17080119","701–799 S la Posada Cir, Green Valley US-AZ 31.86073, -110.98212","2025-06-08 07:24",1,31.860727,-110.982117,TRUE,FALSE,TRUE,"S248119998"
"508","gilwoo","Gila Woodpecker","Melanerpes uropygialis","L281844","Montosa Canyon--km 1 (culvert area)","2025-06-08 07:17",2,31.6714585,-110.941082,TRUE,FALSE,FALSE,"S248242474"
"509","gilwoo","Gila Woodpecker","Melanerpes uropygialis","L35513933","Placita Cresta Loma- Front","2025-06-08 07:09",1,32.3016224,-110.9837563,TRUE,FALSE,TRUE,"S248116407"
"510","gilwoo","Gila Woodpecker","Melanerpes uropygialis","L7316692","Bolin Memorial Park","2025-06-08 07:05",4,33.448309,-112.093778,TRUE,FALSE,FALSE,"S248127826"
"511","gilwoo","Gila Woodpecker","Melanerpes uropygialis","L22512325","8917 Seven Oaks Drive, Hereford, Arizona, US (31.406, -110.234)","2025-06-08 06:59",3,31.4064972,-110.2339238,TRUE,FALSE,TRUE,"S248123797"
"512","gilwoo","Gila Woodpecker","Melanerpes uropygialis","L47153336","The Golf Club at Dove Mountain, Marana US-AZ 32.47031, -111.10464","2025-06-08 06:54",1,32.47031,-111.104644,TRUE,FALSE,TRUE,"S248232977"
"513","gilwoo","Gila Woodpecker","Melanerpes uropygialis","L12802984","Sweetwater Wetlands Park, Tucson US-AZ 32.27898, -111.02388","2025-06-08 06:39",2,32.278978,-111.023881,TRUE,FALSE,TRUE,"S248140049"
"514","gilwoo","Gila Woodpecker","Melanerpes uropygialis","L46144827","Home","2025-06-08 06:27",3,32.457122,-110.976111,TRUE,FALSE,TRUE,"S248115698"
"515","gilwoo","Gila Woodpecker","Melanerpes uropygialis","L129051","Patagonia Roadside Rest Area","2025-06-08 06:20",2,31.5080086,-110.8022998,TRUE,FALSE,FALSE,"S248170019"
"516","gilwoo","Gila Woodpecker","Melanerpes uropygialis","L3294231","Backyard Feeder Zone","2025-06-08 06:14",2,33.295713,-112.0727435,TRUE,FALSE,TRUE,"S248116554"
"517","gilwoo","Gila Woodpecker","Melanerpes uropygialis","L3286634","Morning Star Ranch - Winery Springs Cyn.","2025-06-08 06:13",5,31.5651832,-110.937242,TRUE,FALSE,TRUE,"S248121586"
"518","gilwoo","Gila Woodpecker","Melanerpes uropygialis","L3378309","Oak Creek--Chavez Crossing","2025-06-08 05:45",1,34.84399,-111.77706,TRUE,FALSE,FALSE,"S248098028"
"519","gilwoo","Gila Woodpecker","Melanerpes uropygialis","L17491396","Anza Trail east of Green Valley Country Club Estates","2025-06-08 05:32",1,31.8824926,-110.9775103,TRUE,FALSE,TRUE,"S248085565"
"520","gilwoo","Gila Woodpecker","Melanerpes uropygialis","L1873547","Camp Creek","2025-06-08 05:29",3,33.9100521,-111.8163773,TRUE,FALSE,FALSE,"S248234323"
"521","gilwoo","Gila Woodpecker","Melanerpes uropygialis","L40537481","Rancho Sahuarita Abode","2025-06-08 04:59",1,31.985107,-110.971445,TRUE,FALSE,TRUE,"S248187566"
"522","gilwoo","Gila Woodpecker","Melanerpes uropygialis","L12474812","Sunaire, Mesa AZ","2025-06-08 04:47",3,33.4483752,-111.6859203,TRUE,FALSE,TRUE,"S248483567"
