"","speciesCode","comName","sciName","locId","locName","obsDt","howMany","lat","lng","obsValid","obsReviewed","locationPrivate","subId"
"1","blkswi","Black Swift","Cypseloides niger","L40546060","Backyard CA 37.06259, -122.12022","2025-06-30 07:33",1,37.062595,-122.120217,TRUE,FALSE,TRUE,"S255626469"
"2","blkswi","Black Swift","Cypseloides niger","L742929","Salt Creek Falls","2025-06-29 18:48",3,43.61179,-122.12861,TRUE,TRUE,FALSE,"S255481454"
"3","blkswi","Black Swift","Cypseloides niger","L15613036","Padua Theater","2025-06-29 17:22",1,34.1533822,-117.7008708,TRUE,TRUE,TRUE,"S255468324"
"4","blkswi","Black Swift","Cypseloides niger","L370510","Claremont Wilderness Park","2025-06-29 17:16",1,34.1493886,-117.7079487,TRUE,TRUE,FALSE,"S255484978"
"5","blkswi","Black Swift","Cypseloides niger","L109291","Box Canyon Falls Park","2025-06-29 14:09",3,38.0178885,-107.6781124,TRUE,FALSE,FALSE,"S255445810"
"6","blkswi","Black Swift","Cypseloides niger","L469136","Burney Falls","2025-06-29 10:26",10,41.0121469,-121.6522604,TRUE,FALSE,FALSE,"S255344642"
"7","blkswi","Black Swift","Cypseloides niger","L969715","Rifle Falls SP","2025-06-29 10:00",2,39.6742292,-107.6992321,TRUE,FALSE,FALSE,"S255317567"
"8","blkswi","Black Swift","Cypseloides niger","L950776","Big Four Ice Caves","2025-06-29 09:20",2,48.0651548,-121.5151566,TRUE,FALSE,FALSE,"S255462103"
"9","blkswi","Black Swift","Cypseloides niger","L367727","McArthur-Burney Falls Memorial SP","2025-06-29 05:59",7,41.0176639,-121.6508389,TRUE,FALSE,FALSE,"S255345365"
"10","blkswi","Black Swift","Cypseloides niger","L3137427","Remlinger Farms","2025-06-28 11:19",3,47.6405982,-121.9030845,TRUE,FALSE,FALSE,"S255017422"
"11","blkswi","Black Swift","Cypseloides niger","L4704139","Glacier Bible Camp","2025-06-28 10:49",1,48.3898596,-114.0761518,TRUE,FALSE,TRUE,"S254951644"
"12","blkswi","Black Swift","Cypseloides niger","L1391100","Thunder Knob","2025-06-28 08:38",5,48.7019398,-121.1048192,TRUE,FALSE,FALSE,"S255005640"
"13","blkswi","Black Swift","Cypseloides niger","L564741","Rocky Pt.","2025-06-28 07:08",6,36.4017884,-121.9116274,TRUE,FALSE,FALSE,"S254991802"
"14","blkswi","Black Swift","Cypseloides niger","L4616335","Glacier NP--Red Rock Point","2025-06-28",1,48.695417,-113.8172392,TRUE,FALSE,FALSE,"S254733584"
"15","blkswi","Black Swift","Cypseloides niger","L929049","Bacon Creek","2025-06-27 20:46",5,48.5888149,-121.3930464,TRUE,FALSE,FALSE,"S255005092"
"16","blkswi","Black Swift","Cypseloides niger","L5960543","Nugents Corner River Access","2025-06-27 16:00",15,48.8420918,-122.2922355,TRUE,FALSE,FALSE,"S254678713"
"17","blkswi","Black Swift","Cypseloides niger","L27160799","Mt. Rainier NP--Carter Falls Trail","2025-06-27 14:30",3,46.766588,-121.7909145,TRUE,FALSE,FALSE,"S255054286"
"18","blkswi","Black Swift","Cypseloides niger","L192934","Mercer Slough","2025-06-27 13:07",2,47.5891498,-122.1867639,TRUE,FALSE,FALSE,"S254661345"
"19","blkswi","Black Swift","Cypseloides niger","L1236038","Glenwood Canyon--Grizzly Creek Rest Area","2025-06-27 11:21",3,39.5605575,-107.2516251,TRUE,FALSE,FALSE,"S254617456"
"20","blkswi","Black Swift","Cypseloides niger","L18401717","Dungeness NWR--Dungeness Spit","2025-06-27 09:00",1,48.1476683,-123.1856696,TRUE,FALSE,FALSE,"S254597981"
"21","blkswi","Black Swift","Cypseloides niger","L1569757","Methow Valley--Big Valley Trail","2025-06-27 08:10",1,48.5288485,-120.304551,TRUE,FALSE,FALSE,"S254960743"
"22","blkswi","Black Swift","Cypseloides niger","L162766","Union Bay Natural Area/Montlake Fill","2025-06-27 08:01",3,47.65424,-122.29137,TRUE,FALSE,FALSE,"S254575959"
"23","blkswi","Black Swift","Cypseloides niger","L1229028","Lone Fir Campground","2025-06-27 05:37",1,48.5813486,-120.6237245,TRUE,FALSE,FALSE,"S254601865"
"24","blkswi","Black Swift","Cypseloides niger","L2967042","Little Cottonwood Canyon--Coalpit Waterfall Viewpoint","2025-06-26 20:20",1,40.5718106,-111.7379445,TRUE,TRUE,FALSE,"S254427188"
"25","blkswi","Black Swift","Cypseloides niger","L4663211","Tawlks-Foster suspension bridge","2025-06-26 20:18",1,48.5715528,-120.368464,TRUE,FALSE,FALSE,"S254426433"
"26","blkswi","Black Swift","Cypseloides niger","L740948","Wickersham area of Samish River","2025-06-26 17:03",1,48.6530746,-122.2054918,TRUE,FALSE,FALSE,"S254403279"
"27","blkswi","Black Swift","Cypseloides niger","L199245","Pt. Lobos State Reserve","2025-06-26 14:33",3,36.5194581,-121.9497013,TRUE,FALSE,FALSE,"S254408322"
"28","blkswi","Black Swift","Cypseloides niger","L109471","Ano Nuevo SP--Visitors Center, Elephant Seals and trails","2025-06-26 13:10",1,37.1174022,-122.3188162,TRUE,TRUE,FALSE,"S254404292"
"29","blkswi","Black Swift","Cypseloides niger","L3150121","Sand Hill Bluff","2025-06-25 19:57",4,36.9777845,-122.1525859,TRUE,FALSE,FALSE,"S254157419"
"30","blkswi","Black Swift","Cypseloides niger","L1429976","Mission Reservoir","2025-06-25 19:49",1,47.3190553,-114.0128504,TRUE,FALSE,FALSE,"S254165674"
"31","blkswi","Black Swift","Cypseloides niger","L6085147","Wild Basin entrance road--Hwy 7 to Wild Basin Ranger Station","2025-06-25 13:35",2,40.2159145,-105.547328,TRUE,FALSE,FALSE,"S254118402"
"32","blkswi","Black Swift","Cypseloides niger","L5957479","Twin Rivers Park, Arlington","2025-06-25 11:15",5,48.2029391,-122.120204,TRUE,FALSE,FALSE,"S254063957"
"33","blkswi","Black Swift","Cypseloides niger","L48440797","Big Oak Flat Rd, Coulterville US-CA 37.72956, -119.75287","2025-06-25 09:24",2,37.729563,-119.752871,TRUE,FALSE,TRUE,"S254011688"
"34","blkswi","Black Swift","Cypseloides niger","L514231","Snoqualmie Wildlife Area--Stillwater Unit","2025-06-25 07:15",2,47.6829127,-121.9239418,TRUE,FALSE,FALSE,"S254107272"
"35","blkswi","Black Swift","Cypseloides niger","L48690053","Elwha River Trail, Port Angeles US-WA (47.8686,-123.4670)","2025-06-25 07:00",1,47.868635,-123.467035,TRUE,FALSE,TRUE,"S255082433"
"36","blkswi","Black Swift","Cypseloides niger","L48439131","Airbnb plus dog walk","2025-06-25 06:55",3,47.790646,-120.647682,TRUE,FALSE,TRUE,"S254004808"
"37","blkswi","Black Swift","Cypseloides niger","L3730424","Suncadia Resort","2025-06-24 20:14",3,47.2103566,-121.0198116,TRUE,FALSE,FALSE,"S253868085"
"38","blkswi","Black Swift","Cypseloides niger","L4892190","nighthawk ridge","2025-06-24 16:14",2,48.4388246,-120.249567,TRUE,FALSE,TRUE,"S253821124"
"39","blkswi","Black Swift","Cypseloides niger","L1574003","Glacier NP--Beaver Pond Loop Trail","2025-06-24 14:56",1,48.7353764,-113.4377469,TRUE,FALSE,FALSE,"S253949682"
"40","blkswi","Black Swift","Cypseloides niger","L1308858","Yosemite NP--Bridalveil Falls","2025-06-24 11:34",1,37.7171051,-119.6500719,TRUE,FALSE,FALSE,"S253808936"
"41","blkswi","Black Swift","Cypseloides niger","L8651368","1218 S. 13th, Mt Vernon","2025-06-24 07:15",6,48.413036,-122.3248701,TRUE,FALSE,TRUE,"S253788361"
"42","blkswi","Black Swift","Cypseloides niger","L48346368","U.S. Highway 2, Leavenworth, Washington, US (47.714, -121.14)","2025-06-23 19:24",1,47.7143317,-121.1398306,TRUE,FALSE,TRUE,"S253589635"
"43","blkswi","Black Swift","Cypseloides niger","L590833","La Push","2025-06-23 16:59",1,47.9082232,-124.6395031,TRUE,FALSE,FALSE,"S253582797"
"44","blkswi","Black Swift","Cypseloides niger","L4627662","Newhalem Campground","2025-06-23 16:50",6,48.6708247,-121.2608414,TRUE,FALSE,FALSE,"S253568327"
"45","blkswi","Black Swift","Cypseloides niger","L48523513","51925‚Äì51945 MT-28, Hot Springs US-MT 47.82016, -114.51718","2025-06-23 14:16",1,47.820162,-114.517178,TRUE,TRUE,TRUE,"S254377136"
"46","blkswi","Black Swift","Cypseloides niger","L7139098","WDFW/Audubon site-2018-Dead Horse Lake-113341 (Restricted)","2025-06-23 09:09",20,48.3930228,-120.1768684,TRUE,FALSE,FALSE,"S253577249"
"47","blkswi","Black Swift","Cypseloides niger","L1569886","Sun Mountain Lodge parking area and trails","2025-06-23 07:25",2,48.478042,-120.2568462,TRUE,FALSE,FALSE,"S253494092"
"48","blkswi","Black Swift","Cypseloides niger","L1373808","Bryson Rd., Darrington (Skagit Co.)","2025-06-22 18:59",13,48.3116209,-121.5478903,TRUE,FALSE,FALSE,"S253312762"
"49","blkswi","Black Swift","Cypseloides niger","L929048","Martin Rd., Rockport","2025-06-22 17:43",3,48.4804604,-121.5826035,TRUE,FALSE,FALSE,"S253312700"
"50","blkswi","Black Swift","Cypseloides niger","L48283756","The Rock Pile","2025-06-22 15:02",1,48.2687423,-123.3079974,TRUE,FALSE,TRUE,"S253314152"
"51","blkswi","Black Swift","Cypseloides niger","L48283393","146 Twisp River Road, Twisp, Washington, US (48.374, -120.18)","2025-06-22 13:05",2,48.3743039,-120.1795586,TRUE,FALSE,TRUE,"S253312592"
"52","blkswi","Black Swift","Cypseloides niger","L48283368","Twisp River Road","2025-06-22 12:52",1,48.378394,-120.2837531,TRUE,FALSE,TRUE,"S253312482"
"53","blkswi","Black Swift","Cypseloides niger","L48262945","Dike Rd, Deming US-WA 48.72481, -122.17396","2025-06-22 12:27",2,48.724811,-122.173955,TRUE,FALSE,TRUE,"S253224079"
"54","blkswi","Black Swift","Cypseloides niger","L1287648","Marblemount boat launch","2025-06-22 11:50",2,48.5254937,-121.4270353,TRUE,FALSE,FALSE,"S253322583"
"55","blkswi","Black Swift","Cypseloides niger","L547951","County Line Ponds (Skagit Co.)","2025-06-22 10:40",1,48.6377866,-121.3142967,TRUE,FALSE,FALSE,"S253322010"
"56","blkswi","Black Swift","Cypseloides niger","L351484","Marymoor Park","2025-06-22 10:24",2,47.662576,-122.12052,TRUE,FALSE,FALSE,"S255676702"
"57","blkswi","Black Swift","Cypseloides niger","L371955","Ninepipe WMA","2025-06-22 10:23",2,47.453,-114.147,TRUE,FALSE,FALSE,"S253216942"
"58","blkswi","Black Swift","Cypseloides niger","L48242650","Coast Rd, Carmel US-CA (36.3752,-121.8980)","2025-06-22 06:42",2,36.375219,-121.898027,TRUE,FALSE,TRUE,"S253145103"
"59","blkswi","Black Swift","Cypseloides niger","L48242811","38913‚Äì38957 CA-1, Carmel US-CA (36.3805,-121.9012)","2025-06-22 06:18",13,36.380514,-121.901208,TRUE,FALSE,TRUE,"S253145803"
"60","blkswi","Black Swift","Cypseloides niger","L48242902","California Sea Otter Game Refuge, Carmel US-CA (36.3912,-121.9019)","2025-06-22 06:09",9,36.391156,-121.90193,TRUE,FALSE,TRUE,"S253146190"
"61","blkswi","Black Swift","Cypseloides niger","L7607378","California Sea Otter State Game Refuge, Carmel US-CA (36.4012,-121.9067)","2025-06-22 05:29",4,36.401229,-121.90674,TRUE,FALSE,TRUE,"S253146338"
"62","blkswi","Black Swift","Cypseloides niger","L48200084","Dorman Road Goldbar","2025-06-21 21:12",12,47.846648,-121.691006,TRUE,FALSE,TRUE,"S252946410"
"63","blkswi","Black Swift","Cypseloides niger","L38418752","WA State Historical Marker #28 - Fort Okanogan","2025-06-21 20:58",30,48.1024358,-119.7218166,TRUE,FALSE,FALSE,"S252946687"
"64","blkswi","Black Swift","Cypseloides niger","L39382159","118 Massey Wills Lane, Twisp, Washington, US (48.367, -120.121)","2025-06-21 20:50",131,48.3669441,-120.1213696,TRUE,TRUE,TRUE,"S252942819"
"65","blkswi","Black Swift","Cypseloides niger","L9955160","Skokomish Valley Farms","2025-06-21 20:29",2,47.3267418,-123.2391792,TRUE,FALSE,FALSE,"S252942721"
"66","blkswi","Black Swift","Cypseloides niger","L20770536","Seattle--Bryn Mawr Towers","2025-06-21 18:30",8,47.4992745,-122.2197956,TRUE,FALSE,TRUE,"S252948582"
"67","blkswi","Black Swift","Cypseloides niger","L48196047","SR-153, Pateros US-WA 48.10117, -120.02029","2025-06-21 17:11",2,48.101167,-120.020292,TRUE,FALSE,TRUE,"S252929785"
"68","blkswi","Black Swift","Cypseloides niger","L33350274","9727 NE Juanita Dr, Kirkland US-WA (47.7035,-122.2129)","2025-06-21 16:51",3,47.703478,-122.212851,TRUE,FALSE,TRUE,"S253283276"
"69","blkswi","Black Swift","Cypseloides niger","L24478950","Cerro Summit (summit area only)","2025-06-21 14:58",1,38.4436233,-107.6398587,TRUE,FALSE,FALSE,"S252883957"
"70","blkswi","Black Swift","Cypseloides niger","L48199215","Melita Island","2025-06-21 13:11",3,47.8205433,-114.2323198,TRUE,FALSE,TRUE,"S253086696"
"71","blkswi","Black Swift","Cypseloides niger","L4584448","Kenwanda Home üë¶üèºüî≠","2025-06-21 12:33",15,47.8712548,-122.091448,TRUE,FALSE,TRUE,"S252835648"
"72","blkswi","Black Swift","Cypseloides niger","L522791","Breazeale Interpretive Center","2025-06-21 10:55",26,48.4949666,-122.4804783,TRUE,FALSE,FALSE,"S252846223"
"73","blkswi","Black Swift","Cypseloides niger","L15996975","1 Briar Rd, Bellingham US-WA (starting point)","2025-06-21 10:52",10,48.7155373,-122.5146518,TRUE,FALSE,TRUE,"S252957503"
"74","blkswi","Black Swift","Cypseloides niger","L48170929","Lower Yosemite Fall Trail, Yosemite Valley, California, US (37.744, -119.594)","2025-06-21 10:37",1,37.7444018,-119.5938997,TRUE,FALSE,TRUE,"S252830812"
"75","blkswi","Black Swift","Cypseloides niger","L6728048","Columbia neighborhood, My Yard","2025-06-21 10:22",2,48.7643005,-122.5009918,TRUE,FALSE,TRUE,"S253238426"
"76","blkswi","Black Swift","Cypseloides niger","L48161705","Bellingham Farmers Market","2025-06-21 10:18",8,48.7474255,-122.4801177,TRUE,FALSE,TRUE,"S252795854"
"77","blkswi","Black Swift","Cypseloides niger","L48161112","4196‚Äì4206 Wildfowl Ln, Stevensville US-MT 46.53969, -114.09301","2025-06-21 09:46",2,46.539688,-114.093014,TRUE,FALSE,TRUE,"S252793541"
"78","blkswi","Black Swift","Cypseloides niger","L935839","Beaver Pond Trail (Okanogan Co.)","2025-06-21 09:05",1,48.4673444,-120.2625275,TRUE,FALSE,FALSE,"S252875304"
"79","blkswi","Black Swift","Cypseloides niger","L21829071","Teleli Golf Club, Sonora US-CA (37.9357,-120.3727)","2025-06-21 08:04",1,37.935684,-120.372738,TRUE,TRUE,TRUE,"S252743045"
"80","blkswi","Black Swift","Cypseloides niger","L558237","Stampede Pass Exit (I-90)","2025-06-21 07:41",2,47.3084523,-121.3143826,TRUE,FALSE,FALSE,"S252745470"
"81","blkswi","Black Swift","Cypseloides niger","L48194529","129‚Äì155 Twin Lakes Rd, Winthrop US-WA 48.44218, -120.19283","2025-06-21 07:38",30,48.442175,-120.192832,TRUE,FALSE,TRUE,"S252923740"
"82","blkswi","Black Swift","Cypseloides niger","L11775642","Gold Creek Bridge","2025-06-21 05:28",2,47.391815,-121.383554,TRUE,FALSE,TRUE,"S252682548"
"83","blkswi","Black Swift","Cypseloides niger","L464404","Cassimer Bar Wildlife Area","2025-06-21 05:24",12,48.0936744,-119.7121811,TRUE,FALSE,FALSE,"S252758932"
