"","speciesCode","comName","sciName","locId","locName","obsDt","howMany","lat","lng","obsValid","obsReviewed","locationPrivate","subId"
"1","oliwar","Olive Warbler","Peucedramus taeniatus","L1660345","Mt. Lemmon--Inspiration Rock Picnic Area","2025-06-09 10:44",1,32.4343387,-110.7526013,TRUE,FALSE,FALSE,"S248612215"
"2","oliwar","Olive Warbler","Peucedramus taeniatus","L970871","Mt. Lemmon--Bigelow corner and vista","2025-06-09 10:13",1,32.417578,-110.7241791,TRUE,FALSE,TRUE,"S248602089"
"3","oliwar","Olive Warbler","Peucedramus taeniatus","L1322958","Gila NF--Signal Peak Trail/Road","2025-06-09 08:27",1,32.9411236,-108.1958485,TRUE,FALSE,FALSE,"S248562694"
"4","oliwar","Olive Warbler","Peucedramus taeniatus","L47227664","NM-15, Silver City US-NM (32.9437,-108.1979)","2025-06-09 08:04",2,32.943717,-108.197933,TRUE,FALSE,TRUE,"S248561349"
"5","oliwar","Olive Warbler","Peucedramus taeniatus","L46223263","Gila National Forest, Hillsboro US-NM 32.91363, -107.73066","2025-06-09 06:52",1,32.913633,-107.730656,TRUE,FALSE,TRUE,"S248570349"
"6","oliwar","Olive Warbler","Peucedramus taeniatus","L19626109","Rose Canyon Lake","2025-06-09 06:41",1,32.386692,-110.7121705,TRUE,FALSE,TRUE,"S248561626"
"7","oliwar","Olive Warbler","Peucedramus taeniatus","L47254904","Lookout Rd, Flagstaff US-AZ 35.25355, -111.60604","2025-06-09 04:42",1,35.253551,-111.606044,TRUE,FALSE,TRUE,"S248685953"
"8","oliwar","Olive Warbler","Peucedramus taeniatus","L936072","Mt. Graham--Hospital Flat CG","2025-06-09 04:41",1,32.6659687,-109.8739243,TRUE,FALSE,FALSE,"S248530127"
"9","oliwar","Olive Warbler","Peucedramus taeniatus","L47175961","Hi View Point, Rim Rd","2025-06-08 18:00",1,34.4370725,-111.2937891,TRUE,FALSE,TRUE,"S248364525"
"10","oliwar","Olive Warbler","Peucedramus taeniatus","L44782234","Gila NF--Sheep Corral Canyon Rd.","2025-06-08 17:40",1,32.9727715,-108.2448863,TRUE,FALSE,FALSE,"S248563446"
"11","oliwar","Olive Warbler","Peucedramus taeniatus","L47133852","FS 222 Dispersed Camping Site","2025-06-08 16:24",1,35.271043,-111.752661,TRUE,FALSE,TRUE,"S248445528"
"12","oliwar","Olive Warbler","Peucedramus taeniatus","L128885","Barfoot Park","2025-06-08 14:19",1,31.9172001,-109.2790985,TRUE,FALSE,FALSE,"S248309475"
"13","oliwar","Olive Warbler","Peucedramus taeniatus","L128884","Barfoot Junction","2025-06-08 13:51",2,31.9150326,-109.2690586,TRUE,FALSE,FALSE,"S248301529"
"14","oliwar","Olive Warbler","Peucedramus taeniatus","L34247686","Gen Crook Trail, Forest Lakes US-AZ 34.45388, -111.39662","2025-06-08 13:43",2,34.453885,-111.396617,TRUE,FALSE,TRUE,"S248482979"
"15","oliwar","Olive Warbler","Peucedramus taeniatus","L5842322","Mingus Mountain Burnt Tanks Erosion Control - 34.665x-112.149 - May 15, 2017 3:38 PM","2025-06-08 10:30",1,34.6649878,-112.1488284,TRUE,FALSE,TRUE,"S248268166"
"16","oliwar","Olive Warbler","Peucedramus taeniatus","L47146634","Mt Lemmon - Box Camp Trailhead","2025-06-08 09:43",2,32.4197394,-110.7399933,TRUE,FALSE,TRUE,"S248206886"
"17","oliwar","Olive Warbler","Peucedramus taeniatus","L128889","Mt. Lemmon--Bear Wallow","2025-06-08 09:28",1,32.4210014,-110.731102,TRUE,FALSE,FALSE,"S248201119"
"18","oliwar","Olive Warbler","Peucedramus taeniatus","L47170853","Coconino National Forest, Happy Jack US-AZ 34.58124, -111.24374","2025-06-08 09:10",1,34.581245,-111.243739,TRUE,FALSE,TRUE,"S248302972"
"19","oliwar","Olive Warbler","Peucedramus taeniatus","L301174","Mt. Lemmon--Mt Bigelow Rd","2025-06-08 08:40",1,32.4170301,-110.7250857,TRUE,FALSE,FALSE,"S248188054"
"20","oliwar","Olive Warbler","Peucedramus taeniatus","L129068","Mt. Lemmon--Rose Canyon and Lake","2025-06-08 07:53",1,32.3926274,-110.7024693,TRUE,FALSE,FALSE,"S248279204"
"21","oliwar","Olive Warbler","Peucedramus taeniatus","L563284","Lamar Haines WA","2025-06-08 07:24",2,35.3095571,-111.7194986,TRUE,FALSE,FALSE,"S248226482"
"22","oliwar","Olive Warbler","Peucedramus taeniatus","L47192074","South Of Clark Peak Corrals","2025-06-08 07:24",1,32.7174939,-109.9688681,TRUE,FALSE,TRUE,"S248402523"
"23","oliwar","Olive Warbler","Peucedramus taeniatus","L47168922","Forest Service Road 770, Quemado US-NM 34.04741, -108.68365","2025-06-08 06:46",6,34.047408,-108.683651,TRUE,FALSE,TRUE,"S248295258"
"24","oliwar","Olive Warbler","Peucedramus taeniatus","L47077542","Mt Bigelow B/W Towers And Observatory","2025-06-07 16:56",1,32.4138324,-110.7218198,TRUE,FALSE,TRUE,"S247895970"
"25","oliwar","Olive Warbler","Peucedramus taeniatus","L129031","Miller Canyon Trail","2025-06-07 08:29",1,31.40806,-110.28619,TRUE,FALSE,FALSE,"S247855524"
"26","oliwar","Olive Warbler","Peucedramus taeniatus","L1215562","Pinal Mountains--Ferndell Spring","2025-06-06 14:40",1,33.287579,-110.8262292,TRUE,FALSE,FALSE,"S247456006"
"27","oliwar","Olive Warbler","Peucedramus taeniatus","L46968576","Pine/ Oak Forest east of Pinetop (Apache Co)","2025-06-06 12:25",2,34.111957,-109.841865,TRUE,FALSE,TRUE,"S247421990"
"28","oliwar","Olive Warbler","Peucedramus taeniatus","L46988423","Ida Canyon Trail #110","2025-06-06 11:12",6,31.398194,-110.325729,TRUE,FALSE,TRUE,"S247488911"
"29","oliwar","Olive Warbler","Peucedramus taeniatus","L47059014","Tonto Village BBS Stop 33","2025-06-06 09:32",2,34.3821473,-111.2604041,TRUE,FALSE,TRUE,"S247815389"
"30","oliwar","Olive Warbler","Peucedramus taeniatus","L12395330","Gila NF--Little Cherry Creek Road and Trail","2025-06-06 08:00",1,32.8993275,-108.228703,TRUE,FALSE,FALSE,"S247515145"
"31","oliwar","Olive Warbler","Peucedramus taeniatus","L1212326","Groom Creek Loop Trail #307","2025-06-06 07:44",1,34.4644607,-112.4407473,TRUE,FALSE,FALSE,"S247878482"
"32","oliwar","Olive Warbler","Peucedramus taeniatus","L31415785","Oversite Canyon Trail #112","2025-06-06 06:54",1,31.3928518,-110.3155594,TRUE,FALSE,TRUE,"S247358324"
"33","oliwar","Olive Warbler","Peucedramus taeniatus","L47058818","Tonto Village BBS Stop 15","2025-06-06 06:53",2,34.3282774,-111.1651087,TRUE,FALSE,TRUE,"S247814635"
"34","oliwar","Olive Warbler","Peucedramus taeniatus","L26939883","Coconino National Forest, Flagstaff US-AZ 35.30637, -111.67844","2025-06-06 06:52",2,35.306374,-111.678445,TRUE,FALSE,TRUE,"S247319163"
"35","oliwar","Olive Warbler","Peucedramus taeniatus","L47058809","Tonto Village BBS Stop 14","2025-06-06 06:41",2,34.3235513,-111.1577161,TRUE,FALSE,TRUE,"S247814592"
"36","oliwar","Olive Warbler","Peucedramus taeniatus","L9669941","Pioneer Pass--Trail 200","2025-06-05 16:19",2,33.287988,-110.794429,TRUE,FALSE,FALSE,"S247129976"
"37","oliwar","Olive Warbler","Peucedramus taeniatus","L753054","Mt. Lemmon--Palisades Visitor Center","2025-06-05 10:17",1,32.4104319,-110.7147995,TRUE,FALSE,FALSE,"S247162860"
"38","oliwar","Olive Warbler","Peucedramus taeniatus","L12283791","Aspen Corner","2025-06-05 09:25",1,35.3205148,-111.7194725,TRUE,FALSE,FALSE,"S247039611"
"39","oliwar","Olive Warbler","Peucedramus taeniatus","L744308","Mt. Ord (Maricopa Co.)","2025-06-04 10:35",1,33.9053284,-111.4103365,TRUE,FALSE,FALSE,"S246744726"
"40","oliwar","Olive Warbler","Peucedramus taeniatus","L46819800","Highway 260, Pine, Arizona, US (34.452, -111.445)","2025-06-04 09:02",1,34.4523753,-111.4453773,TRUE,FALSE,TRUE,"S246705727"
"41","oliwar","Olive Warbler","Peucedramus taeniatus","L2484537","Chiricahua NM--Faraway Ranch","2025-06-04 08:11",1,32.0081078,-109.3723914,TRUE,FALSE,FALSE,"S246666934"
"42","oliwar","Olive Warbler","Peucedramus taeniatus","L46777003","Forest Service Road 413, Clarkdale US-AZ 34.67111, -112.14180","2025-06-03 14:25",1,34.671112,-112.141799,TRUE,FALSE,TRUE,"S246496692"
"43","oliwar","Olive Warbler","Peucedramus taeniatus","L267654","Mt. Lemmon--Marshall Gulch","2025-06-03 12:18",1,32.4280212,-110.7556783,TRUE,FALSE,FALSE,"S246415169"
"44","oliwar","Olive Warbler","Peucedramus taeniatus","L5950627","Mingus Mountain--Mingus Lake (aka Elk Well)","2025-06-03 11:36",1,34.6970875,-112.1290451,TRUE,FALSE,FALSE,"S246496861"
"45","oliwar","Olive Warbler","Peucedramus taeniatus","L5785596","Mingus Mountain--Group Picnic Site","2025-06-03 11:27",2,34.697703,-112.136665,TRUE,FALSE,FALSE,"S246496585"
"46","oliwar","Olive Warbler","Peucedramus taeniatus","L24915586","42D Forest Road, San Simon, Arizona, US (31.894, -109.282)","2025-06-03 11:07",1,31.8936023,-109.2818495,TRUE,FALSE,TRUE,"S246802075"
"47","oliwar","Olive Warbler","Peucedramus taeniatus","L1576861","Mt. Lemmon--Aspen Trail","2025-06-03 10:16",1,32.4230052,-110.7647227,TRUE,FALSE,TRUE,"S246385472"
"48","oliwar","Olive Warbler","Peucedramus taeniatus","L24922762","BBS route","2025-06-03 10:12",2,31.9095124,-109.2743527,TRUE,FALSE,TRUE,"S246805469"
"49","oliwar","Olive Warbler","Peucedramus taeniatus","L1430276","Woods Canyon Lake","2025-06-03 09:35",2,34.335,-110.945,TRUE,FALSE,FALSE,"S246487239"
"50","oliwar","Olive Warbler","Peucedramus taeniatus","L3905704","Mt Lemmon--Mint Spring Trl #20","2025-06-03 08:12",1,32.4397421,-110.7671964,TRUE,FALSE,TRUE,"S246339340"
"51","oliwar","Olive Warbler","Peucedramus taeniatus","L2413068","Madera Canyon--Carrie Nation Trail","2025-06-03 06:23",1,31.704511,-110.8764482,TRUE,FALSE,FALSE,"S246369531"
"52","oliwar","Olive Warbler","Peucedramus taeniatus","L296633","Madera Canyon--Mt. Wrightson Picnic Area & Upper Canyon Trails","2025-06-03 06:19",1,31.7124,-110.8744,TRUE,FALSE,FALSE,"S246352961"
"53","oliwar","Olive Warbler","Peucedramus taeniatus","L46743077","Coconino NF--Super Fly Meadows","2025-06-03 04:31",1,35.272832,-111.6541878,TRUE,FALSE,TRUE,"S246332469"
"54","oliwar","Olive Warbler","Peucedramus taeniatus","L32994997","Woods Canyon Lake Administration Campground","2025-06-02 09:26",2,34.3221934,-110.9412774,TRUE,FALSE,TRUE,"S246010512"
"55","oliwar","Olive Warbler","Peucedramus taeniatus","L46573103","Mt. Lemmon","2025-06-02 07:30",1,32.428163,-110.757196,TRUE,FALSE,TRUE,"S247394078"
"56","oliwar","Olive Warbler","Peucedramus taeniatus","L46743112","Forest Service Road 300H, Payson, Arizona, US (34.39, -111.144)","2025-06-01 17:44",1,34.3896004,-111.1441095,TRUE,FALSE,TRUE,"S246332627"
"57","oliwar","Olive Warbler","Peucedramus taeniatus","L31228015","Mt. Lemmon--Bigelow Trailhead","2025-06-01 10:36",1,32.4097979,-110.7132959,TRUE,FALSE,FALSE,"S245592552"
"58","oliwar","Olive Warbler","Peucedramus taeniatus","L46620802","Sheep Corral Canyon Road, Gila, New Mexico, US (32.969, -108.221)","2025-06-01 10:30",1,32.9692861,-108.2206868,TRUE,FALSE,TRUE,"S245716520"
"59","oliwar","Olive Warbler","Peucedramus taeniatus","L19223279","Upper Brown Canyon (not on trail)","2025-06-01 09:38",1,31.445864,-110.329144,TRUE,FALSE,TRUE,"S245704321"
"60","oliwar","Olive Warbler","Peucedramus taeniatus","L748283","Gila NF--Cherry Creek Campground","2025-06-01 07:53",1,32.9142967,-108.2246983,TRUE,FALSE,FALSE,"S245716376"
"61","oliwar","Olive Warbler","Peucedramus taeniatus","L127970","Mt. Lemmon--upper","2025-06-01 07:38",2,32.4404984,-110.7902985,TRUE,FALSE,FALSE,"S245663881"
"62","oliwar","Olive Warbler","Peucedramus taeniatus","L129069","Rustler Park","2025-05-31 14:56",2,31.9030991,-109.2776031,TRUE,FALSE,FALSE,"S245237506"
"63","oliwar","Olive Warbler","Peucedramus taeniatus","L46516441","W Pinery Canyon Rd, San Simon US-AZ 31.92970, -109.25880","2025-05-31 12:26",1,31.929699,-109.2588,TRUE,FALSE,TRUE,"S245235919"
"64","oliwar","Olive Warbler","Peucedramus taeniatus","L160032","Cibola NF--Ojo Redondo Campground","2025-05-31 09:11",1,35.158367,-108.108696,TRUE,TRUE,FALSE,"S245265323"
"65","oliwar","Olive Warbler","Peucedramus taeniatus","L44766146","Bradshaw Mountains: Upper Knapp Gulch","2025-05-31 09:10",1,34.4375745,-112.3991389,TRUE,FALSE,TRUE,"S245157503"
"66","oliwar","Olive Warbler","Peucedramus taeniatus","L46479630","Oldham trail to Down Under","2025-05-31 08:19",1,35.259036,-111.620954,TRUE,FALSE,TRUE,"S245080784"
"67","oliwar","Olive Warbler","Peucedramus taeniatus","L728980","Barfoot Lookout","2025-05-31 04:55",1,31.9164362,-109.2737471,TRUE,FALSE,FALSE,"S245250871"
