"","speciesCode","comName","sciName","locId","locName","obsDt","howMany","lat","lng","obsValid","obsReviewed","locationPrivate","subId"
"1","whttro","White-tailed Tropicbird","Phaethon lepturus","L49104401","Crater Rim Trail, Pahoa US-HI 19.42321, -155.28402","2025-07-04 12:47",6,19.42321,-155.28402,TRUE,FALSE,TRUE,"S256951074"
"2","whttro","White-tailed Tropicbird","Phaethon lepturus","L7058871","Shipwreck Beach","2025-07-04 10:12",1,21.8747914,-159.4369039,TRUE,FALSE,FALSE,"S256908531"
"3","whttro","White-tailed Tropicbird","Phaethon lepturus","L8969798","Captain James Cook Monument","2025-07-03 15:10",5,19.481326,-155.933334,TRUE,FALSE,FALSE,"S256648335"
"4","whttro","White-tailed Tropicbird","Phaethon lepturus","L266182","Kilauea Point NWR","2025-07-03 13:54",4,22.2316072,-159.4019778,TRUE,FALSE,FALSE,"S256665684"
"5","whttro","White-tailed Tropicbird","Phaethon lepturus","L49026384","Kilauea Point National Wildlife Refuge, Kilauea US-HI 22.22774, -159.40108","2025-07-03 10:49",5,22.22774,-159.40108,TRUE,FALSE,TRUE,"S256614980"
"6","whttro","White-tailed Tropicbird","Phaethon lepturus","L9648770","Kahili Beach Preserve (Rock Quarry)","2025-07-02 06:12",1,22.2180049,-159.3853334,TRUE,FALSE,FALSE,"S256271771"
"7","whttro","White-tailed Tropicbird","Phaethon lepturus","L7291453","Green Island, Kure Atoll (restricted access)","2025-07-01 15:40",1,28.392533,-178.2939005,TRUE,FALSE,FALSE,"S256102279"
"8","whttro","White-tailed Tropicbird","Phaethon lepturus","L290236","Kōkeʻe State Park (general)","2025-07-01 10:04",1,22.1302507,-159.6556377,TRUE,FALSE,FALSE,"S256101191"
"9","whttro","White-tailed Tropicbird","Phaethon lepturus","L391848","Waimea Canyon Lookout","2025-07-01 09:07",7,22.0714028,-159.6619892,TRUE,FALSE,FALSE,"S256098726"
"10","whttro","White-tailed Tropicbird","Phaethon lepturus","L34691276","Kōkeʻe SP road--Kalalau to Pu‘u O Kila lookout","2025-07-01 09:05",1,22.149111,-159.637159,TRUE,FALSE,FALSE,"S256062929"
"11","whttro","White-tailed Tropicbird","Phaethon lepturus","L17483783","Waimea Canyon Drive--Kekaha Lookout","2025-07-01 08:10",1,21.9810361,-159.6689247,TRUE,FALSE,FALSE,"S256098549"
"12","whttro","White-tailed Tropicbird","Phaethon lepturus","L1427175","Hawaiʻi Volcanoes NP--Chain of Craters Road, Puhimau Area Only","2025-06-30 14:23",1,19.3920129,-155.2494434,TRUE,FALSE,FALSE,"S255781947"
"13","whttro","White-tailed Tropicbird","Phaethon lepturus","L3119807","Nakalele Point seawatch","2025-06-30 14:03",4,21.0278696,-156.5903234,TRUE,FALSE,FALSE,"S255767359"
"14","whttro","White-tailed Tropicbird","Phaethon lepturus","L48833028","Kīlauea Iki Trail, Pahoa US-HI 19.41760, -155.25452","2025-06-30 09:03",1,19.4176,-155.254519,TRUE,FALSE,TRUE,"S255730683"
"15","whttro","White-tailed Tropicbird","Phaethon lepturus","L285807","Ka'ena Point NAR","2025-06-30 07:21",1,21.5742024,-158.2777119,TRUE,FALSE,FALSE,"S255725352"
"16","whttro","White-tailed Tropicbird","Phaethon lepturus","L1399097","Mt. Ka'ala Natural Area Reserve","2025-06-29 16:04",1,21.5048834,-158.1466476,TRUE,FALSE,FALSE,"S255507443"
"17","whttro","White-tailed Tropicbird","Phaethon lepturus","L10123074","Hawaiʻi Volcanoes NP--Devastation Trail","2025-06-29 14:27",3,19.4070035,-155.252863,TRUE,FALSE,FALSE,"S255448531"
"18","whttro","White-tailed Tropicbird","Phaethon lepturus","L48772055","Kilauea Military Reserve, Pahoa US-HI 19.43245, -155.27339","2025-06-29 14:19",5,19.432449,-155.27339,TRUE,FALSE,TRUE,"S255447377"
"19","whttro","White-tailed Tropicbird","Phaethon lepturus","L1428621","Hawai'i Volcanoes NP--Steam Vents and Sulfur Banks Only","2025-06-29 13:58",10,19.4308804,-155.2673883,TRUE,FALSE,FALSE,"S255441503"
"20","whttro","White-tailed Tropicbird","Phaethon lepturus","L1428616","Hawai'i Volcanoes NP--Visitor Center and Volcano House","2025-06-29 12:57",5,19.4295211,-155.2575515,TRUE,FALSE,FALSE,"S255444865"
"21","whttro","White-tailed Tropicbird","Phaethon lepturus","L48848163","Weeping Wall ungulate exclosure (inside fence)","2025-06-29 12:27",1,22.063959,-159.491136,TRUE,FALSE,TRUE,"S255803764"
"22","whttro","White-tailed Tropicbird","Phaethon lepturus","L48774079","Kīlauea, Pahoa US-HI (19.4187,-155.2897)","2025-06-29 12:08",4,19.418695,-155.289711,TRUE,FALSE,TRUE,"S255457157"
"23","whttro","White-tailed Tropicbird","Phaethon lepturus","L48848131","Blue Hole / Weeping Wall Hike — Trailhead to Fenceline","2025-06-29 09:25",1,22.064664,-159.47271,TRUE,FALSE,TRUE,"S255803471"
"24","whttro","White-tailed Tropicbird","Phaethon lepturus","L20815783","Kōkeʻe State Park--Kalalau Lookout","2025-06-29 08:18",2,22.1506629,-159.6452744,TRUE,FALSE,FALSE,"S256335313"
"25","whttro","White-tailed Tropicbird","Phaethon lepturus","L38293916","KAUAI PUU POA","2025-06-29 06:30",2,22.2225912,-159.4949474,TRUE,FALSE,TRUE,"S256919907"
"26","whttro","White-tailed Tropicbird","Phaethon lepturus","L48846064","Crater Rim Drive, Pāhoa, Hawaii, US (19.404, -155.265)","2025-06-28 12:30",5,19.403713,-155.2653561,TRUE,FALSE,TRUE,"S255791698"
"27","whttro","White-tailed Tropicbird","Phaethon lepturus","L8027824","Kīlauea Point NWR--Overlook (always open)","2025-06-28 10:45",1,22.2277391,-159.4012624,TRUE,FALSE,FALSE,"S255010262"
"28","whttro","White-tailed Tropicbird","Phaethon lepturus","L48821238","Holua Cabin Trail, Kula US-HI (20.7416,-156.2182)","2025-06-28 07:27",2,20.741605,-156.218162,TRUE,FALSE,TRUE,"S255679579"
"29","whttro","White-tailed Tropicbird","Phaethon lepturus","L1656272","Na Pali Coast State Park--Kalalau Beach","2025-06-28 06:27",5,22.1723673,-159.6588522,TRUE,FALSE,FALSE,"S255001379"
"30","whttro","White-tailed Tropicbird","Phaethon lepturus","L48584859","H.A. Baldwin Beach Park, Pāʻia US-HI 20.91395, -156.39238","2025-06-27 11:03",1,20.913951,-156.392381,TRUE,FALSE,TRUE,"S254647852"
"31","whttro","White-tailed Tropicbird","Phaethon lepturus","L4796177","Sleeping Giant--Nounou East Trail","2025-06-27 10:20",5,22.0619372,-159.3489861,TRUE,FALSE,FALSE,"S254663902"
"32","whttro","White-tailed Tropicbird","Phaethon lepturus","L10704346","Kāneiʻolouma Heiau ponds","2025-06-26 13:21",4,21.8757365,-159.4530639,TRUE,FALSE,FALSE,"S254433894"
"33","whttro","White-tailed Tropicbird","Phaethon lepturus","L48527597","Crater Rim White Tropic Bird Spot","2025-06-26 12:42",2,19.429926,-155.267892,TRUE,FALSE,TRUE,"S254396345"
"34","whttro","White-tailed Tropicbird","Phaethon lepturus","L48530177","Crater Rim Trail, Pahoa US-HI 19.41980, -155.28794","2025-06-26 10:08",3,19.419801,-155.287941,TRUE,FALSE,TRUE,"S254408081"
"35","whttro","White-tailed Tropicbird","Phaethon lepturus","L7830812","Makapu’u PointLighthouse Trail (Seawatch)","2025-06-26 08:58",NA,21.2997417,-157.652397,TRUE,FALSE,FALSE,"S254340331"
"36","whttro","White-tailed Tropicbird","Phaethon lepturus","L1105848","Makapu'u Beach Park","2025-06-26 08:11",NA,21.3139641,-157.6612008,TRUE,FALSE,FALSE,"S254321646"
"37","whttro","White-tailed Tropicbird","Phaethon lepturus","L1147537","Na Pali Coast--tour boat route","2025-06-26 08:00",4,22.1718906,-159.7059517,TRUE,FALSE,FALSE,"S256915756"
"38","whttro","White-tailed Tropicbird","Phaethon lepturus","L285759","Makapu'u Point and Ka Iwa State Scenic Shoreline","2025-06-25 15:30",5,21.3104352,-157.6545787,TRUE,FALSE,FALSE,"S254440334"
"39","whttro","White-tailed Tropicbird","Phaethon lepturus","L48466234","96761, Lahaina US-HI 21.02642, -156.58906","2025-06-25 11:17",1,21.026424,-156.589064,TRUE,FALSE,TRUE,"S254122772"
"40","whttro","White-tailed Tropicbird","Phaethon lepturus","L48461604","Kīlauea Lighthouse, Kilauea US-HI (22.2316,-159.4020)","2025-06-25 11:13",13,22.231558,-159.401999,TRUE,FALSE,TRUE,"S254100884"
"41","whttro","White-tailed Tropicbird","Phaethon lepturus","L48767191","Port Allen to Barking Sands (Pelagic)","2025-06-25 05:55",2,21.890632,-159.595703,TRUE,FALSE,TRUE,"S255424443"
