"","speciesCode","comName","sciName","locId","locName","obsDt","howMany","lat","lng","obsValid","obsReviewed","locationPrivate","subId"
"1","x00004","Mallard x American Black Duck (hybrid)","Anas platyrhynchos x rubripes","L45304530","727 E Broadway, Milford US-CT","2025-05-17 17:28",1,41.201712,-73.064031,TRUE,FALSE,TRUE,"S239450910"
"2","x00004","Mallard x American Black Duck (hybrid)","Anas platyrhynchos x rubripes","L4995807","Snail Lake Regional Park","2025-05-17 10:00",1,45.067561,-93.1233788,TRUE,FALSE,FALSE,"S239242888"
"3","x00004","Mallard x American Black Duck (hybrid)","Anas platyrhynchos x rubripes","L19214285","Welsh Park, Rockville","2025-05-17 07:57",1,39.0908869,-77.1608661,TRUE,FALSE,FALSE,"S239135053"
"4","x00004","Mallard x American Black Duck (hybrid)","Anas platyrhynchos x rubripes","L267814","Montezuma NWR--Wildlife Drive","2025-05-17 07:54",1,42.9817483,-76.7353284,TRUE,FALSE,FALSE,"S239197970"
"5","x00004","Mallard x American Black Duck (hybrid)","Anas platyrhynchos x rubripes","L92448","Edwin B. Forsythe NWR--Wildlife Drive (8-mile auto tour loop only)","2025-05-17 07:37",1,39.464298,-74.417612,TRUE,FALSE,FALSE,"S239248122"
"6","x00004","Mallard x American Black Duck (hybrid)","Anas platyrhynchos x rubripes","L251836","Monhegan Island","2025-05-17 06:10",1,43.7657055,-69.3131265,TRUE,FALSE,FALSE,"S239431314"
"7","x00004","Mallard x American Black Duck (hybrid)","Anas platyrhynchos x rubripes","L189035","Liberty SP","2025-05-17 06:07",1,40.7025698,-74.0493536,TRUE,FALSE,FALSE,"S239242625"
"8","x00004","Mallard x American Black Duck (hybrid)","Anas platyrhynchos x rubripes","L2403800","Liberty SP--Tidal Bay","2025-05-17 06:00",1,40.6931832,-74.0648353,TRUE,FALSE,FALSE,"S239146460"
"9","x00004","Mallard x American Black Duck (hybrid)","Anas platyrhynchos x rubripes","L45205299","Cottage","2025-05-16 20:18",1,45.040096,-93.12747,TRUE,FALSE,TRUE,"S238981251"
"10","x00004","Mallard x American Black Duck (hybrid)","Anas platyrhynchos x rubripes","L999548","Presque Isle SP--Leo's Landing","2025-05-16 18:30",1,42.1268858,-80.1431528,TRUE,FALSE,FALSE,"S239122817"
"11","x00004","Mallard x American Black Duck (hybrid)","Anas platyrhynchos x rubripes","L30599484","Stillwater Riverfront Park","2025-05-16 18:19",1,42.9931789,-73.6111665,TRUE,FALSE,TRUE,"S238957833"
"12","x00004","Mallard x American Black Duck (hybrid)","Anas platyrhynchos x rubripes","L45188739","Roger Williams Park Botanical Center, Providence US-RI 41.78407, -71.40587","2025-05-16 16:20",1,41.784067,-71.405869,TRUE,FALSE,TRUE,"S238891424"
"13","x00004","Mallard x American Black Duck (hybrid)","Anas platyrhynchos x rubripes","L444485","Plumb Beach","2025-05-16 15:47",1,40.5823284,-73.9153746,TRUE,FALSE,FALSE,"S238966500"
"14","x00004","Mallard x American Black Duck (hybrid)","Anas platyrhynchos x rubripes","L1162083","Heislerville WMA--Main Pool","2025-05-16 14:12",1,39.2310077,-75.0085974,TRUE,FALSE,FALSE,"S238943151"
"15","x00004","Mallard x American Black Duck (hybrid)","Anas platyrhynchos x rubripes","L45188459","Didrikson Farms Pond","2025-05-16 13:30",1,48.67069,-95.9940105,TRUE,TRUE,TRUE,"S238901159"
"16","x00004","Mallard x American Black Duck (hybrid)","Anas platyrhynchos x rubripes","L207424","Boston Nature Center Wildlife Sanctuary (Mass Audubon)","2025-05-16 13:23",1,42.28835,-71.09991,TRUE,FALSE,FALSE,"S238929228"
"17","x00004","Mallard x American Black Duck (hybrid)","Anas platyrhynchos x rubripes","L829816","Dowses Beach, Osterville","2025-05-16 12:20",1,41.6221797,-70.3663588,TRUE,FALSE,FALSE,"S238860769"
"18","x00004","Mallard x American Black Duck (hybrid)","Anas platyrhynchos x rubripes","L34283469","Cape May Point State Park, Cape May Point US-NJ 38.93276, -74.95939","2025-05-16 09:49",1,38.93276,-74.959387,TRUE,FALSE,TRUE,"S238786039"
"19","x00004","Mallard x American Black Duck (hybrid)","Anas platyrhynchos x rubripes","L298379","Hammonasset Beach SP","2025-05-16 07:24",1,41.2619859,-72.5548234,TRUE,FALSE,FALSE,"S239007086"
"20","x00004","Mallard x American Black Duck (hybrid)","Anas platyrhynchos x rubripes","L7291318","Cold Brook Preserve","2025-05-16 06:58",1,41.6766572,-70.0687389,TRUE,FALSE,FALSE,"S238548186"
"21","x00004","Mallard x American Black Duck (hybrid)","Anas platyrhynchos x rubripes","L859935","Fisherman's Island SP","2025-05-16 06:49",1,45.2961431,-85.3268623,TRUE,FALSE,FALSE,"S238827624"
"22","x00004","Mallard x American Black Duck (hybrid)","Anas platyrhynchos x rubripes","L473315","Stratton Island","2025-05-16 06:00",1,43.5046746,-70.3116417,TRUE,FALSE,FALSE,"S238975481"
"23","x00004","Mallard x American Black Duck (hybrid)","Anas platyrhynchos x rubripes","L1676092","Rachel Carson NWR--Timber Point Trail","2025-05-16 05:47",1,43.4012099,-70.3969941,TRUE,FALSE,FALSE,"S238601559"
"24","x00004","Mallard x American Black Duck (hybrid)","Anas platyrhynchos x rubripes","L597982","Cowbane Prairie Natural Area Preserve","2025-05-15 12:31",1,38.0211832,-79.0479424,TRUE,TRUE,FALSE,"S238347251"
"25","x00004","Mallard x American Black Duck (hybrid)","Anas platyrhynchos x rubripes","L32580287","5803 Woodpecker Rd, South Chesterfield US-VA 37.27030, -77.46697","2025-05-15 11:33",1,37.2703,-77.466971,TRUE,FALSE,TRUE,"S238182519"
"26","x00004","Mallard x American Black Duck (hybrid)","Anas platyrhynchos x rubripes","L109516","Prospect Park","2025-05-15 09:31",1,40.6602841,-73.9689534,TRUE,FALSE,FALSE,"S238412923"
"27","x00004","Mallard x American Black Duck (hybrid)","Anas platyrhynchos x rubripes","L1902982","Brooklyn Bridge Park","2025-05-15 09:29",1,40.6996104,-73.9973745,TRUE,FALSE,FALSE,"S238180720"
"28","x00004","Mallard x American Black Duck (hybrid)","Anas platyrhynchos x rubripes","L11545457","BIGBY Putnam Park","2025-05-15 07:29",2,44.7959396,-91.4842168,TRUE,FALSE,TRUE,"S238291109"
"29","x00004","Mallard x American Black Duck (hybrid)","Anas platyrhynchos x rubripes","L191106","Central Park","2025-05-15 07:15",2,40.7715482,-73.9724819,TRUE,FALSE,FALSE,"S238389266"
"30","x00004","Mallard x American Black Duck (hybrid)","Anas platyrhynchos x rubripes","L860171","Veterans Memorial Pier","2025-05-14 18:03",1,40.6391393,-74.0369531,TRUE,FALSE,FALSE,"S237945437"
"31","x00004","Mallard x American Black Duck (hybrid)","Anas platyrhynchos x rubripes","L207348","Belle Isle Marsh Reservation","2025-05-14 17:21",1,42.3910639,-70.9930195,TRUE,FALSE,FALSE,"S237936940"
"32","x00004","Mallard x American Black Duck (hybrid)","Anas platyrhynchos x rubripes","L3797793","Ocean City Welcome Center","2025-05-14 13:36",1,39.2881767,-74.5824587,TRUE,FALSE,FALSE,"S238287257"
"33","x00004","Mallard x American Black Duck (hybrid)","Anas platyrhynchos x rubripes","L3134836","Upper Lisle County Park--Basset Rd.","2025-05-14 10:37",1,42.4079263,-75.9690476,TRUE,FALSE,FALSE,"S237792914"
"34","x00004","Mallard x American Black Duck (hybrid)","Anas platyrhynchos x rubripes","L20958758","John Schott's Preserve (Private)","2025-05-14 07:50",1,44.1785736,-70.1999425,TRUE,FALSE,TRUE,"S237884945"
"35","x00004","Mallard x American Black Duck (hybrid)","Anas platyrhynchos x rubripes","L590691","Mount Pleasant Farm - Howard County Conservancy","2025-05-14 06:03",1,39.3152585,-76.875726,TRUE,FALSE,FALSE,"S237683381"
"36","x00004","Mallard x American Black Duck (hybrid)","Anas platyrhynchos x rubripes","L2208134","Belle Babb Ln.","2025-05-13 17:52",1,39.1922431,-79.0717363,TRUE,FALSE,FALSE,"S237665505"
"37","x00004","Mallard x American Black Duck (hybrid)","Anas platyrhynchos x rubripes","L479571","Wharton Point, Brunswick","2025-05-13 15:50",1,43.8675956,-69.9933701,TRUE,FALSE,FALSE,"S237483366"
"38","x00004","Mallard x American Black Duck (hybrid)","Anas platyrhynchos x rubripes","L44925549","Stella SE - 28582, Stella US-NC (34.7654,-77.1539)","2025-05-13 12:39",1,34.765383,-77.153851,TRUE,FALSE,TRUE,"S237492790"
"39","x00004","Mallard x American Black Duck (hybrid)","Anas platyrhynchos x rubripes","L265662","Mississippi River Lock and Dam 2 (Dakota Co.)","2025-05-13 09:16",1,44.7581172,-92.8673203,TRUE,FALSE,FALSE,"S237338168"
"40","x00004","Mallard x American Black Duck (hybrid)","Anas platyrhynchos x rubripes","L152655","Illinois Beach SP--South Unit","2025-05-13 08:52",1,42.4203,-87.8078,TRUE,FALSE,FALSE,"S237426070"
"41","x00004","Mallard x American Black Duck (hybrid)","Anas platyrhynchos x rubripes","L251003","Horn Pond Recreation Area","2025-05-13 08:45",1,42.4680852,-71.1582396,TRUE,FALSE,FALSE,"S237408978"
"42","x00004","Mallard x American Black Duck (hybrid)","Anas platyrhynchos x rubripes","L109518","Central Park--The Ramble","2025-05-13 07:38",1,40.7779667,-73.9697165,TRUE,FALSE,FALSE,"S237386086"
"43","x00004","Mallard x American Black Duck (hybrid)","Anas platyrhynchos x rubripes","L207396","Nahant--General Area","2025-05-13 04:53",2,42.4269046,-70.9223447,TRUE,FALSE,FALSE,"S237939388"
"44","x00004","Mallard x American Black Duck (hybrid)","Anas platyrhynchos x rubripes","L10383418","Gunther Pond Park","2025-05-12 17:58",1,41.2473537,-73.2236409,TRUE,FALSE,FALSE,"S237082831"
"45","x00004","Mallard x American Black Duck (hybrid)","Anas platyrhynchos x rubripes","L801856","Krif Road, Keene","2025-05-12 15:50",1,42.9157979,-72.2873354,TRUE,FALSE,FALSE,"S237043499"
"46","x00004","Mallard x American Black Duck (hybrid)","Anas platyrhynchos x rubripes","L27667530","UMass Boston--Campus Grounds and Dorchester Bay","2025-05-12 10:42",1,42.3141662,-71.0373905,TRUE,FALSE,FALSE,"S236997992"
"47","x00004","Mallard x American Black Duck (hybrid)","Anas platyrhynchos x rubripes","L3264643","Barry SGA--Sager Rd. area","2025-05-12 08:04",4,42.5951833,-85.4170597,TRUE,FALSE,FALSE,"S236919153"
"48","x00004","Mallard x American Black Duck (hybrid)","Anas platyrhynchos x rubripes","L17165132","Nutts Pond, Manchester","2025-05-12 07:36",1,42.9619969,-71.4486169,TRUE,FALSE,FALSE,"S236904698"
"49","x00004","Mallard x American Black Duck (hybrid)","Anas platyrhynchos x rubripes","L9364844","Northampton Twp. Municipal Park","2025-05-12 06:46",1,40.2036272,-75.0437492,TRUE,FALSE,FALSE,"S237491958"
"50","x00004","Mallard x American Black Duck (hybrid)","Anas platyrhynchos x rubripes","L192824","C&O Canal--Violette's Lock","2025-05-11 17:35",1,39.066803,-77.32951,TRUE,FALSE,FALSE,"S236680364"
"51","x00004","Mallard x American Black Duck (hybrid)","Anas platyrhynchos x rubripes","L684740","Inwood Hill Park","2025-05-11 15:03",1,40.8717025,-73.9256904,TRUE,FALSE,FALSE,"S239025634"
"52","x00004","Mallard x American Black Duck (hybrid)","Anas platyrhynchos x rubripes","L2384171","Mousam River Estuary","2025-05-11 10:29",1,43.3455763,-70.5140787,TRUE,FALSE,FALSE,"S236340743"
"53","x00004","Mallard x American Black Duck (hybrid)","Anas platyrhynchos x rubripes","L3089685","Fisherman's Bend Park","2025-05-11 09:00",1,42.3710911,-70.9805042,TRUE,FALSE,FALSE,"S236493753"
"54","x00004","Mallard x American Black Duck (hybrid)","Anas platyrhynchos x rubripes","L989437","Black's Creek","2025-05-11 06:49",4,42.2616526,-71.005969,TRUE,FALSE,FALSE,"S236193286"
"55","x00004","Mallard x American Black Duck (hybrid)","Anas platyrhynchos x rubripes","L2521664","Lake Rooty","2025-05-11 06:43",2,37.6699281,-77.5712442,TRUE,FALSE,FALSE,"S236205572"
"56","x00004","Mallard x American Black Duck (hybrid)","Anas platyrhynchos x rubripes","L3558232","Swan Pond, Dennis","2025-05-10 18:25",1,41.6802522,-70.1316333,TRUE,FALSE,FALSE,"S235927986"
"57","x00004","Mallard x American Black Duck (hybrid)","Anas platyrhynchos x rubripes","L38643707","85 Fort Hill Road, Easthampton, Massachusetts, US (42.286, -72.642)","2025-05-10 16:42",1,42.286441,-72.64182,TRUE,FALSE,TRUE,"S235830796"
"58","x00004","Mallard x American Black Duck (hybrid)","Anas platyrhynchos x rubripes","L109145","Jamaica Bay Wildlife Refuge--West Pond","2025-05-10 15:13",1,40.6188482,-73.8307995,TRUE,FALSE,FALSE,"S235883953"
"59","x00004","Mallard x American Black Duck (hybrid)","Anas platyrhynchos x rubripes","L165143","Jamaica Bay Wildlife Refuge","2025-05-10 14:54",1,40.6170296,-73.8244561,TRUE,FALSE,FALSE,"S235918568"
"60","x00004","Mallard x American Black Duck (hybrid)","Anas platyrhynchos x rubripes","L2526644","Save The Bay Center & Coastal Greenway","2025-05-10 14:01",1,41.7857568,-71.3817573,TRUE,FALSE,FALSE,"S235766712"
"61","x00004","Mallard x American Black Duck (hybrid)","Anas platyrhynchos x rubripes","L389007","Richard W. DeKorte Park","2025-05-10 13:28",NA,40.7833,-74.1025167,TRUE,FALSE,FALSE,"S235774562"
"62","x00004","Mallard x American Black Duck (hybrid)","Anas platyrhynchos x rubripes","L786075","Thornhurst Farm","2025-05-10 12:40",1,43.8106905,-70.2279568,TRUE,FALSE,FALSE,"S235658744"
"63","x00004","Mallard x American Black Duck (hybrid)","Anas platyrhynchos x rubripes","L449982","Patterson Park","2025-05-10 12:03",1,39.2896713,-76.5798569,TRUE,FALSE,FALSE,"S236386757"
"64","x00004","Mallard x American Black Duck (hybrid)","Anas platyrhynchos x rubripes","L224925","Batavia Wastewater Treatment Plant","2025-05-10 10:36",1,42.988443,-78.2131344,TRUE,FALSE,FALSE,"S235592214"
"65","x00004","Mallard x American Black Duck (hybrid)","Anas platyrhynchos x rubripes","L794140","Central Park--North End (N of 97th St. Transverse)","2025-05-10 08:21",1,40.796089,-73.9558947,TRUE,FALSE,FALSE,"S235516048"
"66","x00004","Mallard x American Black Duck (hybrid)","Anas platyrhynchos x rubripes","L3502756","Shelby Bottoms Nature Center","2025-05-10 08:14",1,36.1663541,-86.7247826,TRUE,TRUE,FALSE,"S235557454"
"67","x00004","Mallard x American Black Duck (hybrid)","Anas platyrhynchos x rubripes","L5191292","Cross City Trail--Rogersville Rd. to Bradley Creek","2025-05-10 07:23",1,34.232028,-77.8459407,TRUE,FALSE,FALSE,"S235974052"
"68","x00004","Mallard x American Black Duck (hybrid)","Anas platyrhynchos x rubripes","L374648","Halibut Point SP","2025-05-10 07:22",1,42.6910153,-70.6317011,TRUE,FALSE,FALSE,"S235719473"
"69","x00004","Mallard x American Black Duck (hybrid)","Anas platyrhynchos x rubripes","L4384830","Rte. 243 sewage ponds","2025-05-10 07:11",1,38.283813,-76.676016,TRUE,FALSE,FALSE,"S235483996"
"70","x00004","Mallard x American Black Duck (hybrid)","Anas platyrhynchos x rubripes","L692812","Kiwanis Lake Rookery (IBA)","2025-05-10 06:58",7,39.9688529,-76.7417389,TRUE,TRUE,FALSE,"S235524527"
"71","x00004","Mallard x American Black Duck (hybrid)","Anas platyrhynchos x rubripes","L15843354","Oneida Reformatory Rd. Pond","2025-05-10 06:00",1,44.5599916,-88.1981507,TRUE,FALSE,FALSE,"S236025604"
"72","x00004","Mallard x American Black Duck (hybrid)","Anas platyrhynchos x rubripes","L156863","Pondicherry Wildlife Refuge, Jefferson/Whitefield","2025-05-10 06:00",1,44.3828884,-71.5176487,TRUE,FALSE,FALSE,"S236242233"
"73","x00004","Mallard x American Black Duck (hybrid)","Anas platyrhynchos x rubripes","L242130","Manasquan Reservoir IBA","2025-05-09 14:00",1,40.1789389,-74.2084408,TRUE,FALSE,FALSE,"S236435961"
"74","x00004","Mallard x American Black Duck (hybrid)","Anas platyrhynchos x rubripes","L504403","John Heinz NWR--impoundment (Philadelphia Co.)","2025-05-09 12:47",1,39.8893501,-75.2601457,TRUE,FALSE,FALSE,"S235259811"
"75","x00004","Mallard x American Black Duck (hybrid)","Anas platyrhynchos x rubripes","L209928","Boston Public Garden","2025-05-09 08:23",5,42.3536409,-71.0705435,TRUE,FALSE,FALSE,"S234967186"
"76","x00004","Mallard x American Black Duck (hybrid)","Anas platyrhynchos x rubripes","L1929469","Pier 44 Waterfront Garden","2025-05-09 05:56",1,40.6757764,-74.018366,TRUE,FALSE,FALSE,"S235115484"
"77","x00004","Mallard x American Black Duck (hybrid)","Anas platyrhynchos x rubripes","L12538602","South Otsego Lake marsh","2025-05-08 16:55",1,44.917276,-84.701106,TRUE,FALSE,FALSE,"S236228460"
"78","x00004","Mallard x American Black Duck (hybrid)","Anas platyrhynchos x rubripes","L8921457","BIGBY city parks loop","2025-05-08 11:04",2,44.8009985,-91.4990789,TRUE,FALSE,TRUE,"S234714785"
"79","x00004","Mallard x American Black Duck (hybrid)","Anas platyrhynchos x rubripes","L450041","Poplar Island","2025-05-08 08:16",1,38.7648589,-76.3814163,TRUE,FALSE,FALSE,"S234672089"
"80","x00004","Mallard x American Black Duck (hybrid)","Anas platyrhynchos x rubripes","L44406973","Elmwood Junction Trails, Hancock, NH","2025-05-08 08:05",1,42.975045,-71.9406009,TRUE,FALSE,TRUE,"S234689973"
"81","x00004","Mallard x American Black Duck (hybrid)","Anas platyrhynchos x rubripes","L765025","Meadowlands District IBA","2025-05-08 08:01",1,40.8060136,-74.0863895,TRUE,FALSE,FALSE,"S234740819"
"82","x00004","Mallard x American Black Duck (hybrid)","Anas platyrhynchos x rubripes","L12092678","Elmwood Junction trails, Hancock","2025-05-08 07:39",1,42.973574,-71.941002,TRUE,FALSE,TRUE,"S234588188"
