"","speciesCode","comName","sciName","locId","locName","obsDt","howMany","lat","lng","obsValid","obsReviewed","locationPrivate","subId"
"1","mouplo","Mountain Plover","Anarhynchus montanus","L131620","Cheraw Lake","2025-06-20 14:17",3,38.1007663,-103.5127017,TRUE,FALSE,FALSE,"S252466790"
"2","mouplo","Mountain Plover","Anarhynchus montanus","L48077146","West Co Road 84, Briggsdale, Colorado, US (40.596, -104.33)","2025-06-20 10:11",1,40.5958172,-104.3295365,TRUE,FALSE,TRUE,"S252429056"
"3","mouplo","Mountain Plover","Anarhynchus montanus","L48049619","59524, Dodson US-MT 47.89707, -108.32920","2025-06-20 06:49",1,47.897069,-108.329201,TRUE,FALSE,TRUE,"S252310104"
"4","mouplo","Mountain Plover","Anarhynchus montanus","L48084780","35807–35899 County Road 84, Briggsdale US-CO 40.59588, -104.32645","2025-06-20 06:41",3,40.595882,-104.326447,TRUE,FALSE,TRUE,"S252459188"
"5","mouplo","Mountain Plover","Anarhynchus montanus","L48075221","Rio Grande de Norte NM--Mountain Plover spot","2025-06-19 18:41",1,36.967253,-105.992634,TRUE,FALSE,TRUE,"S252421351"
"6","mouplo","Mountain Plover","Anarhynchus montanus","L47956724","Rio Grande del Norte NM--Taos Plateau (Hwy 285 MM 406.1)","2025-06-18 10:35",1,36.9604048,-105.9926637,TRUE,FALSE,TRUE,"S251892696"
"7","mouplo","Mountain Plover","Anarhynchus montanus","L47956344","County Road 3v, Limon US-CO (39.4474,-103.6215)","2025-06-18 07:30",1,39.447439,-103.621504,TRUE,FALSE,TRUE,"S251890485"
"8","mouplo","Mountain Plover","Anarhynchus montanus","L47905570","35806–35898 County Road 84, Briggsdale US-CO 40.59583, -104.32920","2025-06-18 06:14",3,40.595833,-104.329201,TRUE,FALSE,TRUE,"S251657613"
"9","mouplo","Mountain Plover","Anarhynchus montanus","L47956127","Rio Grande del Norte NM--Taos Plateau (Hwy 285 MM 406.6)","2025-06-18 05:50",5,36.9672956,-105.9928637,TRUE,FALSE,TRUE,"S251890847"
"10","mouplo","Mountain Plover","Anarhynchus montanus","L47882174","35806–35898 County Road 84, Briggsdale US-CO 40.59583, -104.33325","2025-06-17 17:42",3,40.59583,-104.333253,TRUE,FALSE,TRUE,"S251536362"
"11","mouplo","Mountain Plover","Anarhynchus montanus","L47845825","County Road 103, Grover US-CO (40.6798,-104.0861)","2025-06-17 07:55",2,40.679789,-104.086128,TRUE,FALSE,TRUE,"S251378919"
"12","mouplo","Mountain Plover","Anarhynchus montanus","L47779103","54001–54237 County Road 26, Genoa US-CO (39.3022,-103.5848)","2025-06-16 09:30",3,39.302211,-103.584792,TRUE,FALSE,TRUE,"S251063352"
"13","mouplo","Mountain Plover","Anarhynchus montanus","L14493832","Old Gap Road","2025-06-16 08:35",1,46.5625274,-109.8149009,TRUE,FALSE,FALSE,"S251069522"
"14","mouplo","Mountain Plover","Anarhynchus montanus","L47709864","Old Gap Rd, Harlowton US-MT 46.49933, -109.81386","2025-06-16 07:06",4,46.499326,-109.813864,TRUE,FALSE,TRUE,"S251013814"
"15","mouplo","Mountain Plover","Anarhynchus montanus","L47719472","Pawnee NG--CR84","2025-06-15 13:30",2,40.59583,-104.323865,TRUE,FALSE,TRUE,"S250782543"
"16","mouplo","Mountain Plover","Anarhynchus montanus","L47621214","2417 Road 39 W, Kimball US-NE 41.18512, -103.68229","2025-06-14 14:56",2,41.185117,-103.682291,TRUE,TRUE,TRUE,"S250348157"
"17","mouplo","Mountain Plover","Anarhynchus montanus","L47616727","County Road 12, Kimball US-NE","2025-06-14 13:20",2,41.076641,-103.688814,TRUE,TRUE,TRUE,"S250330817"
"18","mouplo","Mountain Plover","Anarhynchus montanus","L47600205","41060 SH-392, Briggsdale US-CO 40.59593, -104.32563","2025-06-14 09:33",5,40.595925,-104.325633,TRUE,FALSE,TRUE,"S250268881"
"19","mouplo","Mountain Plover","Anarhynchus montanus","L47706015","35806–35898 County Road 84, Briggsdale US-CO 40.59582, -104.32814","2025-06-14 07:05",4,40.595824,-104.328138,TRUE,FALSE,TRUE,"S250729583"
"20","mouplo","Mountain Plover","Anarhynchus montanus","L47548899","35806–35898 County Road 84, Briggsdale US-CO 40.59579, -104.32773","2025-06-13 19:44",3,40.595788,-104.327726,TRUE,FALSE,TRUE,"S250046836"
"21","mouplo","Mountain Plover","Anarhynchus montanus","L47535035","County Road 84, Briggsdale US-CO","2025-06-13 15:00",3,40.595825,-104.32604,TRUE,FALSE,TRUE,"S249986184"
"22","mouplo","Mountain Plover","Anarhynchus montanus","L47511236","W County Road 84 (FARM FIELD - NORTH SIDE OF ROAD)","2025-06-13 10:30",4,40.5961411,-104.3257756,TRUE,FALSE,TRUE,"S249890236"
"23","mouplo","Mountain Plover","Anarhynchus montanus","L47529500","Old Gap Rd","2025-06-13 06:41",1,46.488531,-109.812165,TRUE,FALSE,TRUE,"S249964947"
"24","mouplo","Mountain Plover","Anarhynchus montanus","L47492968","County rd 84","2025-06-13 06:41",4,40.596173,-104.326998,TRUE,FALSE,TRUE,"S249807667"
"25","mouplo","Mountain Plover","Anarhynchus montanus","L47470848","County Road 84, Briggsdale US-CO","2025-06-12 17:40",4,40.595742,-104.328057,TRUE,FALSE,TRUE,"S249699108"
"26","mouplo","Mountain Plover","Anarhynchus montanus","L47458410","County Road 103, Briggsdale US-CO 40.64247, -104.08734","2025-06-12 11:57",1,40.642472,-104.087339,TRUE,FALSE,TRUE,"S249633617"
"27","mouplo","Mountain Plover","Anarhynchus montanus","L47375421","County Road 103, Briggsdale US-CO 40.64232, -104.08719","2025-06-11 10:58",2,40.642321,-104.087189,TRUE,FALSE,TRUE,"S249251848"
"28","mouplo","Mountain Plover","Anarhynchus montanus","L47394888","46039 County Road 103, Briggsdale, Colorado, US (40.682, -104.086)","2025-06-11 09:16",4,40.6824597,-104.0861642,TRUE,FALSE,TRUE,"S249336251"
"29","mouplo","Mountain Plover","Anarhynchus montanus","L47352465","35806–35898 County Road 84, Briggsdale US-CO 40.59584, -104.32874","2025-06-11 06:24",3,40.595836,-104.328741,TRUE,FALSE,TRUE,"S249147577"
