"","speciesCode","comName","sciName","locId","locName","obsDt","howMany","lat","lng","obsValid","obsReviewed","locationPrivate","subId"
"1","scoori","Scott's Oriole","Icterus parisorum","L44859422","Separ Rd, Silver City US-NM 32.20755, -108.41950","2025-05-12 15:17",1,32.207552,-108.419495,TRUE,FALSE,TRUE,"S237100788"
"2","scoori","Scott's Oriole","Icterus parisorum","L740054","Gray Mountain/Old Route 64","2025-05-12 15:04",2,35.9370502,-111.672678,TRUE,FALSE,FALSE,"S237098115"
"3","scoori","Scott's Oriole","Icterus parisorum","L994658","Portal--Bob Rodrigues yard (Dave Jasper's old yard)","2025-05-12 14:21",1,31.921224,-109.1282621,TRUE,FALSE,FALSE,"S237082071"
"4","scoori","Scott's Oriole","Icterus parisorum","L340405","Box Canyon","2025-05-12 14:12",1,31.7974086,-110.7868486,TRUE,FALSE,FALSE,"S237062687"
"5","scoori","Scott's Oriole","Icterus parisorum","L1193294","Joshua Tree NP--Hall of Horrors","2025-05-12 13:34",2,33.9995346,-116.1467314,TRUE,FALSE,FALSE,"S237086250"
"6","scoori","Scott's Oriole","Icterus parisorum","L10494678","Double Diamond Yard","2025-05-12 12:53",2,30.282526,-103.598501,TRUE,FALSE,TRUE,"S237123376"
"7","scoori","Scott's Oriole","Icterus parisorum","L2059909","Pecos Co.--I-10 Rest area b/w  Ft. Stockton & Balmorhea","2025-05-12 12:22",1,30.9381207,-103.3094645,TRUE,FALSE,FALSE,"S236975562"
"8","scoori","Scott's Oriole","Icterus parisorum","L324045","Portal--Cave Creek Ranch","2025-05-12 12:10",1,31.9041957,-109.1561556,TRUE,FALSE,FALSE,"S237041879"
"9","scoori","Scott's Oriole","Icterus parisorum","L129102","Cave Creek Canyon--Southwestern Research Station","2025-05-12 11:50",1,31.8835432,-109.2058731,TRUE,FALSE,FALSE,"S237052421"
"10","scoori","Scott's Oriole","Icterus parisorum","L199300","Ash Canyon Bird Sanctuary (closed Thursday morning)","2025-05-12 11:44",4,31.3904516,-110.2392496,TRUE,FALSE,FALSE,"S237034954"
"11","scoori","Scott's Oriole","Icterus parisorum","L44837133","3208–3218 Queens Hwy, Carlsbad US-NM 32.20221, -104.67510","2025-05-12 11:40",1,32.202209,-104.675096,TRUE,FALSE,TRUE,"S236974462"
"12","scoori","Scott's Oriole","Icterus parisorum","L13447214","skyfall - private property","2025-05-12 11:30",2,31.9076129,-109.1441642,TRUE,FALSE,TRUE,"S237039690"
"13","scoori","Scott's Oriole","Icterus parisorum","L13494290","Oliver Lee Memorial SP--Riparian Nature Trail","2025-05-12 11:10",2,32.748744,-105.9134408,TRUE,FALSE,FALSE,"S237027407"
"14","scoori","Scott's Oriole","Icterus parisorum","L128969","Fort Peña Colorado Pk (The Post)(FWTX 28)","2025-05-12 10:58",1,30.152997,-103.2874735,TRUE,FALSE,FALSE,"S236970657"
"15","scoori","Scott's Oriole","Icterus parisorum","L44829553","29400 Ranch Road 12, Dripping Springs US-TX 30.21666, -98.08221","2025-05-12 10:38",1,30.21666,-98.082209,TRUE,FALSE,TRUE,"S236933664"
"16","scoori","Scott's Oriole","Icterus parisorum","L1055872","West Clear Creek--Bull Pen Rd","2025-05-12 10:33",1,34.5389622,-111.7089951,TRUE,FALSE,FALSE,"S236989491"
"17","scoori","Scott's Oriole","Icterus parisorum","L3642537","Portal--Jasper/Moisan feeders (opened 2015)","2025-05-12 10:30",1,31.9144645,-109.1443118,TRUE,FALSE,FALSE,"S237007071"
"18","scoori","Scott's Oriole","Icterus parisorum","L41639380","Sharyn Road","2025-05-12 10:16",2,34.3720463,-111.4581807,TRUE,FALSE,TRUE,"S236993877"
"19","scoori","Scott's Oriole","Icterus parisorum","L11047160","Home list","2025-05-12 10:10",1,31.417106,-110.245284,TRUE,FALSE,TRUE,"S237021907"
"20","scoori","Scott's Oriole","Icterus parisorum","L21970737","Shrouncell yard","2025-05-12 10:03",2,35.1500017,-106.4617191,TRUE,FALSE,TRUE,"S236931632"
"21","scoori","Scott's Oriole","Icterus parisorum","L2016086","Blue Dot Trail","2025-05-12 10:00",1,35.8218498,-106.1821318,TRUE,FALSE,FALSE,"S237112065"
"22","scoori","Scott's Oriole","Icterus parisorum","L158779","The Box Recreation Area","2025-05-12 10:00",2,34.0025116,-106.9914937,TRUE,FALSE,FALSE,"S236990315"
"23","scoori","Scott's Oriole","Icterus parisorum","L1154234","Gage Gardens (FWTX 27), Marathon","2025-05-12 09:59",1,30.2044271,-103.2430744,TRUE,FALSE,FALSE,"S236936858"
"24","scoori","Scott's Oriole","Icterus parisorum","L554859","Marg's Draw Trail","2025-05-12 09:48",1,34.8561261,-111.7565131,TRUE,FALSE,FALSE,"S237016095"
"25","scoori","Scott's Oriole","Icterus parisorum","L759375","Utah Hill","2025-05-12 09:44",1,37.1135147,-113.8348389,TRUE,FALSE,TRUE,"S236943842"
"26","scoori","Scott's Oriole","Icterus parisorum","L4790127","Olds Creek Bird Sanctuary","2025-05-12 09:30",5,30.6211468,-103.9823824,TRUE,FALSE,TRUE,"S237034555"
"27","scoori","Scott's Oriole","Icterus parisorum","L28349398","81 Gulch Ln, Silver City US-NM 32.78799, -108.34219","2025-05-12 09:25",2,32.787991,-108.342191,TRUE,FALSE,TRUE,"S237012415"
"28","scoori","Scott's Oriole","Icterus parisorum","L825284","Cibola NF--Strip Mine Trail","2025-05-12 09:24",1,35.3001666,-106.4805543,TRUE,FALSE,FALSE,"S237017260"
"29","scoori","Scott's Oriole","Icterus parisorum","L128938","Catalina SP","2025-05-12 09:15",1,32.4244027,-110.9123905,TRUE,FALSE,FALSE,"S236982389"
"30","scoori","Scott's Oriole","Icterus parisorum","L129056","Pinery Canyon","2025-05-12 09:08",1,31.9328003,-109.2713013,TRUE,FALSE,FALSE,"S237069982"
"31","scoori","Scott's Oriole","Icterus parisorum","L22858082","Santa Rita Lodge","2025-05-12 09:01",1,31.725256,-110.8799471,TRUE,FALSE,TRUE,"S236988566"
"32","scoori","Scott's Oriole","Icterus parisorum","L357634","Cibola NF--Embudito Canyon","2025-05-12 08:49",1,35.1357734,-106.4816809,TRUE,FALSE,FALSE,"S236969693"
"33","scoori","Scott's Oriole","Icterus parisorum","L23438543","South Llano River State Park, Junction US-TX 30.44319, -99.80427","2025-05-12 08:32",1,30.443191,-99.804272,TRUE,FALSE,TRUE,"S236937355"
"34","scoori","Scott's Oriole","Icterus parisorum","L1911920","Indian Canyons--Palm Canyon","2025-05-12 08:26",1,33.7379378,-116.5386343,TRUE,FALSE,FALSE,"S236999703"
"35","scoori","Scott's Oriole","Icterus parisorum","L19453692","River Recharge Natural Area, San Marcos","2025-05-12 08:19",1,29.8859609,-97.9739055,TRUE,FALSE,FALSE,"S236882295"
"36","scoori","Scott's Oriole","Icterus parisorum","L1567217","Manzano Open Space","2025-05-12 08:18",1,35.0488556,-106.4770623,TRUE,FALSE,FALSE,"S236886608"
"37","scoori","Scott's Oriole","Icterus parisorum","L4924747","Hwy 118 - DMP to Kent","2025-05-12 08:08",1,30.7453766,-104.1406918,TRUE,FALSE,TRUE,"S236867491"
"38","scoori","Scott's Oriole","Icterus parisorum","L836152","Mt. Lemmon--Molino Canyon Vista","2025-05-12 08:02",2,32.3264152,-110.7003665,TRUE,FALSE,FALSE,"S237108979"
"39","scoori","Scott's Oriole","Icterus parisorum","L268114","Madera Canyon--Santa Rita Lodge","2025-05-12 07:55",1,31.7251514,-110.8801067,TRUE,FALSE,FALSE,"S237029476"
"40","scoori","Scott's Oriole","Icterus parisorum","L44838245","Big Morongo Canyon Preserve, Morongo Valley US-CA 34.04695, -116.56714","2025-05-12 07:48",2,34.046952,-116.567136,TRUE,FALSE,TRUE,"S236980262"
"41","scoori","Scott's Oriole","Icterus parisorum","L9049329","TBC 536 Supp.","2025-05-12 07:45",1,32.4267559,-110.916705,TRUE,FALSE,TRUE,"S236986831"
"42","scoori","Scott's Oriole","Icterus parisorum","L6695785","Casa Doyle","2025-05-12 07:30",1,31.4100244,-110.2277579,TRUE,FALSE,TRUE,"S237099468"
"43","scoori","Scott's Oriole","Icterus parisorum","L129062","Ramsey Canyon Preserve (formerly Mile Hi Ranch)","2025-05-12 07:29",1,31.4473746,-110.307608,TRUE,FALSE,FALSE,"S237120334"
"44","scoori","Scott's Oriole","Icterus parisorum","L22960459","RG New Home","2025-05-12 07:18",1,31.414288,-110.226928,TRUE,FALSE,TRUE,"S236918460"
"45","scoori","Scott's Oriole","Icterus parisorum","L142170","Park Place","2025-05-12 07:13",1,29.8576916,-98.7555456,TRUE,FALSE,TRUE,"S237010521"
"46","scoori","Scott's Oriole","Icterus parisorum","L3154811","Slate Creek Divide (Maricopa Co.)","2025-05-12 07:13",1,34.000011,-111.470356,TRUE,FALSE,FALSE,"S236936820"
"47","scoori","Scott's Oriole","Icterus parisorum","L2621431","Fort Davis Estates Wildlife Sanctuary","2025-05-12 06:55",1,30.565385,-103.8843349,TRUE,FALSE,TRUE,"S236871036"
"48","scoori","Scott's Oriole","Icterus parisorum","L360452","Big Bend NP--Panther Junction","2025-05-12 06:45",2,29.3281624,-103.2064569,TRUE,FALSE,FALSE,"S237117263"
"49","scoori","Scott's Oriole","Icterus parisorum","L4546044","Slate Creek Divide (Maricopa)--lower","2025-05-12 06:44",2,33.9474229,-111.4522286,TRUE,FALSE,FALSE,"S236873893"
"50","scoori","Scott's Oriole","Icterus parisorum","L26297156","Cielo Azul","2025-05-12 06:30",2,30.372775,-103.739375,TRUE,FALSE,TRUE,"S236904532"
"51","scoori","Scott's Oriole","Icterus parisorum","L4499401","Beehive Ranch","2025-05-12 06:12",1,29.8193976,-98.7803695,TRUE,FALSE,TRUE,"S236799807"
"52","scoori","Scott's Oriole","Icterus parisorum","L1546530","Brown Canyon Ranch (opened 2011)","2025-05-12 06:02",1,31.4740051,-110.2977887,TRUE,FALSE,FALSE,"S236971242"
"53","scoori","Scott's Oriole","Icterus parisorum","L128984","Harshaw Canyon","2025-05-12 06:02",2,31.5051994,-110.7031021,TRUE,FALSE,FALSE,"S236897133"
"54","scoori","Scott's Oriole","Icterus parisorum","L5238840","E Mountain View Road (private residence)","2025-05-12 06:00",2,31.3853692,-110.2273214,TRUE,FALSE,TRUE,"S236933039"
"55","scoori","Scott's Oriole","Icterus parisorum","L7414548","Slate Creek Divide--Sycamore Spring","2025-05-12 05:58",1,33.938648,-111.451892,TRUE,FALSE,FALSE,"S236857712"
"56","scoori","Scott's Oriole","Icterus parisorum","L128986","San Pedro RNCA--Hereford Bridge","2025-05-12 05:58",2,31.4384285,-110.1076526,TRUE,FALSE,FALSE,"S237054128"
"57","scoori","Scott's Oriole","Icterus parisorum","L339731","Cave Creek Canyon--Sunny Flat CG","2025-05-12 05:45",2,31.8847242,-109.1755749,TRUE,FALSE,FALSE,"S236963805"
"58","scoori","Scott's Oriole","Icterus parisorum","L1416495","1. Mule Pass Yard","2025-05-12 05:00",4,31.4641892,-109.9561961,TRUE,FALSE,TRUE,"S236913738"
"59","scoori","Scott's Oriole","Icterus parisorum","L44787752","Laughlin Air Force Base, Texas, US (29.923, -100.921)","2025-05-11 18:26",1,29.9231814,-100.9210601,TRUE,FALSE,TRUE,"S236691060"
"60","scoori","Scott's Oriole","Icterus parisorum","L128939","Cave Creek Canyon","2025-05-11 17:48",2,31.8935,-109.166851,TRUE,FALSE,FALSE,"S236940834"
"61","scoori","Scott's Oriole","Icterus parisorum","L44785387","Auto selected 34.56979, -111.72506","2025-05-11 17:23",2,34.569788,-111.725061,TRUE,FALSE,TRUE,"S236676636"
"62","scoori","Scott's Oriole","Icterus parisorum","L208287","Elena Gallegos Open Space","2025-05-11 16:39",2,35.1618103,-106.4737415,TRUE,FALSE,FALSE,"S236930082"
"63","scoori","Scott's Oriole","Icterus parisorum","L23220274","Rancho Buena Vista","2025-05-11 16:11",2,29.540306,-103.349358,TRUE,FALSE,TRUE,"S236585483"
"64","scoori","Scott's Oriole","Icterus parisorum","L2858118","Davis Mountains SP--Primitive area N. of TX118","2025-05-11 15:57",2,30.60079,-103.92579,TRUE,FALSE,FALSE,"S236708714"
"65","scoori","Scott's Oriole","Icterus parisorum","L36383876","AZ:Chs:Paradise:Lee-Clark Property (private)","2025-05-11 15:49",2,31.9411435,-109.2168343,TRUE,FALSE,TRUE,"S236636163"
"66","scoori","Scott's Oriole","Icterus parisorum","L263942","Christmas Mountains Oasis","2025-05-11 15:26",2,29.4917768,-103.4670389,TRUE,FALSE,FALSE,"S236659811"
"67","scoori","Scott's Oriole","Icterus parisorum","L44774919","State Line Road, San Simon, Arizona, US (31.862, -109.049)","2025-05-11 15:21",1,31.8617745,-109.0491041,TRUE,FALSE,TRUE,"S236615353"
"68","scoori","Scott's Oriole","Icterus parisorum","L2170366","Big Bend NP--Chisos Basin WTP","2025-05-11 15:20",1,29.2786178,-103.3070424,TRUE,FALSE,FALSE,"S236704397"
"69","scoori","Scott's Oriole","Icterus parisorum","L44765306","1301 Snake Rd, Alpine US-TX 29.52196, -103.46583","2025-05-11 15:02",2,29.521962,-103.46583,TRUE,FALSE,TRUE,"S236567673"
"70","scoori","Scott's Oriole","Icterus parisorum","L765457","Las Cienegas NCA--South Entrance (Santa Cruz Co.)","2025-05-11 14:29",2,31.7141517,-110.5902417,TRUE,FALSE,FALSE,"S236655453"
"71","scoori","Scott's Oriole","Icterus parisorum","L18976002","Davis Mtns SP--Interpretive Center","2025-05-11 14:15",2,30.5956658,-103.9304521,TRUE,FALSE,FALSE,"S236559893"
"72","scoori","Scott's Oriole","Icterus parisorum","L38317891","Boonies","2025-05-11 14:07",1,36.715422,-107.965082,TRUE,FALSE,TRUE,"S236553817"
"73","scoori","Scott's Oriole","Icterus parisorum","L367862","East Whitetail Canyon","2025-05-11 14:05",1,31.999469,-109.271453,TRUE,FALSE,FALSE,"S236615174"
"74","scoori","Scott's Oriole","Icterus parisorum","L896248","Wet Beaver Creek WA--Bell Trail","2025-05-11 14:02",3,34.6743782,-111.7133653,TRUE,FALSE,FALSE,"S236709160"
"75","scoori","Scott's Oriole","Icterus parisorum","L589669","City of Rocks SP","2025-05-11 13:57",2,32.5910812,-107.9753494,TRUE,FALSE,FALSE,"S236567610"
"76","scoori","Scott's Oriole","Icterus parisorum","L128950","Davis Mountains  SP (FWTX 23)","2025-05-11 13:23",2,30.5962706,-103.9347249,TRUE,FALSE,FALSE,"S236560752"
"77","scoori","Scott's Oriole","Icterus parisorum","L2590456","3650 CR 437 Cherokee, TX","2025-05-11 12:47",1,30.9623766,-98.6788054,TRUE,FALSE,TRUE,"S236591436"
"78","scoori","Scott's Oriole","Icterus parisorum","L3824198","US-CA-Kern--Weldon--Kelso Valley--Bird Springs neighborhood","2025-05-11 11:21",1,35.560495,-118.220604,TRUE,FALSE,TRUE,"S236659473"
"79","scoori","Scott's Oriole","Icterus parisorum","L275890","Collins' Ranch","2025-05-11 11:00",1,29.9644444,-99.0236111,TRUE,FALSE,TRUE,"S236719858"
"80","scoori","Scott's Oriole","Icterus parisorum","L796406","Quatal Canyon (VEN Co.)","2025-05-11 10:54",1,34.8198633,-119.402504,TRUE,FALSE,FALSE,"S236634996"
"81","scoori","Scott's Oriole","Icterus parisorum","L5804011","Cabeza Prieta NWR Breeding Bird Survey--Point 50 (permit only)","2025-05-11 10:22",2,32.23806,-112.9307,TRUE,FALSE,TRUE,"S236616915"
"82","scoori","Scott's Oriole","Icterus parisorum","L3950140","The King's","2025-05-11 10:10",1,30.5898959,-103.904361,TRUE,FALSE,TRUE,"S236711997"
"83","scoori","Scott's Oriole","Icterus parisorum","L28826209","Guadalupe Mountains","2025-05-11 10:00",1,32.200335,-104.717646,TRUE,FALSE,TRUE,"S236417888"
"84","scoori","Scott's Oriole","Icterus parisorum","L8952710","Sierra Vista Rd, Sunny Glen, Alpine TX","2025-05-11 09:52",5,30.3789562,-103.73066,TRUE,FALSE,TRUE,"S236348980"
"85","scoori","Scott's Oriole","Icterus parisorum","L44756689","5255 East Spring Road, Hereford, Arizona, US (31.39, -110.24)","2025-05-11 09:37",5,31.3903641,-110.2395376,TRUE,FALSE,TRUE,"S236527304"
"86","scoori","Scott's Oriole","Icterus parisorum","L1656922","Kasha-Katuwe Tent Rocks NM","2025-05-11 09:25",2,35.661094,-106.4115394,TRUE,FALSE,FALSE,"S236595130"
"87","scoori","Scott's Oriole","Icterus parisorum","L5802095","Cabeza Prieta NWR Breeding Bird Survey--Point 40 (no access)","2025-05-11 09:22",1,32.28058,-112.9785,TRUE,FALSE,TRUE,"S236553675"
"88","scoori","Scott's Oriole","Icterus parisorum","L11935947","TX118 Scenic Overlook","2025-05-11 09:02",1,30.6656381,-104.0289919,TRUE,FALSE,FALSE,"S236702676"
"89","scoori","Scott's Oriole","Icterus parisorum","L3380924","AZ-Cochise-Portal--2494 S. Old Canyon Rd. (private)","2025-05-11 08:45",3,31.9063055,-109.1534289,TRUE,FALSE,TRUE,"S236701002"
"90","scoori","Scott's Oriole","Icterus parisorum","L24317100","Box Canyon--old dam area","2025-05-11 08:23",2,31.798956,-110.777034,TRUE,FALSE,FALSE,"S236462954"
"91","scoori","Scott's Oriole","Icterus parisorum","L568478","Kickapoo Cavern SP (Kinney Co.)","2025-05-11 08:18",1,29.61154,-100.4533,TRUE,FALSE,FALSE,"S236433802"
"92","scoori","Scott's Oriole","Icterus parisorum","L8812892","Garden Canyon Rd--BETWEEN Upper Picnic Area and Sawmill Canyon","2025-05-11 08:18",1,31.460941,-110.361756,TRUE,FALSE,FALSE,"S236496493"
"93","scoori","Scott's Oriole","Icterus parisorum","L493066","Tollhouse Spring","2025-05-11 08:18",1,37.2433971,-118.193568,TRUE,FALSE,FALSE,"S236616749"
"94","scoori","Scott's Oriole","Icterus parisorum","L43140504","McKelligon Canyon, El Paso US-TX 31.83770, -106.48282","2025-05-11 08:08",1,31.837702,-106.482822,TRUE,FALSE,TRUE,"S236296993"
"95","scoori","Scott's Oriole","Icterus parisorum","L1062940","Gila Bird Area","2025-05-11 08:05",3,32.812775,-108.60154,TRUE,FALSE,FALSE,"S236682819"
"96","scoori","Scott's Oriole","Icterus parisorum","L8982539","2638 Bourdon Ranch Road","2025-05-11 08:02",1,34.4077324,-110.0431552,TRUE,FALSE,TRUE,"S236350299"
"97","scoori","Scott's Oriole","Icterus parisorum","L44783991","Agua Blanca Ranch (Private)","2025-05-11 08:01",1,32.2668442,-111.4158514,TRUE,FALSE,TRUE,"S236668942"
"98","scoori","Scott's Oriole","Icterus parisorum","L18793287","Lower Pinery Canyon","2025-05-11 07:57",2,31.965295,-109.317811,TRUE,FALSE,TRUE,"S236954038"
"99","scoori","Scott's Oriole","Icterus parisorum","L7812366","Davis Mountains Preserve--Pine Peak/Shoe Rd.","2025-05-11 07:53",1,30.672265,-104.1280176,TRUE,FALSE,FALSE,"S236562370"
"100","scoori","Scott's Oriole","Icterus parisorum","L281844","Montosa Canyon--km 1 (culvert area)","2025-05-11 07:51",1,31.6714585,-110.941082,TRUE,FALSE,FALSE,"S236534595"
"101","scoori","Scott's Oriole","Icterus parisorum","L129031","Miller Canyon Trail","2025-05-11 07:44",2,31.40806,-110.28619,TRUE,FALSE,FALSE,"S236737636"
"102","scoori","Scott's Oriole","Icterus parisorum","L2427011","Chiricahua Mtns.--Whitetail Canyon","2025-05-11 07:42",4,31.9994008,-109.2720124,TRUE,FALSE,TRUE,"S236645379"
"103","scoori","Scott's Oriole","Icterus parisorum","L20223024","1402 North Kentucky Street, Silver City, New Mexico, US (32.78, -108.285)","2025-05-11 07:39",1,32.7801512,-108.2852473,TRUE,FALSE,TRUE,"S236273340"
"104","scoori","Scott's Oriole","Icterus parisorum","L264842","Miller Canyon--Beatty's Guest Ranch","2025-05-11 07:37",1,31.4156019,-110.2765277,TRUE,FALSE,FALSE,"S236432878"
"105","scoori","Scott's Oriole","Icterus parisorum","L41979273","8248–8298 E Box Canyon Rd, Sonoita US-AZ (31.7997,-110.7810)","2025-05-11 07:21",2,31.799687,-110.780974,TRUE,FALSE,TRUE,"S236606111"
"106","scoori","Scott's Oriole","Icterus parisorum","L15099387","Encino Road","2025-05-11 07:05",1,35.308321,-106.825423,TRUE,FALSE,FALSE,"S236400573"
"107","scoori","Scott's Oriole","Icterus parisorum","L2262809","Big Bend NP--Chisos Basin Campground","2025-05-11 07:05",1,29.2761238,-103.3025122,TRUE,FALSE,FALSE,"S237027292"
"108","scoori","Scott's Oriole","Icterus parisorum","L5001484","Hunter Canyon Rd (Huachuca Mts)","2025-05-11 07:02",1,31.4039316,-110.2506814,TRUE,FALSE,FALSE,"S236356945"
"109","scoori","Scott's Oriole","Icterus parisorum","L4130933","Patagonia Lake--Sonoita Creek","2025-05-11 07:00",1,31.5003727,-110.8425182,TRUE,FALSE,FALSE,"S236610058"
"110","scoori","Scott's Oriole","Icterus parisorum","L987246","Silver Creek at Portal-Paradise Rd","2025-05-11 06:55",5,31.9326531,-109.1857933,TRUE,FALSE,FALSE,"S236374402"
"111","scoori","Scott's Oriole","Icterus parisorum","L18423281","Loco Road Yard","2025-05-11 06:53",2,32.4924583,-107.9857407,TRUE,FALSE,TRUE,"S236243202"
"112","scoori","Scott's Oriole","Icterus parisorum","L44595445","Home","2025-05-11 06:38",1,35.589981,-106.052268,TRUE,FALSE,TRUE,"S236214538"
"113","scoori","Scott's Oriole","Icterus parisorum","L5801556","Cabeza Prieta NWR Breeding Bird Survey--Point 15 (permit only)","2025-05-11 06:33",1,32.3822,-113.0043,TRUE,FALSE,TRUE,"S236592615"
"114","scoori","Scott's Oriole","Icterus parisorum","L44636464","southwestern research station","2025-05-11 06:30",1,31.8832912,-109.2053757,TRUE,FALSE,TRUE,"S237088282"
"115","scoori","Scott's Oriole","Icterus parisorum","L21871496","Hereford home","2025-05-11 06:29",1,31.387199,-110.220389,TRUE,FALSE,TRUE,"S236545746"
"116","scoori","Scott's Oriole","Icterus parisorum","L5801525","Cabeza Prieta NWR Breeding Bird Survey--Point 14 (permit only)","2025-05-11 06:25",1,32.38044,-112.9959,TRUE,FALSE,TRUE,"S236592147"
"117","scoori","Scott's Oriole","Icterus parisorum","L42273385","Aliperti Cabin (W Turkey Creek)","2025-05-11 06:22",2,31.864886,-109.340902,TRUE,FALSE,TRUE,"S236512753"
"118","scoori","Scott's Oriole","Icterus parisorum","L129033","Mt. Lemmon--Molino Basin","2025-05-11 06:20",1,32.337101,-110.6921005,TRUE,FALSE,FALSE,"S236655913"
"119","scoori","Scott's Oriole","Icterus parisorum","L5801492","Cabeza Prieta NWR Breeding Bird Survey--Point 12 (permit only)","2025-05-11 06:14",1,32.37758,-112.9803,TRUE,FALSE,TRUE,"S236590603"
"120","scoori","Scott's Oriole","Icterus parisorum","L129105","Sycamore Canyon (Pajarito Mountains)","2025-05-11 06:07",1,31.4290009,-111.1905975,TRUE,FALSE,FALSE,"S236587215"
"121","scoori","Scott's Oriole","Icterus parisorum","L128933","Carlsbad Caverns NP--Rattlesnake Springs","2025-05-11 06:03",1,32.1109359,-104.4660668,TRUE,FALSE,FALSE,"S236419848"
"122","scoori","Scott's Oriole","Icterus parisorum","L1593187","Cactus Flats","2025-05-11 06:03",1,34.2989486,-116.7937416,TRUE,FALSE,FALSE,"S236405540"
"123","scoori","Scott's Oriole","Icterus parisorum","L12778875","Whitetail Canyon, Bickel yard, US-AZ-Cochise (32.0003,-109.2734)","2025-05-11 05:59",3,32.000252,-109.273404,TRUE,FALSE,TRUE,"S236322706"
"124","scoori","Scott's Oriole","Icterus parisorum","L44737381","Gila National Forest, Glenwood US-NM 33.28416, -108.85390","2025-05-11 05:55",1,33.284162,-108.853903,TRUE,FALSE,TRUE,"S236438623"
"125","scoori","Scott's Oriole","Icterus parisorum","L758087","Miller Canyon--lower (below Beatty's)","2025-05-11 05:42",1,31.4228039,-110.2644539,TRUE,FALSE,FALSE,"S236560452"
"126","scoori","Scott's Oriole","Icterus parisorum","L1051139","Walker Canyon","2025-05-11 05:31",3,31.38743,-111.0644469,TRUE,FALSE,FALSE,"S236402110"
"127","scoori","Scott's Oriole","Icterus parisorum","L1796846","Ken Morgan Pl Vail","2025-05-11 05:30",1,31.9711922,-110.8230771,TRUE,FALSE,TRUE,"S236302577"
"128","scoori","Scott's Oriole","Icterus parisorum","L5801302","Cabeza Prieta NWR Breeding Bird Survey--Point 04 (permit only)","2025-05-11 05:16",1,32.39522,-112.9506,TRUE,FALSE,TRUE,"S236576309"
"129","scoori","Scott's Oriole","Icterus parisorum","L5801274","Cabeza Prieta NWR Breeding Bird Survey--Point 03 (permit only)","2025-05-11 05:09",1,32.40043,-112.9475,TRUE,FALSE,TRUE,"S236575620"
"130","scoori","Scott's Oriole","Icterus parisorum","L634555","Mojave National Preserve--Providence Mountains SRA","2025-05-11 05:00",NA,34.9432656,-115.5130219,TRUE,FALSE,FALSE,"S236286782"
"131","scoori","Scott's Oriole","Icterus parisorum","L44651017","Grand Staircase-Escalante National Monument, Kanab US-UT 37.18336, -112.29000","2025-05-10 20:22",1,37.183362,-112.290003,TRUE,FALSE,TRUE,"S236028160"
"132","scoori","Scott's Oriole","Icterus parisorum","L6940604","Dusty V Acres","2025-05-10 19:00",2,35.1816178,-113.812197,TRUE,FALSE,TRUE,"S236030371"
"133","scoori","Scott's Oriole","Icterus parisorum","L9059278","Taylor Co.--Mountain Pass Rd./CR 351","2025-05-10 18:26",1,32.3185479,-100.0536753,TRUE,FALSE,FALSE,"S236005815"
"134","scoori","Scott's Oriole","Icterus parisorum","L749724","Madera Canyon--Amphitheater","2025-05-10 18:22",1,31.7221396,-110.8797151,TRUE,FALSE,FALSE,"S236022261"
"135","scoori","Scott's Oriole","Icterus parisorum","L13566716","SaddleBrooke Ranch Pond and surrounding area","2025-05-10 18:13",1,32.5907602,-110.9196866,TRUE,FALSE,TRUE,"S236030699"
"136","scoori","Scott's Oriole","Icterus parisorum","L200055","Cibola NF--Water Canyon","2025-05-10 17:59",1,34.0231527,-107.1310644,TRUE,FALSE,FALSE,"S235991786"
"137","scoori","Scott's Oriole","Icterus parisorum","L357489","Cibola NF--Tres Pistolas Canyon","2025-05-10 17:55",2,35.0787053,-106.4437115,TRUE,FALSE,FALSE,"S236006049"
"138","scoori","Scott's Oriole","Icterus parisorum","L18025808","N6110, Saint Johns, Arizona, US (34.513, -109.273)","2025-05-10 16:34",2,34.5134224,-109.2730715,TRUE,FALSE,TRUE,"S235957613"
"139","scoori","Scott's Oriole","Icterus parisorum","L14829661","70 Hobe Road, Oracle, Arizona, US (32.601, -110.753)","2025-05-10 16:00",1,32.600723,-110.7530239,TRUE,FALSE,TRUE,"S235956700"
"140","scoori","Scott's Oriole","Icterus parisorum","L320213","Paradise--George Walker House","2025-05-10 15:53",1,31.9350554,-109.2191966,TRUE,FALSE,FALSE,"S236040198"
"141","scoori","Scott's Oriole","Icterus parisorum","L129099","Cave Creek Canyon--South Fork","2025-05-10 15:37",1,31.8688764,-109.1883919,TRUE,FALSE,FALSE,"S236059094"
"142","scoori","Scott's Oriole","Icterus parisorum","L44663119","Mule Creek, New Mexico, US (32.935, -108.992)","2025-05-10 15:21",1,32.9350721,-108.9918396,TRUE,FALSE,TRUE,"S236035995"
"143","scoori","Scott's Oriole","Icterus parisorum","L208039","Madera Canyon--Bog Springs campground","2025-05-10 14:57",1,31.7263,-110.875,TRUE,FALSE,FALSE,"S236367048"
"144","scoori","Scott's Oriole","Icterus parisorum","L44648101","Hart Prairie- Galinas Tank (engagement photo place)","2025-05-10 14:36",1,35.326795,-111.738596,TRUE,FALSE,TRUE,"S235945313"
"145","scoori","Scott's Oriole","Icterus parisorum","L3060785","Dixon Water Foundation--Mimms Ranch (No public access)","2025-05-10 13:33",1,30.3212287,-104.0256277,TRUE,FALSE,FALSE,"S235849391"
"146","scoori","Scott's Oriole","Icterus parisorum","L326219","Leslie Canyon NWR","2025-05-10 13:10",1,31.5918899,-109.508758,TRUE,FALSE,FALSE,"S236700627"
"147","scoori","Scott's Oriole","Icterus parisorum","L44632262","1042 Event Center Drive, Dripping Springs, Texas, US (30.219, -98.086)","2025-05-10 12:53",1,30.2186439,-98.0860126,TRUE,FALSE,TRUE,"S235856840"
"148","scoori","Scott's Oriole","Icterus parisorum","L4712195","Sycamore Creek--upper Beeline Hwy","2025-05-10 11:31",1,33.9117312,-111.4825845,TRUE,FALSE,FALSE,"S235827215"
"149","scoori","Scott's Oriole","Icterus parisorum","L744308","Mt. Ord (Maricopa Co.)","2025-05-10 11:26",2,33.9053284,-111.4103365,TRUE,FALSE,FALSE,"S235994281"
"150","scoori","Scott's Oriole","Icterus parisorum","L12917849","Whitetail Canyon—Vineyard to Mackey Wash","2025-05-10 10:59",1,31.997781,-109.260088,TRUE,FALSE,TRUE,"S235780808"
"151","scoori","Scott's Oriole","Icterus parisorum","L44663482","FS 201, Road to Slate Creek Divide","2025-05-10 10:49",2,33.9585114,-111.4496203,TRUE,FALSE,TRUE,"S236037975"
"152","scoori","Scott's Oriole","Icterus parisorum","L876716","Bosque del Apache NWR--South Loop (formerly Marsh Loop)","2025-05-10 10:47",1,33.7831424,-106.8928528,TRUE,FALSE,FALSE,"S235716129"
"153","scoori","Scott's Oriole","Icterus parisorum","L813473","Battiste's Bird Garden","2025-05-10 10:44",2,31.4204234,-110.2475023,TRUE,FALSE,FALSE,"S235750372"
"154","scoori","Scott's Oriole","Icterus parisorum","L843781","Cibola NF--Sulphur Canyon Picnic Area","2025-05-10 10:40",2,35.172335,-106.3765812,TRUE,FALSE,FALSE,"S235804623"
"155","scoori","Scott's Oriole","Icterus parisorum","L44613798","Ventana Trail, Mount Lemmon US-AZ 32.37378, -110.86701","2025-05-10 10:39",1,32.373782,-110.867014,TRUE,FALSE,TRUE,"S235762974"
"156","scoori","Scott's Oriole","Icterus parisorum","L449853","Chihuahuan Desert Research Institute (FWTX 21)","2025-05-10 10:18",2,30.5380904,-103.8373661,TRUE,FALSE,FALSE,"S235677924"
"157","scoori","Scott's Oriole","Icterus parisorum","L14438403","Owls Butte Camp (private)","2025-05-10 10:12",8,31.8001123,-109.1170145,TRUE,FALSE,TRUE,"S235744485"
"158","scoori","Scott's Oriole","Icterus parisorum","L899038","Joshua Tree NP--Willow Hole","2025-05-10 10:00",1,34.068445,-116.1664295,TRUE,FALSE,FALSE,"S236867721"
"159","scoori","Scott's Oriole","Icterus parisorum","L13579784","Yard Birds US-NM 32.59803, -108.33513","2025-05-10 10:00",2,32.598029,-108.335126,TRUE,FALSE,TRUE,"S235673972"
"160","scoori","Scott's Oriole","Icterus parisorum","L5525302","W Turkey Creek Rd--Nat'l Forest boundary to road end (mp 8.3-11)","2025-05-10 09:40",1,31.8658952,-109.3487477,TRUE,FALSE,FALSE,"S236247904"
"161","scoori","Scott's Oriole","Icterus parisorum","L4814017","Pinal Mountains--Pioneer Pass Campground","2025-05-10 09:40",1,33.2807895,-110.796843,TRUE,FALSE,FALSE,"S235790635"
"162","scoori","Scott's Oriole","Icterus parisorum","L44290094","Maintenance pull off SR-366 Safford US-AZ 32.66974, -109.78752","2025-05-10 09:34",1,32.669743,-109.787517,TRUE,FALSE,TRUE,"S235648841"
"163","scoori","Scott's Oriole","Icterus parisorum","L4703018","Pena Blanca Lake, Santa Cruz County, AZ","2025-05-10 09:30",1,31.402862,-111.087313,TRUE,FALSE,TRUE,"S235948935"
"164","scoori","Scott's Oriole","Icterus parisorum","L15779267","Vista Manzano Lp","2025-05-10 09:14",2,35.3570354,-106.6861526,TRUE,FALSE,TRUE,"S236225226"
"165","scoori","Scott's Oriole","Icterus parisorum","L22114838","14910 La Noria, Helotes TX 78023","2025-05-10 08:50",1,29.582201,-98.777654,TRUE,FALSE,TRUE,"S235501800"
"166","scoori","Scott's Oriole","Icterus parisorum","L789932","Aravaipa Canyon--east (Graham Co.)","2025-05-10 08:45",1,32.8726671,-110.3741455,TRUE,FALSE,FALSE,"S235818107"
"167","scoori","Scott's Oriole","Icterus parisorum","L3014669","Las Brisas Loop","2025-05-10 08:30",1,35.3237042,-106.4296246,TRUE,FALSE,TRUE,"S235694865"
"168","scoori","Scott's Oriole","Icterus parisorum","L5406614","US-New Mexico-Silver City-25 Oxbow Drive - 32.839x-108.219","2025-05-10 08:22",2,32.8389207,-108.2186078,TRUE,FALSE,TRUE,"S235550590"
"169","scoori","Scott's Oriole","Icterus parisorum","L720787","Florida Canyon--lower","2025-05-10 08:21",1,31.7633436,-110.8458804,TRUE,FALSE,FALSE,"S235782970"
"170","scoori","Scott's Oriole","Icterus parisorum","L189761","Organ Mountains-Desert Peaks NM--Dripping Springs NA","2025-05-10 08:12",2,32.32773,-106.59024,TRUE,FALSE,FALSE,"S235721592"
"171","scoori","Scott's Oriole","Icterus parisorum","L339732","Cave Creek Canyon--Idlewild CG","2025-05-10 08:05",1,31.894938,-109.164516,TRUE,FALSE,FALSE,"S235850105"
"172","scoori","Scott's Oriole","Icterus parisorum","L11593552","41 Cienega Canyon Road, Placitas, New Mexico, US (35.326, -106.475)","2025-05-10 08:00",1,35.3257169,-106.4749931,TRUE,FALSE,TRUE,"S236046360"
"173","scoori","Scott's Oriole","Icterus parisorum","L444070","Glenwood Fish Hatchery","2025-05-10 07:53",1,33.3210796,-108.8802463,TRUE,FALSE,FALSE,"S235579564"
"174","scoori","Scott's Oriole","Icterus parisorum","L16056943","Coronado National Forest, Sahuarita US-AZ 31.79897, -110.78238","2025-05-10 07:53",1,31.798972,-110.782376,TRUE,FALSE,TRUE,"S236043218"
"175","scoori","Scott's Oriole","Icterus parisorum","L44587660","J6 Equestrian Center","2025-05-10 07:51",1,31.96167,-110.421105,TRUE,FALSE,TRUE,"S235638551"
"176","scoori","Scott's Oriole","Icterus parisorum","L12466748","Agaritaville, Leakey, Texas, US (29.776, -99.762)","2025-05-10 07:50",1,29.7762755,-99.7615367,TRUE,FALSE,TRUE,"S235630233"
"177","scoori","Scott's Oriole","Icterus parisorum","L16368204","7735 East Bravo Lane, Prescott Valley, Arizona, US (34.566, -112.33)","2025-05-10 07:38",1,34.5661688,-112.32984,TRUE,FALSE,TRUE,"S236660788"
"178","scoori","Scott's Oriole","Icterus parisorum","L12916190","Whitetail Canyon—West of Bickel yard","2025-05-10 07:38",1,32.0050079,-109.2786225,TRUE,FALSE,TRUE,"S235667194"
"179","scoori","Scott's Oriole","Icterus parisorum","L4341482","Mt. Ord--lower (Maricopa Co.)","2025-05-10 07:32",4,33.9171171,-111.4428341,TRUE,FALSE,FALSE,"S235806044"
"180","scoori","Scott's Oriole","Icterus parisorum","L583547","Davis Mountains Resort (Restricted Access)","2025-05-10 07:30",1,30.6173798,-104.0970039,TRUE,FALSE,FALSE,"S235666919"
"181","scoori","Scott's Oriole","Icterus parisorum","L2917328","Chiricahua NM--Echo Canyon Loop Trail only","2025-05-10 07:29",1,32.0076393,-109.3151236,TRUE,FALSE,FALSE,"S235943895"
"182","scoori","Scott's Oriole","Icterus parisorum","L787551","Willow Springs Rd--Big Wash","2025-05-10 07:28",1,32.6519501,-110.8927345,TRUE,FALSE,FALSE,"S235547741"
"183","scoori","Scott's Oriole","Icterus parisorum","L3613156","Mt. Ord (Gila Co.) lower region","2025-05-10 07:18",2,33.9203044,-111.4336503,TRUE,FALSE,TRUE,"S235590791"
"184","scoori","Scott's Oriole","Icterus parisorum","L1234575","Big Bend NP--Chisos Mountains Lodge area","2025-05-10 07:17",1,29.2699985,-103.3004522,TRUE,FALSE,FALSE,"S235438323"
"185","scoori","Scott's Oriole","Icterus parisorum","L343974","Organ Mountains-Desert Peaks NM--Dripping Springs NA Fillmore Canyon","2025-05-10 07:16",2,32.3374143,-106.5869475,TRUE,FALSE,FALSE,"S235509473"
"186","scoori","Scott's Oriole","Icterus parisorum","L6718077","3 Canyons Ranch (west of Deer Ridge Trail)","2025-05-10 07:15",3,31.4089416,-110.2331257,TRUE,FALSE,TRUE,"S235697115"
"187","scoori","Scott's Oriole","Icterus parisorum","L3850433","Davis Mountains Preserve--Madera Canyon Rd","2025-05-10 07:13",1,30.668125,-104.1480115,TRUE,FALSE,FALSE,"S236566254"
"188","scoori","Scott's Oriole","Icterus parisorum","L714949","Big Bend NP--Pinnacles Trail","2025-05-10 07:11",3,29.2518263,-103.3002913,TRUE,FALSE,FALSE,"S236027813"
"189","scoori","Scott's Oriole","Icterus parisorum","L295940","Davis Mountains Preserve (Nature Conservancy)(restricted access)","2025-05-10 07:09",2,30.6971209,-104.1232681,TRUE,FALSE,FALSE,"S236485124"
"190","scoori","Scott's Oriole","Icterus parisorum","L44390293","6613 East Big Spur Circle, Hereford, Arizona, US (31.383, -110.21)","2025-05-10 07:07",1,31.3828346,-110.2100412,TRUE,FALSE,TRUE,"S235800927"
"191","scoori","Scott's Oriole","Icterus parisorum","L11021642","8840 Loghouse Road, Flagstaff, Arizona, US (35.267, -111.492)","2025-05-10 07:06",1,35.2673858,-111.4919345,TRUE,FALSE,TRUE,"S235591038"
"192","scoori","Scott's Oriole","Icterus parisorum","L863722","Joshua Tree NP--Black Rock Campground","2025-05-10 07:06",3,34.0738777,-116.3906316,TRUE,FALSE,FALSE,"S235593339"
"193","scoori","Scott's Oriole","Icterus parisorum","L15793449","Mariposa","2025-05-10 07:05",1,35.3602587,-106.683974,TRUE,FALSE,TRUE,"S235525456"
"194","scoori","Scott's Oriole","Icterus parisorum","L4331917","Home, 8586 E. Zent Rd.","2025-05-10 07:00",3,31.7891233,-109.092645,TRUE,FALSE,TRUE,"S236041636"
"195","scoori","Scott's Oriole","Icterus parisorum","L39227810","Calle Sobaipuri-private","2025-05-10 07:00",1,31.665096,-110.676179,TRUE,FALSE,TRUE,"S235559826"
"196","scoori","Scott's Oriole","Icterus parisorum","L4601806","Sunset Canyon Dr NE (Andersen yard)","2025-05-10 06:52",2,35.1310233,-106.4841378,TRUE,FALSE,TRUE,"S235494586"
"197","scoori","Scott's Oriole","Icterus parisorum","L21229912","Home","2025-05-10 06:50",1,33.2783822,-108.8744192,TRUE,FALSE,TRUE,"S235730657"
"198","scoori","Scott's Oriole","Icterus parisorum","L17026813","Bronco Trailhead","2025-05-10 06:49",1,33.9352423,-111.8206501,TRUE,FALSE,FALSE,"S235877651"
"199","scoori","Scott's Oriole","Icterus parisorum","L1361443","McDowell Sonoran Preserve--Brown's Ranch Area","2025-05-10 06:47",2,33.7800123,-111.8411449,TRUE,FALSE,FALSE,"S235617676"
"200","scoori","Scott's Oriole","Icterus parisorum","L17398895","Ramsey Canyon Cabins & Bird Sanctuary (opened 2022)","2025-05-10 06:46",2,31.4520341,-110.3030107,TRUE,FALSE,FALSE,"S235651558"
"201","scoori","Scott's Oriole","Icterus parisorum","L9426032","Pinal Mt.- Ice House Canyon/lower FS 112","2025-05-10 06:45",2,33.3395663,-110.7983512,TRUE,FALSE,TRUE,"S235785710"
"202","scoori","Scott's Oriole","Icterus parisorum","L6697010","Luis Lopez Yard (33.988, -106.885)","2025-05-10 06:40",1,33.9878886,-106.8851735,TRUE,FALSE,TRUE,"S235460840"
"203","scoori","Scott's Oriole","Icterus parisorum","L11377583","103 South Hobe Road, Oracle, Arizona, US (32.599, -110.751)","2025-05-10 06:36",1,32.5994522,-110.7510061,TRUE,FALSE,TRUE,"S235516000"
"204","scoori","Scott's Oriole","Icterus parisorum","L3255277","Eric's Yard","2025-05-10 06:30",5,34.7901932,-111.7825111,TRUE,FALSE,TRUE,"S235805478"
"205","scoori","Scott's Oriole","Icterus parisorum","L720652","Ramsey Canyon Inn (opened 1988)","2025-05-10 06:30",2,31.4486597,-110.3068952,TRUE,FALSE,FALSE,"S236558254"
"206","scoori","Scott's Oriole","Icterus parisorum","L18916410","33 Raven Wing Dr., Mogollon, New Mexico, US (33.309, -108.88)","2025-05-10 06:30",3,33.3087776,-108.8796779,TRUE,FALSE,TRUE,"S236022577"
"207","scoori","Scott's Oriole","Icterus parisorum","L1255505","Garden Canyon Rd.--grasslands only","2025-05-10 06:25",2,31.5061448,-110.3183153,TRUE,FALSE,FALSE,"S236042275"
"208","scoori","Scott's Oriole","Icterus parisorum","L16079129","1258 Saddleback Ridge Trail","2025-05-10 06:20",1,29.628802,-99.15295,TRUE,FALSE,TRUE,"S235448388"
"209","scoori","Scott's Oriole","Icterus parisorum","L15279293","Joshua Tree NP--High View Nature Loop Trail","2025-05-10 06:17",2,34.0756258,-116.3994505,TRUE,FALSE,FALSE,"S235524682"
"210","scoori","Scott's Oriole","Icterus parisorum","L478949","US-AZ-Cochise—Portal - West Portal Peak Road (Private)","2025-05-10 06:16",2,31.8981637,-109.115932,TRUE,FALSE,TRUE,"S235635477"
"211","scoori","Scott's Oriole","Icterus parisorum","L2920904","Portal Rd--east of town","2025-05-10 06:15",1,31.894642,-109.0883046,TRUE,FALSE,FALSE,"S235490286"
"212","scoori","Scott's Oriole","Icterus parisorum","L168765","Whitewater Draw Wildlife Area","2025-05-10 06:05",2,31.5614979,-109.7200191,TRUE,FALSE,FALSE,"S235898466"
"213","scoori","Scott's Oriole","Icterus parisorum","L44505885","85737, Tucson US-AZ 32.42649, -110.92359","2025-05-10 06:03",2,32.426495,-110.923585,TRUE,FALSE,TRUE,"S235606938"
"214","scoori","Scott's Oriole","Icterus parisorum","L1134581","Davis Mountains Preserve--Tobe Canyon","2025-05-10 06:00",1,30.6461274,-104.1792727,TRUE,FALSE,FALSE,"S236569377"
"215","scoori","Scott's Oriole","Icterus parisorum","L29295413","1645 W Cottonwood Bluffs Dr, Benson US-AZ 31.94099, -110.33680","2025-05-10 06:00",2,31.940994,-110.3368,TRUE,FALSE,TRUE,"S235994229"
"216","scoori","Scott's Oriole","Icterus parisorum","L672691","Anza-Borrego Desert SP--Culp Valley Campground & Peña Spring","2025-05-10 06:00",2,33.2246366,-116.4574267,TRUE,FALSE,FALSE,"S235735651"
"217","scoori","Scott's Oriole","Icterus parisorum","L44588857","Vulture Route","2025-05-10 05:59",2,32.918507,-107.707771,TRUE,FALSE,TRUE,"S235641939"
"218","scoori","Scott's Oriole","Icterus parisorum","L44579762","19049 South Sonoita Mountain View Highway, Vail, Arizona, US (31.904, -110.663)","2025-05-10 05:56",1,31.903586,-110.6628719,TRUE,FALSE,TRUE,"S235612024"
"219","scoori","Scott's Oriole","Icterus parisorum","L44618699","84738, Ivins US-UT 37.17979, -113.94137","2025-05-10 05:53",1,37.17979,-113.941373,TRUE,FALSE,TRUE,"S235787264"
"220","scoori","Scott's Oriole","Icterus parisorum","L1159194","Mt. Soledad Natural Park","2025-05-10 05:51",1,32.8397531,-117.2448063,TRUE,TRUE,FALSE,"S235693146"
"221","scoori","Scott's Oriole","Icterus parisorum","L3672517","Mt. Ord--FR 1688","2025-05-10 05:39",4,33.9211769,-111.4143384,TRUE,FALSE,FALSE,"S235971540"
"222","scoori","Scott's Oriole","Icterus parisorum","L211809","Madera Canyon--Proctor Rd.","2025-05-10 05:38",1,31.739938,-110.886147,TRUE,FALSE,FALSE,"S235546349"
"223","scoori","Scott's Oriole","Icterus parisorum","L22512325","8917 Seven Oaks Drive, Hereford, Arizona, US (31.406, -110.234)","2025-05-10 05:30",1,31.4064972,-110.2339238,TRUE,FALSE,TRUE,"S235468990"
"224","scoori","Scott's Oriole","Icterus parisorum","L44594406","Gila National Forest, Silver City US-NM 32.75443, -108.52395","2025-05-10 05:20",2,32.754432,-108.523948,TRUE,FALSE,TRUE,"S235669325"
"225","scoori","Scott's Oriole","Icterus parisorum","L4806603","Cave Creek Canyon--USFS Visitor Center","2025-05-10 04:55",2,31.8988382,-109.1622511,TRUE,FALSE,FALSE,"S235436181"
"226","scoori","Scott's Oriole","Icterus parisorum","L279921","Peppersauce Canyon","2025-05-10 04:20",2,32.5379839,-110.716606,TRUE,FALSE,FALSE,"S235834248"
"227","scoori","Scott's Oriole","Icterus parisorum","L748283","Gila NF--Cherry Creek Campground","2025-05-10",1,32.9142967,-108.2246983,TRUE,FALSE,FALSE,"S236954847"
"228","scoori","Scott's Oriole","Icterus parisorum","L44516663","Forest Service Road 42, San Simon US-AZ 31.89711, -109.21741","2025-05-09 19:06",1,31.897114,-109.217412,TRUE,FALSE,TRUE,"S235289264"
"229","scoori","Scott's Oriole","Icterus parisorum","L16178197","30 Pronghorn Crossing, Alpine, Texas, US (30.247, -103.58)","2025-05-09 19:03",2,30.2469822,-103.5800464,TRUE,FALSE,TRUE,"S235265773"
"230","scoori","Scott's Oriole","Icterus parisorum","L30259115","Blanco Co.--Peyton Colony Rd","2025-05-09 18:45",1,30.1211692,-98.3075818,TRUE,FALSE,TRUE,"S235244835"
"231","scoori","Scott's Oriole","Icterus parisorum","L26657665","Cielo Azul","2025-05-09 17:15",3,30.372253,-103.739236,TRUE,FALSE,TRUE,"S235264378"
"232","scoori","Scott's Oriole","Icterus parisorum","L44501828","U.S. Highway 385, Marathon, Texas, US (30.254, -103.199)","2025-05-09 16:23",1,30.2541947,-103.1986588,TRUE,FALSE,TRUE,"S235211303"
"233","scoori","Scott's Oriole","Icterus parisorum","L16608766","HB³ Casa (private)","2025-05-09 16:19",2,31.3957735,-110.2419635,TRUE,FALSE,TRUE,"S235262743"
"234","scoori","Scott's Oriole","Icterus parisorum","L44499118","Unnamed Road, Salome, Arizona, US (33.599, -113.763)","2025-05-09 12:51",1,33.5993394,-113.7629274,TRUE,FALSE,TRUE,"S235197079"
"235","scoori","Scott's Oriole","Icterus parisorum","L18757153","Garden/Scheelite Canyon confluence","2025-05-09 12:38",2,31.4675037,-110.3565665,TRUE,FALSE,FALSE,"S235200985"
"236","scoori","Scott's Oriole","Icterus parisorum","L44503356","West side Alamo Mountain","2025-05-09 12:34",3,32.030701,-105.649014,TRUE,FALSE,TRUE,"S235220452"
"237","scoori","Scott's Oriole","Icterus parisorum","L128934","Carlsbad Caverns NP--Slaughter Canyon","2025-05-09 12:20",2,32.1325989,-104.5699005,TRUE,FALSE,FALSE,"S235178256"
"238","scoori","Scott's Oriole","Icterus parisorum","L42653773","118 Quail Run Dr W, Hunt US-TX (30.0948,-99.3299)","2025-05-09 11:53",1,30.09481,-99.329913,TRUE,FALSE,TRUE,"S235123126"
"239","scoori","Scott's Oriole","Icterus parisorum","L258440","Pinal Mountains--Pinal Peak above 7000 ft elevation","2025-05-09 11:45",1,33.2822014,-110.8211602,TRUE,FALSE,FALSE,"S235236741"
"240","scoori","Scott's Oriole","Icterus parisorum","L247122","Paton Center for Hummingbirds (Patons' Yard)","2025-05-09 11:36",1,31.5390131,-110.7606337,TRUE,FALSE,FALSE,"S236541135"
"241","scoori","Scott's Oriole","Icterus parisorum","L129029","McKelligon Canyon Park","2025-05-09 11:11",1,31.8239002,-106.4719009,TRUE,FALSE,FALSE,"S235118949"
"242","scoori","Scott's Oriole","Icterus parisorum","L719261","Anza-Borrego Desert SP--Hellhole Canyon ","2025-05-09 11:08",1,33.2440392,-116.4205938,TRUE,FALSE,FALSE,"S236913448"
"243","scoori","Scott's Oriole","Icterus parisorum","L9391017","2446 South Starview Place, San Simon, Arizona, US (31.913, -109.129)","2025-05-09 11:08",1,31.9129978,-109.1292065,TRUE,FALSE,TRUE,"S235284510"
"244","scoori","Scott's Oriole","Icterus parisorum","L5703956","Pinal Mountains--Madera Peak Rd (FR 580)","2025-05-09 11:00",2,33.3048872,-110.8708692,TRUE,FALSE,FALSE,"S235234847"
"245","scoori","Scott's Oriole","Icterus parisorum","L292553","Madera Canyon--Whitehouse Picnic area","2025-05-09 10:17",1,31.733668,-110.882269,TRUE,FALSE,FALSE,"S235139602"
"246","scoori","Scott's Oriole","Icterus parisorum","L5085566","Crockett Co.--Deer Canyon Rd (CR306)","2025-05-09 09:59",1,30.7881243,-101.8349898,TRUE,FALSE,FALSE,"S235066227"
"247","scoori","Scott's Oriole","Icterus parisorum","L44566790","Lost Horse Mine Loop Trail, California, US (33.948, -116.148)","2025-05-09 09:56",3,33.9477986,-116.1484698,TRUE,FALSE,TRUE,"S235548096"
"248","scoori","Scott's Oriole","Icterus parisorum","L29706995","Unnamed Road, Albuquerque, New Mexico, US (34.963, -106.463)","2025-05-09 09:41",1,34.9628501,-106.4629277,TRUE,FALSE,TRUE,"S235060807"
"249","scoori","Scott's Oriole","Icterus parisorum","L5451104","Saulsbury Canyon Trail (W Turkey Creek)","2025-05-09 09:39",1,31.8655216,-109.3389764,TRUE,FALSE,FALSE,"S235294076"
"250","scoori","Scott's Oriole","Icterus parisorum","L1010763","364 Leah Lane","2025-05-09 09:30",1,32.7586056,-109.0881014,TRUE,FALSE,TRUE,"S235984842"
"251","scoori","Scott's Oriole","Icterus parisorum","L9268045","Butterbredt Canyon Road","2025-05-09 09:22",1,35.4495906,-118.2013174,TRUE,FALSE,TRUE,"S235115416"
"252","scoori","Scott's Oriole","Icterus parisorum","L34892090","8248–8298 E Box Canyon Rd, Sonoita US-AZ 31.80038, -110.76911","2025-05-09 09:06",1,31.800379,-110.769107,TRUE,FALSE,TRUE,"S235112389"
"253","scoori","Scott's Oriole","Icterus parisorum","L300587","Pinal Mountains--Sulfide del Rey Campground","2025-05-09 09:00",2,33.29467,-110.86638,TRUE,FALSE,FALSE,"S235233556"
"254","scoori","Scott's Oriole","Icterus parisorum","L10089124","El Camino del Cerro Trailhead","2025-05-09 08:47",1,32.2886631,-111.1212852,TRUE,FALSE,FALSE,"S235251201"
"255","scoori","Scott's Oriole","Icterus parisorum","L3111388","Evergreen Hills","2025-05-09 08:30",2,35.2114047,-106.4966583,TRUE,FALSE,TRUE,"S235071048"
"256","scoori","Scott's Oriole","Icterus parisorum","L129060","Portal","2025-05-09 08:16",1,31.9136009,-109.1408005,TRUE,FALSE,FALSE,"S235250688"
"257","scoori","Scott's Oriole","Icterus parisorum","L40198797","Pontatoc Trail #410--upper","2025-05-09 08:13",2,32.351913,-110.886456,TRUE,FALSE,TRUE,"S235139202"
"258","scoori","Scott's Oriole","Icterus parisorum","L7819691","Pinal Mt. -- Lower FS Rd 651 (Kellner Canyon/Russel Rd junction","2025-05-09 08:00",2,33.3229557,-110.8495058,TRUE,FALSE,TRUE,"S235231686"
"259","scoori","Scott's Oriole","Icterus parisorum","L2525629","Joshua Tree NP--Ryan Campground","2025-05-09 08:00",NA,33.9827387,-116.1542931,TRUE,FALSE,FALSE,"S235701910"
"260","scoori","Scott's Oriole","Icterus parisorum","L6696423","Butterbredt Canyon No. 7 (Desert Avicaching)","2025-05-09 07:59",1,35.413077,-118.140523,TRUE,FALSE,FALSE,"S235077219"
"261","scoori","Scott's Oriole","Icterus parisorum","L44470455","Auto selected 34.81861, -111.79746","2025-05-09 07:57",1,34.818608,-111.797459,TRUE,FALSE,TRUE,"S235051132"
"262","scoori","Scott's Oriole","Icterus parisorum","L12538571","Sunlit Hills","2025-05-09 07:52",2,35.58425,-105.921381,TRUE,FALSE,TRUE,"S235469072"
"263","scoori","Scott's Oriole","Icterus parisorum","L13558391","Anderson's Yard Birds, Silver City","2025-05-09 07:50",3,32.7740342,-108.3027576,TRUE,FALSE,TRUE,"S235267812"
"264","scoori","Scott's Oriole","Icterus parisorum","L283468","South Llano River SP (HOTW 093)","2025-05-09 07:42",1,30.4391651,-99.8128617,TRUE,FALSE,FALSE,"S235211500"
"265","scoori","Scott's Oriole","Icterus parisorum","L44491755","Forest Service Road 42B, San Simon US-AZ 31.92660, -109.26730","2025-05-09 07:40",1,31.9266,-109.267298,TRUE,FALSE,TRUE,"S235158795"
"266","scoori","Scott's Oriole","Icterus parisorum","L6587821","Desert Foothills Park","2025-05-09 07:37",3,32.8902186,-105.9262276,TRUE,FALSE,FALSE,"S235063502"
"267","scoori","Scott's Oriole","Icterus parisorum","L27438211","Organ Mountains-Desert Peaks NM--Aguirre Spring RA Pine Tree Trail","2025-05-09 07:28",1,32.361037,-106.561181,TRUE,FALSE,FALSE,"S235155442"
"268","scoori","Scott's Oriole","Icterus parisorum","L3623818","Big Bend NP--Boot Canyon Trail","2025-05-09 07:08",1,29.2482183,-103.2933675,TRUE,FALSE,FALSE,"S235227532"
"269","scoori","Scott's Oriole","Icterus parisorum","L768735","Harshaw Creek Road","2025-05-09 07:02",1,31.506978,-110.6798543,TRUE,FALSE,FALSE,"S235144861"
"270","scoori","Scott's Oriole","Icterus parisorum","L5001486","Upper Hunter Canyon Trail","2025-05-09 07:00",1,31.4024435,-110.2696245,TRUE,FALSE,FALSE,"S235102910"
"271","scoori","Scott's Oriole","Icterus parisorum","L2413068","Madera Canyon--Carrie Nation Trail","2025-05-09 06:55",1,31.704511,-110.8764482,TRUE,FALSE,FALSE,"S235073573"
"272","scoori","Scott's Oriole","Icterus parisorum","L44491656","W Pinery Canyon Rd, Bowie US-AZ 31.91373, -109.24891","2025-05-09 06:49",2,31.913733,-109.248905,TRUE,FALSE,TRUE,"S235158346"
"273","scoori","Scott's Oriole","Icterus parisorum","L8186268","Juniper Hills--Farnese Ave.","2025-05-09 06:45",2,34.4720201,-117.9084337,TRUE,FALSE,TRUE,"S235082145"
"274","scoori","Scott's Oriole","Icterus parisorum","L44450373","Playas, New Mexico, US (32.145, -108.619)","2025-05-09 06:35",1,32.1454185,-108.6185094,TRUE,FALSE,TRUE,"S234927765"
"275","scoori","Scott's Oriole","Icterus parisorum","L40471880","Chihuahuan Desert IBA -- North","2025-05-09 06:21",1,32.4303094,-108.9887344,TRUE,FALSE,TRUE,"S235135995"
"276","scoori","Scott's Oriole","Icterus parisorum","L1429257","Finger Rock Trail--from spring to Linda Vista Saddle","2025-05-09 06:10",3,32.3524631,-110.8968538,TRUE,FALSE,TRUE,"S235136157"
"277","scoori","Scott's Oriole","Icterus parisorum","L9243811","Butterbredt Spring","2025-05-09 06:06",2,35.381723,-118.113209,TRUE,FALSE,TRUE,"S235058656"
"278","scoori","Scott's Oriole","Icterus parisorum","L809186","Lower Beaver Dam Wash (not Lytle Ranch!)","2025-05-09 05:57",1,37.0929099,-114.0245676,TRUE,FALSE,FALSE,"S235157932"
"279","scoori","Scott's Oriole","Icterus parisorum","L1542515","Pinal Mountains--Russell Gulch","2025-05-09 05:45",2,33.366556,-110.8145393,TRUE,FALSE,FALSE,"S235227042"
"280","scoori","Scott's Oriole","Icterus parisorum","L25220741","Las Cienegas NCA--Levee and Cienega","2025-05-09 05:32",1,31.8245674,-110.585358,TRUE,FALSE,FALSE,"S235048417"
"281","scoori","Scott's Oriole","Icterus parisorum","L8674417","State Highway 118, Alpine US-TX (30.3400,-103.6419)","2025-05-08 20:07",1,30.340009,-103.641877,TRUE,FALSE,TRUE,"S234810958"
"282","scoori","Scott's Oriole","Icterus parisorum","L27548496","Three Gun Spring Trail, Albuquerque US-NM 35.08121, -106.44316","2025-05-08 18:24",3,35.081211,-106.443165,TRUE,FALSE,TRUE,"S234815891"
"283","scoori","Scott's Oriole","Icterus parisorum","L42227268","Phelan Home List","2025-05-08 18:00",1,34.421347,-117.479479,TRUE,FALSE,TRUE,"S234828259"
"284","scoori","Scott's Oriole","Icterus parisorum","L30524328","10817 Menaul Boulevard Northeast, Albuquerque, New Mexico, US (35.105, -106.488)","2025-05-08 17:52",NA,35.1049999,-106.4875063,TRUE,FALSE,TRUE,"S234822468"
"285","scoori","Scott's Oriole","Icterus parisorum","L6505798","Mt. Lemmon--Bug Spring Trailhead","2025-05-08 17:43",1,32.3451158,-110.7182425,TRUE,FALSE,FALSE,"S234817254"
"286","scoori","Scott's Oriole","Icterus parisorum","L37492450","Placitas, New Mexico, US (35.3, -106.503)","2025-05-08 17:10",1,35.3001597,-106.5029144,TRUE,FALSE,TRUE,"S234793282"
"287","scoori","Scott's Oriole","Icterus parisorum","L572725","McDonald Observatory / Mt. Locke area (FWTX 24)","2025-05-08 16:49",1,30.671729,-104.0226746,TRUE,FALSE,FALSE,"S234806039"
"288","scoori","Scott's Oriole","Icterus parisorum","L210015","Desert Botanical Garden","2025-05-08 16:10",1,33.4618165,-111.9436349,TRUE,FALSE,FALSE,"S235940842"
"289","scoori","Scott's Oriole","Icterus parisorum","L128888","Mt. Lemmon--Bear Canyon (Cypress, Middle Bear, Chihuahua Pine Picnic Areas)","2025-05-08 14:46",1,32.3731003,-110.6912994,TRUE,FALSE,FALSE,"S234796683"
"290","scoori","Scott's Oriole","Icterus parisorum","L5494820","US-New Mexico-Silver City-25 Oxbow Drive - 32.839x-108.219","2025-05-08 14:16",2,32.8388323,-108.2187618,TRUE,FALSE,TRUE,"S234725758"
"291","scoori","Scott's Oriole","Icterus parisorum","L847245","Bosque del Apache NWR--Visitor Center (do not use for whole refuge)","2025-05-08 13:41",1,33.805018,-106.8907768,TRUE,FALSE,FALSE,"S235973927"
"292","scoori","Scott's Oriole","Icterus parisorum","L1873056","Boynton Canyon","2025-05-08 13:32",3,34.9187667,-111.8544875,TRUE,FALSE,FALSE,"S234827153"
"293","scoori","Scott's Oriole","Icterus parisorum","L320033","Garden Canyon--Upper Picnic Area","2025-05-08 13:07",1,31.4727031,-110.3526698,TRUE,FALSE,FALSE,"S234764070"
"294","scoori","Scott's Oriole","Icterus parisorum","L3938500","Fay Canyon Trail","2025-05-08 13:00",2,34.9019886,-111.8581648,TRUE,FALSE,FALSE,"S234719043"
"295","scoori","Scott's Oriole","Icterus parisorum","L27215486","2000 Stagecoach Ranch Rd, Dripping Springs US-TX 30.31286, -98.12734","2025-05-08 12:58",6,30.312859,-98.127342,TRUE,TRUE,TRUE,"S234687777"
"296","scoori","Scott's Oriole","Icterus parisorum","L25801925","Juniper Acres (Private Residence)","2025-05-08 11:55",1,35.3166766,-106.4804263,TRUE,FALSE,TRUE,"S234679975"
"297","scoori","Scott's Oriole","Icterus parisorum","L128993","Hueco Tanks SP & Historic Site (FWTX 5)","2025-05-08 11:55",1,31.9214283,-106.0467612,TRUE,FALSE,FALSE,"S234733904"
"298","scoori","Scott's Oriole","Icterus parisorum","L44409248","Road 485, Sahuarita, Arizona, US (31.833, -110.81)","2025-05-08 11:49",3,31.8326169,-110.8095089,TRUE,FALSE,TRUE,"S234699503"
"299","scoori","Scott's Oriole","Icterus parisorum","L1282897","Big Bend NP--Rio Grande Village Nature Trail","2025-05-08 11:21",1,29.1782435,-102.9531759,TRUE,FALSE,FALSE,"S234709703"
"300","scoori","Scott's Oriole","Icterus parisorum","L129021","Madera Canyon--Madera Picnic Area","2025-05-08 11:10",1,31.7271702,-110.8807518,TRUE,FALSE,FALSE,"S234714122"
"301","scoori","Scott's Oriole","Icterus parisorum","L44290454","Small Riparian Area - Ft. Bliss (restricted access)","2025-05-08 10:13",1,32.468151,-105.639617,TRUE,FALSE,TRUE,"S234711300"
"302","scoori","Scott's Oriole","Icterus parisorum","L168656","Desert NWR--Corn Creek (Field Station)","2025-05-08 10:12",1,36.438797,-115.359566,TRUE,FALSE,FALSE,"S234730585"
"303","scoori","Scott's Oriole","Icterus parisorum","L44421582","Grant Creek Trail, Safford US-AZ 32.64724, -109.92701","2025-05-08 10:12",2,32.647244,-109.927007,TRUE,FALSE,TRUE,"S234768327"
"304","scoori","Scott's Oriole","Icterus parisorum","L44398064","Private Property — Naval Site Rd, Truth Or Consequences US-NM 33.31838, -106.99772","2025-05-08 10:03",1,33.318379,-106.997715,TRUE,FALSE,TRUE,"S234642736"
"305","scoori","Scott's Oriole","Icterus parisorum","L689527","Sabino Dam and downstream riparian","2025-05-08 09:59",1,32.3131068,-110.8113941,TRUE,FALSE,FALSE,"S234703800"
"306","scoori","Scott's Oriole","Icterus parisorum","L1152803","My Garden","2025-05-08 09:55",1,29.9818442,-98.081945,TRUE,FALSE,TRUE,"S234614255"
"307","scoori","Scott's Oriole","Icterus parisorum","L10051658","Quail Springs Ranch Rd -- Cottonwood (approximate- private residence)","2025-05-08 09:37",2,34.6789895,-112.0516267,TRUE,FALSE,TRUE,"S234695556"
"308","scoori","Scott's Oriole","Icterus parisorum","L44407659","S Mescal Rd, Benson US-AZ 32.09568, -110.46322","2025-05-08 09:28",1,32.095681,-110.463219,TRUE,FALSE,TRUE,"S234691752"
"309","scoori","Scott's Oriole","Icterus parisorum","L44363370","AZ FR 42D flock check","2025-05-08 09:04",1,31.923774,-109.260806,TRUE,FALSE,TRUE,"S234798977"
"310","scoori","Scott's Oriole","Icterus parisorum","L8460141","Dad's Place, Camp Wood Hills","2025-05-08 08:53",2,29.6504156,-100.0698498,TRUE,FALSE,TRUE,"S234595390"
"311","scoori","Scott's Oriole","Icterus parisorum","L269204","Huachuca Canyon","2025-05-08 08:52",5,31.5313995,-110.3805093,TRUE,FALSE,FALSE,"S234799311"
"312","scoori","Scott's Oriole","Icterus parisorum","L4094976","stakeout Sulphur-bellied Flycatcher, Bear Canyon pullout","2025-05-08 08:22",1,32.36573,-110.709329,TRUE,FALSE,FALSE,"S234675908"
"313","scoori","Scott's Oriole","Icterus parisorum","L386977","Indian Canyons--Andreas Canyon","2025-05-08 08:17",1,33.760989,-116.5491486,TRUE,FALSE,FALSE,"S234677176"
"314","scoori","Scott's Oriole","Icterus parisorum","L44661341","Wilson Mountain Trail","2025-05-08 08:08",2,34.886387,-111.741527,TRUE,FALSE,TRUE,"S236025950"
"315","scoori","Scott's Oriole","Icterus parisorum","L720601","Slide Rock SP","2025-05-08 08:00",1,34.9439604,-111.7531872,TRUE,FALSE,FALSE,"S234790210"
"316","scoori","Scott's Oriole","Icterus parisorum","L296632","Madera Canyon--Madera Kubo B&B","2025-05-08 07:57",1,31.7200828,-110.8787354,TRUE,FALSE,FALSE,"S234724814"
"317","scoori","Scott's Oriole","Icterus parisorum","L1435041","Kitchen Creek Rd.--Pacific Crest Trail pullout","2025-05-08 07:56",1,32.7477333,-116.4514766,TRUE,FALSE,FALSE,"S234638169"
"318","scoori","Scott's Oriole","Icterus parisorum","L40641825","Chihuahuan Desert IBA -- South","2025-05-08 07:54",3,32.3437347,-108.9863531,TRUE,FALSE,TRUE,"S234832917"
"319","scoori","Scott's Oriole","Icterus parisorum","L11350382","N Rustic Ridge Pl, Sahuarita US-AZ 31.87068, -110.93591","2025-05-08 07:45",1,31.870676,-110.935908,TRUE,TRUE,TRUE,"S234751400"
"320","scoori","Scott's Oriole","Icterus parisorum","L129068","Mt. Lemmon--Rose Canyon and Lake","2025-05-08 07:32",1,32.3926274,-110.7024693,TRUE,FALSE,FALSE,"S234784479"
"321","scoori","Scott's Oriole","Icterus parisorum","L44411805","Arizona National Scenic Trail - Molino Basin (32.3372,-110.6876)","2025-05-08 07:30",2,32.337236,-110.68755,TRUE,FALSE,TRUE,"S234712781"
"322","scoori","Scott's Oriole","Icterus parisorum","L44412331","Boy Scout Rd, Fort Davis US-TX (30.8161,-103.8531)","2025-05-08 07:30",2,30.816101,-103.853106,TRUE,FALSE,TRUE,"S234715344"
"323","scoori","Scott's Oriole","Icterus parisorum","L1583240","Huachuca Canyon--lower picnic area","2025-05-08 07:21",1,31.5411676,-110.3741764,TRUE,FALSE,FALSE,"S234794986"
"324","scoori","Scott's Oriole","Icterus parisorum","L166979","Boyce Thompson Arboretum","2025-05-08 07:05",2,33.2795082,-111.158756,TRUE,FALSE,FALSE,"S234815611"
"325","scoori","Scott's Oriole","Icterus parisorum","L44292112","10 Cattle Drive, Rodeo, New Mexico, US (private residence)","2025-05-08 06:30",1,31.8992822,-109.0484791,TRUE,FALSE,TRUE,"S234617374"
"326","scoori","Scott's Oriole","Icterus parisorum","L44428142","Coronado National Forest, Lordsburg US-NM 31.50881, -109.03247","2025-05-08 06:22",9,31.508807,-109.032469,TRUE,FALSE,TRUE,"S234808210"
"327","scoori","Scott's Oriole","Icterus parisorum","L129077","San Bernardino NWR","2025-05-08 05:55",2,31.3558004,-109.261533,TRUE,FALSE,FALSE,"S235279739"
"328","scoori","Scott's Oriole","Icterus parisorum","L44228627","Myrtle Kraft Cottage (private)","2025-05-08 05:30",1,31.9135197,-109.1392565,TRUE,FALSE,TRUE,"S234832729"
"329","scoori","Scott's Oriole","Icterus parisorum","L44399655","Coconino National Forest, Forest Lakes US-AZ (34.4960,-111.5512)","2025-05-08 04:50",3,34.496022,-111.551161,TRUE,FALSE,TRUE,"S234651129"
"330","scoori","Scott's Oriole","Icterus parisorum","L43643980","30.372, -103.739 (private residence), Alpine, Texas, US","2025-05-07 19:00",2,30.3716843,-103.739099,TRUE,FALSE,TRUE,"S234583356"
"331","scoori","Scott's Oriole","Icterus parisorum","L44351201","Rio Grande Village Dr, Alpine US-TX 29.32174, -103.19630","2025-05-07 16:26",1,29.321737,-103.196296,TRUE,FALSE,TRUE,"S234369025"
"332","scoori","Scott's Oriole","Icterus parisorum","L5216059","Brian Dolton - Yard Birds","2025-05-07 16:20",2,32.8266086,-108.2696753,TRUE,FALSE,TRUE,"S234405857"
"333","scoori","Scott's Oriole","Icterus parisorum","L2388773","Mt. Lemmon--Thimble Peak Vista","2025-05-07 15:55",2,32.3521432,-110.7250857,TRUE,FALSE,FALSE,"S234433327"
"334","scoori","Scott's Oriole","Icterus parisorum","L10655556","310 Roy Creek Loop","2025-05-07 15:43",2,30.3112822,-98.1576769,TRUE,TRUE,TRUE,"S234341247"
"335","scoori","Scott's Oriole","Icterus parisorum","L39226925","CBJB Home","2025-05-07 15:39",1,31.4270693,-110.2484136,TRUE,FALSE,TRUE,"S234383968"
"336","scoori","Scott's Oriole","Icterus parisorum","L22612217","23 Turri Avenue, Alamogordo, New Mexico, US (32.822, -105.937)","2025-05-07 15:30",2,32.8219878,-105.9372066,TRUE,FALSE,TRUE,"S234355897"
"337","scoori","Scott's Oriole","Icterus parisorum","L38875464","Hill Country Adventures Nature Center 
5181 Ranch to Market Road 1050, Concan, Texas, US (29.596, -99.67)","2025-05-07 15:01",4,29.5962286,-99.6695441,TRUE,FALSE,TRUE,"S234326218"
"338","scoori","Scott's Oriole","Icterus parisorum","L128893","Big Bend NP--Boquillas Canyon","2025-05-07 13:46",2,29.1942997,-102.9233017,TRUE,FALSE,FALSE,"S234370352"
"339","scoori","Scott's Oriole","Icterus parisorum","L44337104","Sunoco Gas Station (surrounding trees and field)","2025-05-07 13:10",1,30.5763274,-100.6537004,TRUE,FALSE,TRUE,"S234286572"
"340","scoori","Scott's Oriole","Icterus parisorum","L128884","Barfoot Junction","2025-05-07 12:44",1,31.9150326,-109.2690586,TRUE,FALSE,FALSE,"S234443432"
"341","scoori","Scott's Oriole","Icterus parisorum","L19938212","719 Alondra Ln NW, Los Ranchos de Albuquerque US-NM 35.17714, -106.64138","2025-05-07 11:31",1,35.177143,-106.641381,TRUE,FALSE,TRUE,"S234329190"
"342","scoori","Scott's Oriole","Icterus parisorum","L44328892","424 Pvt Rd 1712, Mico US-TX 29.58934, -98.88943","2025-05-07 11:27",1,29.589336,-98.889429,TRUE,FALSE,TRUE,"S234243515"
"343","scoori","Scott's Oriole","Icterus parisorum","L44429011","US-285, Fort Stockton US-TX 30.48498, -102.53324","2025-05-07 11:26",1,30.484982,-102.53324,TRUE,FALSE,TRUE,"S234813125"
"344","scoori","Scott's Oriole","Icterus parisorum","L7063960","Rodeo--Little Bird Trail","2025-05-07 11:15",2,31.8336572,-109.0314774,TRUE,FALSE,FALSE,"S234305478"
"345","scoori","Scott's Oriole","Icterus parisorum","L44600742","China Lake NAWS—Coyote Springs (restricted access)","2025-05-07 10:37",2,35.960542,-117.472875,TRUE,FALSE,TRUE,"S235698799"
"346","scoori","Scott's Oriole","Icterus parisorum","L44332412","406 Cuprite Street, Tyrone, New Mexico, US (32.709, -108.303)","2025-05-07 10:29",4,32.7089643,-108.3034809,TRUE,FALSE,TRUE,"S234262261"
"347","scoori","Scott's Oriole","Icterus parisorum","L11338924","Homeland","2025-05-07 10:25",2,34.5020014,-109.7956821,TRUE,FALSE,TRUE,"S234273670"
"348","scoori","Scott's Oriole","Icterus parisorum","L44347536","Forest Service Road 42, San Simon US-AZ 31.88407, -109.20570","2025-05-07 10:05",2,31.884073,-109.205697,TRUE,FALSE,TRUE,"S234346829"
"349","scoori","Scott's Oriole","Icterus parisorum","L128887","Mt. Lemmon--Bear Canyon (General Hitchcock Campground)","2025-05-07 09:43",2,32.3771019,-110.6850967,TRUE,FALSE,FALSE,"S234445661"
"350","scoori","Scott's Oriole","Icterus parisorum","L39475829","14 Lower Cottonwood Trail, La Luz, New Mexico, US (32.989, -105.895)","2025-05-07 09:37",2,32.9886903,-105.8952164,TRUE,FALSE,TRUE,"S234226701"
"351","scoori","Scott's Oriole","Icterus parisorum","L21273687","40970 Farm to Market Road 3159, Canyon Lake, Texas, US (29.832, -98.285)","2025-05-07 09:35",2,29.8322227,-98.2847087,TRUE,FALSE,TRUE,"S234240175"
"352","scoori","Scott's Oriole","Icterus parisorum","L128885","Barfoot Park","2025-05-07 09:30",1,31.9172001,-109.2790985,TRUE,FALSE,FALSE,"S234349400"
"353","scoori","Scott's Oriole","Icterus parisorum","L25604337","Private Residence 1500 Greystone Ranch Rd, Burnet US-TX 30.66089, -98.15604","2025-05-07 08:56",1,30.660891,-98.156039,TRUE,FALSE,TRUE,"S234338117"
"354","scoori","Scott's Oriole","Icterus parisorum","L44336367","Window-Campground, Big Bend National Park, Texas, US (29.276, -103.314)","2025-05-07 08:51",1,29.2755718,-103.3141465,TRUE,FALSE,TRUE,"S234282726"
"355","scoori","Scott's Oriole","Icterus parisorum","L129072","Sabino Canyon Recreation Area","2025-05-07 08:43",1,32.3300526,-110.7944301,TRUE,FALSE,FALSE,"S234311080"
"356","scoori","Scott's Oriole","Icterus parisorum","L18015839","Franklin Mountains SP--W. Cottonwood Spring/Mundy’s Gap Trail","2025-05-07 08:43",1,31.914801,-106.500758,TRUE,FALSE,FALSE,"S234263505"
"357","scoori","Scott's Oriole","Icterus parisorum","L31212335","1384 West Sierra Linda Road, San Simon, Arizona, US (31.906, -109.155)","2025-05-07 08:26",1,31.906203,-109.1548624,TRUE,FALSE,TRUE,"S235910432"
"358","scoori","Scott's Oriole","Icterus parisorum","L6790510","481 gato del Sol Avenue, Dripping Springs, Texas, US (30.208, -98.013)","2025-05-07 08:24",1,30.2082266,-98.0128928,TRUE,FALSE,TRUE,"S234181888"
"359","scoori","Scott's Oriole","Icterus parisorum","L44320882","Box Canyon Road","2025-05-07 08:23",1,33.991959,-106.99372,TRUE,FALSE,TRUE,"S234198667"
"360","scoori","Scott's Oriole","Icterus parisorum","L19312407","White Tanks--Ford Canyon Trail","2025-05-07 08:18",1,33.600024,-112.510056,TRUE,FALSE,FALSE,"S234337824"
"361","scoori","Scott's Oriole","Icterus parisorum","L17083186","Jornada Experimental Range Research Center (restricted access)","2025-05-07 08:18",1,32.6169074,-106.7413793,TRUE,FALSE,FALSE,"S234339940"
"362","scoori","Scott's Oriole","Icterus parisorum","L690063","Embudo Canyon","2025-05-07 08:00",3,35.0990608,-106.4779472,TRUE,FALSE,FALSE,"S234266582"
"363","scoori","Scott's Oriole","Icterus parisorum","L527223","Junction--Easter Pageant Hill","2025-05-07 07:57",1,30.4748638,-99.7592926,TRUE,FALSE,FALSE,"S234168459"
"364","scoori","Scott's Oriole","Icterus parisorum","L9830170","timber knoll area","2025-05-07 07:41",1,34.2514342,-109.7401739,TRUE,FALSE,TRUE,"S234329274"
"365","scoori","Scott's Oriole","Icterus parisorum","L7139640","Presidio Co.--FM170 at Alamito Creek & Rio Grande","2025-05-07 07:38",1,29.5223244,-104.2899138,TRUE,FALSE,FALSE,"S234828889"
"366","scoori","Scott's Oriole","Icterus parisorum","L6668694","Wendy's Yard","2025-05-07 07:07",1,33.970277,-112.785136,TRUE,FALSE,TRUE,"S234214625"
"367","scoori","Scott's Oriole","Icterus parisorum","L9101671","South Llano River SP--Juniper blind","2025-05-07 07:05",1,30.4451176,-99.7978554,TRUE,FALSE,FALSE,"S234221396"
"368","scoori","Scott's Oriole","Icterus parisorum","L44275792","Separ Road, Silver City, New Mexico, US (32.294, -108.385)","2025-05-07 06:47",2,32.2940448,-108.3847903,TRUE,FALSE,TRUE,"S234304044"
"369","scoori","Scott's Oriole","Icterus parisorum","L485352","Red Rock Canyon NCA--Willow Springs","2025-05-07 06:30",1,36.161257,-115.4985407,TRUE,FALSE,FALSE,"S234359513"
"370","scoori","Scott's Oriole","Icterus parisorum","L3244254","Bell Rock Trail","2025-05-07 06:27",1,34.791691,-111.7615235,TRUE,FALSE,FALSE,"S234274520"
"371","scoori","Scott's Oriole","Icterus parisorum","L7134685","Guindani Canyon","2025-05-07 06:13",5,31.8417065,-110.3665028,TRUE,FALSE,FALSE,"S234321741"
"372","scoori","Scott's Oriole","Icterus parisorum","L128979","Guadalupe Mountains NP (please use more specific location if possible)","2025-05-07 06:11",4,31.9001007,-104.870697,TRUE,FALSE,FALSE,"S234307907"
"373","scoori","Scott's Oriole","Icterus parisorum","L41405052","QuarryKiller","2025-05-07 05:35",2,35.4023143,-112.4829345,TRUE,FALSE,TRUE,"S234301131"
"374","scoori","Scott's Oriole","Icterus parisorum","L44336499","Coronado National Forest, Patagonia US-AZ 31.34864, -110.67842","2025-05-07 05:01",1,31.348641,-110.678418,TRUE,FALSE,TRUE,"S234283341"
"375","scoori","Scott's Oriole","Icterus parisorum","L44334858","Prescott National Forest, Black Canyon City US-AZ (34.4686,-111.8913)","2025-05-07 04:51",2,34.468617,-111.891269,TRUE,FALSE,TRUE,"S234275014"
"376","scoori","Scott's Oriole","Icterus parisorum","L279839","White Sands NP","2025-05-07",NA,32.7829593,-106.1876701,TRUE,FALSE,FALSE,"S234415111"
"377","scoori","Scott's Oriole","Icterus parisorum","L573071","Guadalupe Mts. NP--Devil's Hall Trail","2025-05-06 19:42",2,31.9069987,-104.8484516,TRUE,FALSE,FALSE,"S234038974"
"378","scoori","Scott's Oriole","Icterus parisorum","L44291582","402 Georgetown Road, Hanover, New Mexico, US (32.837, -108.019)","2025-05-06 19:17",1,32.8368028,-108.0185739,TRUE,FALSE,TRUE,"S234028376"
"379","scoori","Scott's Oriole","Icterus parisorum","L5657836","Lower Carr Canyon Picnic Area","2025-05-06 18:00",1,31.4486986,-110.2842231,TRUE,FALSE,FALSE,"S234045279"
"380","scoori","Scott's Oriole","Icterus parisorum","L1821971","Chiricahua NM--Bonita Canyon CG","2025-05-06 17:39",2,32.0112829,-109.3551126,TRUE,FALSE,FALSE,"S234442988"
"381","scoori","Scott's Oriole","Icterus parisorum","L44337999","Sunny Flat Trail, San Simon US-AZ 31.89667, -109.16445","2025-05-06 17:36",1,31.896671,-109.164452,TRUE,FALSE,TRUE,"S234291853"
"382","scoori","Scott's Oriole","Icterus parisorum","L44428865","Havasupai Gardens, Grand Canyon US-AZ (36.0651,-112.1365)","2025-05-06 16:37",1,36.065101,-112.136533,TRUE,FALSE,TRUE,"S234812355"
"383","scoori","Scott's Oriole","Icterus parisorum","L44291617","Private ranch—Ironwood NM","2025-05-06 16:05",1,32.437162,-111.472475,TRUE,FALSE,TRUE,"S234028622"
"384","scoori","Scott's Oriole","Icterus parisorum","L44349296","79830, Alpine US-TX (29.4928,-103.4665)","2025-05-06 15:53",1,29.49276,-103.466476,TRUE,FALSE,TRUE,"S234357075"
"385","scoori","Scott's Oriole","Icterus parisorum","L5627333","Chiricahua NM--Bonita Creek Trail","2025-05-06 15:35",2,32.009856,-109.384197,TRUE,FALSE,FALSE,"S234036045"
"386","scoori","Scott's Oriole","Icterus parisorum","L44292154","6996 Desert Quail Drive, Twentynine Palms, California, US (34.127, -116.135)","2025-05-06 14:39",1,34.1271245,-116.1350406,TRUE,FALSE,TRUE,"S234031604"
"387","scoori","Scott's Oriole","Icterus parisorum","L2666069","Joshua Tree NP--Quail Springs","2025-05-06 13:17",1,34.0399002,-116.1968565,TRUE,FALSE,FALSE,"S234312443"
"388","scoori","Scott's Oriole","Icterus parisorum","L264644","Brewster Co.--Terlingua Ranch Rd.","2025-05-06 12:41",1,29.5411942,-103.4624845,TRUE,FALSE,FALSE,"S233906034"
"389","scoori","Scott's Oriole","Icterus parisorum","L1040130","West Box Canyon Rd--desert scrub/mesquite grasslands","2025-05-06 11:40",1,31.7916584,-110.8193064,TRUE,FALSE,FALSE,"S233934494"
"390","scoori","Scott's Oriole","Icterus parisorum","L11652477","Our yard, Clay Springs, Arizona, US (34.382, -110.298)","2025-05-06 10:09",1,34.3821603,-110.2984813,TRUE,FALSE,TRUE,"S233879907"
"391","scoori","Scott's Oriole","Icterus parisorum","L4745496","Ingram City Park","2025-05-06 09:28",1,30.0729396,-99.2350924,TRUE,FALSE,FALSE,"S236929913"
"392","scoori","Scott's Oriole","Icterus parisorum","L4682184","Oak Creek Canyon -- Encinoso Picnic Site","2025-05-06 08:53",1,34.9250543,-111.7355154,TRUE,FALSE,TRUE,"S233939474"
"393","scoori","Scott's Oriole","Icterus parisorum","L10275019","Oak Grove (SD Co.)","2025-05-06 08:48",1,33.3865918,-116.7916643,TRUE,FALSE,FALSE,"S234026020"
"394","scoori","Scott's Oriole","Icterus parisorum","L36317292","Mt. Hopkins Rd--upper--km 2 (gate) to km 4.5","2025-05-06 08:40",1,31.6765767,-110.919907,TRUE,FALSE,FALSE,"S233865990"
"395","scoori","Scott's Oriole","Icterus parisorum","L845398","Rio Grande Valley SP--Tingley Beach Bosque Trails","2025-05-06 08:29",1,35.0807861,-106.6717958,TRUE,FALSE,FALSE,"S233836910"
"396","scoori","Scott's Oriole","Icterus parisorum","L22332520","Hunter to Miller Perimeter Trail","2025-05-06 08:26",1,31.4074702,-110.2442267,TRUE,FALSE,TRUE,"S233903276"
"397","scoori","Scott's Oriole","Icterus parisorum","L1972237","4Hills","2025-05-06 08:00",4,35.0462388,-106.4974308,TRUE,FALSE,TRUE,"S233879303"
"398","scoori","Scott's Oriole","Icterus parisorum","L9084900","Big Bend Ranch SP--Las Cuevas Area","2025-05-06 07:40",1,29.4943714,-104.1020015,TRUE,FALSE,FALSE,"S233933877"
"399","scoori","Scott's Oriole","Icterus parisorum","L548028","Prescott NF--Little Copper Creek","2025-05-06 07:34",1,34.4626219,-112.5260067,TRUE,FALSE,FALSE,"S233908806"
"400","scoori","Scott's Oriole","Icterus parisorum","L44279867","VOR","2025-05-06 07:30",3,30.6795648,-99.790979,TRUE,FALSE,TRUE,"S233956828"
"401","scoori","Scott's Oriole","Icterus parisorum","L603593","Portal--Cathedral Rock Rd at Creek Rd","2025-05-06 07:02",1,31.9104255,-109.1488092,TRUE,FALSE,FALSE,"S234176541"
"402","scoori","Scott's Oriole","Icterus parisorum","L44293908","Inyo_Ruth to Skull","2025-05-06 06:37",1,35.882347,-117.421071,TRUE,FALSE,TRUE,"S234041519"
"403","scoori","Scott's Oriole","Icterus parisorum","L3922050","Patagonia Lake Road at mailboxes","2025-05-06 06:20",1,31.4648222,-110.8249766,TRUE,FALSE,TRUE,"S234038383"
"404","scoori","Scott's Oriole","Icterus parisorum","L44269286","Williamson Valley Road, Seligman, Arizona, US (35.108, -112.889)","2025-05-06 06:03",3,35.1076143,-112.8890339,TRUE,FALSE,TRUE,"S233894042"
"405","scoori","Scott's Oriole","Icterus parisorum","L44279465","Coronado National Forest, Nogales US-AZ 31.58768, -110.83007","2025-05-06 05:01",20,31.587677,-110.830073,TRUE,FALSE,TRUE,"S233951085"
"406","scoori","Scott's Oriole","Icterus parisorum","L404667","Fort Davis NHS","2025-05-05 17:45",1,30.5985609,-103.8923299,TRUE,FALSE,FALSE,"S233648293"
"407","scoori","Scott's Oriole","Icterus parisorum","L129096","Portal-Paradise Road","2025-05-05 15:23",1,31.9307003,-109.1744537,TRUE,FALSE,FALSE,"S233642032"
"408","scoori","Scott's Oriole","Icterus parisorum","L128911","Big Bend NP--Chisos Basin (FWTX 42)","2025-05-05 14:47",3,29.2722493,-103.298049,TRUE,FALSE,FALSE,"S233828141"
"409","scoori","Scott's Oriole","Icterus parisorum","L13927858","Zion NP--Sand Bench Trail Loop","2025-05-05 12:00",1,37.2308403,-112.971299,TRUE,FALSE,FALSE,"S234376874"
"410","scoori","Scott's Oriole","Icterus parisorum","L128907","Big Bend NP--Rio Grande Village (FWTX 44)","2025-05-05 10:48",2,29.1809226,-102.9557133,TRUE,FALSE,FALSE,"S234430240"
"411","scoori","Scott's Oriole","Icterus parisorum","L730126","Pacific Crest Trail--west of Kitchen Creek Rd.","2025-05-05 10:05",1,32.7493474,-116.4583006,TRUE,FALSE,FALSE,"S233634219"
"412","scoori","Scott's Oriole","Icterus parisorum","L44271682","Desert Scenic Dr, Carlsbad US-NM (32.1892,-104.4372)","2025-05-05 09:35",1,32.189204,-104.437202,TRUE,FALSE,TRUE,"S233905529"
"413","scoori","Scott's Oriole","Icterus parisorum","L1067875","Carlsbad Caverns NP--Indian Rock Shelter","2025-05-05 09:21",NA,32.1871992,-104.4217014,TRUE,FALSE,FALSE,"S233533489"
"414","scoori","Scott's Oriole","Icterus parisorum","L31212235","1343 West Sierra Linda Road, San Simon, Arizona, US (31.905, -109.158)","2025-05-05 08:52",2,31.9054819,-109.1584253,TRUE,FALSE,TRUE,"S233526092"
"415","scoori","Scott's Oriole","Icterus parisorum","L44203425","2393 S Rock House Rd, San Simon US-AZ 31.91231, -109.14253","2025-05-05 08:33",3,31.912312,-109.142531,TRUE,FALSE,TRUE,"S233518044"
"416","scoori","Scott's Oriole","Icterus parisorum","L4565128","Crystalaire Our Yard","2025-05-05 07:49",1,34.4728825,-117.8405464,TRUE,FALSE,TRUE,"S233957608"
"417","scoori","Scott's Oriole","Icterus parisorum","L388904","Desert NWR","2025-05-05 07:36",2,36.5350192,-115.1408386,TRUE,FALSE,FALSE,"S233477467"
"418","scoori","Scott's Oriole","Icterus parisorum","L44189308","Avi Kwa Ame National Monument, Searchlight US-NV 35.51976, -115.01006","2025-05-05 07:27",1,35.51976,-115.010065,TRUE,FALSE,TRUE,"S233444878"
"419","scoori","Scott's Oriole","Icterus parisorum","L10304814","Cave Creek Canyon--Ash Spring Trail #247A","2025-05-05 07:20",2,31.8738218,-109.2353229,TRUE,FALSE,FALSE,"S233523935"
"420","scoori","Scott's Oriole","Icterus parisorum","L2340469","Carr Canyon Rd--lower paved section","2025-05-05 07:19",1,31.4504765,-110.267639,TRUE,FALSE,FALSE,"S233449127"
"421","scoori","Scott's Oriole","Icterus parisorum","L128978","Guadalupe Canyon (Hidalgo Co.)","2025-05-05 07:17",1,31.3661995,-109.0233994,TRUE,FALSE,FALSE,"S233556175"
"422","scoori","Scott's Oriole","Icterus parisorum","L44157872","Myrtle Kraft Cottage","2025-05-05 07:15",1,31.913448,-109.139141,TRUE,FALSE,TRUE,"S233508414"
"423","scoori","Scott's Oriole","Icterus parisorum","L44186135","Park Blvd, Joshua Tree US-CA 34.07732, -116.24043","2025-05-05 07:03",2,34.07732,-116.240434,TRUE,FALSE,TRUE,"S233428097"
"424","scoori","Scott's Oriole","Icterus parisorum","L1052368","Big Bend NP--Daniels Ranch Rd.","2025-05-05 06:50",2,29.1839794,-102.9645274,TRUE,FALSE,FALSE,"S233585815"
"425","scoori","Scott's Oriole","Icterus parisorum","L44181421","Avi Kwa Ame National Monument, Searchlight US-NV 35.50499, -115.03205","2025-05-05 05:47",1,35.504994,-115.032046,TRUE,FALSE,TRUE,"S233400478"
"426","scoori","Scott's Oriole","Icterus parisorum","L37416538","Lakeside Neighborhood","2025-05-05 05:38",1,32.184485,-110.811636,TRUE,TRUE,TRUE,"S233403297"
"427","scoori","Scott's Oriole","Icterus parisorum","L27065994","16 Arroyo Chiquito, Espanola US-NM 35.98308, -106.00216","2025-05-04 18:45",2,35.983078,-106.002165,TRUE,FALSE,TRUE,"S233270506"
"428","scoori","Scott's Oriole","Icterus parisorum","L44492643","House","2025-05-04 17:45",NA,31.3741845,-110.221647,TRUE,FALSE,TRUE,"S235166152"
"429","scoori","Scott's Oriole","Icterus parisorum","L738371","Yucca Valley Golf Course","2025-05-04 16:42",1,34.1207936,-116.4578247,TRUE,FALSE,FALSE,"S233298822"
"430","scoori","Scott's Oriole","Icterus parisorum","L25297902","SH-118, Fort Davis US-TX 30.93160, -104.15130","2025-05-04 14:29",2,30.931598,-104.151302,TRUE,FALSE,TRUE,"S233277024"
"431","scoori","Scott's Oriole","Icterus parisorum","L44188727","SH-118, Fort Davis US-TX 30.93160, -104.15130","2025-05-04 14:25",2,30.9316,-104.1513,TRUE,FALSE,TRUE,"S233442799"
"432","scoori","Scott's Oriole","Icterus parisorum","L12936709","Grapevine Canyon","2025-05-04 13:10",1,34.4047135,-117.0634949,TRUE,FALSE,FALSE,"S233420175"
"433","scoori","Scott's Oriole","Icterus parisorum","L17168485","West Copperas Creek","2025-05-04 12:40",2,30.5978069,-100.1348621,TRUE,FALSE,TRUE,"S235064562"
"434","scoori","Scott's Oriole","Icterus parisorum","L43149487","Cabeza Prieta NWR - Knucklehead Wash","2025-05-04 11:34",1,32.4070587,-112.9534832,TRUE,FALSE,TRUE,"S233210898"
"435","scoori","Scott's Oriole","Icterus parisorum","L19266833","Cindy Backyard Canyon Lake, Texas, US (29.912, -98.209)","2025-05-04 11:33",1,29.9121431,-98.2088068,TRUE,FALSE,TRUE,"S233103327"
"436","scoori","Scott's Oriole","Icterus parisorum","L44149895","Salero Rd Gully","2025-05-04 11:06",1,31.560334,-110.82848,TRUE,FALSE,TRUE,"S233232749"
"437","scoori","Scott's Oriole","Icterus parisorum","L9462473","Whites City","2025-05-04 11:01",1,32.1747383,-104.3780969,TRUE,FALSE,FALSE,"S233255712"
"438","scoori","Scott's Oriole","Icterus parisorum","L4645951","McCollum","2025-05-04 11:00",1,30.6312427,-99.5991862,TRUE,FALSE,TRUE,"S233840815"
"439","scoori","Scott's Oriole","Icterus parisorum","L16837155","stakeout American Woodcock, Cave Creek (2021)","2025-05-04 10:38",1,31.8877753,-109.1718796,TRUE,FALSE,FALSE,"S233260092"
"440","scoori","Scott's Oriole","Icterus parisorum","L23321345","Cibola National Forest, Datil US-NM (34.0910,-107.9329)","2025-05-04 10:31",2,34.090998,-107.932875,TRUE,FALSE,TRUE,"S233056623"
"441","scoori","Scott's Oriole","Icterus parisorum","L44106613","South US Highway 83, Junction, Texas, US (30.376, -99.71)","2025-05-04 10:05",1,30.3758778,-99.7099913,TRUE,FALSE,TRUE,"S233010285"
"442","scoori","Scott's Oriole","Icterus parisorum","L684614","Organ Pipe Cactus NM--Estes Canyon","2025-05-04 09:50",1,32.0193201,-112.7109718,TRUE,FALSE,FALSE,"S233200687"
"443","scoori","Scott's Oriole","Icterus parisorum","L7226937","4990-5006 Baylor Canyon Road, Las Cruces, New Mexico, US (32.406, -106.614)","2025-05-04 09:43",1,32.4057844,-106.614352,TRUE,FALSE,TRUE,"S233057524"
"444","scoori","Scott's Oriole","Icterus parisorum","L8977614","Big Bend NP--Basin Loop Trail","2025-05-04 09:27",2,29.2643445,-103.3031358,TRUE,FALSE,FALSE,"S233271913"
"445","scoori","Scott's Oriole","Icterus parisorum","L44107147","Davis Mountains State Park, Fort Davis US-TX 30.59563, -103.93291","2025-05-04 09:12",1,30.595626,-103.932909,TRUE,FALSE,TRUE,"S233013085"
"446","scoori","Scott's Oriole","Icterus parisorum","L860522","Organ Mountains-Desert Peaks NM--Soledad Canyon Day Use Area","2025-05-04 09:11",1,32.305044,-106.5930891,TRUE,FALSE,FALSE,"S233281070"
"447","scoori","Scott's Oriole","Icterus parisorum","L19449858","Mute Hollow (private residence), Kingman US-AZ","2025-05-04 09:11",1,35.310918,-114.049183,TRUE,FALSE,TRUE,"S233042741"
"448","scoori","Scott's Oriole","Icterus parisorum","L14318298","Cactus Spring Trail","2025-05-04 08:56",3,33.5799352,-116.44986,TRUE,FALSE,FALSE,"S233149187"
"449","scoori","Scott's Oriole","Icterus parisorum","L13077106","Grand Canyon NP--Bright Angel Trailhead","2025-05-04 08:45",3,36.0572872,-112.1435988,TRUE,FALSE,FALSE,"S233199071"
"450","scoori","Scott's Oriole","Icterus parisorum","L759221","Bear Mountain Lodge","2025-05-04 08:45",1,32.8154292,-108.3061945,TRUE,FALSE,FALSE,"S233098016"
"451","scoori","Scott's Oriole","Icterus parisorum","L5417939","River Ranch WMA (NMDGF permit required)","2025-05-04 08:11",2,32.5872032,-107.922062,TRUE,FALSE,FALSE,"S233134025"
"452","scoori","Scott's Oriole","Icterus parisorum","L13830170","Davis Mountains SP—Indian Lodge","2025-05-04 08:11",1,30.5926688,-103.9434099,TRUE,FALSE,FALSE,"S233533308"
"453","scoori","Scott's Oriole","Icterus parisorum","L4989235","Meteor Crater RV Park (check in at office for permission/access)","2025-05-04 07:47",1,35.105445,-111.0326144,TRUE,FALSE,FALSE,"S233047987"
"454","scoori","Scott's Oriole","Icterus parisorum","L29574997","Voice of the Turtle Retreat Center (private-no access)","2025-05-04 07:45",2,32.93031,-108.398807,TRUE,FALSE,TRUE,"S233254207"
"455","scoori","Scott's Oriole","Icterus parisorum","L44137332","Private Ranch-Southern Edward’s Co.","2025-05-04 07:29",3,29.636726,-100.420265,TRUE,FALSE,TRUE,"S233167070"
"456","scoori","Scott's Oriole","Icterus parisorum","L2862383","East Turkey Creek at FR42/FR42B","2025-05-04 07:19",1,31.9086083,-109.2508256,TRUE,FALSE,FALSE,"S233160052"
"457","scoori","Scott's Oriole","Icterus parisorum","L12658099","N6110, Saint Johns, Arizona, US (34.513, -109.273)","2025-05-04 06:53",3,34.5134681,-109.2731295,TRUE,FALSE,TRUE,"S232952630"
"458","scoori","Scott's Oriole","Icterus parisorum","L128913","Big Bend NP (please use more specific location if possible)","2025-05-04 06:21",2,29.2495625,-103.2501433,TRUE,FALSE,FALSE,"S233211205"
"459","scoori","Scott's Oriole","Icterus parisorum","L35343744","Oak Tree Canyon trailhead AZT","2025-05-04 06:03",1,31.810268,-110.711234,TRUE,FALSE,TRUE,"S232924202"
"460","scoori","Scott's Oriole","Icterus parisorum","L16831889","Munds Wagon Trailhead","2025-05-04 06:00",2,34.8663164,-111.7486323,TRUE,FALSE,FALSE,"S233196191"
"461","scoori","Scott's Oriole","Icterus parisorum","L296633","Madera Canyon--Mt. Wrightson Picnic Area & Upper Canyon Trails","2025-05-04 06:00",1,31.7124,-110.8744,TRUE,FALSE,FALSE,"S233382677"
"462","scoori","Scott's Oriole","Icterus parisorum","L3602679","Crystalaire Country Club (private property)","2025-05-04 05:57",1,34.4711394,-117.8460073,TRUE,FALSE,FALSE,"S233186251"
"463","scoori","Scott's Oriole","Icterus parisorum","L18696386","Dryden goat feedlot","2025-05-03 19:50",1,30.0430769,-102.1132322,TRUE,FALSE,FALSE,"S232761193"
"464","scoori","Scott's Oriole","Icterus parisorum","L29031568","21715 Dolan Creek Road, Del Rio, Texas, US (29.94, -100.97) Park Host Site","2025-05-03 19:48",1,29.9396528,-100.9701976,TRUE,FALSE,TRUE,"S232777119"
"465","scoori","Scott's Oriole","Icterus parisorum","L2374012","FR 42--E Turkey Creek to Onion Saddle","2025-05-03 17:10",2,31.9245147,-109.2540014,TRUE,FALSE,FALSE,"S234815577"
"466","scoori","Scott's Oriole","Icterus parisorum","L339643","Madera Canyon--Santa Cruz Co.","2025-05-03 16:43",1,31.7202119,-110.8773279,TRUE,FALSE,FALSE,"S233231882"
"467","scoori","Scott's Oriole","Icterus parisorum","L44056692","8248–8298 E Box Canyon Rd, Sonoita US-AZ 31.79742, -110.78862","2025-05-03 15:55",1,31.797419,-110.78862,TRUE,FALSE,TRUE,"S232749998"
"468","scoori","Scott's Oriole","Icterus parisorum","L9145680","Portal, AZ private yard (not open to the public)","2025-05-03 15:09",1,31.911851,-109.13673,TRUE,FALSE,TRUE,"S232715909"
"469","scoori","Scott's Oriole","Icterus parisorum","L128910","Big Bend NP--Santa Elena Canyon (FWTX 39)","2025-05-03 15:06",2,29.1668521,-103.6106873,TRUE,FALSE,FALSE,"S232709293"
"470","scoori","Scott's Oriole","Icterus parisorum","L7409563","Kickapoo Cavern SP--Entrance area  (Edwards Co.)","2025-05-03 14:18",2,29.6299005,-100.4212189,TRUE,FALSE,FALSE,"S232660193"
"471","scoori","Scott's Oriole","Icterus parisorum","L5426407","Picacho Hills","2025-05-03 14:16",1,32.309442,-106.8591106,TRUE,FALSE,FALSE,"S232662724"
"472","scoori","Scott's Oriole","Icterus parisorum","L1152344","Indian Blanket Ranch","2025-05-03 13:44",1,29.5961737,-99.6697169,TRUE,FALSE,FALSE,"S232671750"
"473","scoori","Scott's Oriole","Icterus parisorum","L979082","Sandia Heights--1529 Eagle Ridge Dr. NE","2025-05-03 13:12",2,35.161705,-106.48049,TRUE,FALSE,TRUE,"S232890566"
"474","scoori","Scott's Oriole","Icterus parisorum","L5827288","Beaver Dam Mtns--Gravel Pit Rd","2025-05-03 12:49",5,37.074046,-113.833271,TRUE,FALSE,FALSE,"S232671992"
"475","scoori","Scott's Oriole","Icterus parisorum","L583909","TX118--Limpia Crossing","2025-05-03 11:49",1,30.6153115,-103.9919472,TRUE,FALSE,FALSE,"S234289943"
"476","scoori","Scott's Oriole","Icterus parisorum","L44060907","2401 South Rock House Road, Portal, Arizona, US (31.912, -109.143)","2025-05-03 11:13",1,31.9117843,-109.1431673,TRUE,FALSE,TRUE,"S232771796"
"477","scoori","Scott's Oriole","Icterus parisorum","L43639589","Home","2025-05-03 11:00",1,31.924836,-109.828358,TRUE,FALSE,TRUE,"S232613036"
"478","scoori","Scott's Oriole","Icterus parisorum","L1355978","Sloan-Simpson Park, Corona","2025-05-03 10:38",1,34.2549672,-105.5964174,TRUE,FALSE,FALSE,"S232588706"
"479","scoori","Scott's Oriole","Icterus parisorum","L276694","Valley of Fires Recreation Area","2025-05-03 09:53",1,33.6796452,-105.9244068,TRUE,FALSE,FALSE,"S232553643"
"480","scoori","Scott's Oriole","Icterus parisorum","L33930260","Cantabria (Ricon Knolls) Neighborhood","2025-05-03 09:53",1,32.071639,-110.722931,TRUE,FALSE,TRUE,"S232580294"
"481","scoori","Scott's Oriole","Icterus parisorum","L26708355","Oakwood Estates","2025-05-03 09:08",1,32.7724572,-108.3013046,TRUE,FALSE,FALSE,"S232747772"
"482","scoori","Scott's Oriole","Icterus parisorum","L3641085","Big Bend NP--Ward Spring Trail","2025-05-03 08:36",2,29.24863,-103.37225,TRUE,FALSE,FALSE,"S232710232"
"483","scoori","Scott's Oriole","Icterus parisorum","L913088","Fort Lancaster Overlook / Sheffield Rest Area","2025-05-03 08:09",2,30.6780349,-101.6727483,TRUE,FALSE,FALSE,"S233128060"
"484","scoori","Scott's Oriole","Icterus parisorum","L44028020","Ross Maxwell Scenic Dr, Terlingua US-TX 29.15307, -103.48273","2025-05-03 08:02",1,29.153066,-103.48273,TRUE,FALSE,TRUE,"S232606497"
"485","scoori","Scott's Oriole","Icterus parisorum","L7749123","Four Bar Cottages (private)","2025-05-03 07:51",2,31.876886,-109.0619973,TRUE,FALSE,FALSE,"S232568625"
"486","scoori","Scott's Oriole","Icterus parisorum","L2129034","Red Rock Canyon NCA--Lost Creek","2025-05-03 07:42",1,36.1562762,-115.4961348,TRUE,FALSE,FALSE,"S232572934"
"487","scoori","Scott's Oriole","Icterus parisorum","L1091644","La Posta Quemada Ranch","2025-05-03 07:39",1,32.0512984,-110.6363797,TRUE,FALSE,FALSE,"S232541286"
"488","scoori","Scott's Oriole","Icterus parisorum","L3552731","Lost Maples SNA--East Trail","2025-05-03 07:38",2,29.8166679,-99.5721388,TRUE,FALSE,FALSE,"S232624651"
"489","scoori","Scott's Oriole","Icterus parisorum","L31824594","3 km Marker by Hairpin Turn","2025-05-03 07:36",2,31.677135,-110.920033,TRUE,FALSE,TRUE,"S232625053"
"490","scoori","Scott's Oriole","Icterus parisorum","L690348","Chalcocite Street","2025-05-03 07:30",1,32.7098257,-108.3020639,TRUE,FALSE,TRUE,"S234673131"
"491","scoori","Scott's Oriole","Icterus parisorum","L299012","Oracle State Park","2025-05-03 07:27",1,32.6083177,-110.7335132,TRUE,FALSE,FALSE,"S233285412"
"492","scoori","Scott's Oriole","Icterus parisorum","L516628","Devils River SNA— Del Norte Unit (HOTW 015)","2025-05-03 07:21",1,29.9406182,-100.9710073,TRUE,FALSE,FALSE,"S234622905"
"493","scoori","Scott's Oriole","Icterus parisorum","L780233","Independence Creek Preserve (limited access by permission-TNC)","2025-05-03 07:18",1,30.46857,-101.799521,TRUE,FALSE,FALSE,"S234571113"
"494","scoori","Scott's Oriole","Icterus parisorum","L356500","Vermilion Oaks Ranch","2025-05-03 07:18",2,30.6815943,-99.7797994,TRUE,FALSE,TRUE,"S232775759"
"495","scoori","Scott's Oriole","Icterus parisorum","L518531","1--Horizontal Heavens: Blanco/Comal County","2025-05-03 07:11",1,29.9445229,-98.407588,TRUE,FALSE,TRUE,"S232411978"
"496","scoori","Scott's Oriole","Icterus parisorum","L5495120","stakeout Crescent-chested Warbler, Morse Canyon Trail #43 (2020)","2025-05-03 07:03",2,31.844851,-109.32641,TRUE,FALSE,FALSE,"S233444167"
"497","scoori","Scott's Oriole","Icterus parisorum","L753061","Mt. Lemmon--Summerhaven","2025-05-03 06:56",1,32.4427119,-110.7598686,TRUE,FALSE,FALSE,"S232618536"
"498","scoori","Scott's Oriole","Icterus parisorum","L2704087","Granite Gap","2025-05-03 06:31",3,32.0955147,-108.9699447,TRUE,FALSE,FALSE,"S232672949"
"499","scoori","Scott's Oriole","Icterus parisorum","L2937590","Oak Creek--Angel Valley Road","2025-05-03 06:19",1,34.80088,-111.882289,TRUE,FALSE,FALSE,"S232610027"
"500","scoori","Scott's Oriole","Icterus parisorum","L17877753","Fain Park Below Dam","2025-05-03 06:15",1,34.5747583,-112.3490548,TRUE,FALSE,TRUE,"S232639931"
"501","scoori","Scott's Oriole","Icterus parisorum","L987274","Coronado NM--Montezuma Pass","2025-05-03 06:04",2,31.3506739,-110.2854631,TRUE,FALSE,FALSE,"S232493710"
"502","scoori","Scott's Oriole","Icterus parisorum","L43702997","Santa Lucia Ranch","2025-05-03 06:00",2,31.6751662,-111.2170335,TRUE,FALSE,TRUE,"S232602878"
"503","scoori","Scott's Oriole","Icterus parisorum","L44030110","TubTankValley","2025-05-03 05:25",2,35.5032865,-111.5925816,TRUE,FALSE,TRUE,"S232615817"
"504","scoori","Scott's Oriole","Icterus parisorum","L3959912","Organ Pipe Cactus NM--Main Campground & Sewage Ponds","2025-05-03 04:58",1,31.93938,-112.811074,TRUE,FALSE,FALSE,"S232689144"
