"","speciesCode","comName","sciName","locId","locName","obsDt","howMany","lat","lng","obsValid","obsReviewed","locationPrivate","subId"
"1","wooscj2","Woodhouse's Scrub-Jay","Aphelocoma woodhouseii","L46892879","Road 42, Mancos","2025-06-05 17:35",1,37.3539863,-108.2808191,TRUE,FALSE,TRUE,"S247122924"
"2","wooscj2","Woodhouse's Scrub-Jay","Aphelocoma woodhouseii","L46900593","J-Boy Trail, Vernal US-UT 40.59571, -109.43633","2025-06-05 16:27",1,40.595714,-109.436332,TRUE,FALSE,TRUE,"S247101110"
"3","wooscj2","Woodhouse's Scrub-Jay","Aphelocoma woodhouseii","L10150392","Santa Fe Botanical Garden","2025-06-05 15:56",1,35.6665771,-105.9266555,TRUE,FALSE,FALSE,"S247108561"
"4","wooscj2","Woodhouse's Scrub-Jay","Aphelocoma woodhouseii","L1657051","Colorado NM--Devil's Kitchen Trail","2025-06-05 15:35",1,39.031774,-108.630829,TRUE,FALSE,FALSE,"S247112022"
"5","wooscj2","Woodhouse's Scrub-Jay","Aphelocoma woodhouseii","L10173028","Diamond Fork Canyon--Red Ledges","2025-06-05 15:16",3,40.0798693,-111.4035559,TRUE,FALSE,FALSE,"S247094595"
"6","wooscj2","Woodhouse's Scrub-Jay","Aphelocoma woodhouseii","L11299289","Frijoles Hideaway","2025-06-05 14:22",1,35.6881106,-106.0145822,TRUE,FALSE,TRUE,"S247083955"
"7","wooscj2","Woodhouse's Scrub-Jay","Aphelocoma woodhouseii","L2640516","LT's yard","2025-06-05 13:51",2,40.6846587,-111.7839738,TRUE,FALSE,TRUE,"S247077530"
"8","wooscj2","Woodhouse's Scrub-Jay","Aphelocoma woodhouseii","L24259478","Eagle Eye to Falcon Flow, Manti-La Sal National Forest, Moab US-UT 38.57862, -109.35867","2025-06-05 13:39",4,38.578622,-109.358673,TRUE,FALSE,TRUE,"S247105135"
"9","wooscj2","Woodhouse's Scrub-Jay","Aphelocoma woodhouseii","L3084031","Upper Los Alamos Canyon","2025-06-05 13:31",1,35.879071,-106.3344222,TRUE,FALSE,FALSE,"S247108547"
"10","wooscj2","Woodhouse's Scrub-Jay","Aphelocoma woodhouseii","L1175561","Red Rock Canyon Open Space","2025-06-05 13:17",1,38.8473432,-104.8811263,TRUE,FALSE,FALSE,"S247057210"
"11","wooscj2","Woodhouse's Scrub-Jay","Aphelocoma woodhouseii","L351239","Little Colorado River--South Fork","2025-06-05 13:00",1,34.0880439,-109.412984,TRUE,FALSE,FALSE,"S247075710"
"12","wooscj2","Woodhouse's Scrub-Jay","Aphelocoma woodhouseii","L18176931","10462 Dimple Dell Road, Sandy, Utah, US (40.562, -111.812)","2025-06-05 12:32",2,40.5618058,-111.81154,TRUE,FALSE,TRUE,"S247063693"
"13","wooscj2","Woodhouse's Scrub-Jay","Aphelocoma woodhouseii","L5884815","Castlewood Canyon Rd--Lake Gulch Rd to Castlewood Canyon SP","2025-06-05 12:01",1,39.317732,-104.7572351,TRUE,FALSE,FALSE,"S247073934"
"14","wooscj2","Woodhouse's Scrub-Jay","Aphelocoma woodhouseii","L17446515","Chekshani Cliffs & Camp Creek entrance","2025-06-05 11:51",6,37.5032796,-113.2049706,TRUE,FALSE,TRUE,"S247034038"
"15","wooscj2","Woodhouse's Scrub-Jay","Aphelocoma woodhouseii","L3620176","Goldenwest Credit Union","2025-06-05 11:42",NA,41.173098,-111.9697595,TRUE,FALSE,TRUE,"S247018945"
"16","wooscj2","Woodhouse's Scrub-Jay","Aphelocoma woodhouseii","L1614962","Provo Canyon -- Timpanogos & Canyon View Parks","2025-06-05 11:30",3,40.3250512,-111.6446013,TRUE,FALSE,FALSE,"S247023834"
"17","wooscj2","Woodhouse's Scrub-Jay","Aphelocoma woodhouseii","L38990273","Purola Preserve","2025-06-05 11:29",1,30.289102,-98.166941,TRUE,FALSE,TRUE,"S247012218"
"18","wooscj2","Woodhouse's Scrub-Jay","Aphelocoma woodhouseii","L1623886","Black Canyon of the Gunnison NP--Warner Point Nature Trail","2025-06-05 11:28",2,38.5627173,-107.7418251,TRUE,FALSE,FALSE,"S247055102"
"19","wooscj2","Woodhouse's Scrub-Jay","Aphelocoma woodhouseii","L25611887","Great Basin NP--Lehman Caves Visitor Center and Mountain View Nature Trail","2025-06-05 11:19",1,39.0055808,-114.2200673,TRUE,FALSE,FALSE,"S247056489"
"20","wooscj2","Woodhouse's Scrub-Jay","Aphelocoma woodhouseii","L357634","Cibola NF--Embudito Canyon","2025-06-05 11:13",1,35.1357734,-106.4816809,TRUE,FALSE,FALSE,"S247055024"
"21","wooscj2","Woodhouse's Scrub-Jay","Aphelocoma woodhouseii","L614045","Red Butte Garden","2025-06-05 11:03",2,40.7633812,-111.8243837,TRUE,FALSE,FALSE,"S247085929"
"22","wooscj2","Woodhouse's Scrub-Jay","Aphelocoma woodhouseii","L1777822","Deer Creek Canyon Park--Meadowlark Trail","2025-06-05 10:54",7,39.5436808,-105.1574403,TRUE,FALSE,FALSE,"S247030628"
"23","wooscj2","Woodhouse's Scrub-Jay","Aphelocoma woodhouseii","L4692895","Moab--Lions Park","2025-06-05 10:47",2,38.6031381,-109.5753461,TRUE,FALSE,FALSE,"S247021409"
"24","wooscj2","Woodhouse's Scrub-Jay","Aphelocoma woodhouseii","L201225","Prescott--Willow Lake","2025-06-05 10:45",2,34.605,-112.438,TRUE,FALSE,FALSE,"S247065729"
"25","wooscj2","Woodhouse's Scrub-Jay","Aphelocoma woodhouseii","L26171248","Chelsea Cove's Grey House","2025-06-05 10:39",1,40.85551,-111.864202,TRUE,FALSE,TRUE,"S247018950"
"26","wooscj2","Woodhouse's Scrub-Jay","Aphelocoma woodhouseii","L18994219","Dipping Vat Spring","2025-06-05 10:15",1,38.597292,-112.5432,TRUE,FALSE,TRUE,"S247024508"
"27","wooscj2","Woodhouse's Scrub-Jay","Aphelocoma woodhouseii","L266622","Red Rock SP","2025-06-05 10:10",2,34.8117069,-111.8288603,TRUE,FALSE,FALSE,"S247100816"
"28","wooscj2","Woodhouse's Scrub-Jay","Aphelocoma woodhouseii","L10544983","479 Astral Pt, Spring Branch US-TX (29.9575,-98.2889)","2025-06-05 10:06",1,29.957469,-98.288921,TRUE,FALSE,TRUE,"S246970561"
"29","wooscj2","Woodhouse's Scrub-Jay","Aphelocoma woodhouseii","L3782718","Lower Brush Creek","2025-06-05 10:03",3,39.642508,-106.831045,TRUE,FALSE,FALSE,"S247019441"
"30","wooscj2","Woodhouse's Scrub-Jay","Aphelocoma woodhouseii","L31378500","Chaparral Rd","2025-06-05 10:02",1,38.8973479,-104.7244532,TRUE,FALSE,TRUE,"S247122964"
"31","wooscj2","Woodhouse's Scrub-Jay","Aphelocoma woodhouseii","L5889515","JeffCo - Grizzly Drive","2025-06-05 10:01",2,39.5415141,-105.1465309,TRUE,FALSE,TRUE,"S247057021"
"32","wooscj2","Woodhouse's Scrub-Jay","Aphelocoma woodhouseii","L357489","Cibola NF--Tres Pistolas Canyon","2025-06-05 10:00",4,35.0787053,-106.4437115,TRUE,FALSE,FALSE,"S247116763"
"33","wooscj2","Woodhouse's Scrub-Jay","Aphelocoma woodhouseii","L951782","Yellow Fork Canyon -- Lower","2025-06-05 09:53",1,40.4687118,-112.0973069,TRUE,FALSE,FALSE,"S247023923"
"34","wooscj2","Woodhouse's Scrub-Jay","Aphelocoma woodhouseii","L8829659","Silver Creek Fish Hatchery","2025-06-05 09:41",1,34.3397863,-109.950099,TRUE,FALSE,FALSE,"S247018574"
"35","wooscj2","Woodhouse's Scrub-Jay","Aphelocoma woodhouseii","L2676867","Ken Caryl - Massey Draw pond","2025-06-05 09:39",1,39.57807,-105.1642951,TRUE,FALSE,TRUE,"S246986637"
"36","wooscj2","Woodhouse's Scrub-Jay","Aphelocoma woodhouseii","L46876427","Petrified Dunes Trail, Saint George US-UT 37.21470, -113.64513","2025-06-05 09:35",1,37.214703,-113.645131,TRUE,FALSE,TRUE,"S246990385"
"37","wooscj2","Woodhouse's Scrub-Jay","Aphelocoma woodhouseii","L2673862","San Vicente Cienega Trail","2025-06-05 09:18",2,32.7629823,-108.2704689,TRUE,FALSE,FALSE,"S247001317"
"38","wooscj2","Woodhouse's Scrub-Jay","Aphelocoma woodhouseii","L4065000","US-Utah-Salt Lake City-3431 S Crestwood Dr - 40.697x-111.787","2025-06-05 09:14",2,40.6968843,-111.7872066,TRUE,FALSE,TRUE,"S246977111"
"39","wooscj2","Woodhouse's Scrub-Jay","Aphelocoma woodhouseii","L575823","Tonto Natural Bridge State Park","2025-06-05 09:10",1,34.3223857,-111.4541531,TRUE,FALSE,FALSE,"S247043975"
"40","wooscj2","Woodhouse's Scrub-Jay","Aphelocoma woodhouseii","L25509286","Wheeler Springs","2025-06-05 09:09",2,40.1552136,-111.5844801,TRUE,FALSE,TRUE,"S246979286"
"41","wooscj2","Woodhouse's Scrub-Jay","Aphelocoma woodhouseii","L227296","Red Rocks Park","2025-06-05 09:05",2,39.6684432,-105.2041578,TRUE,FALSE,FALSE,"S247056522"
"42","wooscj2","Woodhouse's Scrub-Jay","Aphelocoma woodhouseii","L3871674","Grand Canyon NP--Visitor Center","2025-06-05 09:00",4,36.0589308,-112.1092182,TRUE,FALSE,FALSE,"S247103785"
"43","wooscj2","Woodhouse's Scrub-Jay","Aphelocoma woodhouseii","L2403315","Santa Cruz Lake","2025-06-05 08:51",2,35.9797079,-105.9158206,TRUE,FALSE,FALSE,"S247072245"
"44","wooscj2","Woodhouse's Scrub-Jay","Aphelocoma woodhouseii","L5937257","4SUM - Rt on La Madera, 1st drive to right","2025-06-05 08:50",1,35.2259753,-106.369138,TRUE,FALSE,TRUE,"S247058688"
"45","wooscj2","Woodhouse's Scrub-Jay","Aphelocoma woodhouseii","L131388","Garden of the Gods","2025-06-05 08:49",1,38.8774633,-104.8781876,TRUE,FALSE,FALSE,"S247043176"
"46","wooscj2","Woodhouse's Scrub-Jay","Aphelocoma woodhouseii","L5937247","3SUM - Top of hill, building ruins","2025-06-05 08:42",2,35.2229227,-106.370232,TRUE,FALSE,TRUE,"S247057757"
"47","wooscj2","Woodhouse's Scrub-Jay","Aphelocoma woodhouseii","L21626219","West View Trail","2025-06-05 08:38",1,40.4924064,-111.2951641,TRUE,FALSE,TRUE,"S246989407"
"48","wooscj2","Woodhouse's Scrub-Jay","Aphelocoma woodhouseii","L5937231","2Sum - Genie Court","2025-06-05 08:31",2,35.2156169,-106.3656134,TRUE,FALSE,TRUE,"S247055721"
"49","wooscj2","Woodhouse's Scrub-Jay","Aphelocoma woodhouseii","L46879360","Eby Creek Road","2025-06-05 08:03",3,39.698678,-106.83658,TRUE,FALSE,TRUE,"S247004804"
"50","wooscj2","Woodhouse's Scrub-Jay","Aphelocoma woodhouseii","L46867134","68 La Serena Trail, Santa Fe US-NM 35.69389, -106.02778","2025-06-05 08:01",1,35.693886,-106.027778,TRUE,FALSE,TRUE,"S246946830"
"51","wooscj2","Woodhouse's Scrub-Jay","Aphelocoma woodhouseii","L6563039","417 Estante Way","2025-06-05 08:00",NA,35.7928671,-106.2075118,TRUE,FALSE,TRUE,"S246966660"
"52","wooscj2","Woodhouse's Scrub-Jay","Aphelocoma woodhouseii","L1550416","Juan Tomas Open Space","2025-06-05 07:58",2,35.0006738,-106.3108726,TRUE,FALSE,FALSE,"S246986641"
"53","wooscj2","Woodhouse's Scrub-Jay","Aphelocoma woodhouseii","L37198987","10936 W Cave Blvd, Dripping Springs US-TX 30.27520, -98.06111","2025-06-05 07:55",3,30.275201,-98.061106,TRUE,FALSE,TRUE,"S246945490"
"54","wooscj2","Woodhouse's Scrub-Jay","Aphelocoma woodhouseii","L3586899","Lower Water Canyon","2025-06-05 07:55",1,35.8019267,-106.2365445,TRUE,FALSE,FALSE,"S246983289"
"55","wooscj2","Woodhouse's Scrub-Jay","Aphelocoma woodhouseii","L46876896","Blue Jay Rd.","2025-06-05 07:41",1,34.855424,-111.807674,TRUE,FALSE,TRUE,"S246992257"
"56","wooscj2","Woodhouse's Scrub-Jay","Aphelocoma woodhouseii","L2643449","Near Lory State Park","2025-06-05 07:38",1,40.5909284,-105.2027607,TRUE,FALSE,TRUE,"S246956557"
"57","wooscj2","Woodhouse's Scrub-Jay","Aphelocoma woodhouseii","L46885104","14501–14999 W 20000 N, Beryl US-UT 38.07077, -113.99100","2025-06-05 07:36",2,38.07077,-113.990998,TRUE,FALSE,TRUE,"S247027517"
"58","wooscj2","Woodhouse's Scrub-Jay","Aphelocoma woodhouseii","L1859446","Copper Trailhead","2025-06-05 07:30",2,35.0787886,-106.484151,TRUE,FALSE,FALSE,"S246984985"
"59","wooscj2","Woodhouse's Scrub-Jay","Aphelocoma woodhouseii","L610739","Bear Creek Park East (El Paso)","2025-06-05 07:29",1,38.822265,-104.8551464,TRUE,FALSE,FALSE,"S247010285"
"60","wooscj2","Woodhouse's Scrub-Jay","Aphelocoma woodhouseii","L34210674","Phosphate Trail","2025-06-05 07:19",4,40.553896,-111.489088,TRUE,FALSE,TRUE,"S247022680"
"61","wooscj2","Woodhouse's Scrub-Jay","Aphelocoma woodhouseii","L2227164","17 Buena Vista","2025-06-05 07:15",1,36.4711223,-105.6051747,TRUE,FALSE,TRUE,"S246955091"
"62","wooscj2","Woodhouse's Scrub-Jay","Aphelocoma woodhouseii","L36387054","Jellystone Larkspur CO","2025-06-05 07:07",2,39.258955,-104.893559,TRUE,FALSE,TRUE,"S246928499"
"63","wooscj2","Woodhouse's Scrub-Jay","Aphelocoma woodhouseii","L1974855","Foothills Albuquerque","2025-06-05 07:03",1,35.11219,-106.5058395,TRUE,FALSE,TRUE,"S246930839"
"64","wooscj2","Woodhouse's Scrub-Jay","Aphelocoma woodhouseii","L923892","South Valley Park","2025-06-05 07:01",9,39.5661984,-105.1530486,TRUE,FALSE,FALSE,"S246985903"
"65","wooscj2","Woodhouse's Scrub-Jay","Aphelocoma woodhouseii","L11759727","Backyard","2025-06-05 07:01",1,38.911654,-104.872326,TRUE,FALSE,TRUE,"S246950683"
"66","wooscj2","Woodhouse's Scrub-Jay","Aphelocoma woodhouseii","L5774218","Mapleton Lateral Canal Trail","2025-06-05 06:58",1,40.1139369,-111.5671518,TRUE,FALSE,FALSE,"S246931440"
"67","wooscj2","Woodhouse's Scrub-Jay","Aphelocoma woodhouseii","L46842684","El Conejo","2025-06-05 06:45",1,35.6242148,-105.9768319,TRUE,FALSE,TRUE,"S246929132"
"68","wooscj2","Woodhouse's Scrub-Jay","Aphelocoma woodhouseii","L4545992","6th Street Pond","2025-06-05 06:45",1,35.878694,-106.2918904,TRUE,FALSE,FALSE,"S246950826"
"69","wooscj2","Woodhouse's Scrub-Jay","Aphelocoma woodhouseii","L2229749","2911 E Granite Gardens Dr","2025-06-05 06:36",3,34.6049843,-112.4136581,TRUE,FALSE,TRUE,"S246951288"
"70","wooscj2","Woodhouse's Scrub-Jay","Aphelocoma woodhouseii","L4679272","Sylvan Dale Guest Ranch (private)","2025-06-05 06:34",1,40.424147,-105.2200751,TRUE,FALSE,FALSE,"S246955409"
"71","wooscj2","Woodhouse's Scrub-Jay","Aphelocoma woodhouseii","L1064140","WOW Arizona B&B","2025-06-05 06:30",2,32.5081331,-110.8764428,TRUE,FALSE,FALSE,"S247035805"
"72","wooscj2","Woodhouse's Scrub-Jay","Aphelocoma woodhouseii","L2790198","Eldorado west","2025-06-05 06:27",1,35.5230314,-105.9618902,TRUE,FALSE,TRUE,"S246940881"
"73","wooscj2","Woodhouse's Scrub-Jay","Aphelocoma woodhouseii","L4116125","Cibola NF--Piedra Lisa Trail","2025-06-05 06:16",12,35.2780674,-106.4794493,TRUE,FALSE,FALSE,"S246964332"
"74","wooscj2","Woodhouse's Scrub-Jay","Aphelocoma woodhouseii","L2434157","Red Rock Canyon NCA--White Rock Spring","2025-06-05 06:12",1,36.1738179,-115.47978,TRUE,FALSE,FALSE,"S246999021"
"75","wooscj2","Woodhouse's Scrub-Jay","Aphelocoma woodhouseii","L875490","Hillsboro (town)","2025-06-05 05:56",1,32.9207363,-107.5675249,TRUE,FALSE,FALSE,"S246970646"
"76","wooscj2","Woodhouse's Scrub-Jay","Aphelocoma woodhouseii","L3754649","Hidden Canyon Ranch Bed & Breakfast","2025-06-05 05:53",1,38.8762088,-114.1168571,TRUE,FALSE,FALSE,"S246968466"
"77","wooscj2","Woodhouse's Scrub-Jay","Aphelocoma woodhouseii","L3937207","SNLA (no access)","2025-06-05 05:35",1,35.0127248,-106.4665244,TRUE,FALSE,TRUE,"S247113092"
"78","wooscj2","Woodhouse's Scrub-Jay","Aphelocoma woodhouseii","L46888027","LOWER SNAKE CREEK BREEDING BIRD SURVEY, GREAT BASIN NP(38.919, -114.142)","2025-06-05 05:22",1,38.9187233,-114.1423133,TRUE,FALSE,TRUE,"S247041376"
"79","wooscj2","Woodhouse's Scrub-Jay","Aphelocoma woodhouseii","L25801925","Juniper Acres (Private Residence)","2025-06-05 05:15",2,35.3166766,-106.4804263,TRUE,FALSE,TRUE,"S246891982"
"80","wooscj2","Woodhouse's Scrub-Jay","Aphelocoma woodhouseii","L46879817","Paradox Crossing Trail and BLM","2025-06-05 05:12",1,38.298089,-108.499457,TRUE,FALSE,TRUE,"S247005027"
"81","wooscj2","Woodhouse's Scrub-Jay","Aphelocoma woodhouseii","L9639972","Sneggs- Salt Lake, Utah, US (40.703, -111.801)","2025-06-04 19:09",1,40.7027993,-111.8010006,TRUE,FALSE,TRUE,"S246820979"
"82","wooscj2","Woodhouse's Scrub-Jay","Aphelocoma woodhouseii","L43374914","11011 W Cave Blvd, Dripping Springs US-TX (30.2695,-98.0579)","2025-06-04 19:02",2,30.269465,-98.057869,TRUE,FALSE,TRUE,"S246811662"
"83","wooscj2","Woodhouse's Scrub-Jay","Aphelocoma woodhouseii","L46846277","Dwight D. Eisenhower Highway, Wells, Nevada, US (41.067, -114.539)","2025-06-04 18:53",2,41.0666049,-114.5391178,TRUE,FALSE,TRUE,"S246834136"
"84","wooscj2","Woodhouse's Scrub-Jay","Aphelocoma woodhouseii","L46846269","Dwight D. Eisenhower Highway, Wells, Nevada, US (41.109, -114.858)","2025-06-04 18:39",1,41.1088256,-114.8582722,TRUE,FALSE,TRUE,"S246834092"
"85","wooscj2","Woodhouse's Scrub-Jay","Aphelocoma woodhouseii","L157621","Kodachrome Basin SP","2025-06-04 18:24",1,37.5221163,-112.0010662,TRUE,FALSE,FALSE,"S246987760"
"86","wooscj2","Woodhouse's Scrub-Jay","Aphelocoma woodhouseii","L2379394","Rock Ledge Ranch","2025-06-04 18:14",1,38.8731601,-104.8723555,TRUE,FALSE,FALSE,"S246801859"
"87","wooscj2","Woodhouse's Scrub-Jay","Aphelocoma woodhouseii","L46843154","Stakeout INBU","2025-06-04 17:35",2,40.495048,-111.299107,TRUE,FALSE,TRUE,"S246820020"
"88","wooscj2","Woodhouse's Scrub-Jay","Aphelocoma woodhouseii","L2381632","North Table Mountain Park","2025-06-04 17:17",2,39.7831137,-105.2103996,TRUE,FALSE,FALSE,"S246804176"
"89","wooscj2","Woodhouse's Scrub-Jay","Aphelocoma woodhouseii","L1217975","Hawkins Preserve","2025-06-04 17:00",1,37.3344054,-108.5947037,TRUE,FALSE,FALSE,"S246811183"
"90","wooscj2","Woodhouse's Scrub-Jay","Aphelocoma woodhouseii","L20503956","Roxborough Village - JWay","2025-06-04 16:30",1,39.474289,-105.082291,TRUE,FALSE,TRUE,"S246815268"
"91","wooscj2","Woodhouse's Scrub-Jay","Aphelocoma woodhouseii","L19107973","Ironbridge","2025-06-04 16:23",1,39.4612252,-107.2745973,TRUE,FALSE,TRUE,"S246806442"
"92","wooscj2","Woodhouse's Scrub-Jay","Aphelocoma woodhouseii","L1062940","Gila Bird Area","2025-06-04 16:07",1,32.812775,-108.60154,TRUE,FALSE,FALSE,"S247105067"
"93","wooscj2","Woodhouse's Scrub-Jay","Aphelocoma woodhouseii","L12595049","Colorado: Norwood, County Road 43Z South","2025-06-04 16:01",1,38.1191767,-108.2790435,TRUE,FALSE,TRUE,"S246816326"
"94","wooscj2","Woodhouse's Scrub-Jay","Aphelocoma woodhouseii","L1230771","Ute Valley Park","2025-06-04 15:40",1,38.9217559,-104.8581219,TRUE,FALSE,FALSE,"S246970382"
"95","wooscj2","Woodhouse's Scrub-Jay","Aphelocoma woodhouseii","L46507011","Flat Top Mtn., Springerville, Arizona, US (34.091, -109.267)","2025-06-04 15:27",NA,34.0910036,-109.2670581,TRUE,FALSE,TRUE,"S246814362"
"96","wooscj2","Woodhouse's Scrub-Jay","Aphelocoma woodhouseii","L2086664","Mesa Verde NP--Spruce Tree House","2025-06-04 15:27",1,37.1832536,-108.4864658,TRUE,FALSE,FALSE,"S246828554"
"97","wooscj2","Woodhouse's Scrub-Jay","Aphelocoma woodhouseii","L46837506","Cave Creek Ranch","2025-06-04 15:19",1,31.904464,-109.156008,TRUE,FALSE,TRUE,"S246798218"
"98","wooscj2","Woodhouse's Scrub-Jay","Aphelocoma woodhouseii","L917715","Crestwood Park","2025-06-04 15:12",4,40.6142294,-111.8435562,TRUE,FALSE,FALSE,"S246756260"
"99","wooscj2","Woodhouse's Scrub-Jay","Aphelocoma woodhouseii","L11398950","Hopi Hill House","2025-06-04 15:00",NA,34.5171879,-112.4889435,TRUE,FALSE,TRUE,"S246834096"
"100","wooscj2","Woodhouse's Scrub-Jay","Aphelocoma woodhouseii","L1211296","Upper Water Canyon","2025-06-04 14:58",1,35.8377417,-106.360103,TRUE,FALSE,FALSE,"S246784362"
"101","wooscj2","Woodhouse's Scrub-Jay","Aphelocoma woodhouseii","L43060587","Corky Cox Ranch Rd, Dripping Springs US-TX (30.3542,-98.1755)","2025-06-04 14:34",1,30.354233,-98.175474,TRUE,FALSE,TRUE,"S246724097"
"102","wooscj2","Woodhouse's Scrub-Jay","Aphelocoma woodhouseii","L13168300","Mesa Trail (35.882, -106.28)","2025-06-04 14:32",1,35.8822274,-106.2795506,TRUE,FALSE,TRUE,"S246776031"
"103","wooscj2","Woodhouse's Scrub-Jay","Aphelocoma woodhouseii","L235361","Salida","2025-06-04 14:15",1,38.5347,-105.99857,TRUE,FALSE,TRUE,"S246767390"
"104","wooscj2","Woodhouse's Scrub-Jay","Aphelocoma woodhouseii","L3244254","Bell Rock Trail","2025-06-04 12:48",2,34.791691,-111.7615235,TRUE,FALSE,FALSE,"S246730631"
"105","wooscj2","Woodhouse's Scrub-Jay","Aphelocoma woodhouseii","L46824439","Smelter Side Canyon: Bodo State Wildlife Area","2025-06-04 12:36",3,37.254698,-107.882946,TRUE,FALSE,TRUE,"S246725440"
"106","wooscj2","Woodhouse's Scrub-Jay","Aphelocoma woodhouseii","L3191730","Lower Maestas Rd. Talpa","2025-06-04 12:10",1,36.3387633,-105.5904901,TRUE,FALSE,TRUE,"S246707282"
"107","wooscj2","Woodhouse's Scrub-Jay","Aphelocoma woodhouseii","L7445182","Red Mountain Open Space","2025-06-04 12:00",1,40.9597289,-105.1607037,TRUE,FALSE,FALSE,"S246950898"
"108","wooscj2","Woodhouse's Scrub-Jay","Aphelocoma woodhouseii","L9401567","Edmunds Powerline Rd, Edwards US-CO (39.6616,-106.5823)","2025-06-04 11:47",1,39.661617,-106.582322,TRUE,FALSE,TRUE,"S246698580"
"109","wooscj2","Woodhouse's Scrub-Jay","Aphelocoma woodhouseii","L142170","Park Place","2025-06-04 11:22",1,29.8576916,-98.7555456,TRUE,FALSE,TRUE,"S246752116"
"110","wooscj2","Woodhouse's Scrub-Jay","Aphelocoma woodhouseii","L11433690","Ponderosa Yardbirds","2025-06-04 11:22",1,35.6527838,-106.6724124,TRUE,FALSE,TRUE,"S246831156"
"111","wooscj2","Woodhouse's Scrub-Jay","Aphelocoma woodhouseii","L46814952","Rules Hills BLM","2025-06-04 11:20",2,37.29925,-107.697804,TRUE,FALSE,TRUE,"S246685548"
"112","wooscj2","Woodhouse's Scrub-Jay","Aphelocoma woodhouseii","L32716921","Fremont Indian SP","2025-06-04 11:09",1,38.577534,-112.33469,TRUE,FALSE,FALSE,"S246711459"
"113","wooscj2","Woodhouse's Scrub-Jay","Aphelocoma woodhouseii","L3029761","Mud Spring Campground","2025-06-04 11:07",1,38.9049969,-108.7387866,TRUE,FALSE,FALSE,"S246688685"
"114","wooscj2","Woodhouse's Scrub-Jay","Aphelocoma woodhouseii","L3054716","Pedernales Falls State Park--Bird Blind area","2025-06-04 11:04",1,30.3252513,-98.2556275,TRUE,FALSE,FALSE,"S246664076"
"115","wooscj2","Woodhouse's Scrub-Jay","Aphelocoma woodhouseii","L296354","Dinosaur Ridge Hawkwatch","2025-06-04 11:00",1,39.6945985,-105.2000678,TRUE,FALSE,FALSE,"S246790101"
"116","wooscj2","Woodhouse's Scrub-Jay","Aphelocoma woodhouseii","L942502","Santa Fe Canyon Preserve","2025-06-04 10:45",1,35.6883371,-105.8927482,TRUE,FALSE,FALSE,"S246737151"
"117","wooscj2","Woodhouse's Scrub-Jay","Aphelocoma woodhouseii","L45092630","Just Past 5 Hills Right Turnoff","2025-06-04 10:38",1,35.0848495,-106.3104627,TRUE,FALSE,TRUE,"S246670354"
"118","wooscj2","Woodhouse's Scrub-Jay","Aphelocoma woodhouseii","L46817377","Lambert Poppy Garden","2025-06-04 10:35",1,40.465319,-111.755622,TRUE,FALSE,TRUE,"S246695770"
"119","wooscj2","Woodhouse's Scrub-Jay","Aphelocoma woodhouseii","L744308","Mt. Ord (Maricopa Co.)","2025-06-04 10:35",3,33.9053284,-111.4103365,TRUE,FALSE,FALSE,"S246744726"
"120","wooscj2","Woodhouse's Scrub-Jay","Aphelocoma woodhouseii","L341999","Zapata Falls and Campground","2025-06-04 10:28",1,37.6210577,-105.5595428,TRUE,FALSE,FALSE,"S246672241"
"121","wooscj2","Woodhouse's Scrub-Jay","Aphelocoma woodhouseii","L2325081","Summit Reservoir","2025-06-04 10:24",1,37.4214353,-108.3839035,TRUE,FALSE,FALSE,"S246703423"
"122","wooscj2","Woodhouse's Scrub-Jay","Aphelocoma woodhouseii","L24588182","Grand Staircase-Escalante NM--Lower Calf Creek Falls","2025-06-04 10:19",1,37.8291551,-111.4201118,TRUE,FALSE,FALSE,"S246814574"
"123","wooscj2","Woodhouse's Scrub-Jay","Aphelocoma woodhouseii","L1281811","Washington Park & Terrace","2025-06-04 10:16",1,40.7459239,-111.6900444,TRUE,FALSE,FALSE,"S246683304"
"124","wooscj2","Woodhouse's Scrub-Jay","Aphelocoma woodhouseii","L46819659","Hawk Observation 3","2025-06-04 10:15",2,35.8524695,-106.2199948,TRUE,FALSE,TRUE,"S246703516"
"125","wooscj2","Woodhouse's Scrub-Jay","Aphelocoma woodhouseii","L43490168","Blue--PT13","2025-06-04 10:09",2,36.8946983,-107.6147071,TRUE,FALSE,TRUE,"S246780418"
"126","wooscj2","Woodhouse's Scrub-Jay","Aphelocoma woodhouseii","L587297","Elden Spring","2025-06-04 10:08",1,35.2273919,-111.6043997,TRUE,FALSE,FALSE,"S246734620"
"127","wooscj2","Woodhouse's Scrub-Jay","Aphelocoma woodhouseii","L46737906","Rock Canyon Trail, Provo, Utah, US (40.265, -111.625)","2025-06-04 10:03",4,40.2650422,-111.624951,TRUE,FALSE,TRUE,"S246667984"
"128","wooscj2","Woodhouse's Scrub-Jay","Aphelocoma woodhouseii","L4160983","Boulder Mountain--Garkane Power Plant Access Rd.","2025-06-04 10:00",1,37.9843756,-111.4394385,TRUE,FALSE,FALSE,"S246829291"
"129","wooscj2","Woodhouse's Scrub-Jay","Aphelocoma woodhouseii","L15834458","Colorado NM--Upper Ute Canyon Overlook","2025-06-04 09:58",1,39.0430063,-108.7152532,TRUE,FALSE,FALSE,"S246665614"
"130","wooscj2","Woodhouse's Scrub-Jay","Aphelocoma woodhouseii","L30127421","Casa de Gavilan, Cimarron","2025-06-04 09:46",6,36.436226,-104.977249,TRUE,FALSE,TRUE,"S246689674"
"131","wooscj2","Woodhouse's Scrub-Jay","Aphelocoma woodhouseii","L46879836","Clear Creek Camp","2025-06-04 09:45",2,39.644154,-111.153183,TRUE,FALSE,TRUE,"S247005094"
"132","wooscj2","Woodhouse's Scrub-Jay","Aphelocoma woodhouseii","L141795","Billy Creek SWA (Ouray Co)","2025-06-04 09:44",1,38.2881012,-107.7322998,TRUE,FALSE,FALSE,"S246754979"
"133","wooscj2","Woodhouse's Scrub-Jay","Aphelocoma woodhouseii","L46822053","84714, Beryl US-UT 37.99090, -113.93652","2025-06-04 09:32",1,37.9909,-113.93652,TRUE,FALSE,TRUE,"S246715291"
"134","wooscj2","Woodhouse's Scrub-Jay","Aphelocoma woodhouseii","L40884890","Home UT","2025-06-04 09:25",1,40.8592181,-111.8837505,TRUE,FALSE,TRUE,"S246662070"
"135","wooscj2","Woodhouse's Scrub-Jay","Aphelocoma woodhouseii","L46822529","11609–12565 Transfer Rd, Olathe US-CO 38.52317, -108.09016","2025-06-04 09:16",3,38.523168,-108.090164,TRUE,FALSE,TRUE,"S246717219"
"136","wooscj2","Woodhouse's Scrub-Jay","Aphelocoma woodhouseii","L5855832","Canyonlands NP--Shafer Canyon Overlook","2025-06-04 09:16",1,38.4517739,-109.8199582,TRUE,FALSE,FALSE,"S246641646"
"137","wooscj2","Woodhouse's Scrub-Jay","Aphelocoma woodhouseii","L1211312","Clear Creek Trail--Tunnel #1 to Clear Creek History Park","2025-06-04 09:15",1,39.7529971,-105.2343839,TRUE,FALSE,FALSE,"S246745755"
"138","wooscj2","Woodhouse's Scrub-Jay","Aphelocoma woodhouseii","L18129582","Highland Raven Trail","2025-06-04 09:14",1,40.4407744,-111.8145934,TRUE,FALSE,TRUE,"S246646228"
"139","wooscj2","Woodhouse's Scrub-Jay","Aphelocoma woodhouseii","L46819800","Highway 260, Pine, Arizona, US (34.452, -111.445)","2025-06-04 09:02",2,34.4523753,-111.4453773,TRUE,FALSE,TRUE,"S246705727"
"140","wooscj2","Woodhouse's Scrub-Jay","Aphelocoma woodhouseii","L46825048","canyon view trail","2025-06-04 09:00",3,39.3296502,-104.7384167,TRUE,FALSE,TRUE,"S246729938"
"141","wooscj2","Woodhouse's Scrub-Jay","Aphelocoma woodhouseii","L233566","Morrison Park","2025-06-04 08:55",1,39.6527673,-105.1999484,TRUE,FALSE,FALSE,"S246659919"
"142","wooscj2","Woodhouse's Scrub-Jay","Aphelocoma woodhouseii","L504323","East Tintic Mountains--Dividend Rd.","2025-06-04 08:50",1,39.9556503,-112.0613515,TRUE,FALSE,FALSE,"S246714993"
"143","wooscj2","Woodhouse's Scrub-Jay","Aphelocoma woodhouseii","L46225550","Hwy 14, near Madrid NM","2025-06-04 08:45",1,35.3685396,-106.174761,TRUE,FALSE,TRUE,"S246810295"
"144","wooscj2","Woodhouse's Scrub-Jay","Aphelocoma woodhouseii","L46810090","81328, Mancos US-CO 37.21714, -108.33597","2025-06-04 08:44",1,37.217141,-108.335965,TRUE,FALSE,TRUE,"S246664511"
"145","wooscj2","Woodhouse's Scrub-Jay","Aphelocoma woodhouseii","L11481342","15915 Fisher Hollow Trail (HOME) TX 30.47996, -97.88411","2025-06-04 08:35",2,30.479959,-97.884108,TRUE,FALSE,TRUE,"S246626337"
"146","wooscj2","Woodhouse's Scrub-Jay","Aphelocoma woodhouseii","L20297263","Mt. Galbraith — Nightbird Gulch","2025-06-04 08:34",1,39.7620795,-105.2394117,TRUE,FALSE,FALSE,"S246686449"
"147","wooscj2","Woodhouse's Scrub-Jay","Aphelocoma woodhouseii","L3672517","Mt. Ord--FR 1688","2025-06-04 08:30",2,33.9211769,-111.4143384,TRUE,FALSE,FALSE,"S246752300"
"148","wooscj2","Woodhouse's Scrub-Jay","Aphelocoma woodhouseii","L42668945","Green--PC6","2025-06-04 08:30",2,36.9225334,-107.660322,TRUE,FALSE,TRUE,"S246656581"
"149","wooscj2","Woodhouse's Scrub-Jay","Aphelocoma woodhouseii","L20414123","Mountain Dell Golf Course, Salt Lake City US-UT 40.75417, -111.71043","2025-06-04 08:23",2,40.754169,-111.710432,TRUE,FALSE,TRUE,"S246647871"
"150","wooscj2","Woodhouse's Scrub-Jay","Aphelocoma woodhouseii","L299012","Oracle State Park","2025-06-04 08:07",2,32.6083177,-110.7335132,TRUE,FALSE,FALSE,"S246764982"
"151","wooscj2","Woodhouse's Scrub-Jay","Aphelocoma woodhouseii","L2278082","Plains Conservation Center","2025-06-04 08:01",2,39.6563734,-104.7359544,TRUE,FALSE,FALSE,"S246715934"
"152","wooscj2","Woodhouse's Scrub-Jay","Aphelocoma woodhouseii","L505947","80116 - WLD","2025-06-04 08:00",1,39.3715304,-104.7806454,TRUE,FALSE,TRUE,"S246816627"
"153","wooscj2","Woodhouse's Scrub-Jay","Aphelocoma woodhouseii","L6944240","Ranch Road","2025-06-04 07:45",3,35.0427633,-108.2370245,TRUE,FALSE,TRUE,"S246701673"
"154","wooscj2","Woodhouse's Scrub-Jay","Aphelocoma woodhouseii","L798569","Rock Canyon","2025-06-04 07:39",3,40.2638741,-111.6266727,TRUE,FALSE,FALSE,"S246634939"
"155","wooscj2","Woodhouse's Scrub-Jay","Aphelocoma woodhouseii","L18976002","Davis Mtns SP--Interpretive Center","2025-06-04 07:32",1,30.5956658,-103.9304521,TRUE,FALSE,FALSE,"S246753642"
"156","wooscj2","Woodhouse's Scrub-Jay","Aphelocoma woodhouseii","L43646695","23 Kingston North Street, Hillsboro, New Mexico, US (32.919, -107.708)","2025-06-04 07:30",3,32.9185369,-107.7075924,TRUE,FALSE,TRUE,"S246826565"
"157","wooscj2","Woodhouse's Scrub-Jay","Aphelocoma woodhouseii","L46805661","7630 Lake Creek Rd, Heber City US-UT 40.49595, -111.29519","2025-06-04 07:26",1,40.495953,-111.295187,TRUE,FALSE,TRUE,"S246645361"
"158","wooscj2","Woodhouse's Scrub-Jay","Aphelocoma woodhouseii","L46808131","BLM route1220a","2025-06-04 07:18",2,39.953714,-109.023139,TRUE,FALSE,TRUE,"S246656228"
"159","wooscj2","Woodhouse's Scrub-Jay","Aphelocoma woodhouseii","L9216663","Barton Creek Habitat Preserve (TNC-restricted access)","2025-06-04 07:14",1,30.3053624,-97.9157121,TRUE,FALSE,FALSE,"S246595001"
"160","wooscj2","Woodhouse's Scrub-Jay","Aphelocoma woodhouseii","L18866200","MY house","2025-06-04 07:13",1,39.6139184,-110.8023974,TRUE,FALSE,TRUE,"S246599310"
"161","wooscj2","Woodhouse's Scrub-Jay","Aphelocoma woodhouseii","L386168","Highlands Center--Lynx Creek Site","2025-06-04 07:10",NA,34.5240958,-112.3933554,TRUE,FALSE,FALSE,"S246692095"
"162","wooscj2","Woodhouse's Scrub-Jay","Aphelocoma woodhouseii","L46800362","Chiricahua National Monument, Bowie US-AZ 32.01665, -109.32121","2025-06-04 07:02",1,32.016648,-109.321206,TRUE,FALSE,TRUE,"S246620620"
"163","wooscj2","Woodhouse's Scrub-Jay","Aphelocoma woodhouseii","L5716135","Herber survey (private)","2025-06-04 07:00",3,30.0730488,-98.2213983,TRUE,FALSE,TRUE,"S246620441"
"164","wooscj2","Woodhouse's Scrub-Jay","Aphelocoma woodhouseii","L13168690","Home","2025-06-04 07:00",2,36.3325504,-105.6099821,TRUE,FALSE,TRUE,"S246942502"
"165","wooscj2","Woodhouse's Scrub-Jay","Aphelocoma woodhouseii","L17438174","Quail Run to Quail Springs","2025-06-04 07:00",3,34.691732,-112.024735,TRUE,FALSE,TRUE,"S246627287"
"166","wooscj2","Woodhouse's Scrub-Jay","Aphelocoma woodhouseii","L2917328","Chiricahua NM--Echo Canyon Loop Trail only","2025-06-04 06:53",1,32.0076393,-109.3151236,TRUE,FALSE,FALSE,"S246612734"
"167","wooscj2","Woodhouse's Scrub-Jay","Aphelocoma woodhouseii","L18003302","Rockport Estates","2025-06-04 06:50",1,40.7642402,-111.414204,TRUE,FALSE,TRUE,"S246653383"
"168","wooscj2","Woodhouse's Scrub-Jay","Aphelocoma woodhouseii","L21351112","215-247 N. Cody Loop, Oracle Az","2025-06-04 06:45",6,32.6024655,-110.7586688,TRUE,FALSE,TRUE,"S246831313"
"169","wooscj2","Woodhouse's Scrub-Jay","Aphelocoma woodhouseii","L46811921","US-285, Villa Grove US-CO 38.09659, -106.07520","2025-06-04 06:44",1,38.096588,-106.0752,TRUE,FALSE,TRUE,"S246671937"
"170","wooscj2","Woodhouse's Scrub-Jay","Aphelocoma woodhouseii","L12991657","Casa Tecolote, Santa Fe US-NM 35.53153, -105.95095","2025-06-04 06:42",3,35.531528,-105.950947,TRUE,FALSE,TRUE,"S246596577"
"171","wooscj2","Woodhouse's Scrub-Jay","Aphelocoma woodhouseii","L2528680","Ken Caryl Valley - Silverberry","2025-06-04 06:37",1,39.577396,-105.1634744,TRUE,FALSE,TRUE,"S246586993"
"172","wooscj2","Woodhouse's Scrub-Jay","Aphelocoma woodhouseii","L2641460","Cedar Crest","2025-06-04 06:35",2,37.3601592,-108.4006459,TRUE,FALSE,TRUE,"S246719439"
"173","wooscj2","Woodhouse's Scrub-Jay","Aphelocoma woodhouseii","L6940604","Dusty V Acres","2025-06-04 06:30",4,35.1816178,-113.812197,TRUE,FALSE,TRUE,"S246702165"
"174","wooscj2","Woodhouse's Scrub-Jay","Aphelocoma woodhouseii","L41950936","Colorado Home","2025-06-04 06:27",2,37.2931258,-107.8648168,TRUE,FALSE,TRUE,"S246616284"
"175","wooscj2","Woodhouse's Scrub-Jay","Aphelocoma woodhouseii","L2643516","Sweetwater Park","2025-06-04 06:15",1,39.5506598,-104.8893929,TRUE,FALSE,TRUE,"S246606046"
"176","wooscj2","Woodhouse's Scrub-Jay","Aphelocoma woodhouseii","L23840546","Grovers","2025-06-04 06:13",2,40.690598,-111.789116,TRUE,FALSE,TRUE,"S246700336"
"177","wooscj2","Woodhouse's Scrub-Jay","Aphelocoma woodhouseii","L919661","m.k. - d.c.c.","2025-06-04 06:01",1,39.5522359,-105.2071381,TRUE,FALSE,TRUE,"S246645898"
"178","wooscj2","Woodhouse's Scrub-Jay","Aphelocoma woodhouseii","L15407012","Coconino National Forest, Sedona US-AZ 34.77820, -111.7809. My house Sedona, Az","2025-06-04 05:58",1,34.778204,-111.780899,TRUE,FALSE,TRUE,"S246613348"
"179","wooscj2","Woodhouse's Scrub-Jay","Aphelocoma woodhouseii","L46843200","Cave Canyon Breeding Bird Survey Great Basin NP (38.923, -114.144)","2025-06-04 05:38",1,38.9228983,-114.1436417,TRUE,FALSE,TRUE,"S246820196"
"180","wooscj2","Woodhouse's Scrub-Jay","Aphelocoma woodhouseii","L1353850","Fain Park","2025-06-04 04:45",7,34.5748627,-112.3520867,TRUE,FALSE,FALSE,"S246651730"
"181","wooscj2","Woodhouse's Scrub-Jay","Aphelocoma woodhouseii","L2939054","* Wallace Lane (My house)","2025-06-04 04:06",1,40.6707517,-111.8073705,TRUE,FALSE,TRUE,"S246839766"
"182","wooscj2","Woodhouse's Scrub-Jay","Aphelocoma woodhouseii","L17120267","Thunderbird Garden Trail","2025-06-03 18:49",1,37.6902051,-113.0436516,TRUE,FALSE,FALSE,"S246491866"
"183","wooscj2","Woodhouse's Scrub-Jay","Aphelocoma woodhouseii","L1795662","McPhee Recreation Area Campground","2025-06-03 18:42",1,37.4967782,-108.5540708,TRUE,FALSE,FALSE,"S246483707"
"184","wooscj2","Woodhouse's Scrub-Jay","Aphelocoma woodhouseii","L2325069","Narraguinnep Reservoir","2025-06-03 18:39",1,37.4898423,-108.6235428,TRUE,FALSE,FALSE,"S246490007"
"185","wooscj2","Woodhouse's Scrub-Jay","Aphelocoma woodhouseii","L11859855","Hilltop Hideaway","2025-06-03 18:03",1,39.461526,-107.261643,TRUE,FALSE,TRUE,"S247013708"
"186","wooscj2","Woodhouse's Scrub-Jay","Aphelocoma woodhouseii","L1466552","Dalton Wash Rd.","2025-06-03 17:51",2,37.2009881,-113.1570876,TRUE,FALSE,FALSE,"S246493059"
"187","wooscj2","Woodhouse's Scrub-Jay","Aphelocoma woodhouseii","L43742806","Zipline tank","2025-06-03 17:14",1,32.5529215,-110.7095497,TRUE,FALSE,TRUE,"S246675149"
"188","wooscj2","Woodhouse's Scrub-Jay","Aphelocoma woodhouseii","L19751167","Lydia's Canyon","2025-06-03 17:10",1,37.340672,-112.610282,TRUE,FALSE,FALSE,"S246447161"
"189","wooscj2","Woodhouse's Scrub-Jay","Aphelocoma woodhouseii","L46769989","Mesa Top Loop Rd, Mancos US-CO 37.16469, -108.47923","2025-06-03 17:08",1,37.164689,-108.479231,TRUE,FALSE,TRUE,"S246460415"
"190","wooscj2","Woodhouse's Scrub-Jay","Aphelocoma woodhouseii","L3552731","Lost Maples SNA--East Trail","2025-06-03 17:00",1,29.8166679,-99.5721388,TRUE,FALSE,FALSE,"S246701755"
"191","wooscj2","Woodhouse's Scrub-Jay","Aphelocoma woodhouseii","L46304425","80 Royal John Mine Rd, back porch","2025-06-03 15:41",1,32.735442,-107.857859,TRUE,FALSE,TRUE,"S246423525"
"192","wooscj2","Woodhouse's Scrub-Jay","Aphelocoma woodhouseii","L10447806","Bru House Utah","2025-06-03 15:19",2,37.680295,-113.053941,TRUE,FALSE,TRUE,"S246421085"
"193","wooscj2","Woodhouse's Scrub-Jay","Aphelocoma woodhouseii","L902981","Zion NP--Emerald Pools Trail","2025-06-03 15:14",2,37.2551485,-112.9612327,TRUE,FALSE,FALSE,"S246434173"
"194","wooscj2","Woodhouse's Scrub-Jay","Aphelocoma woodhouseii","L37574588","Raindance North","2025-06-03 14:54",2,39.4533847,-105.0860603,TRUE,FALSE,TRUE,"S246423523"
"195","wooscj2","Woodhouse's Scrub-Jay","Aphelocoma woodhouseii","L522498","Old Saint Vrain Rd","2025-06-03 14:54",1,40.20936,-105.2803516,TRUE,FALSE,FALSE,"S246456183"
"196","wooscj2","Woodhouse's Scrub-Jay","Aphelocoma woodhouseii","L41393138","Roadrunner House","2025-06-03 14:09",1,30.1950294,-97.930858,TRUE,FALSE,TRUE,"S246381032"
"197","wooscj2","Woodhouse's Scrub-Jay","Aphelocoma woodhouseii","L42348405","Yellow--CP12","2025-06-03 13:41",4,36.8934138,-107.6758828,TRUE,FALSE,TRUE,"S246972141"
"198","wooscj2","Woodhouse's Scrub-Jay","Aphelocoma woodhouseii","L24481287","Windstar Ranch","2025-06-03 13:14",1,39.302401,-106.9733,TRUE,FALSE,FALSE,"S246439729"
"199","wooscj2","Woodhouse's Scrub-Jay","Aphelocoma woodhouseii","L6125506","Garden of the Gods--Cabin Canyon Trail","2025-06-03 12:38",3,38.8681148,-104.8921824,TRUE,FALSE,FALSE,"S246412943"
"200","wooscj2","Woodhouse's Scrub-Jay","Aphelocoma woodhouseii","L21881846","Legend Hills Neighborhood","2025-06-03 12:35",1,34.681311,-112.2037354,TRUE,FALSE,TRUE,"S246392892"
"201","wooscj2","Woodhouse's Scrub-Jay","Aphelocoma woodhouseii","L16138526","Old School House, Shumway","2025-06-03 12:16",1,34.4064987,-110.072929,TRUE,FALSE,FALSE,"S246407574"
"202","wooscj2","Woodhouse's Scrub-Jay","Aphelocoma woodhouseii","L353761","Recapture Reservoir","2025-06-03 12:08",1,37.6669964,-109.4401239,TRUE,FALSE,FALSE,"S246374959"
"203","wooscj2","Woodhouse's Scrub-Jay","Aphelocoma woodhouseii","L226242","Mount Falcon Park--Upper Trails","2025-06-03 11:35",1,39.6335555,-105.2281245,TRUE,FALSE,FALSE,"S246770335"
"204","wooscj2","Woodhouse's Scrub-Jay","Aphelocoma woodhouseii","L767742","Nebo Loop Road (Juab Co. Portion)","2025-06-03 11:12",1,39.7193353,-111.7300558,TRUE,FALSE,TRUE,"S246345122"
"205","wooscj2","Woodhouse's Scrub-Jay","Aphelocoma woodhouseii","L38027485","Home","2025-06-03 10:59",1,34.753658,-112.562145,TRUE,FALSE,TRUE,"S246367122"
"206","wooscj2","Woodhouse's Scrub-Jay","Aphelocoma woodhouseii","L42393147","Blue--TP02","2025-06-03 10:55",2,36.8643359,-107.6492715,TRUE,FALSE,TRUE,"S246501287"
"207","wooscj2","Woodhouse's Scrub-Jay","Aphelocoma woodhouseii","L39885821","Sandstone Cottages","2025-06-03 10:50",1,37.1859919,-113.002631,TRUE,FALSE,TRUE,"S246502272"
"208","wooscj2","Woodhouse's Scrub-Jay","Aphelocoma woodhouseii","L19612587","CWUSA-NM-02465-WBNU-3","2025-06-03 10:45",1,35.88096,-106.23997,TRUE,FALSE,TRUE,"S246335659"
"209","wooscj2","Woodhouse's Scrub-Jay","Aphelocoma woodhouseii","L46749552","Black","2025-06-03 10:44",5,38.908074,-104.82672,TRUE,FALSE,TRUE,"S246361023"
"210","wooscj2","Woodhouse's Scrub-Jay","Aphelocoma woodhouseii","L23176373","Lands End Road--Wild Rose PG","2025-06-03 10:40",3,39.0124192,-108.2333065,TRUE,FALSE,FALSE,"S246471152"
"211","wooscj2","Woodhouse's Scrub-Jay","Aphelocoma woodhouseii","L46750931","AFMN- Lower Silver Creek","2025-06-03 10:35",1,34.253669,-112.045368,TRUE,FALSE,TRUE,"S246366236"
"212","wooscj2","Woodhouse's Scrub-Jay","Aphelocoma woodhouseii","L46777897","Cibola National Forest, Albuquerque US-NM","2025-06-03 10:31",1,35.180948,-106.473088,TRUE,FALSE,TRUE,"S246501451"
"213","wooscj2","Woodhouse's Scrub-Jay","Aphelocoma woodhouseii","L1532044","PINEBROOK PRIVATE TRAIL SYSTEM","2025-06-03 10:30",1,40.735032,-111.5832173,TRUE,FALSE,TRUE,"S247027898"
"214","wooscj2","Woodhouse's Scrub-Jay","Aphelocoma woodhouseii","L381965","Sondermann Park","2025-06-03 10:14",2,38.8581235,-104.8387098,TRUE,FALSE,FALSE,"S246389781"
"215","wooscj2","Woodhouse's Scrub-Jay","Aphelocoma woodhouseii","L279921","Peppersauce Canyon","2025-06-03 10:11",1,32.5379839,-110.716606,TRUE,FALSE,FALSE,"S246674529"
"216","wooscj2","Woodhouse's Scrub-Jay","Aphelocoma woodhouseii","L43174148","Blue--CP02","2025-06-03 10:11",2,36.8739463,-107.6502922,TRUE,FALSE,TRUE,"S246488489"
"217","wooscj2","Woodhouse's Scrub-Jay","Aphelocoma woodhouseii","L9830170","timber knoll area","2025-06-03 10:09",1,34.2514342,-109.7401739,TRUE,FALSE,TRUE,"S246486775"
"218","wooscj2","Woodhouse's Scrub-Jay","Aphelocoma woodhouseii","L31218901","161 Camino Barranca, Placitas US-NM 35.33097, -106.48320","2025-06-03 09:45",1,35.330966,-106.483196,TRUE,FALSE,TRUE,"S246356300"
"219","wooscj2","Woodhouse's Scrub-Jay","Aphelocoma woodhouseii","L3061728","Lands end road switchbacks","2025-06-03 09:41",2,39.0014766,-108.2429266,TRUE,FALSE,TRUE,"S246470525"
"220","wooscj2","Woodhouse's Scrub-Jay","Aphelocoma woodhouseii","L5982318","Doe Mountain Trail","2025-06-03 09:26",2,34.8925042,-111.864185,TRUE,FALSE,FALSE,"S246427020"
"221","wooscj2","Woodhouse's Scrub-Jay","Aphelocoma woodhouseii","L12349097","438 E Ocampo Ln, Elk Ridge US-UT 40.01595, -111.67612","2025-06-03 09:24",NA,40.015953,-111.676115,TRUE,FALSE,TRUE,"S246324205"
"222","wooscj2","Woodhouse's Scrub-Jay","Aphelocoma woodhouseii","L46766652","Auto selected 34.43040, -112.69354","2025-06-03 09:23",1,34.4304,-112.693543,TRUE,FALSE,TRUE,"S246442509"
"223","wooscj2","Woodhouse's Scrub-Jay","Aphelocoma woodhouseii","L20233215","UVU Mtn Biking Trails","2025-06-03 09:10",2,40.546565,-111.4120551,TRUE,FALSE,TRUE,"S246405964"
"224","wooscj2","Woodhouse's Scrub-Jay","Aphelocoma woodhouseii","L1770005","Rio Grande del Norte NM--Wild Rivers Recreation Area","2025-06-03 09:07",2,36.7027812,-105.6775761,TRUE,FALSE,FALSE,"S246362039"
"225","wooscj2","Woodhouse's Scrub-Jay","Aphelocoma woodhouseii","L27121739","Hwy 89A--scenic viewpoint south of Jerome","2025-06-03 08:55",1,34.743031,-112.121059,TRUE,FALSE,FALSE,"S246321617"
"226","wooscj2","Woodhouse's Scrub-Jay","Aphelocoma woodhouseii","L11910413","Davis Mountains State Park, Fort Davis US-TX 30.59571, -103.93057","2025-06-03 08:54",1,30.595709,-103.930574,TRUE,FALSE,TRUE,"S246342440"
"227","wooscj2","Woodhouse's Scrub-Jay","Aphelocoma woodhouseii","L5522272","Granite Mountains Reserve--Allanson Center","2025-06-03 08:52",1,34.7819544,-115.6536958,TRUE,FALSE,FALSE,"S246316645"
"228","wooscj2","Woodhouse's Scrub-Jay","Aphelocoma woodhouseii","L128950","Davis Mountains  SP (FWTX 23)","2025-06-03 08:52",1,30.5962706,-103.9347249,TRUE,FALSE,FALSE,"S246342394"
"229","wooscj2","Woodhouse's Scrub-Jay","Aphelocoma woodhouseii","L13658607","1326 Preserve Cir, Golden US-CO 39.69133, -105.28427","2025-06-03 08:46",1,39.691325,-105.284266,TRUE,FALSE,TRUE,"S246297032"
"230","wooscj2","Woodhouse's Scrub-Jay","Aphelocoma woodhouseii","L46770493","Mitchell Trail","2025-06-03 08:44",1,35.907649,-106.33032,TRUE,FALSE,TRUE,"S246463407"
"231","wooscj2","Woodhouse's Scrub-Jay","Aphelocoma woodhouseii","L46770293","1930 Azalea Ln, Pocatello US-ID 42.81539, -112.42373","2025-06-03 08:41",1,42.815388,-112.423726,TRUE,FALSE,TRUE,"S246462181"
"232","wooscj2","Woodhouse's Scrub-Jay","Aphelocoma woodhouseii","L46760616","White River National Forest, Rifle US-CO 39.42192, -107.77508","2025-06-03 08:39",1,39.421923,-107.775084,TRUE,FALSE,TRUE,"S246412384"
"233","wooscj2","Woodhouse's Scrub-Jay","Aphelocoma woodhouseii","L353655","City Creek Canyon--Above Bonneville Blvd","2025-06-03 08:36",2,40.8046493,-111.8645096,TRUE,FALSE,FALSE,"S246348495"
"234","wooscj2","Woodhouse's Scrub-Jay","Aphelocoma woodhouseii","L45571361","hesse","2025-06-03 08:30",1,34.2347826,-110.0398555,TRUE,FALSE,TRUE,"S246485599"
"235","wooscj2","Woodhouse's Scrub-Jay","Aphelocoma woodhouseii","L10711545","Pecos NHP--South Pasture Trail","2025-06-03 08:14",1,35.5319622,-105.6765258,TRUE,FALSE,FALSE,"S246366131"
"236","wooscj2","Woodhouse's Scrub-Jay","Aphelocoma woodhouseii","L12236366","Davis Mountains State Park, Fort Davis US-TX 30.59641, -103.93476","2025-06-03 08:05",1,30.596408,-103.934759,TRUE,FALSE,TRUE,"S246342659"
"237","wooscj2","Woodhouse's Scrub-Jay","Aphelocoma woodhouseii","L15211785","Paonia, Hawks Haven Stewart Ditch, 448 Vista Dr, CO, 38.86934, -107.58139","2025-06-03 08:05",1,38.869337,-107.581394,TRUE,FALSE,TRUE,"S246310560"
"238","wooscj2","Woodhouse's Scrub-Jay","Aphelocoma woodhouseii","L46749442","Sabino Canyon Open Space","2025-06-03 08:02",1,35.040103,-106.344033,TRUE,FALSE,TRUE,"S246360594"
"239","wooscj2","Woodhouse's Scrub-Jay","Aphelocoma woodhouseii","L2005556","Animas River--US 160 ""High Bridge"" to River Rd","2025-06-03 08:02",1,37.2250323,-107.8665714,TRUE,FALSE,FALSE,"S246316113"
"240","wooscj2","Woodhouse's Scrub-Jay","Aphelocoma woodhouseii","L518531","1--Horizontal Heavens: Blanco/Comal County","2025-06-03 08:01",1,29.9445229,-98.407588,TRUE,FALSE,TRUE,"S246257335"
"241","wooscj2","Woodhouse's Scrub-Jay","Aphelocoma woodhouseii","L10219252","Wildridge Rd","2025-06-03 08:00",1,39.6674167,-106.5427384,TRUE,FALSE,TRUE,"S246501022"
"242","wooscj2","Woodhouse's Scrub-Jay","Aphelocoma woodhouseii","L2225733","CarlsonWolf backyard in Mntn.Shadows","2025-06-03 08:00",2,38.9086414,-104.8699768,TRUE,FALSE,TRUE,"S246620049"
"243","wooscj2","Woodhouse's Scrub-Jay","Aphelocoma woodhouseii","L17877753","Fain Park Below Dam","2025-06-03 07:45",3,34.5747583,-112.3490548,TRUE,FALSE,TRUE,"S246436746"
"244","wooscj2","Woodhouse's Scrub-Jay","Aphelocoma woodhouseii","L4447665","Canyon Rim","2025-06-03 07:35",1,40.7054089,-111.7987633,TRUE,FALSE,TRUE,"S246277911"
"245","wooscj2","Woodhouse's Scrub-Jay","Aphelocoma woodhouseii","L36988647","Boston and Erik’s backyard","2025-06-03 07:35",1,40.283203,-111.705908,TRUE,FALSE,TRUE,"S246276573"
"246","wooscj2","Woodhouse's Scrub-Jay","Aphelocoma woodhouseii","L46760680","White River National Forest, Rifle US-CO 39.42454, -107.77006","2025-06-03 07:31",1,39.424537,-107.770056,TRUE,FALSE,TRUE,"S246412693"
"247","wooscj2","Woodhouse's Scrub-Jay","Aphelocoma woodhouseii","L5267586","Three Springs West","2025-06-03 07:27",1,37.2292901,-107.8354722,TRUE,FALSE,FALSE,"S246282040"
"248","wooscj2","Woodhouse's Scrub-Jay","Aphelocoma woodhouseii","L7323261","Kinikin Road, Montrose, CO","2025-06-03 07:20",3,38.4175524,-107.8065634,TRUE,FALSE,TRUE,"S246600186"
"249","wooscj2","Woodhouse's Scrub-Jay","Aphelocoma woodhouseii","L4616012","Bear Creek Canyon Park","2025-06-03 07:19",1,38.8208972,-104.8912114,TRUE,FALSE,FALSE,"S246410655"
"250","wooscj2","Woodhouse's Scrub-Jay","Aphelocoma woodhouseii","L46755860","89410, Gardnerville US-NV 38.90490, -119.58438","2025-06-03 07:18",1,38.904895,-119.584376,TRUE,FALSE,TRUE,"S246390254"
"251","wooscj2","Woodhouse's Scrub-Jay","Aphelocoma woodhouseii","L45885466","11 2nd Mesa Drive, Placitas, New Mexico, US (35.334, -106.492)","2025-06-03 07:10",2,35.3337962,-106.491726,TRUE,FALSE,TRUE,"S246289478"
"252","wooscj2","Woodhouse's Scrub-Jay","Aphelocoma woodhouseii","L4305721","Hassayampa River at Orofino Wash","2025-06-03 06:58",2,34.3922255,-112.539694,TRUE,FALSE,FALSE,"S246400222"
"253","wooscj2","Woodhouse's Scrub-Jay","Aphelocoma woodhouseii","L32859337","42 Forest Road, San Simon, Arizona, US (31.895, -109.165)","2025-06-03 06:54",1,31.8951468,-109.1653987,TRUE,FALSE,TRUE,"S246679454"
"254","wooscj2","Woodhouse's Scrub-Jay","Aphelocoma woodhouseii","L34144856","home","2025-06-03 06:50",1,39.6674624,-106.5429107,TRUE,FALSE,TRUE,"S246495692"
"255","wooscj2","Woodhouse's Scrub-Jay","Aphelocoma woodhouseii","L46523634","AirBnB 2873 CR-23, Ridgway US-CO 38.10528, -107.73808","2025-06-03 06:40",1,38.105283,-107.738083,TRUE,FALSE,TRUE,"S246588521"
"256","wooscj2","Woodhouse's Scrub-Jay","Aphelocoma woodhouseii","L24919945","Paradise Road, San Simon, Arizona, US (31.921, -109.161)","2025-06-03 06:25",2,31.9209997,-109.1614946,TRUE,FALSE,TRUE,"S246669544"
"257","wooscj2","Woodhouse's Scrub-Jay","Aphelocoma woodhouseii","L299580","University of Utah Campus","2025-06-03 06:22",1,40.763703,-111.8423486,TRUE,FALSE,FALSE,"S246512060"
"258","wooscj2","Woodhouse's Scrub-Jay","Aphelocoma woodhouseii","L29575648","McGregor, Timberon, NM (32.548, -105.65)","2025-06-03 06:08",13,32.5481135,-105.650129,TRUE,FALSE,TRUE,"S246438163"
"259","wooscj2","Woodhouse's Scrub-Jay","Aphelocoma woodhouseii","L24919975","Paradise Road, San Simon, Arizona, US (31.932, -109.19)","2025-06-03 06:03",2,31.9316503,-109.1902741,TRUE,FALSE,TRUE,"S246659535"
"260","wooscj2","Woodhouse's Scrub-Jay","Aphelocoma woodhouseii","L504745","Pony Express Rd -- Lookout  Pass ","2025-06-03 06:02",2,40.1151676,-112.5657463,TRUE,FALSE,FALSE,"S246315282"
"261","wooscj2","Woodhouse's Scrub-Jay","Aphelocoma woodhouseii","L13918843","A Birding Spot Sedona AZ - private residence","2025-06-03 06:02",2,34.878085,-111.765957,TRUE,FALSE,TRUE,"S246308637"
"262","wooscj2","Woodhouse's Scrub-Jay","Aphelocoma woodhouseii","L1411944","Olympus Hills Park","2025-06-03 05:58",2,40.6767819,-111.802864,TRUE,FALSE,FALSE,"S246502831"
"263","wooscj2","Woodhouse's Scrub-Jay","Aphelocoma woodhouseii","L24920239","BBS route","2025-06-03 05:56",2,31.9317543,-109.198042,TRUE,FALSE,TRUE,"S246658295"
"264","wooscj2","Woodhouse's Scrub-Jay","Aphelocoma woodhouseii","L4462886","Balcones Canyonlands NWR--Cactus Rocks Trail","2025-06-03 05:53",2,30.5055449,-97.9798198,TRUE,FALSE,FALSE,"S246242697"
"265","wooscj2","Woodhouse's Scrub-Jay","Aphelocoma woodhouseii","L24915539","Paradise Road, San Simon, Arizona, US (31.944, -109.214)","2025-06-03 05:26",2,31.9436968,-109.2138494,TRUE,FALSE,TRUE,"S246637825"
"266","wooscj2","Woodhouse's Scrub-Jay","Aphelocoma woodhouseii","L24910830","Paradise Road, San Simon, Arizona, US (31.963, -109.208)","2025-06-03 05:04",1,31.9632107,-109.2082185,TRUE,FALSE,TRUE,"S246633033"
"267","wooscj2","Woodhouse's Scrub-Jay","Aphelocoma woodhouseii","L3378309","Oak Creek--Chavez Crossing","2025-06-03 05:02",2,34.84399,-111.77706,TRUE,FALSE,FALSE,"S246326737"
"268","wooscj2","Woodhouse's Scrub-Jay","Aphelocoma woodhouseii","L46757136","SBD_Piute Valley_PJ survey","2025-06-03 05:01",1,35.401797,-115.506368,TRUE,FALSE,TRUE,"S246395797"
"269","wooscj2","Woodhouse's Scrub-Jay","Aphelocoma woodhouseii","L1416495","1. Mule Pass Yard","2025-06-03 05:00",2,31.4641892,-109.9561961,TRUE,FALSE,TRUE,"S246317515"
"270","wooscj2","Woodhouse's Scrub-Jay","Aphelocoma woodhouseii","L15300999","Back Yard","2025-06-03",NA,41.5040359,-112.0018311,TRUE,FALSE,TRUE,"S246513417"
"271","wooscj2","Woodhouse's Scrub-Jay","Aphelocoma woodhouseii","L46710773","Erastra Spring","2025-06-02 19:55",2,39.094865,-119.577412,TRUE,FALSE,TRUE,"S246168292"
"272","wooscj2","Woodhouse's Scrub-Jay","Aphelocoma woodhouseii","L825284","Cibola NF--Strip Mine Trail","2025-06-02 19:53",1,35.3001666,-106.4805543,TRUE,FALSE,FALSE,"S246157049"
"273","wooscj2","Woodhouse's Scrub-Jay","Aphelocoma woodhouseii","L19691701","308 Canyon Dr, Raton US-NM 36.90994, -104.44186","2025-06-02 19:52",1,36.909939,-104.441864,TRUE,FALSE,TRUE,"S246156326"
"274","wooscj2","Woodhouse's Scrub-Jay","Aphelocoma woodhouseii","L216969","South Table Mountain Park","2025-06-02 19:36",NA,39.7531951,-105.187912,TRUE,FALSE,FALSE,"S246156553"
"275","wooscj2","Woodhouse's Scrub-Jay","Aphelocoma woodhouseii","L2107335","Potash Rd.--Williams Bottom CG","2025-06-02 19:03",1,38.537771,-109.604333,TRUE,FALSE,FALSE,"S246350277"
"276","wooscj2","Woodhouse's Scrub-Jay","Aphelocoma woodhouseii","L46616296","12829 Hitt Wash Road, Prescott, Arizona, US (34.826, -112.707)","2025-06-02 18:56",1,34.8262206,-112.7074043,TRUE,FALSE,TRUE,"S246150460"
"277","wooscj2","Woodhouse's Scrub-Jay","Aphelocoma woodhouseii","L4385704","Castlewood Canyon SP--West Side Area","2025-06-02 18:40",3,39.3531357,-104.7655713,TRUE,FALSE,FALSE,"S246153211"
"278","wooscj2","Woodhouse's Scrub-Jay","Aphelocoma woodhouseii","L17720197","Front yard 333 Potrillo Dr, Los Alamos US","2025-06-02 18:15",1,35.80075,-106.215934,TRUE,FALSE,TRUE,"S246645577"
"279","wooscj2","Woodhouse's Scrub-Jay","Aphelocoma woodhouseii","L1388304","City Creek Canyon--Memory Grove","2025-06-02 18:05",1,40.7792699,-111.8843619,TRUE,FALSE,FALSE,"S246162216"
"280","wooscj2","Woodhouse's Scrub-Jay","Aphelocoma woodhouseii","L46704786","Indigo Bunting spot","2025-06-02 17:45",1,40.496151,-111.2950261,TRUE,FALSE,TRUE,"S246138815"
"281","wooscj2","Woodhouse's Scrub-Jay","Aphelocoma woodhouseii","L11021642","8840 Loghouse Road, Flagstaff, Arizona, US (35.267, -111.492)","2025-06-02 17:29",7,35.2673858,-111.4919345,TRUE,FALSE,TRUE,"S246142081"
"282","wooscj2","Woodhouse's Scrub-Jay","Aphelocoma woodhouseii","L6843321","Santa Fe River at Calle Debra","2025-06-02 16:51",1,35.6171824,-106.1121503,TRUE,FALSE,FALSE,"S246105143"
"283","wooscj2","Woodhouse's Scrub-Jay","Aphelocoma woodhouseii","L11485033","Fishers Peak SP--Moore's Canyon","2025-06-02 16:00",2,37.11049,-104.517949,TRUE,FALSE,FALSE,"S246107660"
"284","wooscj2","Woodhouse's Scrub-Jay","Aphelocoma woodhouseii","L994658","Portal--Bob Rodrigues yard (Dave Jasper's old yard)","2025-06-02 15:58",2,31.921224,-109.1282621,TRUE,FALSE,FALSE,"S246140379"
"285","wooscj2","Woodhouse's Scrub-Jay","Aphelocoma woodhouseii","L9918949","Castlewood Canyon State Park, Castle Rock US-CO (39.3594,-104.7677)","2025-06-02 15:49",2,39.359427,-104.767672,TRUE,FALSE,TRUE,"S246109837"
"286","wooscj2","Woodhouse's Scrub-Jay","Aphelocoma woodhouseii","L589679","Bandelier NM--Pueblo Loop Trail","2025-06-02 15:29",NA,35.7825972,-106.2743193,TRUE,FALSE,FALSE,"S246294967"
"287","wooscj2","Woodhouse's Scrub-Jay","Aphelocoma woodhouseii","L15693943","Roxborough State Park, Littleton US-CO 39.44309, -105.06544","2025-06-02 15:07",1,39.443089,-105.065443,TRUE,FALSE,TRUE,"S246069955"
"288","wooscj2","Woodhouse's Scrub-Jay","Aphelocoma woodhouseii","L46902562","Frazier Canyon Roads End","2025-06-02 13:20",1,37.7828227,-118.595425,TRUE,FALSE,TRUE,"S246144848"
"289","wooscj2","Woodhouse's Scrub-Jay","Aphelocoma woodhouseii","L2790487","Zion NP--Kolob Canyons Viewpoint (end of road)","2025-06-02 13:12",2,37.4281402,-113.2045412,TRUE,FALSE,FALSE,"S246057195"
"290","wooscj2","Woodhouse's Scrub-Jay","Aphelocoma woodhouseii","L46705957","Frazier Canyon","2025-06-02 13:03",1,37.7924,-118.570651,TRUE,FALSE,TRUE,"S246144849"
"291","wooscj2","Woodhouse's Scrub-Jay","Aphelocoma woodhouseii","L2040304","FR 618--Walker Creek area","2025-06-02 12:56",1,34.6488316,-111.7203945,TRUE,FALSE,FALSE,"S246088956"
"292","wooscj2","Woodhouse's Scrub-Jay","Aphelocoma woodhouseii","L46680198","3800 S 1900 W, Roy US-UT 41.19368, -112.02288","2025-06-02 12:22",1,41.193676,-112.02288,TRUE,FALSE,TRUE,"S246014963"
"293","wooscj2","Woodhouse's Scrub-Jay","Aphelocoma woodhouseii","L20997464","Compassion","2025-06-02 12:14",1,39.0089013,-104.808925,TRUE,FALSE,TRUE,"S246015791"
"294","wooscj2","Woodhouse's Scrub-Jay","Aphelocoma woodhouseii","L46678380","City Creek Canyon, Salt Lake City US-UT 40.79157, -111.87838","2025-06-02 11:55",2,40.791569,-111.87838,TRUE,FALSE,TRUE,"S246006889"
"295","wooscj2","Woodhouse's Scrub-Jay","Aphelocoma woodhouseii","L595722","Maple Canyon (Sanpete Co.)","2025-06-02 11:49",1,39.5551809,-111.6827631,TRUE,FALSE,FALSE,"S246101919"
"296","wooscj2","Woodhouse's Scrub-Jay","Aphelocoma woodhouseii","L212742","White Ranch Park--Lower Trails","2025-06-02 11:36",2,39.8021042,-105.2534191,TRUE,FALSE,FALSE,"S246085629"
"297","wooscj2","Woodhouse's Scrub-Jay","Aphelocoma woodhouseii","L109292","Castlewood Canyon SP","2025-06-02 11:20",1,39.3307441,-104.7387991,TRUE,FALSE,FALSE,"S246067125"
"298","wooscj2","Woodhouse's Scrub-Jay","Aphelocoma woodhouseii","L27162110","Bonneville Shoreline Trail, Provo US-UT 40.32057, -111.63557","2025-06-02 11:06",1,40.320569,-111.635565,TRUE,FALSE,TRUE,"S246040768"
"299","wooscj2","Woodhouse's Scrub-Jay","Aphelocoma woodhouseii","L462889","Parley's Gulch and Tanner Park","2025-06-02 11:05",1,40.7114194,-111.8110779,TRUE,FALSE,FALSE,"S246001198"
"300","wooscj2","Woodhouse's Scrub-Jay","Aphelocoma woodhouseii","L28802840","El Rito","2025-06-02 11:04",3,36.8116418,-105.56761,TRUE,FALSE,TRUE,"S245998880"
"301","wooscj2","Woodhouse's Scrub-Jay","Aphelocoma woodhouseii","L987240","Paradise Cemetery","2025-06-02 10:47",1,31.9318623,-109.2082654,TRUE,FALSE,FALSE,"S246061432"
"302","wooscj2","Woodhouse's Scrub-Jay","Aphelocoma woodhouseii","L28027261","Crystal Lake Park","2025-06-02 10:42",1,39.4719248,-105.0682606,TRUE,FALSE,TRUE,"S245993569"
"303","wooscj2","Woodhouse's Scrub-Jay","Aphelocoma woodhouseii","L586552","Grand Canyon NP--Mather Point","2025-06-02 10:35",2,36.0612422,-112.1084833,TRUE,FALSE,FALSE,"S246003700"
"304","wooscj2","Woodhouse's Scrub-Jay","Aphelocoma woodhouseii","L46673248","6102 Spring Canyon Rd, Ogden US-UT 41.15242, -111.90355","2025-06-02 10:31",1,41.152423,-111.903548,TRUE,FALSE,TRUE,"S245984622"
"305","wooscj2","Woodhouse's Scrub-Jay","Aphelocoma woodhouseii","L11538791","South Fork (Right Hand) Mill Creek near Highland","2025-06-02 10:24",1,38.550395,-109.482723,TRUE,FALSE,TRUE,"S246362964"
"306","wooscj2","Woodhouse's Scrub-Jay","Aphelocoma woodhouseii","L2883702","Kinney Creek Trail","2025-06-02 09:50",1,42.7608537,-112.3951793,TRUE,FALSE,FALSE,"S245987808"
"307","wooscj2","Woodhouse's Scrub-Jay","Aphelocoma woodhouseii","L46675366","Timber Lakes","2025-06-02 09:39",1,40.496145,-111.295328,TRUE,FALSE,TRUE,"S245993811"
"308","wooscj2","Woodhouse's Scrub-Jay","Aphelocoma woodhouseii","L46676563","Sweetwater County Archery Complex, FR 173, Rock Springs, Wyoming, US (41.47, -109.319)","2025-06-02 09:39",2,41.4698973,-109.3187978,TRUE,FALSE,TRUE,"S245998945"
"309","wooscj2","Woodhouse's Scrub-Jay","Aphelocoma woodhouseii","L39737128","Water Creek CG","2025-06-02 09:27",4,38.7132917,-111.9958083,TRUE,FALSE,TRUE,"S245963135"
"310","wooscj2","Woodhouse's Scrub-Jay","Aphelocoma woodhouseii","L3621918","Lower Pueblo Canyon Wetlands (Santa Fe Co.)","2025-06-02 09:19",1,35.8802185,-106.2329328,TRUE,FALSE,FALSE,"S245988765"
"311","wooscj2","Woodhouse's Scrub-Jay","Aphelocoma woodhouseii","L3768711","City Creek Trail","2025-06-02 09:16",1,42.853037,-112.450426,TRUE,FALSE,FALSE,"S245955228"
"312","wooscj2","Woodhouse's Scrub-Jay","Aphelocoma woodhouseii","L7389108","Lory SP--Well Gulch Nature Trail","2025-06-02 09:16",1,40.5778286,-105.182274,TRUE,FALSE,FALSE,"S246070622"
"313","wooscj2","Woodhouse's Scrub-Jay","Aphelocoma woodhouseii","L46680343","Highway 260, Strawberry, Arizona, US (34.406, -111.485)","2025-06-02 09:16",2,34.4057514,-111.4847075,TRUE,FALSE,TRUE,"S246015607"
"314","wooscj2","Woodhouse's Scrub-Jay","Aphelocoma woodhouseii","L1236014","01frontporch","2025-06-02 09:15",1,30.4050079,-98.2548523,TRUE,FALSE,TRUE,"S246130595"
"315","wooscj2","Woodhouse's Scrub-Jay","Aphelocoma woodhouseii","L46682246","Black capped vireo  spot","2025-06-02 09:11",2,29.601901,-98.648647,TRUE,FALSE,TRUE,"S245939411"
"316","wooscj2","Woodhouse's Scrub-Jay","Aphelocoma woodhouseii","L5743073","Spring Mountains NRA--Stanley B Canyon","2025-06-02 09:08",1,36.2615078,-115.6332493,TRUE,FALSE,FALSE,"S246158543"
"317","wooscj2","Woodhouse's Scrub-Jay","Aphelocoma woodhouseii","L13819923","84532, Moab US-UT 38.56341, -109.45901","2025-06-02 09:05",1,38.563414,-109.45901,TRUE,FALSE,TRUE,"S246039267"
"318","wooscj2","Woodhouse's Scrub-Jay","Aphelocoma woodhouseii","L21970737","Shrouncell yard","2025-06-02 09:03",4,35.1500017,-106.4617191,TRUE,FALSE,TRUE,"S245939623"
"319","wooscj2","Woodhouse's Scrub-Jay","Aphelocoma woodhouseii","L46663302","Kyle Seale Pkwy, San Antonio US-TX 29.60180, -98.65011","2025-06-02 08:56",1,29.6018,-98.650106,TRUE,FALSE,TRUE,"S245937503"
"320","wooscj2","Woodhouse's Scrub-Jay","Aphelocoma woodhouseii","L46675097","Antelope Trail, Lyons US-CO 40.22548, -105.29954","2025-06-02 08:55",1,40.225483,-105.299537,TRUE,FALSE,TRUE,"S245992650"
"321","wooscj2","Woodhouse's Scrub-Jay","Aphelocoma woodhouseii","L46663665","Kyle Seale Pkwy, San Antonio US-TX 29.60180, -98.65050","2025-06-02 08:54",2,29.601804,-98.650496,TRUE,FALSE,TRUE,"S245938989"
"322","wooscj2","Woodhouse's Scrub-Jay","Aphelocoma woodhouseii","L46663280","BCVI SPOT","2025-06-02 08:52",2,29.601632,-98.650716,TRUE,FALSE,TRUE,"S245937420"
"323","wooscj2","Woodhouse's Scrub-Jay","Aphelocoma woodhouseii","L5614633","Colorado National Monument - Wedding Canyon Trail","2025-06-02 08:49",1,39.108485,-108.7039232,TRUE,FALSE,TRUE,"S245965559"
"324","wooscj2","Woodhouse's Scrub-Jay","Aphelocoma woodhouseii","L25924277","Provo River Trail","2025-06-02 08:44",1,40.2609275,-111.6641103,TRUE,FALSE,TRUE,"S245947129"
"325","wooscj2","Woodhouse's Scrub-Jay","Aphelocoma woodhouseii","L46696894","San Francisco River from bottom of  Hot Spring trail access, downstream to first crossing, Mogollon, New Mexico, US (33.237, -108.88)","2025-06-02 08:43",1,33.2368157,-108.8803442,TRUE,FALSE,TRUE,"S246123446"
"326","wooscj2","Woodhouse's Scrub-Jay","Aphelocoma woodhouseii","L27770833","Rendija Canyon","2025-06-02 08:33",1,35.904474,-106.297681,TRUE,FALSE,TRUE,"S245980277"
"327","wooscj2","Woodhouse's Scrub-Jay","Aphelocoma woodhouseii","L18255425","Big Pole Hike/Bike Trails","2025-06-02 08:30",3,40.5066113,-111.3142298,TRUE,FALSE,TRUE,"S245963428"
"328","wooscj2","Woodhouse's Scrub-Jay","Aphelocoma woodhouseii","L46699326","Forest Service Road 42B, San Simon US-AZ 31.92981, -109.17333","2025-06-02 08:22",1,31.929812,-109.173326,TRUE,FALSE,TRUE,"S246107457"
"329","wooscj2","Woodhouse's Scrub-Jay","Aphelocoma woodhouseii","L1426196","Animas River--Rivergate area","2025-06-02 08:18",2,37.2471223,-107.8712941,TRUE,FALSE,FALSE,"S247051996"
"330","wooscj2","Woodhouse's Scrub-Jay","Aphelocoma woodhouseii","L5227038","US-AZ-Tucson-5300 E Golder Ranch Dr - 32.4567x-110.8800","2025-06-02 08:17",2,32.456656,-110.879959,TRUE,FALSE,TRUE,"S245984833"
"331","wooscj2","Woodhouse's Scrub-Jay","Aphelocoma woodhouseii","L16899625","574 Altwein Road, Blanco, Texas, US (30.152, -98.536)","2025-06-02 08:16",1,30.1521112,-98.5360333,TRUE,FALSE,TRUE,"S246345205"
"332","wooscj2","Woodhouse's Scrub-Jay","Aphelocoma woodhouseii","L24707838","Brush Creek Co","2025-06-02 08:15",1,39.198486,-106.836834,TRUE,FALSE,TRUE,"S246011295"
"333","wooscj2","Woodhouse's Scrub-Jay","Aphelocoma woodhouseii","L218839","Matthews/Winters Park","2025-06-02 08:13",4,39.6832834,-105.2116245,TRUE,FALSE,FALSE,"S245970345"
"334","wooscj2","Woodhouse's Scrub-Jay","Aphelocoma woodhouseii","L804736","Waterton Canyon--from Waterton Rd to overhead pipes","2025-06-02 08:10",1,39.4860209,-105.1018995,TRUE,FALSE,FALSE,"S245940311"
"335","wooscj2","Woodhouse's Scrub-Jay","Aphelocoma woodhouseii","L7138424","Santa Fe NF--Little Tesuque Creek Trail","2025-06-02 08:09",1,35.726366,-105.8892131,TRUE,FALSE,FALSE,"S246040073"
"336","wooscj2","Woodhouse's Scrub-Jay","Aphelocoma woodhouseii","L3358520","Western Trail Dr","2025-06-02 08:06",1,35.0835605,-106.262354,TRUE,FALSE,TRUE,"S245960276"
"337","wooscj2","Woodhouse's Scrub-Jay","Aphelocoma woodhouseii","L990994","Bear Creek Park West (El Paso)","2025-06-02 08:01",1,38.8234268,-104.8643732,TRUE,FALSE,FALSE,"S245978949"
"338","wooscj2","Woodhouse's Scrub-Jay","Aphelocoma woodhouseii","L7455324","South Llano River SP--Agarita Bird Blind","2025-06-02 08:00",2,30.4446572,-99.8044295,TRUE,FALSE,FALSE,"S246013645"
"339","wooscj2","Woodhouse's Scrub-Jay","Aphelocoma woodhouseii","L29460663","Juniper Hill","2025-06-02 07:42",1,35.181376,-106.486426,TRUE,FALSE,TRUE,"S246128522"
"340","wooscj2","Woodhouse's Scrub-Jay","Aphelocoma woodhouseii","L7703997","Arches NP--Devil's Garden CG","2025-06-02 07:39",1,38.7791818,-109.5897898,TRUE,FALSE,FALSE,"S246071059"
"341","wooscj2","Woodhouse's Scrub-Jay","Aphelocoma woodhouseii","L6578796","Lower Pueblo Canyon","2025-06-02 07:35",3,35.8833169,-106.2511483,TRUE,FALSE,FALSE,"S245995180"
"342","wooscj2","Woodhouse's Scrub-Jay","Aphelocoma woodhouseii","L129053","Pedernales Falls State Park (HOTE 050)","2025-06-02 07:31",1,30.3067833,-98.2512236,TRUE,FALSE,FALSE,"S246086170"
"343","wooscj2","Woodhouse's Scrub-Jay","Aphelocoma woodhouseii","L603593","Portal--Cathedral Rock Rd at Creek Rd","2025-06-02 07:23",1,31.9104255,-109.1488092,TRUE,FALSE,FALSE,"S246061968"
"344","wooscj2","Woodhouse's Scrub-Jay","Aphelocoma woodhouseii","L7921452","HOME901 Martingale Lane Southeast, Albuquerque, New Mexico, US (35.056, -106.491)","2025-06-02 07:22",2,35.055666,-106.4910343,TRUE,FALSE,TRUE,"S246145882"
"345","wooscj2","Woodhouse's Scrub-Jay","Aphelocoma woodhouseii","L5185672","jillshouse","2025-06-02 07:06",1,39.4675359,-105.0781473,TRUE,FALSE,TRUE,"S245897242"
"346","wooscj2","Woodhouse's Scrub-Jay","Aphelocoma woodhouseii","L15213981","Gila NF--San Francisco Hot Springs Trail","2025-06-02 06:57",2,33.2280319,-108.8670899,TRUE,FALSE,FALSE,"S246092645"
"347","wooscj2","Woodhouse's Scrub-Jay","Aphelocoma woodhouseii","L7094920","West Fort Cavazos (Bell Co.) (restricted access)","2025-06-02 06:56",1,31.0371842,-97.8175237,TRUE,FALSE,FALSE,"S246309851"
"348","wooscj2","Woodhouse's Scrub-Jay","Aphelocoma woodhouseii","L46523717","Birder's Rest","2025-06-02 06:50",1,31.039986,-97.559591,TRUE,FALSE,TRUE,"S245885946"
"349","wooscj2","Woodhouse's Scrub-Jay","Aphelocoma woodhouseii","L2735278","fedrizzi residence","2025-06-02 06:44",2,39.6467601,-106.8066341,TRUE,FALSE,TRUE,"S245914913"
"350","wooscj2","Woodhouse's Scrub-Jay","Aphelocoma woodhouseii","L22244479","3777 E Viewcrest Dr, Salt Lake City US-UT 40.67437, -111.78940","2025-06-02 06:41",1,40.674372,-111.789401,TRUE,FALSE,TRUE,"S245924053"
"351","wooscj2","Woodhouse's Scrub-Jay","Aphelocoma woodhouseii","L17072159","271 Cliff Pl, Spring Creek US-NV 40.74555, -115.54975","2025-06-02 06:35",3,40.745549,-115.549749,TRUE,FALSE,TRUE,"S246128797"
"352","wooscj2","Woodhouse's Scrub-Jay","Aphelocoma woodhouseii","L46657373","Live oak loop 35.17536, -106.48872","2025-06-02 06:32",1,35.175363,-106.488721,TRUE,FALSE,TRUE,"S245907689"
"353","wooscj2","Woodhouse's Scrub-Jay","Aphelocoma woodhouseii","L562873","Ghost Ranch","2025-06-02 06:24",1,36.3293708,-106.473484,TRUE,FALSE,FALSE,"S245887803"
"354","wooscj2","Woodhouse's Scrub-Jay","Aphelocoma woodhouseii","L46604977","Private House","2025-06-02 06:08",1,40.518927,-105.181433,TRUE,FALSE,TRUE,"S245883531"
"355","wooscj2","Woodhouse's Scrub-Jay","Aphelocoma woodhouseii","L39433167","103 Cholla Cir, Florence US-CO 38.34253, -105.12405","2025-06-02 06:05",2,38.342532,-105.124049,TRUE,FALSE,TRUE,"S245915171"
"356","wooscj2","Woodhouse's Scrub-Jay","Aphelocoma woodhouseii","L11056885","Andy Adams Community Fishery","2025-06-02 06:04",1,41.0731833,-111.9319138,TRUE,FALSE,FALSE,"S245886251"
"357","wooscj2","Woodhouse's Scrub-Jay","Aphelocoma woodhouseii","L129099","Cave Creek Canyon--South Fork","2025-06-02 05:42",1,31.8688764,-109.1883919,TRUE,FALSE,FALSE,"S245930406"
"358","wooscj2","Woodhouse's Scrub-Jay","Aphelocoma woodhouseii","L890049","Cathedral Rock Trail","2025-06-02 05:38",1,34.8246591,-111.7883831,TRUE,FALSE,FALSE,"S245905962"
"359","wooscj2","Woodhouse's Scrub-Jay","Aphelocoma woodhouseii","L4343746","Joder Ranch","2025-06-02 05:10",2,40.1105071,-105.2940631,TRUE,FALSE,FALSE,"S245984449"
"360","wooscj2","Woodhouse's Scrub-Jay","Aphelocoma woodhouseii","L46698568","SBD_Clark Mt_West","2025-06-02 05:10",19,35.545679,-115.602131,TRUE,FALSE,TRUE,"S246103356"
"361","wooscj2","Woodhouse's Scrub-Jay","Aphelocoma woodhouseii","L349856","Ensign Peak","2025-06-01 19:52",1,40.794695,-111.8909778,TRUE,FALSE,FALSE,"S245762658"
"362","wooscj2","Woodhouse's Scrub-Jay","Aphelocoma woodhouseii","L46631639","1071 County Line Rd, Edgewood US-NM 35.11511, -106.24725","2025-06-01 19:39",1,35.115107,-106.247252,TRUE,FALSE,TRUE,"S245771483"
"363","wooscj2","Woodhouse's Scrub-Jay","Aphelocoma woodhouseii","L13768264","County Line Casita","2025-06-01 19:39",1,35.115188,-106.24703,TRUE,FALSE,TRUE,"S245772904"
"364","wooscj2","Woodhouse's Scrub-Jay","Aphelocoma woodhouseii","L3068343","Ken Caryl Valley - Hogback Trail (southern portion)","2025-06-01 19:38",1,39.5806872,-105.1521742,TRUE,FALSE,TRUE,"S245780301"
"365","wooscj2","Woodhouse's Scrub-Jay","Aphelocoma woodhouseii","L19308662","432 Vista Dr, Pocatello US-ID 42.88206, -112.41862","2025-06-01 19:34",10,42.88206,-112.418615,TRUE,FALSE,TRUE,"S245758971"
"366","wooscj2","Woodhouse's Scrub-Jay","Aphelocoma woodhouseii","L17013765","Mom’s House","2025-06-01 19:24",1,38.943482,-104.830545,TRUE,FALSE,TRUE,"S245759988"
"367","wooscj2","Woodhouse's Scrub-Jay","Aphelocoma woodhouseii","L46629865","1310 County Road 287, Tye, Texas, US (32.419, -99.915)","2025-06-01 19:24",5,32.41932,-99.9153617,TRUE,FALSE,TRUE,"S245763564"
"368","wooscj2","Woodhouse's Scrub-Jay","Aphelocoma woodhouseii","L2585564","South Valley Park--Mann Reservoir","2025-06-01 19:20",1,39.5637998,-105.1528931,TRUE,FALSE,FALSE,"S245780288"
"369","wooscj2","Woodhouse's Scrub-Jay","Aphelocoma woodhouseii","L18366157","Home","2025-06-01 19:17",1,40.1464354,-111.5727393,TRUE,FALSE,TRUE,"S245756092"
"370","wooscj2","Woodhouse's Scrub-Jay","Aphelocoma woodhouseii","L690063","Embudo Canyon","2025-06-01 19:04",1,35.0990608,-106.4779472,TRUE,FALSE,FALSE,"S245767976"
"371","wooscj2","Woodhouse's Scrub-Jay","Aphelocoma woodhouseii","L614082","Stillhouse Hollow Lake- Dana Peak Park (PPW-W 036)","2025-06-01 18:56",3,31.0289825,-97.6065731,TRUE,FALSE,FALSE,"S245761303"
"372","wooscj2","Woodhouse's Scrub-Jay","Aphelocoma woodhouseii","L46630347","Willow Creek Trail","2025-06-01 18:39",1,39.521903,-104.883125,TRUE,FALSE,TRUE,"S245765557"
"373","wooscj2","Woodhouse's Scrub-Jay","Aphelocoma woodhouseii","L11254559","Sunset Hollow Home","2025-06-01 18:33",1,40.853662,-111.862599,TRUE,FALSE,TRUE,"S245750339"
"374","wooscj2","Woodhouse's Scrub-Jay","Aphelocoma woodhouseii","L13875923","Sand Creek Park (Douglas Co.)","2025-06-01 18:32",2,39.5561766,-104.9643793,TRUE,FALSE,FALSE,"S245769493"
"375","wooscj2","Woodhouse's Scrub-Jay","Aphelocoma woodhouseii","L46634376","Bonneville Shoreline North Trail, Farmington US-UT 40.96760, -111.87301","2025-06-01 18:30",1,40.967597,-111.873007,TRUE,FALSE,TRUE,"S245784562"
"376","wooscj2","Woodhouse's Scrub-Jay","Aphelocoma woodhouseii","L46628570","Hillside Sedona, Sedona US-AZ (34.8590,-111.7624)","2025-06-01 18:14",1,34.859039,-111.762389,TRUE,FALSE,TRUE,"S245757237"
"377","wooscj2","Woodhouse's Scrub-Jay","Aphelocoma woodhouseii","L46768738","Little Turkey Rd","2025-06-01 18:10",2,38.635315,-104.8755205,TRUE,FALSE,TRUE,"S246453397"
"378","wooscj2","Woodhouse's Scrub-Jay","Aphelocoma woodhouseii","L46574733","14223 E 3311 S St, Ely US-NV 39.15915, -114.35978","2025-06-01 17:58",1,39.15915,-114.359776,TRUE,FALSE,TRUE,"S245757069"
"379","wooscj2","Woodhouse's Scrub-Jay","Aphelocoma woodhouseii","L13031727","Provo River Parkway--Provo Canyon mouth","2025-06-01 17:44",4,40.3151624,-111.654476,TRUE,FALSE,FALSE,"S245764346"
"380","wooscj2","Woodhouse's Scrub-Jay","Aphelocoma woodhouseii","L46625831","8317 Strawberry Drive, Pine, Arizona, US (34.408, -111.5)","2025-06-01 17:08",1,34.4076537,-111.4995905,TRUE,FALSE,TRUE,"S245743095"
"381","wooscj2","Woodhouse's Scrub-Jay","Aphelocoma woodhouseii","L140673","Zion NP","2025-06-01 17:01",2,37.2285636,-112.9654984,TRUE,FALSE,FALSE,"S245743453"
"382","wooscj2","Woodhouse's Scrub-Jay","Aphelocoma woodhouseii","L5978939","Courthouse Vista","2025-06-01 16:53",1,34.8059281,-111.7665017,TRUE,FALSE,FALSE,"S245749878"
"383","wooscj2","Woodhouse's Scrub-Jay","Aphelocoma woodhouseii","L12234452","2071 Saddlewood Boulevard, Kerrville, Texas, US (30.053, -99.198)","2025-06-01 16:30",1,30.0528666,-99.1976512,TRUE,FALSE,TRUE,"S245748415"
"384","wooscj2","Woodhouse's Scrub-Jay","Aphelocoma woodhouseii","L109237","Roxborough SP","2025-06-01 16:24",2,39.4295306,-105.0694388,TRUE,FALSE,FALSE,"S245763357"
"385","wooscj2","Woodhouse's Scrub-Jay","Aphelocoma woodhouseii","L46619979","I-40 W, Kingman US-AZ 35.16091, -113.54781","2025-06-01 16:06",1,35.160907,-113.547809,TRUE,FALSE,TRUE,"S245712334"
"386","wooscj2","Woodhouse's Scrub-Jay","Aphelocoma woodhouseii","L2181604","Fossett Gulch Rd","2025-06-01 15:56",2,37.2237675,-107.3995113,TRUE,FALSE,FALSE,"S245768514"
"387","wooscj2","Woodhouse's Scrub-Jay","Aphelocoma woodhouseii","L46614528","162 Mountain Shadow Drive, Glenwood Springs, Colorado, US (39.567, -107.363)","2025-06-01 15:49",1,39.5669594,-107.3629066,TRUE,FALSE,TRUE,"S245685359"
"388","wooscj2","Woodhouse's Scrub-Jay","Aphelocoma woodhouseii","L9343822","Dalabetta","2025-06-01 14:58",1,37.2212981,-107.8608231,TRUE,FALSE,TRUE,"S245670249"
"389","wooscj2","Woodhouse's Scrub-Jay","Aphelocoma woodhouseii","L9748843","Deer Haven CG","2025-06-01 14:42",2,37.5754598,-112.9100161,TRUE,FALSE,FALSE,"S245697216"
"390","wooscj2","Woodhouse's Scrub-Jay","Aphelocoma woodhouseii","L5863201","Palatki Heritage Site","2025-06-01 14:11",2,34.9160769,-111.9020444,TRUE,FALSE,FALSE,"S245698383"
"391","wooscj2","Woodhouse's Scrub-Jay","Aphelocoma woodhouseii","L26571129","Flaming Gorge NRA--Deer Run CG","2025-06-01 13:40",2,40.906018,-109.444304,TRUE,FALSE,FALSE,"S245692810"
"392","wooscj2","Woodhouse's Scrub-Jay","Aphelocoma woodhouseii","L10225561","Tunnel Springs-Pilot Mtns, Box Elder","2025-06-01 12:38",3,41.2664331,-114.0293205,TRUE,FALSE,TRUE,"S245727692"
"393","wooscj2","Woodhouse's Scrub-Jay","Aphelocoma woodhouseii","L24884105","MV BBS 50","2025-06-01 11:57",1,37.339471,-108.41262,TRUE,FALSE,TRUE,"S245591960"
"394","wooscj2","Woodhouse's Scrub-Jay","Aphelocoma woodhouseii","L46741767","1080 Sioux St, Los Alamos US-NM 35.89137, -106.27516","2025-06-01 11:47",1,35.891369,-106.275159,TRUE,FALSE,TRUE,"S246326572"
"395","wooscj2","Woodhouse's Scrub-Jay","Aphelocoma woodhouseii","L24884095","MV BBS 48","2025-06-01 11:46",1,37.324675,-108.417362,TRUE,FALSE,TRUE,"S245592249"
"396","wooscj2","Woodhouse's Scrub-Jay","Aphelocoma woodhouseii","L24884090","MV BBS 47","2025-06-01 11:41",1,37.319751,-108.417165,TRUE,FALSE,TRUE,"S245592409"
"397","wooscj2","Woodhouse's Scrub-Jay","Aphelocoma woodhouseii","L17456549","2865 Connor Street, Salt Lake City, Utah, US (40.709, -111.83)","2025-06-01 11:38",1,40.7087889,-111.8295814,TRUE,FALSE,TRUE,"S245590813"
"398","wooscj2","Woodhouse's Scrub-Jay","Aphelocoma woodhouseii","L24884085","MV BBS 46","2025-06-01 11:35",1,37.311383,-108.415808,TRUE,FALSE,TRUE,"S245592608"
"399","wooscj2","Woodhouse's Scrub-Jay","Aphelocoma woodhouseii","L46584314","SH-166, Fort Davis US-TX 30.53650, -104.19320","2025-06-01 11:29",1,30.536495,-104.193204,TRUE,FALSE,TRUE,"S245558341"
"400","wooscj2","Woodhouse's Scrub-Jay","Aphelocoma woodhouseii","L46614524","28530–28568 Nucla-Delta Rd, Nucla US-CO 38.34782, -108.43803","2025-06-01 11:23",1,38.347825,-108.438029,TRUE,FALSE,TRUE,"S245685345"
"401","wooscj2","Woodhouse's Scrub-Jay","Aphelocoma woodhouseii","L7509235","Colorado River--Hittle Bottom to Takeout Beach","2025-06-01 11:23",1,38.7209653,-109.3792271,TRUE,FALSE,FALSE,"S245779703"
"402","wooscj2","Woodhouse's Scrub-Jay","Aphelocoma woodhouseii","L945100","Mancos SP","2025-06-01 11:22",2,37.4011119,-108.2702548,TRUE,FALSE,FALSE,"S245606618"
"403","wooscj2","Woodhouse's Scrub-Jay","Aphelocoma woodhouseii","L1239721","Pajarito Mountain","2025-06-01 11:20",1,35.8921606,-106.3942623,TRUE,FALSE,FALSE,"S245607728"
"404","wooscj2","Woodhouse's Scrub-Jay","Aphelocoma woodhouseii","L40442251","My House","2025-06-01 11:15",1,40.6408108,-111.7988303,TRUE,FALSE,TRUE,"S245583211"
"405","wooscj2","Woodhouse's Scrub-Jay","Aphelocoma woodhouseii","L40203816","Ethan & Katie Eisenbarth's House","2025-06-01 11:15",1,40.6408267,-111.7987973,TRUE,FALSE,TRUE,"S245583212"
"406","wooscj2","Woodhouse's Scrub-Jay","Aphelocoma woodhouseii","L5103540","Long Canyon Trail","2025-06-01 10:50",2,34.906566,-111.8244387,TRUE,FALSE,FALSE,"S245607216"
"407","wooscj2","Woodhouse's Scrub-Jay","Aphelocoma woodhouseii","L21215303","House at 54 Angeles Vista Cir, Sandia Park US-NM 35.16220, -106.28966","2025-06-01 10:41",1,35.1622,-106.289658,TRUE,FALSE,TRUE,"S245986888"
"408","wooscj2","Woodhouse's Scrub-Jay","Aphelocoma woodhouseii","L585423","Horse Springs Pass","2025-06-01 10:37",1,33.9201531,-108.2610691,TRUE,TRUE,TRUE,"S245578214"
"409","wooscj2","Woodhouse's Scrub-Jay","Aphelocoma woodhouseii","L6806746","Rocky Mountain Arsenal NWR-- East Auto Tour","2025-06-01 10:37",1,39.8179101,-104.8280454,TRUE,TRUE,FALSE,"S245598107"
"410","wooscj2","Woodhouse's Scrub-Jay","Aphelocoma woodhouseii","L46606720","Winston, New Mexico, US (33.112, -107.729)","2025-06-01 10:31",1,33.1122498,-107.7292877,TRUE,FALSE,TRUE,"S245650927"
"411","wooscj2","Woodhouse's Scrub-Jay","Aphelocoma woodhouseii","L109288","Aiken Canyon Preserve","2025-06-01 10:30",1,38.6212294,-104.8886847,TRUE,FALSE,FALSE,"S245645048"
"412","wooscj2","Woodhouse's Scrub-Jay","Aphelocoma woodhouseii","L37120881","Chapel Area Home","2025-06-01 10:28",1,34.828689,-111.772332,TRUE,FALSE,TRUE,"S245590276"
"413","wooscj2","Woodhouse's Scrub-Jay","Aphelocoma woodhouseii","L30643695","Upper No Thoroughfare Trailhead","2025-06-01 10:13",1,38.9858209,-108.6995566,TRUE,FALSE,TRUE,"S245608550"
"414","wooscj2","Woodhouse's Scrub-Jay","Aphelocoma woodhouseii","L23173930","Phillip And Dorcas Jensen Memorial Park","2025-06-01 10:08",NA,40.0491423,-107.9156318,TRUE,FALSE,FALSE,"S246418440"
"415","wooscj2","Woodhouse's Scrub-Jay","Aphelocoma woodhouseii","L7518333","Kinnikin Road","2025-06-01 10:05",1,38.4078276,-107.7818699,TRUE,FALSE,TRUE,"S245587401"
"416","wooscj2","Woodhouse's Scrub-Jay","Aphelocoma woodhouseii","L46583629","Lambert Park","2025-06-01 10:01",4,40.466508,-111.757208,TRUE,FALSE,TRUE,"S245555643"
"417","wooscj2","Woodhouse's Scrub-Jay","Aphelocoma woodhouseii","L24883982","MV BBS 35","2025-06-01 10:01",1,37.20571,-108.448921,TRUE,FALSE,TRUE,"S245594183"
"418","wooscj2","Woodhouse's Scrub-Jay","Aphelocoma woodhouseii","L46583259","46020 I-25 N, Raton US-NM 36.98860, -104.48151","2025-06-01 10:00",2,36.988597,-104.48151,TRUE,FALSE,TRUE,"S245554027"
"419","wooscj2","Woodhouse's Scrub-Jay","Aphelocoma woodhouseii","L2850210","Bill Williams Lookout Rd","2025-06-01 10:00",1,35.1993421,-112.2049141,TRUE,FALSE,TRUE,"S246779223"
"420","wooscj2","Woodhouse's Scrub-Jay","Aphelocoma woodhouseii","L31915435","Cathy Johnson Trail","2025-06-01 09:50",2,39.551691,-105.129563,TRUE,FALSE,TRUE,"S245543715"
"421","wooscj2","Woodhouse's Scrub-Jay","Aphelocoma woodhouseii","L506776","Highland Glen Park ","2025-06-01 09:42",5,40.414656,-111.7819834,TRUE,FALSE,FALSE,"S245607206"
"422","wooscj2","Woodhouse's Scrub-Jay","Aphelocoma woodhouseii","L1152803","My Garden","2025-06-01 09:30",2,29.9818442,-98.081945,TRUE,FALSE,TRUE,"S245951625"
"423","wooscj2","Woodhouse's Scrub-Jay","Aphelocoma woodhouseii","L2971264","JeffCo - Grizzly Dr from Deer Creek to Deer Creek Canyon Park entry","2025-06-01 09:22",1,39.5460946,-105.1529709,TRUE,FALSE,TRUE,"S245535457"
"424","wooscj2","Woodhouse's Scrub-Jay","Aphelocoma woodhouseii","L131197","Netherwood Park Neighborhood","2025-06-01 09:21",1,35.1042061,-106.6195526,TRUE,FALSE,TRUE,"S245517888"
"425","wooscj2","Woodhouse's Scrub-Jay","Aphelocoma woodhouseii","L20584519","Pacheco Canyon","2025-06-01 09:19",3,35.7842821,-105.8853437,TRUE,FALSE,TRUE,"S245528848"
"426","wooscj2","Woodhouse's Scrub-Jay","Aphelocoma woodhouseii","L1428113","South Ogden Nature Park","2025-06-01 09:14",1,41.1540322,-111.9507911,TRUE,FALSE,FALSE,"S245602907"
"427","wooscj2","Woodhouse's Scrub-Jay","Aphelocoma woodhouseii","L17799417","Bangs Canyon RA--Third Flats Trailhead","2025-06-01 09:12",1,39.002441,-108.604002,TRUE,FALSE,FALSE,"S245605765"
"428","wooscj2","Woodhouse's Scrub-Jay","Aphelocoma woodhouseii","L46598046","CW BBS 45-50 13987 Forest Service 102 Road, Prescott, Arizona, US (34.747, -112.643)","2025-06-01 09:09",2,34.746694,-112.6428295,TRUE,FALSE,TRUE,"S245615741"
"429","wooscj2","Woodhouse's Scrub-Jay","Aphelocoma woodhouseii","L3967883","Horse Springs BBS Route - Stop 41","2025-06-01 09:03",1,33.7613632,-108.3511001,TRUE,TRUE,TRUE,"S245742336"
"430","wooscj2","Woodhouse's Scrub-Jay","Aphelocoma woodhouseii","L3062977","Carlito Springs Open Space","2025-06-01 08:57",3,35.0865192,-106.3981408,TRUE,FALSE,FALSE,"S245572938"
"431","wooscj2","Woodhouse's Scrub-Jay","Aphelocoma woodhouseii","L598472","Bells Canyon--Reservoir","2025-06-01 08:49",1,40.5649541,-111.7948151,TRUE,FALSE,FALSE,"S245537791"
"432","wooscj2","Woodhouse's Scrub-Jay","Aphelocoma woodhouseii","L129069","Rustler Park","2025-06-01 08:49",1,31.9030991,-109.2776031,TRUE,FALSE,FALSE,"S245788018"
"433","wooscj2","Woodhouse's Scrub-Jay","Aphelocoma woodhouseii","L24883910","MV BBS 23","2025-06-01 08:31",1,37.275295,-108.473977,TRUE,FALSE,TRUE,"S245595540"
"434","wooscj2","Woodhouse's Scrub-Jay","Aphelocoma woodhouseii","L19821886","Bluff Trail","2025-06-01 08:30",1,30.3330803,-98.183441,TRUE,FALSE,TRUE,"S245573510"
"435","wooscj2","Woodhouse's Scrub-Jay","Aphelocoma woodhouseii","L1790620","Castlewood Canyon SP--Inner Canyon/Lake Gulch Loop","2025-06-01 08:28",1,39.3364947,-104.7473025,TRUE,FALSE,FALSE,"S245641325"
"436","wooscj2","Woodhouse's Scrub-Jay","Aphelocoma woodhouseii","L323601","Fool Hollow Lake SP","2025-06-01 08:27",3,34.27384,-110.0671065,TRUE,FALSE,FALSE,"S245560506"
"437","wooscj2","Woodhouse's Scrub-Jay","Aphelocoma woodhouseii","L25891452","Cedar Mesa Campground","2025-06-01 08:26",1,38.0073899,-111.0846519,TRUE,FALSE,FALSE,"S245517114"
"438","wooscj2","Woodhouse's Scrub-Jay","Aphelocoma woodhouseii","L19706555","A Birding Spot Sedona AZ","2025-06-01 08:26",2,34.878085,-111.765957,TRUE,FALSE,TRUE,"S245622181"
"439","wooscj2","Woodhouse's Scrub-Jay","Aphelocoma woodhouseii","L9260223","Bayo Canyon","2025-06-01 08:23",2,35.888753,-106.249082,TRUE,FALSE,TRUE,"S245541458"
"440","wooscj2","Woodhouse's Scrub-Jay","Aphelocoma woodhouseii","L17483866","Backyard of 333 Potrillo Dr., White Rock, NM","2025-06-01 08:20",1,35.8007251,-106.216198,TRUE,FALSE,TRUE,"S245967402"
"441","wooscj2","Woodhouse's Scrub-Jay","Aphelocoma woodhouseii","L3789328","Davis Mountains Preserve--McIvor Visitor Ctr. area","2025-06-01 08:20",2,30.7004051,-104.1151142,TRUE,FALSE,FALSE,"S245588782"
"442","wooscj2","Woodhouse's Scrub-Jay","Aphelocoma woodhouseii","L24883900","MV BBS 21","2025-06-01 08:18",1,37.273792,-108.48913,TRUE,FALSE,TRUE,"S245595749"
"443","wooscj2","Woodhouse's Scrub-Jay","Aphelocoma woodhouseii","L36868091","Sims Mesa Interpretive Trail, Montrose US-CO 38.30563, -107.96309","2025-06-01 08:16",3,38.305632,-107.963094,TRUE,FALSE,TRUE,"S245613349"
"444","wooscj2","Woodhouse's Scrub-Jay","Aphelocoma woodhouseii","L9001168","Cove","2025-06-01 08:15",1,36.5653,-109.21766,TRUE,FALSE,TRUE,"S245708074"
"445","wooscj2","Woodhouse's Scrub-Jay","Aphelocoma woodhouseii","L21216654","8806 West Iliff Avenue, Lakewood, Colorado, US (39.674, -105.096)","2025-06-01 08:12",1,39.6739766,-105.0957952,TRUE,FALSE,TRUE,"S245461379"
"446","wooscj2","Woodhouse's Scrub-Jay","Aphelocoma woodhouseii","L36790870","1045 E 2700 S, Salt Lake City US-UT 40.71297, -111.86105","2025-06-01 08:06",2,40.712972,-111.86105,TRUE,FALSE,TRUE,"S245876799"
"447","wooscj2","Woodhouse's Scrub-Jay","Aphelocoma woodhouseii","L27948655","Hondo mesa house","2025-06-01 08:00",NA,36.5288537,-105.6398358,TRUE,FALSE,TRUE,"S245633197"
"448","wooscj2","Woodhouse's Scrub-Jay","Aphelocoma woodhouseii","L4575382","Elk Ridge Yard","2025-06-01 08:00",1,40.0172109,-111.6711189,TRUE,FALSE,TRUE,"S245776622"
"449","wooscj2","Woodhouse's Scrub-Jay","Aphelocoma woodhouseii","L890237","Colorado NM--Ute Canyon","2025-06-01 07:57",1,39.0315277,-108.698194,TRUE,FALSE,FALSE,"S245679884"
"450","wooscj2","Woodhouse's Scrub-Jay","Aphelocoma woodhouseii","L46679314","Cerro Verde BBS Stop 19","2025-06-01 07:56",1,34.76203,-107.32012,TRUE,FALSE,TRUE,"S246011307"
"451","wooscj2","Woodhouse's Scrub-Jay","Aphelocoma woodhouseii","L7494321","Divide Road--Sagebrush park below Jack's Canyon","2025-06-01 07:53",2,38.828801,-108.578083,TRUE,FALSE,TRUE,"S245754719"
"452","wooscj2","Woodhouse's Scrub-Jay","Aphelocoma woodhouseii","L46585946","Fowler Trail, Boulder US-CO 39.93147, -105.27061","2025-06-01 07:51",1,39.931466,-105.270611,TRUE,FALSE,TRUE,"S245565207"
"453","wooscj2","Woodhouse's Scrub-Jay","Aphelocoma woodhouseii","L1105892","Dimple Dell Park","2025-06-01 07:51",4,40.5614167,-111.8305206,TRUE,FALSE,FALSE,"S245501515"
"454","wooscj2","Woodhouse's Scrub-Jay","Aphelocoma woodhouseii","L2282699","Cibola NF--Lower Water Canyon","2025-06-01 07:50",2,34.0425857,-107.117697,TRUE,FALSE,FALSE,"S245707090"
"455","wooscj2","Woodhouse's Scrub-Jay","Aphelocoma woodhouseii","L129033","Mt. Lemmon--Molino Basin","2025-06-01 07:49",1,32.337101,-110.6921005,TRUE,FALSE,FALSE,"S246697700"
"456","wooscj2","Woodhouse's Scrub-Jay","Aphelocoma woodhouseii","L20065131","Sutey Ranch","2025-06-01 07:46",1,39.452276,-107.198314,TRUE,FALSE,FALSE,"S245551140"
"457","wooscj2","Woodhouse's Scrub-Jay","Aphelocoma woodhouseii","L46557983","4332 New Mexico 15, Silver City, New Mexico, US (32.81, -108.25)","2025-06-01 07:33",2,32.8097472,-108.2495703,TRUE,FALSE,TRUE,"S245437713"
"458","wooscj2","Woodhouse's Scrub-Jay","Aphelocoma woodhouseii","L583547","Davis Mountains Resort (Restricted Access)","2025-06-01 07:30",2,30.6173798,-104.0970039,TRUE,FALSE,FALSE,"S245772310"
"459","wooscj2","Woodhouse's Scrub-Jay","Aphelocoma woodhouseii","L46582517","4583 U5 Rd, Paradox US-CO 38.37916, -108.99162","2025-06-01 07:29",2,38.379165,-108.991617,TRUE,FALSE,TRUE,"S245550927"
"460","wooscj2","Woodhouse's Scrub-Jay","Aphelocoma woodhouseii","L6763090","Eldorado at Santa Fe, NM","2025-06-01 07:27",2,35.5527006,-105.9713363,TRUE,FALSE,TRUE,"S245537075"
"461","wooscj2","Woodhouse's Scrub-Jay","Aphelocoma woodhouseii","L46595815","Walk To Quemado Lake, New Mexico 103, Quemado, New Mexico, US (34.143, -108.504)","2025-06-01 07:24",2,34.1427904,-108.503931,TRUE,FALSE,TRUE,"S245606293"
"462","wooscj2","Woodhouse's Scrub-Jay","Aphelocoma woodhouseii","L2329640","Cibola NF--Upper Water Canyon","2025-06-01 07:15",1,34.0079355,-107.1397448,TRUE,FALSE,FALSE,"S245592082"
"463","wooscj2","Woodhouse's Scrub-Jay","Aphelocoma woodhouseii","L382872","Prescott--Goldwater Lakes","2025-06-01 07:10",2,34.4981747,-112.4489737,TRUE,FALSE,FALSE,"S245637499"
"464","wooscj2","Woodhouse's Scrub-Jay","Aphelocoma woodhouseii","L42384555","Dog Park Ridge Top
856 Calle David, Santa Fe, New Mexico, US (35.711, -105.953)","2025-06-01 07:07",1,35.711374,-105.9532712,TRUE,FALSE,TRUE,"S245448665"
"465","wooscj2","Woodhouse's Scrub-Jay","Aphelocoma woodhouseii","L24883863","MV BBS 16","2025-06-01 07:03",1,37.218035,-108.531398,TRUE,FALSE,TRUE,"S245596258"
"466","wooscj2","Woodhouse's Scrub-Jay","Aphelocoma woodhouseii","L46560781","S Cave Creek Rd, San Simon US-AZ 31.90716, -109.15819","2025-06-01 07:01",1,31.907155,-109.158189,TRUE,FALSE,TRUE,"S245454122"
"467","wooscj2","Woodhouse's Scrub-Jay","Aphelocoma woodhouseii","L37039046","Lydia's Home 80 Last Wagon Dr, Sedona US-AZ 34.86958, -111.79084","2025-06-01 06:57",2,34.869583,-111.790842,TRUE,FALSE,TRUE,"S245591117"
"468","wooscj2","Woodhouse's Scrub-Jay","Aphelocoma woodhouseii","L36122033","421 Colorado 105, Palmer Lake, Colorado, US (39.113, -104.899)","2025-06-01 06:54",1,39.1133263,-104.899119,TRUE,FALSE,TRUE,"S245467537"
"469","wooscj2","Woodhouse's Scrub-Jay","Aphelocoma woodhouseii","L30294169","Bandelier NM -- Tyuonyi Overlook","2025-06-01 06:54",3,35.7947049,-106.283591,TRUE,FALSE,FALSE,"S245492569"
"470","wooscj2","Woodhouse's Scrub-Jay","Aphelocoma woodhouseii","L46317271","Pie Town, New Mexico","2025-06-01 06:46",2,34.2563444,-108.2435717,TRUE,FALSE,TRUE,"S245883757"
"471","wooscj2","Woodhouse's Scrub-Jay","Aphelocoma woodhouseii","L46595166","CW BBS 21-25 Fs 21, Prescott, Arizona, US (34.812, -112.726)","2025-06-01 06:43",9,34.8120771,-112.7257618,TRUE,FALSE,TRUE,"S245603492"
"472","wooscj2","Woodhouse's Scrub-Jay","Aphelocoma woodhouseii","L13602662","Randall Rock Ranch","2025-06-01 06:40",1,34.4475004,-109.3502742,TRUE,FALSE,TRUE,"S245445203"
"473","wooscj2","Woodhouse's Scrub-Jay","Aphelocoma woodhouseii","L46594737","CW BBS 16-20 Fs 21, Prescott, Arizona, US (34.804, -112.802)","2025-06-01 06:27",5,34.8037421,-112.8019895,TRUE,FALSE,TRUE,"S246439422"
"474","wooscj2","Woodhouse's Scrub-Jay","Aphelocoma woodhouseii","L3967853","Horse Springs BBS Route - Stop 11","2025-06-01 06:25",3,33.91679,-108.27386,TRUE,TRUE,TRUE,"S245742305"
"475","wooscj2","Woodhouse's Scrub-Jay","Aphelocoma woodhouseii","L46600776","Newcastle BBS Route","2025-06-01 06:15",3,37.546678,-113.521331,TRUE,FALSE,TRUE,"S245627208"
"476","wooscj2","Woodhouse's Scrub-Jay","Aphelocoma woodhouseii","L3967851","Horse Springs BBS Route - Stop 9","2025-06-01 06:15",2,33.92158,-108.2565,TRUE,TRUE,TRUE,"S245742303"
"477","wooscj2","Woodhouse's Scrub-Jay","Aphelocoma woodhouseii","L46593949","CW BBS 11-15 Fs 21, Prescott, Arizona, US (34.814, -112.764)","2025-06-01 06:13",1,34.813535,-112.7642576,TRUE,FALSE,TRUE,"S245598903"
"478","wooscj2","Woodhouse's Scrub-Jay","Aphelocoma woodhouseii","L45353214","Velvet valley","2025-06-01 06:12",1,35.223235,-111.454646,TRUE,FALSE,TRUE,"S245431660"
"479","wooscj2","Woodhouse's Scrub-Jay","Aphelocoma woodhouseii","L3967850","Horse Springs BBS Route - Stop 8","2025-06-01 06:09",1,33.92289,-108.24799,TRUE,TRUE,TRUE,"S245742302"
"480","wooscj2","Woodhouse's Scrub-Jay","Aphelocoma woodhouseii","L3967849","Horse Springs BBS Route - Stop 7","2025-06-01 06:04",1,33.92312,-108.23841,TRUE,TRUE,TRUE,"S245742301"
"481","wooscj2","Woodhouse's Scrub-Jay","Aphelocoma woodhouseii","L2427011","Chiricahua Mtns.--Whitetail Canyon","2025-06-01 06:03",1,31.9994008,-109.2720124,TRUE,FALSE,TRUE,"S245647074"
"482","wooscj2","Woodhouse's Scrub-Jay","Aphelocoma woodhouseii","L46581392","900–946 County Road 111, Llano US-TX (30.5505,-98.8826)","2025-06-01 06:01",1,30.550486,-98.882559,TRUE,FALSE,TRUE,"S245546044"
"483","wooscj2","Woodhouse's Scrub-Jay","Aphelocoma woodhouseii","L46666602","Las Animas CR 177.9 Thru the Canyon","2025-06-01 05:37",1,37.6174992,-103.4712829,TRUE,FALSE,TRUE,"S245954275"
"484","wooscj2","Woodhouse's Scrub-Jay","Aphelocoma woodhouseii","L554724","Eldorado Mountain Open Space","2025-06-01 05:31",1,39.9256011,-105.2762747,TRUE,FALSE,FALSE,"S245605620"
"485","wooscj2","Woodhouse's Scrub-Jay","Aphelocoma woodhouseii","L1873056","Boynton Canyon","2025-06-01 05:30",3,34.9187667,-111.8544875,TRUE,FALSE,FALSE,"S245630381"
"486","wooscj2","Woodhouse's Scrub-Jay","Aphelocoma woodhouseii","L11287539","Bradfield Recreation Site","2025-06-01 05:15",1,37.6581284,-108.7368025,TRUE,FALSE,FALSE,"S245391746"
"487","wooscj2","Woodhouse's Scrub-Jay","Aphelocoma woodhouseii","L46607559","Cedar Mountain Road, Grand Canyon Village, Arizona, US (36.046, -111.804)","2025-06-01 05:08",5,36.0463675,-111.8037407,TRUE,FALSE,TRUE,"S245654673"
"488","wooscj2","Woodhouse's Scrub-Jay","Aphelocoma woodhouseii","L46589718","CW BBS 1-5, Fs 21, Prescott, Arizona, US (34.801, -112.879)","2025-06-01 04:50",2,34.8009672,-112.8791214,TRUE,FALSE,TRUE,"S245580719"
"489","wooscj2","Woodhouse's Scrub-Jay","Aphelocoma woodhouseii","L2643575","Pine Ridge","2025-05-31 20:28",2,40.5636989,-109.7205877,TRUE,FALSE,TRUE,"S245271526"
"490","wooscj2","Woodhouse's Scrub-Jay","Aphelocoma woodhouseii","L46522981","Bradfield Recreation Road, Cahone, Colorado, US (37.653, -108.739)","2025-05-31 20:28",1,37.6533233,-108.7390941,TRUE,FALSE,TRUE,"S245266413"
"491","wooscj2","Woodhouse's Scrub-Jay","Aphelocoma woodhouseii","L22930240","Bandelier Maintenance Lagoons (permit required)","2025-05-31 19:47",1,35.78959,-106.277094,TRUE,FALSE,TRUE,"S245278228"
"492","wooscj2","Woodhouse's Scrub-Jay","Aphelocoma woodhouseii","L46522849","Abiquiu Lake Riana Campground","2025-05-31 19:43",1,36.246318,-106.431961,TRUE,FALSE,TRUE,"S245265823"
"493","wooscj2","Woodhouse's Scrub-Jay","Aphelocoma woodhouseii","L46524469","Mule Canyon Kiva","2025-05-31 19:31",1,37.540218,-109.742976,TRUE,FALSE,TRUE,"S245273138"
"494","wooscj2","Woodhouse's Scrub-Jay","Aphelocoma woodhouseii","L30164365","Backyard (Private)","2025-05-31 19:30",1,30.1167779,-98.3021941,TRUE,FALSE,TRUE,"S245244470"
"495","wooscj2","Woodhouse's Scrub-Jay","Aphelocoma woodhouseii","L2498109","White Rock WTP","2025-05-31 18:51",1,35.8274694,-106.184299,TRUE,FALSE,FALSE,"S245254209"
"496","wooscj2","Woodhouse's Scrub-Jay","Aphelocoma woodhouseii","L5461029","Skye Green Belt","2025-05-31 18:18",1,40.4520902,-111.809568,TRUE,FALSE,TRUE,"S245236279"
"497","wooscj2","Woodhouse's Scrub-Jay","Aphelocoma woodhouseii","L12041613","Gila NF--Largo Canyon Trail","2025-05-31 18:16",1,34.1369169,-108.4730571,TRUE,FALSE,FALSE,"S245257290"
"498","wooscj2","Woodhouse's Scrub-Jay","Aphelocoma woodhouseii","L12559408","N Branch Cottonwood Creek--E Woodmen Rd to Rangewood Dr","2025-05-31 18:11",1,38.9378181,-104.7451605,TRUE,FALSE,FALSE,"S245244937"
"499","wooscj2","Woodhouse's Scrub-Jay","Aphelocoma woodhouseii","L46592936","Highway 260, Payson, Arizona, US (34.317, -111.391)","2025-05-31 17:16",1,34.3168646,-111.3911019,TRUE,FALSE,TRUE,"S245594624"
"500","wooscj2","Woodhouse's Scrub-Jay","Aphelocoma woodhouseii","L3707134","McCulloch cr 104/106 intersection","2025-05-31 16:52",1,30.9858782,-99.447813,TRUE,FALSE,TRUE,"S245232538"
"501","wooscj2","Woodhouse's Scrub-Jay","Aphelocoma woodhouseii","L46509125","10195 Chipita Park Road, Cascade-Chipita Park, Colorado, US (38.929, -105.009)","2025-05-31 15:50",1,38.9287749,-105.0088393,TRUE,FALSE,TRUE,"S245202467"
"502","wooscj2","Woodhouse's Scrub-Jay","Aphelocoma woodhouseii","L870372","Great Basin NP--Strawberry Creek","2025-05-31 15:32",3,39.0525183,-114.3123901,TRUE,FALSE,FALSE,"S245207664"
"503","wooscj2","Woodhouse's Scrub-Jay","Aphelocoma woodhouseii","L949294","Gila NF--Apache Creek Campground","2025-05-31 15:19",1,33.8291074,-108.6266541,TRUE,FALSE,FALSE,"S245234158"
"504","wooscj2","Woodhouse's Scrub-Jay","Aphelocoma woodhouseii","L340658","Cottonwood Canyon (Las Animas Co.; campground and upstream to W; ~0.52 mi. on road in county)","2025-05-31 14:13",1,37.1393982,-103.0886446,TRUE,FALSE,FALSE,"S245217961"
"505","wooscj2","Woodhouse's Scrub-Jay","Aphelocoma woodhouseii","L194006","Bent","2025-05-31 13:57",2,33.15868,-105.85654,TRUE,FALSE,TRUE,"S245251849"
"506","wooscj2","Woodhouse's Scrub-Jay","Aphelocoma woodhouseii","L18440375","Santa Fe NF - Barranca","2025-05-31 13:00",2,36.2073141,-106.3629316,TRUE,FALSE,TRUE,"S245279012"
"507","wooscj2","Woodhouse's Scrub-Jay","Aphelocoma woodhouseii","L473975","Cheyenne Mountain SP","2025-05-31 12:47",1,38.7311714,-104.8223591,TRUE,FALSE,FALSE,"S245184768"
"508","wooscj2","Woodhouse's Scrub-Jay","Aphelocoma woodhouseii","L140458","Cottonwood Canyon (Baca Co.; county line just W of Rd 5-Rd 244 intersection)","2025-05-31 12:38",1,37.1437472,-103.0827943,TRUE,FALSE,FALSE,"S245229956"
"509","wooscj2","Woodhouse's Scrub-Jay","Aphelocoma woodhouseii","L46629545","89043, Pioche US-NV 38.55231, -114.41132","2025-05-31 12:37",1,38.552308,-114.411321,TRUE,FALSE,TRUE,"S245762008"
"510","wooscj2","Woodhouse's Scrub-Jay","Aphelocoma woodhouseii","L44899500","1821 East Redondo Avenue, Salt Lake City, Utah, US (40.727, -111.839)","2025-05-31 12:35",1,40.7268059,-111.8389086,TRUE,FALSE,TRUE,"S245122233"
"511","wooscj2","Woodhouse's Scrub-Jay","Aphelocoma woodhouseii","L200055","Cibola NF--Water Canyon","2025-05-31 12:25",2,34.0231527,-107.1310644,TRUE,FALSE,FALSE,"S245144619"
"512","wooscj2","Woodhouse's Scrub-Jay","Aphelocoma woodhouseii","L46479103","401 S Oak Forest Dr, Dripping Springs US-TX 30.27048, -98.11107","2025-05-31 12:04",1,30.27048,-98.11107,TRUE,FALSE,TRUE,"S245078546"
"513","wooscj2","Woodhouse's Scrub-Jay","Aphelocoma woodhouseii","L14664864","Chris Mountain","2025-05-31 11:46",1,37.2750882,-107.1993635,TRUE,FALSE,TRUE,"S245235594"
"514","wooscj2","Woodhouse's Scrub-Jay","Aphelocoma woodhouseii","L4631761","Kiowa NG--Mills Canyon, Riparian Crossing near Rim Campground","2025-05-31 11:46",1,36.0710004,-104.353576,TRUE,FALSE,FALSE,"S245530497"
"515","wooscj2","Woodhouse's Scrub-Jay","Aphelocoma woodhouseii","L21273687","40970 Farm to Market Road 3159, Canyon Lake, Texas, US (29.832, -98.285)","2025-05-31 11:41",1,29.8322227,-98.2847087,TRUE,FALSE,TRUE,"S246227756"
"516","wooscj2","Woodhouse's Scrub-Jay","Aphelocoma woodhouseii","L19140310","S Camino Real, Cottonwood US-AZ 34.69740, -112.00652","2025-05-31 11:39",6,34.697399,-112.006515,TRUE,FALSE,TRUE,"S245141442"
"517","wooscj2","Woodhouse's Scrub-Jay","Aphelocoma woodhouseii","L621892","Wetmore area","2025-05-31 11:36",3,38.2349441,-105.0844002,TRUE,FALSE,FALSE,"S245117939"
"518","wooscj2","Woodhouse's Scrub-Jay","Aphelocoma woodhouseii","L1204246","Grand Staircase-Escalante NM--Calf Creek CG","2025-05-31 11:35",1,37.7947856,-111.4134157,TRUE,FALSE,FALSE,"S245647342"
"519","wooscj2","Woodhouse's Scrub-Jay","Aphelocoma woodhouseii","L46636314","Deer Creek Road, Las Vegas US-NV","2025-05-31 11:25",1,36.297589,-115.607587,TRUE,FALSE,TRUE,"S245794806"
"520","wooscj2","Woodhouse's Scrub-Jay","Aphelocoma woodhouseii","L1134581","Davis Mountains Preserve--Tobe Canyon","2025-05-31 11:21",1,30.6461274,-104.1792727,TRUE,FALSE,FALSE,"S245257852"
"521","wooscj2","Woodhouse's Scrub-Jay","Aphelocoma woodhouseii","L46486086","647 Ridge Road, Colorado Springs, Colorado, US","2025-05-31 11:19",4,38.8653734,-104.8797471,TRUE,FALSE,TRUE,"S245107141"
"522","wooscj2","Woodhouse's Scrub-Jay","Aphelocoma woodhouseii","L4888315","Fort Stanton Historic Site","2025-05-31 10:56",1,33.4942,-105.5259,TRUE,FALSE,FALSE,"S245130294"
"523","wooscj2","Woodhouse's Scrub-Jay","Aphelocoma woodhouseii","L10285786","1721 Singletary Drive Northeast, Albuquerque, New Mexico, US (35.099, -106.493)","2025-05-31 10:51",1,35.0992463,-106.4925012,TRUE,FALSE,TRUE,"S245140704"
"524","wooscj2","Woodhouse's Scrub-Jay","Aphelocoma woodhouseii","L16158124","Gila NF--Visitor Center","2025-05-31 10:50",1,33.2238261,-108.2418108,TRUE,FALSE,FALSE,"S245657104"
"525","wooscj2","Woodhouse's Scrub-Jay","Aphelocoma woodhouseii","L34014915","Pinebrook Point Trail","2025-05-31 10:50",1,40.751717,-111.580348,TRUE,FALSE,TRUE,"S245090868"
"526","wooscj2","Woodhouse's Scrub-Jay","Aphelocoma woodhouseii","L10943427","Popperton Park","2025-05-31 10:46",2,40.778149,-111.850137,TRUE,FALSE,FALSE,"S245096801"
"527","wooscj2","Woodhouse's Scrub-Jay","Aphelocoma woodhouseii","L4660603","Bootlegger Picnic Area","2025-05-31 10:38",1,34.9697586,-111.7506418,TRUE,FALSE,FALSE,"S245300582"
"528","wooscj2","Woodhouse's Scrub-Jay","Aphelocoma woodhouseii","L11051069","Santa Fe NF--Caja del Rio IBA South","2025-05-31 10:37",1,35.5725976,-106.1999475,TRUE,FALSE,FALSE,"S245120371"
"529","wooscj2","Woodhouse's Scrub-Jay","Aphelocoma woodhouseii","L46492338","800–930 Rainbow Rd, Durango US-CO 37.15920, -107.87407","2025-05-31 10:35",NA,37.159203,-107.874069,TRUE,FALSE,TRUE,"S245133167"
"530","wooscj2","Woodhouse's Scrub-Jay","Aphelocoma woodhouseii","L43489967","Pink--TP10","2025-05-31 10:30",3,36.9751698,-107.7043237,TRUE,FALSE,TRUE,"S245273296"
"531","wooscj2","Woodhouse's Scrub-Jay","Aphelocoma woodhouseii","L39589941","1 AB'S Rd, Santa Fe US-NM 35.82071, -105.91342","2025-05-31 10:25",2,35.820706,-105.913421,TRUE,FALSE,TRUE,"S245083654"
"532","wooscj2","Woodhouse's Scrub-Jay","Aphelocoma woodhouseii","L283465","Caprock Canyons SP (PHP 037)","2025-05-31 10:20",1,34.4368847,-101.0568176,TRUE,FALSE,FALSE,"S245056873"
"533","wooscj2","Woodhouse's Scrub-Jay","Aphelocoma woodhouseii","L5956309","Cabin 98-114, Glenwood US-NM (33.3220,-108.8756)","2025-05-31 10:18",4,33.322025,-108.875579,TRUE,FALSE,TRUE,"S246139902"
"534","wooscj2","Woodhouse's Scrub-Jay","Aphelocoma woodhouseii","L11652477","Our yard, Clay Springs, Arizona, US (34.382, -110.298)","2025-05-31 10:17",3,34.3821603,-110.2984813,TRUE,FALSE,TRUE,"S245103310"
"535","wooscj2","Woodhouse's Scrub-Jay","Aphelocoma woodhouseii","L389105","Baker Sanctuary","2025-05-31 10:03",2,30.4833186,-97.8707503,TRUE,FALSE,FALSE,"S245159254"
"536","wooscj2","Woodhouse's Scrub-Jay","Aphelocoma woodhouseii","L283468","South Llano River SP (HOTW 093)","2025-05-31 09:56",1,30.4391651,-99.8128617,TRUE,FALSE,FALSE,"S245110365"
"537","wooscj2","Woodhouse's Scrub-Jay","Aphelocoma woodhouseii","L25229757","Devil’s Canyon Rd","2025-05-31 09:50",1,33.47281,-105.5007,TRUE,FALSE,TRUE,"S245133641"
"538","wooscj2","Woodhouse's Scrub-Jay","Aphelocoma woodhouseii","L46472279","Sons of the Utah Pioneers","2025-05-31 09:49",1,40.708362,-111.801596,TRUE,FALSE,TRUE,"S245049824"
"539","wooscj2","Woodhouse's Scrub-Jay","Aphelocoma woodhouseii","L7812366","Davis Mountains Preserve--Pine Peak/Shoe Rd.","2025-05-31 09:32",1,30.672265,-104.1280176,TRUE,FALSE,FALSE,"S245174448"
"540","wooscj2","Woodhouse's Scrub-Jay","Aphelocoma woodhouseii","L711290","Balcones Canyonlands NWR--Warbler Vista/Ridgeline Trail (HOTE 027)","2025-05-31 09:30",2,30.5099833,-97.9923667,TRUE,FALSE,FALSE,"S245439361"
"541","wooscj2","Woodhouse's Scrub-Jay","Aphelocoma woodhouseii","L44571174","13246 County Road P, San Luis, Colorado, US (37.184, -105.554)","2025-05-31 09:28",1,37.1842071,-105.553686,TRUE,FALSE,TRUE,"S245152280"
