"","speciesCode","comName","sciName","locId","locName","obsDt","howMany","lat","lng","obsValid","obsReviewed","locationPrivate","subId"
"1","hamfly","Hammond's Flycatcher","Empidonax hammondii","L8718459","SW Moline Ct","2025-05-10 20:24",1,45.51638,-122.891953,TRUE,FALSE,TRUE,"S236053982"
"2","hamfly","Hammond's Flycatcher","Empidonax hammondii","L17855241","Kamp Keith","2025-05-10 20:10",1,48.1732672,-114.0400616,TRUE,FALSE,TRUE,"S236024573"
"3","hamfly","Hammond's Flycatcher","Empidonax hammondii","L20285389","99709, Fairbanks US-AK (64.8900,-147.9748)","2025-05-10 18:58",1,64.889993,-147.974763,TRUE,FALSE,TRUE,"S236050356"
"4","hamfly","Hammond's Flycatcher","Empidonax hammondii","L13566716","SaddleBrooke Ranch Pond and surrounding area","2025-05-10 18:13",1,32.5907602,-110.9196866,TRUE,FALSE,TRUE,"S236030699"
"5","hamfly","Hammond's Flycatcher","Empidonax hammondii","L128986","San Pedro RNCA--Hereford Bridge","2025-05-10 17:50",1,31.4384285,-110.1076526,TRUE,FALSE,FALSE,"S235995798"
"6","hamfly","Hammond's Flycatcher","Empidonax hammondii","L159619","Malheur NWR--Headquarters","2025-05-10 17:24",1,43.2653681,-118.8433095,TRUE,FALSE,FALSE,"S236051420"
"7","hamfly","Hammond's Flycatcher","Empidonax hammondii","L768735","Harshaw Creek Road","2025-05-10 17:24",5,31.506978,-110.6798543,TRUE,TRUE,FALSE,"S236022857"
"8","hamfly","Hammond's Flycatcher","Empidonax hammondii","L2357080","Horse Meadows Rd.","2025-05-10 16:54",1,37.9321482,-119.121623,TRUE,FALSE,FALSE,"S236014908"
"9","hamfly","Hammond's Flycatcher","Empidonax hammondii","L17403073","1300 line to gate, Toutle, Washington, US (46.291, -122.74)","2025-05-10 16:49",1,46.2908591,-122.7404629,TRUE,FALSE,TRUE,"S235979124"
"10","hamfly","Hammond's Flycatcher","Empidonax hammondii","L7436798","Dinkey Creek Road Rest Area","2025-05-10 16:48",1,37.1051384,-119.3093473,TRUE,FALSE,FALSE,"S236007102"
"11","hamfly","Hammond's Flycatcher","Empidonax hammondii","L30521010","Powerline Tank","2025-05-10 16:46",1,34.7133492,-112.1595958,TRUE,FALSE,TRUE,"S236000854"
"12","hamfly","Hammond's Flycatcher","Empidonax hammondii","L856742","Vicksburg Rd farms","2025-05-10 16:37",1,33.6746623,-113.7673545,TRUE,FALSE,FALSE,"S236022625"
"13","hamfly","Hammond's Flycatcher","Empidonax hammondii","L264842","Miller Canyon--Beatty's Guest Ranch","2025-05-10 16:13",1,31.4156019,-110.2765277,TRUE,FALSE,FALSE,"S235980053"
"14","hamfly","Hammond's Flycatcher","Empidonax hammondii","L12303037","Elwha River Rd parking lot","2025-05-10 16:10",1,48.113962,-123.553143,TRUE,FALSE,FALSE,"S235968312"
"15","hamfly","Hammond's Flycatcher","Empidonax hammondii","L456827","Tonopah Cemetery","2025-05-10 16:05",1,38.0767863,-117.2497898,TRUE,FALSE,FALSE,"S235968544"
"16","hamfly","Hammond's Flycatcher","Empidonax hammondii","L562342","Biscuit Ridge Road","2025-05-10 16:00",1,46.0822806,-118.0446625,TRUE,FALSE,FALSE,"S236016185"
"17","hamfly","Hammond's Flycatcher","Empidonax hammondii","L3914007","Yard, Garden Grove","2025-05-10 16:00",1,33.7763473,-117.9303897,TRUE,FALSE,TRUE,"S236031960"
"18","hamfly","Hammond's Flycatcher","Empidonax hammondii","L129099","Cave Creek Canyon--South Fork","2025-05-10 15:37",1,31.8688764,-109.1883919,TRUE,FALSE,FALSE,"S236059094"
"19","hamfly","Hammond's Flycatcher","Empidonax hammondii","L5950627","Mingus Mountain--Mingus Lake (aka Elk Well)","2025-05-10 15:28",1,34.6970875,-112.1290451,TRUE,FALSE,FALSE,"S235940913"
"20","hamfly","Hammond's Flycatcher","Empidonax hammondii","L866928","Sage Hen Road Trees","2025-05-10 15:12",1,37.7587686,-118.0855125,TRUE,FALSE,FALSE,"S235892278"
"21","hamfly","Hammond's Flycatcher","Empidonax hammondii","L44653233","National Forest Development Road 1708, Naches, Washington, US (46.986, -121.062)","2025-05-10 15:07",2,46.9859434,-121.0620734,TRUE,FALSE,TRUE,"S235977032"
"22","hamfly","Hammond's Flycatcher","Empidonax hammondii","L1796846","Ken Morgan Pl Vail","2025-05-10 15:00",1,31.9711922,-110.8230771,TRUE,FALSE,TRUE,"S235936580"
"23","hamfly","Hammond's Flycatcher","Empidonax hammondii","L3225437","Hayden Lake--Mokins Bay","2025-05-10 14:57",1,47.7850632,-116.6703844,TRUE,FALSE,FALSE,"S235919435"
"24","hamfly","Hammond's Flycatcher","Empidonax hammondii","L44653932","Roger’s Peak","2025-05-10 14:52",2,45.664949,-123.548078,TRUE,FALSE,TRUE,"S235981037"
"25","hamfly","Hammond's Flycatcher","Empidonax hammondii","L129052","Patagonia-Sonoita Creek Preserve","2025-05-10 14:43",3,31.528,-110.775,TRUE,FALSE,FALSE,"S236022673"
"26","hamfly","Hammond's Flycatcher","Empidonax hammondii","L340405","Box Canyon","2025-05-10 14:41",1,31.7974086,-110.7868486,TRUE,FALSE,FALSE,"S236060742"
"27","hamfly","Hammond's Flycatcher","Empidonax hammondii","L3171916","Woodruff (town)","2025-05-10 14:08",2,34.7821417,-110.0435498,TRUE,FALSE,FALSE,"S236025547"
"28","hamfly","Hammond's Flycatcher","Empidonax hammondii","L1563651","Witham Hill Natural Area","2025-05-10 14:06",1,44.5808312,-123.3020349,TRUE,FALSE,FALSE,"S235885038"
"29","hamfly","Hammond's Flycatcher","Empidonax hammondii","L8093441","Myrna Park--Quinnimose Creek","2025-05-10 14:05",1,47.6095873,-117.1057572,TRUE,FALSE,FALSE,"S235981006"
"30","hamfly","Hammond's Flycatcher","Empidonax hammondii","L129080","San Pedro RNCA--San Pedro House and trails","2025-05-10 13:56",3,31.5478992,-110.1408997,TRUE,FALSE,FALSE,"S235910338"
"31","hamfly","Hammond's Flycatcher","Empidonax hammondii","L1603496","Haviland Lake Area","2025-05-10 13:52",1,37.5325309,-107.8092241,TRUE,FALSE,FALSE,"S235824355"
"32","hamfly","Hammond's Flycatcher","Empidonax hammondii","L129021","Madera Canyon--Madera Picnic Area","2025-05-10 13:51",2,31.7271702,-110.8807518,TRUE,FALSE,FALSE,"S236060614"
"33","hamfly","Hammond's Flycatcher","Empidonax hammondii","L2231788","Fish Lake (Chelan Co.)","2025-05-10 13:49",2,47.8307071,-120.7125806,TRUE,FALSE,FALSE,"S235878533"
"34","hamfly","Hammond's Flycatcher","Empidonax hammondii","L32460289","Beneke Creek Rd Bluebird Spur","2025-05-10 13:45",1,45.995496,-123.498354,TRUE,FALSE,TRUE,"S235855782"
"35","hamfly","Hammond's Flycatcher","Empidonax hammondii","L44653531","Rogers Peak Hike--45.6609,-123.5548","2025-05-10 13:41",2,45.660877,-123.554815,TRUE,FALSE,TRUE,"S235978759"
"36","hamfly","Hammond's Flycatcher","Empidonax hammondii","L1254744","Pattee Canyon--Picnic Area","2025-05-10 13:37",1,46.8248484,-113.9271927,TRUE,FALSE,FALSE,"S235789116"
"37","hamfly","Hammond's Flycatcher","Empidonax hammondii","L11722922","7201 Evaro rd","2025-05-10 13:32",1,47.0291028,-114.0884227,TRUE,FALSE,TRUE,"S235795653"
"38","hamfly","Hammond's Flycatcher","Empidonax hammondii","L564570","#10 Ware Walk","2025-05-10 13:25",2,47.9195633,-120.9069443,TRUE,FALSE,TRUE,"S236040737"
"39","hamfly","Hammond's Flycatcher","Empidonax hammondii","L1842425","22nd Ave.--oasis west of Stephenson Blvd.","2025-05-10 13:25",3,33.5446212,-114.6781461,TRUE,FALSE,FALSE,"S235849177"
"40","hamfly","Hammond's Flycatcher","Empidonax hammondii","L305332","Mountain View Cemetery","2025-05-10 13:21",2,32.267648,-107.720432,TRUE,FALSE,FALSE,"S235933470"
"41","hamfly","Hammond's Flycatcher","Empidonax hammondii","L128884","Barfoot Junction","2025-05-10 13:21",1,31.9150326,-109.2690586,TRUE,FALSE,FALSE,"S235967243"
"42","hamfly","Hammond's Flycatcher","Empidonax hammondii","L1058415","Fortson Mill Ponds","2025-05-10 13:20",1,48.2741106,-121.7310905,TRUE,FALSE,FALSE,"S235861746"
"43","hamfly","Hammond's Flycatcher","Empidonax hammondii","L350281","El Rio Open Space Preserve","2025-05-10 13:18",2,32.392141,-111.1384898,TRUE,FALSE,FALSE,"S235828996"
"44","hamfly","Hammond's Flycatcher","Empidonax hammondii","L2740302","Spring Basin Wilderness","2025-05-10 13:17",1,44.87735,-120.422897,TRUE,FALSE,FALSE,"S236063320"
"45","hamfly","Hammond's Flycatcher","Empidonax hammondii","L9287162","Huachuca Canyon--1.7 mile picnic area","2025-05-10 13:13",1,31.5177588,-110.3884391,TRUE,FALSE,FALSE,"S236044606"
"46","hamfly","Hammond's Flycatcher","Empidonax hammondii","L129062","Ramsey Canyon Preserve (formerly Mile Hi Ranch)","2025-05-10 13:13",2,31.4473746,-110.307608,TRUE,FALSE,FALSE,"S235959863"
"47","hamfly","Hammond's Flycatcher","Empidonax hammondii","L44667012","Okanogan - Wenatchee National Forest, Leavenworth US-WA 47.91042, -120.90064","2025-05-10 13:07",1,47.910422,-120.90064,TRUE,FALSE,TRUE,"S236057853"
"48","hamfly","Hammond's Flycatcher","Empidonax hammondii","L44615727","Tamaracks resort","2025-05-10 13:04",1,47.20451,-113.51103,TRUE,FALSE,TRUE,"S235772199"
"49","hamfly","Hammond's Flycatcher","Empidonax hammondii","L372691","Madera Canyon--Chuparosa Inn","2025-05-10 13:02",1,31.7147792,-110.876298,TRUE,FALSE,FALSE,"S235928583"
"50","hamfly","Hammond's Flycatcher","Empidonax hammondii","L801273","William R Mason Regional Park--east side","2025-05-10 12:56",1,33.6556558,-117.824378,TRUE,FALSE,FALSE,"S235927906"
"51","hamfly","Hammond's Flycatcher","Empidonax hammondii","L247122","Paton Center for Hummingbirds (Patons' Yard)","2025-05-10 12:54",2,31.5390131,-110.7606337,TRUE,FALSE,FALSE,"S236022141"
"52","hamfly","Hammond's Flycatcher","Empidonax hammondii","L24680143","Kings Canyon NP - General Grant Tree Trail","2025-05-10 12:34",1,36.7472117,-118.9734553,TRUE,FALSE,FALSE,"S236071644"
"53","hamfly","Hammond's Flycatcher","Empidonax hammondii","L1583240","Huachuca Canyon--lower picnic area","2025-05-10 12:34",1,31.5411676,-110.3741764,TRUE,FALSE,FALSE,"S236042968"
"54","hamfly","Hammond's Flycatcher","Empidonax hammondii","L3154811","Slate Creek Divide (Maricopa Co.)","2025-05-10 12:28",1,34.000011,-111.470356,TRUE,FALSE,FALSE,"S236040864"
"55","hamfly","Hammond's Flycatcher","Empidonax hammondii","L349355","Lake Wenatchee SP","2025-05-10 12:25",2,47.8088889,-120.7238889,TRUE,FALSE,FALSE,"S235815664"
"56","hamfly","Hammond's Flycatcher","Empidonax hammondii","L156897","Miller's Rest Stop","2025-05-10 12:17",1,38.141056,-117.453415,TRUE,FALSE,FALSE,"S235799091"
"57","hamfly","Hammond's Flycatcher","Empidonax hammondii","L11344642","26320 Sears Creek Usfs 6404 Road, Leavenworth, Washington, US (47.898, -120.887)","2025-05-10 12:15",7,47.8984564,-120.8874403,TRUE,FALSE,TRUE,"S235871507"
"58","hamfly","Hammond's Flycatcher","Empidonax hammondii","L199300","Ash Canyon Bird Sanctuary (closed Thursday morning)","2025-05-10 12:00",1,31.3904516,-110.2392496,TRUE,FALSE,FALSE,"S235803337"
"59","hamfly","Hammond's Flycatcher","Empidonax hammondii","L44663005","Red Owl Road and Black Wolf Trail","2025-05-10 11:52",1,48.0301873,-113.9462944,TRUE,FALSE,TRUE,"S236035353"
"60","hamfly","Hammond's Flycatcher","Empidonax hammondii","L129050","Patagonia Lake State Park","2025-05-10 11:48",1,31.4951992,-110.8566971,TRUE,FALSE,FALSE,"S235948684"
"61","hamfly","Hammond's Flycatcher","Empidonax hammondii","L44626720","Section Old Red Bluff Rd, Chester US-CA 40.36083, -121.34647","2025-05-10 11:45",2,40.360826,-121.346466,TRUE,FALSE,TRUE,"S235828513"
"62","hamfly","Hammond's Flycatcher","Empidonax hammondii","L1154186","Slate Creek Divide (Gila Co.)","2025-05-10 11:44",1,34.004185,-111.458708,TRUE,FALSE,FALSE,"S236039767"
"63","hamfly","Hammond's Flycatcher","Empidonax hammondii","L753291","Mt. Rainier NP--Longmire","2025-05-10 11:41",NA,46.750859,-121.813488,TRUE,FALSE,FALSE,"S235840972"
"64","hamfly","Hammond's Flycatcher","Empidonax hammondii","L32747374","5555 Sunset Hill Rd, Bonner US-MT 46.91667, -113.42579","2025-05-10 11:39",1,46.916668,-113.425794,TRUE,FALSE,TRUE,"S235723513"
"65","hamfly","Hammond's Flycatcher","Empidonax hammondii","L44662966","Swan Lake Campground","2025-05-10 11:28",1,47.9355862,-113.8527765,TRUE,FALSE,TRUE,"S236035112"
"66","hamfly","Hammond's Flycatcher","Empidonax hammondii","L5657836","Lower Carr Canyon Picnic Area","2025-05-10 11:23",1,31.4486986,-110.2842231,TRUE,FALSE,FALSE,"S235840094"
"67","hamfly","Hammond's Flycatcher","Empidonax hammondii","L44626696","415 Bullion Dr, Fairbanks US-AK 64.92950, -147.61137","2025-05-10 11:19",2,64.929502,-147.611373,TRUE,FALSE,TRUE,"S235828397"
"68","hamfly","Hammond's Flycatcher","Empidonax hammondii","L155127","Calaveras Big Trees SP","2025-05-10 11:17",1,38.27745,-120.30706,TRUE,FALSE,FALSE,"S235769912"
"69","hamfly","Hammond's Flycatcher","Empidonax hammondii","L32906094","Corrales Drain and San Antonio Arroyo","2025-05-10 11:14",1,35.1365678,-106.6895919,TRUE,FALSE,TRUE,"S235964174"
"70","hamfly","Hammond's Flycatcher","Empidonax hammondii","L44635222","Champion Road, Las Vegas US-NV (36.3437,-115.6436)","2025-05-10 11:06",1,36.34369,-115.643613,TRUE,FALSE,TRUE,"S235872116"
"71","hamfly","Hammond's Flycatcher","Empidonax hammondii","L4479046","Creamer's Field MWR--Seasonal Wetland Trail","2025-05-10 11:05",7,64.866383,-147.7409676,TRUE,FALSE,FALSE,"S235815328"
"72","hamfly","Hammond's Flycatcher","Empidonax hammondii","L129031","Miller Canyon Trail","2025-05-10 11:04",1,31.40806,-110.28619,TRUE,FALSE,FALSE,"S235819389"
"73","hamfly","Hammond's Flycatcher","Empidonax hammondii","L3651544","Madera Canyon--Old Baldy Trail","2025-05-10 11:01",2,31.7064483,-110.868596,TRUE,FALSE,FALSE,"S236060533"
"74","hamfly","Hammond's Flycatcher","Empidonax hammondii","L8879632","Rattlesnake Creek","2025-05-10 11:00",5,46.8806681,-113.9733279,TRUE,FALSE,TRUE,"S235943646"
"75","hamfly","Hammond's Flycatcher","Empidonax hammondii","L416770","Upper Ahtanum","2025-05-10 10:59",3,46.4997389,-121.0398778,TRUE,FALSE,TRUE,"S235826821"
"76","hamfly","Hammond's Flycatcher","Empidonax hammondii","L44594108","Swan River State Forest HQ","2025-05-10 10:50",1,47.7501916,-113.8232307,TRUE,FALSE,TRUE,"S235668088"
"77","hamfly","Hammond's Flycatcher","Empidonax hammondii","L1479497","Sequoia NP--General Sherman Tree Trail","2025-05-10 10:47",7,36.5848435,-118.7496931,TRUE,FALSE,FALSE,"S236052061"
"78","hamfly","Hammond's Flycatcher","Empidonax hammondii","L1190205","Cibola Valley Conservation Area","2025-05-10 10:38",2,33.4106209,-114.6632338,TRUE,FALSE,FALSE,"S235880976"
"79","hamfly","Hammond's Flycatcher","Empidonax hammondii","L3292869","Dungeness NWR--forest trails","2025-05-10 10:36",7,48.1444053,-123.1874228,TRUE,FALSE,FALSE,"S235708611"
"80","hamfly","Hammond's Flycatcher","Empidonax hammondii","L128898","Big Bend NP--Dugout Wells","2025-05-10 10:35",1,29.2712002,-103.1352997,TRUE,FALSE,FALSE,"S235606844"
"81","hamfly","Hammond's Flycatcher","Empidonax hammondii","L26566271","Chena River SRA--Rosehip Campground","2025-05-10 10:28",2,64.8773934,-146.7646071,TRUE,FALSE,FALSE,"S235810578"
"82","hamfly","Hammond's Flycatcher","Empidonax hammondii","L281844","Montosa Canyon--km 1 (culvert area)","2025-05-10 10:24",8,31.6714585,-110.941082,TRUE,TRUE,FALSE,"S235754142"
"83","hamfly","Hammond's Flycatcher","Empidonax hammondii","L1049743","Christmas Lake","2025-05-10 10:23",3,47.4335452,-121.7602086,TRUE,FALSE,FALSE,"S235859358"
"84","hamfly","Hammond's Flycatcher","Empidonax hammondii","L7613449","Maple Creek Reach (Whatcom Land Trust)","2025-05-10 10:22",3,48.9199274,-122.0708701,TRUE,FALSE,FALSE,"S236074298"
"85","hamfly","Hammond's Flycatcher","Empidonax hammondii","L331921","Salt River--Phon D. Sutton Recreation Area","2025-05-10 10:22",1,33.54611,-111.65944,TRUE,FALSE,FALSE,"S235821147"
"86","hamfly","Hammond's Flycatcher","Empidonax hammondii","L866183","Cherry Creek SP--12 Mile Trail","2025-05-10 10:21",1,39.6204002,-104.8289895,TRUE,FALSE,FALSE,"S235647395"
"87","hamfly","Hammond's Flycatcher","Empidonax hammondii","L129056","Pinery Canyon","2025-05-10 10:20",2,31.9328003,-109.2713013,TRUE,FALSE,FALSE,"S236031146"
"88","hamfly","Hammond's Flycatcher","Empidonax hammondii","L44648962","12444 North Middle Sabino Road, Summerhaven, Arizona, US (32.435, -110.758)","2025-05-10 10:18",1,32.4352714,-110.7575823,TRUE,FALSE,TRUE,"S235950614"
"89","hamfly","Hammond's Flycatcher","Empidonax hammondii","L7550313","Horse Mountain Area--Forest Service Rte. 6N38","2025-05-10 10:16",1,40.8663246,-123.7302013,TRUE,FALSE,FALSE,"S235704980"
"90","hamfly","Hammond's Flycatcher","Empidonax hammondii","L44609567","Virginia Lakes Trail Head","2025-05-10 10:13",1,38.047548,-119.263004,TRUE,FALSE,TRUE,"S235742138"
"91","hamfly","Hammond's Flycatcher","Empidonax hammondii","L7596496","Garden Canyon--Middle Picnic Area","2025-05-10 10:13",1,31.4780254,-110.3434879,TRUE,FALSE,FALSE,"S236042477"
"92","hamfly","Hammond's Flycatcher","Empidonax hammondii","L4167881","Olympic NP--Sweet's Field","2025-05-10 10:12",6,48.0385531,-123.5906124,TRUE,FALSE,FALSE,"S235698094"
"93","hamfly","Hammond's Flycatcher","Empidonax hammondii","L44642130","River Trail Day Use Area","2025-05-10 10:10",1,47.473351,-121.664017,TRUE,FALSE,TRUE,"S235909072"
"94","hamfly","Hammond's Flycatcher","Empidonax hammondii","L2028774","East Nordum Road","2025-05-10 10:10",1,48.9472728,-122.2474051,TRUE,FALSE,TRUE,"S235772979"
"95","hamfly","Hammond's Flycatcher","Empidonax hammondii","L44294125","1755 Westwood Way, Fairbanks US-AK 64.86102, -147.78597","2025-05-10 10:04",2,64.861018,-147.785968,TRUE,FALSE,TRUE,"S235774887"
"96","hamfly","Hammond's Flycatcher","Empidonax hammondii","L7640898","Conboy NWR--Visitor Center Headquarters","2025-05-10 10:04",5,45.965129,-121.343832,TRUE,FALSE,FALSE,"S235924814"
"97","hamfly","Hammond's Flycatcher","Empidonax hammondii","L40236406","Ocotillo Golf Club","2025-05-10 10:00",1,33.2515075,-111.8707093,TRUE,FALSE,TRUE,"S235789799"
"98","hamfly","Hammond's Flycatcher","Empidonax hammondii","L44669653","National Forest Development Road 412, Clark Fork, Idaho, US (47.957, -116.1)","2025-05-10 09:57",3,47.9574869,-116.1001618,TRUE,FALSE,TRUE,"S236072417"
"99","hamfly","Hammond's Flycatcher","Empidonax hammondii","L127945","Bosque del Apache NWR","2025-05-10 09:51",1,33.802,-106.88,TRUE,FALSE,FALSE,"S236043893"
"100","hamfly","Hammond's Flycatcher","Empidonax hammondii","L169112","Hassayampa River Preserve","2025-05-10 09:49",1,33.9333419,-112.6946297,TRUE,FALSE,FALSE,"S235960930"
"101","hamfly","Hammond's Flycatcher","Empidonax hammondii","L19042183","The loop","2025-05-10 09:46",1,43.850693,-122.795782,TRUE,FALSE,TRUE,"S235749255"
"102","hamfly","Hammond's Flycatcher","Empidonax hammondii","L558237","Stampede Pass Exit (I-90)","2025-05-10 09:43",2,47.3084523,-121.3143826,TRUE,FALSE,FALSE,"S235678948"
"103","hamfly","Hammond's Flycatcher","Empidonax hammondii","L32471357","W Fork Clearwater Rd—bridge","2025-05-10 09:42",1,47.300452,-113.578599,TRUE,FALSE,TRUE,"S235808564"
"104","hamfly","Hammond's Flycatcher","Empidonax hammondii","L44663668","Oak Creek Road, Naches, Washington, US (46.733, -120.941)","2025-05-10 09:41",3,46.7332887,-120.9412271,TRUE,FALSE,TRUE,"S236039020"
"105","hamfly","Hammond's Flycatcher","Empidonax hammondii","L4814017","Pinal Mountains--Pioneer Pass Campground","2025-05-10 09:40",1,33.2807895,-110.796843,TRUE,FALSE,FALSE,"S235790635"
"106","hamfly","Hammond's Flycatcher","Empidonax hammondii","L18188212","Wicks Lake","2025-05-10 09:36",1,47.454636,-122.7074,TRUE,FALSE,FALSE,"S235856188"
"107","hamfly","Hammond's Flycatcher","Empidonax hammondii","L282140","Rio Salado Project","2025-05-10 09:34",1,33.42175,-112.0733,TRUE,FALSE,FALSE,"S235775630"
"108","hamfly","Hammond's Flycatcher","Empidonax hammondii","L1266879","Garden Canyon--Lower Picnic Area","2025-05-10 09:34",1,31.4798154,-110.3373134,TRUE,FALSE,FALSE,"S236042373"
"109","hamfly","Hammond's Flycatcher","Empidonax hammondii","L913627","Green Valley--Desert Meadows Park","2025-05-10 09:31",1,31.8552155,-110.9860539,TRUE,FALSE,FALSE,"S235702416"
"110","hamfly","Hammond's Flycatcher","Empidonax hammondii","L32226971","Wayne's House","2025-05-10 09:31",1,48.8569839,-114.926174,TRUE,FALSE,TRUE,"S235824996"
"111","hamfly","Hammond's Flycatcher","Empidonax hammondii","L22075758","Gold Mine Trail, Fairbanks US-AK 64.93616, -147.57320","2025-05-10 09:30",2,64.936163,-147.573202,TRUE,FALSE,TRUE,"S235767206"
"112","hamfly","Hammond's Flycatcher","Empidonax hammondii","L18222898","Mormon Grade","2025-05-10 09:30",1,46.0198302,-118.1519074,TRUE,FALSE,TRUE,"S235849664"
"113","hamfly","Hammond's Flycatcher","Empidonax hammondii","L3814510","Forest Service Rte. 1 (Titlow Hill Rd.)--Clear Lake","2025-05-10 09:23",2,40.815485,-123.697095,TRUE,FALSE,FALSE,"S235836650"
"114","hamfly","Hammond's Flycatcher","Empidonax hammondii","L1069371","Snively Canyon (ALE)","2025-05-10 09:23",1,46.4594126,-119.7217941,TRUE,FALSE,TRUE,"S235812416"
"115","hamfly","Hammond's Flycatcher","Empidonax hammondii","L1598030","Rockport -- pullout over marsh","2025-05-10 09:21",3,48.4915656,-121.5667465,TRUE,FALSE,FALSE,"S235656699"
"116","hamfly","Hammond's Flycatcher","Empidonax hammondii","L420195","Big Morongo Canyon Preserve & Covington Park","2025-05-10 09:20",1,34.0497222,-116.5702639,TRUE,FALSE,FALSE,"S235799116"
"117","hamfly","Hammond's Flycatcher","Empidonax hammondii","L13452029","Nearby","2025-05-10 09:20",1,33.2407157,-111.7787097,TRUE,FALSE,TRUE,"S235853183"
"118","hamfly","Hammond's Flycatcher","Empidonax hammondii","L44653995","Private property. No access.","2025-05-10 09:17",1,32.871598,-110.594169,TRUE,FALSE,TRUE,"S235981356"
"119","hamfly","Hammond's Flycatcher","Empidonax hammondii","L15263770","Stanislaus National Forest, Long Barn US-CA 38.16356, -120.07078","2025-05-10 09:16",6,38.163558,-120.070782,TRUE,FALSE,TRUE,"S235772726"
"120","hamfly","Hammond's Flycatcher","Empidonax hammondii","L5795245","Little Pend Oreille National Wildlife Refuge ","2025-05-10 09:15",9,48.462758,-117.73007,TRUE,FALSE,TRUE,"S235993575"
"121","hamfly","Hammond's Flycatcher","Empidonax hammondii","L2663237","Buck Gully Reserve (includes Canyon/Harbor Watch Parks)","2025-05-10 09:13",1,33.6027174,-117.8435934,TRUE,FALSE,FALSE,"S235873289"
"122","hamfly","Hammond's Flycatcher","Empidonax hammondii","L5417939","River Ranch WMA (NMDGF permit required)","2025-05-10 09:12",2,32.5872032,-107.922062,TRUE,FALSE,FALSE,"S236013017"
"123","hamfly","Hammond's Flycatcher","Empidonax hammondii","L352346","Santa Gertrudis Lane (foot access only)","2025-05-10 09:12",1,31.5620883,-111.0473766,TRUE,FALSE,FALSE,"S235712879"
"124","hamfly","Hammond's Flycatcher","Empidonax hammondii","L285637","Calliope Crossing","2025-05-10 09:08",3,44.3507699,-121.5526056,TRUE,FALSE,FALSE,"S235650903"
"125","hamfly","Hammond's Flycatcher","Empidonax hammondii","L128530","Discovery Park","2025-05-10 09:08",1,47.663868,-122.4215317,TRUE,FALSE,FALSE,"S235807327"
"126","hamfly","Hammond's Flycatcher","Empidonax hammondii","L44653432","Trout Lake Trail","2025-05-10 09:07",1,48.64587,-113.910164,TRUE,FALSE,TRUE,"S235978131"
"127","hamfly","Hammond's Flycatcher","Empidonax hammondii","L8604984","Home","2025-05-10 09:06",2,33.5472996,-117.145913,TRUE,FALSE,TRUE,"S235618397"
"128","hamfly","Hammond's Flycatcher","Empidonax hammondii","L44572429","6301–6681 Lindbergh Lake Rd, Condon US-MT 47.39639, -113.71937","2025-05-10 09:02",2,47.396388,-113.719375,TRUE,FALSE,TRUE,"S235576007"
"129","hamfly","Hammond's Flycatcher","Empidonax hammondii","L7127054","West Mesa WTP, Las Cruces","2025-05-10 09:01",1,32.2581858,-106.9098222,TRUE,FALSE,FALSE,"S235686358"
"130","hamfly","Hammond's Flycatcher","Empidonax hammondii","L446946","Mile Square Regional Park, Fountain Valley","2025-05-10 08:58",1,33.7246609,-117.9395199,TRUE,FALSE,FALSE,"S235785202"
"131","hamfly","Hammond's Flycatcher","Empidonax hammondii","L44645637","Black Bart Road, Oroville, California, US Private Residence","2025-05-10 08:56",1,39.4924068,-121.3478849,TRUE,FALSE,TRUE,"S235929783"
"132","hamfly","Hammond's Flycatcher","Empidonax hammondii","L351843","Swan River NWR","2025-05-10 08:56",3,47.9031977,-113.853012,TRUE,FALSE,FALSE,"S235736510"
"133","hamfly","Hammond's Flycatcher","Empidonax hammondii","L525125","Howard Prairie Lake","2025-05-10 08:55",8,42.2325847,-122.4014282,TRUE,FALSE,FALSE,"S236103209"
"134","hamfly","Hammond's Flycatcher","Empidonax hammondii","L897691","Silverlake Park","2025-05-10 08:54",1,32.1959373,-110.949957,TRUE,FALSE,FALSE,"S235721997"
"135","hamfly","Hammond's Flycatcher","Empidonax hammondii","L15084058","759 Dry Gulch Road, Colville, Washington, US (48.615, -117.836)","2025-05-10 08:51",1,48.6151888,-117.8364235,TRUE,FALSE,TRUE,"S235608236"
"136","hamfly","Hammond's Flycatcher","Empidonax hammondii","L14816505","Brooks Memorial State Park, Goldendale US-WA 45.95020, -120.66610","2025-05-10 08:50",1,45.950197,-120.666104,TRUE,FALSE,TRUE,"S235645806"
"137","hamfly","Hammond's Flycatcher","Empidonax hammondii","L44620329","SOB 16 mile training run","2025-05-10 08:47",4,42.1827,-122.703005,TRUE,FALSE,TRUE,"S235795861"
"138","hamfly","Hammond's Flycatcher","Empidonax hammondii","L1148834","Cibola NWR--Hart Mine Marsh","2025-05-10 08:46",1,33.2811926,-114.666152,TRUE,FALSE,FALSE,"S235679842"
"139","hamfly","Hammond's Flycatcher","Empidonax hammondii","L4767982","Milltown SP--Trails","2025-05-10 08:45",1,46.8688027,-113.8892158,TRUE,FALSE,FALSE,"S235629984"
"140","hamfly","Hammond's Flycatcher","Empidonax hammondii","L4806603","Cave Creek Canyon--USFS Visitor Center","2025-05-10 08:43",1,31.8988382,-109.1622511,TRUE,FALSE,FALSE,"S235849407"
"141","hamfly","Hammond's Flycatcher","Empidonax hammondii","L2430859","Wayne Morse Ranch City Park","2025-05-10 08:41",1,44.0227629,-123.09825,TRUE,FALSE,FALSE,"S235639233"
"142","hamfly","Hammond's Flycatcher","Empidonax hammondii","L1004595","Box Bar Recreation Site","2025-05-10 08:41",1,33.743719,-111.6602969,TRUE,FALSE,FALSE,"S236050712"
"143","hamfly","Hammond's Flycatcher","Empidonax hammondii","L1254746","Anderson Lake SP","2025-05-10 08:40",2,48.0180248,-122.8053904,TRUE,FALSE,FALSE,"S235735725"
"144","hamfly","Hammond's Flycatcher","Empidonax hammondii","L18962320","165 Blackhawk Lane, Sedona, Arizona, US (34.853, -111.768)","2025-05-10 08:39",1,34.8526804,-111.7680867,TRUE,FALSE,TRUE,"S235859006"
"145","hamfly","Hammond's Flycatcher","Empidonax hammondii","L11585562","Black Mountain Forestry Center","2025-05-10 08:38",4,48.9686202,-122.080179,TRUE,FALSE,FALSE,"S235669787"
"146","hamfly","Hammond's Flycatcher","Empidonax hammondii","L44659795","Powder Creek CG","2025-05-10 08:36",3,45.2517455,-123.6619507,TRUE,FALSE,TRUE,"S236016732"
"147","hamfly","Hammond's Flycatcher","Empidonax hammondii","L196306","Rio Grande Nature Center SP","2025-05-10 08:35",2,35.13,-106.683,TRUE,FALSE,FALSE,"S235637688"
"148","hamfly","Hammond's Flycatcher","Empidonax hammondii","L716313","Point Loma Nazarene University","2025-05-10 08:35",1,32.7161459,-117.2501362,TRUE,TRUE,FALSE,"S235725747"
"149","hamfly","Hammond's Flycatcher","Empidonax hammondii","L44593628","Goat Creek Canyon","2025-05-10 08:34",2,47.7717133,-113.7282492,TRUE,FALSE,TRUE,"S235665661"
"150","hamfly","Hammond's Flycatcher","Empidonax hammondii","L3672517","Mt. Ord--FR 1688","2025-05-10 08:34",1,33.9211769,-111.4143384,TRUE,FALSE,FALSE,"S235987139"
"151","hamfly","Hammond's Flycatcher","Empidonax hammondii","L1580235","Forest Service Rte. 1 (Titlow Hill Rd.)--Cold Spring","2025-05-10 08:32",1,40.834033,-123.7128675,TRUE,FALSE,FALSE,"S235836519"
"152","hamfly","Hammond's Flycatcher","Empidonax hammondii","L44563976","Spencer Lake","2025-05-10 08:31",2,48.396455,-114.4252491,TRUE,FALSE,TRUE,"S235533940"
"153","hamfly","Hammond's Flycatcher","Empidonax hammondii","L2193760","Trout Lake area","2025-05-10 08:30",1,45.98692,-121.48873,TRUE,FALSE,FALSE,"S236044553"
"154","hamfly","Hammond's Flycatcher","Empidonax hammondii","L1211296","Upper Water Canyon","2025-05-10 08:27",1,35.8377417,-106.360103,TRUE,FALSE,FALSE,"S235751098"
"155","hamfly","Hammond's Flycatcher","Empidonax hammondii","L3587037","Mt. Hopkins Rd--upper portion (km 8.5 to gate)","2025-05-10 08:26",2,31.680313,-110.885309,TRUE,FALSE,FALSE,"S235637637"
"156","hamfly","Hammond's Flycatcher","Empidonax hammondii","L4169813","Lilliwaup","2025-05-10 08:26",2,47.505117,-123.068464,TRUE,FALSE,TRUE,"S235589538"
"157","hamfly","Hammond's Flycatcher","Empidonax hammondii","L44627601","Hurd Road, Belfair, Washington, US (47.438, -122.928)","2025-05-10 08:26",1,47.4381991,-122.9276657,TRUE,FALSE,TRUE,"S235832836"
"158","hamfly","Hammond's Flycatcher","Empidonax hammondii","L600290","Fairview Park, Costa Mesa","2025-05-10 08:24",1,33.662014,-117.9413974,TRUE,FALSE,FALSE,"S235821107"
"159","hamfly","Hammond's Flycatcher","Empidonax hammondii","L12024297","Creamer's Field Migration Station","2025-05-10 08:23",NA,64.8672274,-147.7463818,TRUE,FALSE,FALSE,"S235762899"
"160","hamfly","Hammond's Flycatcher","Empidonax hammondii","L2064166","Patagonia Lake SP--Birding Trail","2025-05-10 08:21",3,31.496718,-110.848945,TRUE,TRUE,FALSE,"S235836217"
"161","hamfly","Hammond's Flycatcher","Empidonax hammondii","L562333","Sentinel Bluffs","2025-05-10 08:20",1,46.7840757,-119.9282813,TRUE,FALSE,FALSE,"S235726333"
"162","hamfly","Hammond's Flycatcher","Empidonax hammondii","L774233","Clear Lake (Wasco Co.)","2025-05-10 08:18",1,45.1810689,-121.6965866,TRUE,FALSE,FALSE,"S235735208"
"163","hamfly","Hammond's Flycatcher","Empidonax hammondii","L3234534","Silver City Golf Course","2025-05-10 08:17",1,32.73975,-108.26072,TRUE,FALSE,TRUE,"S235695665"
"164","hamfly","Hammond's Flycatcher","Empidonax hammondii","L737599","Horse/Grouse Mtn. area (general)","2025-05-10 08:15",1,40.8471253,-123.7257957,TRUE,FALSE,FALSE,"S235836367"
"165","hamfly","Hammond's Flycatcher","Empidonax hammondii","L25545162","Deer Camp Road, Yosemite National Park US-CA 37.64738, -119.70266","2025-05-10 08:14",1,37.647381,-119.702664,TRUE,FALSE,TRUE,"S236034054"
"166","hamfly","Hammond's Flycatcher","Empidonax hammondii","L31788547","Wortman Mills Road, Badger, California, US (36.687, -118.948)","2025-05-10 08:12",1,36.6871061,-118.9484131,TRUE,FALSE,TRUE,"S235615665"
"167","hamfly","Hammond's Flycatcher","Empidonax hammondii","L13740001","San Pedro River, Hereford US-AZ 31.41235, -110.10461","2025-05-10 08:12",5,31.412353,-110.104611,TRUE,FALSE,TRUE,"S236005516"
"168","hamfly","Hammond's Flycatcher","Empidonax hammondii","L17398895","Ramsey Canyon Cabins & Bird Sanctuary (opened 2022)","2025-05-10 08:07",2,31.4520341,-110.3030107,TRUE,FALSE,FALSE,"S235713560"
"169","hamfly","Hammond's Flycatcher","Empidonax hammondii","L159602","Silver Falls SP","2025-05-10 08:06",2,44.8625491,-122.6326561,TRUE,FALSE,FALSE,"S235693850"
"170","hamfly","Hammond's Flycatcher","Empidonax hammondii","L128938","Catalina SP","2025-05-10 08:05",1,32.4244027,-110.9123905,TRUE,FALSE,FALSE,"S235664871"
"171","hamfly","Hammond's Flycatcher","Empidonax hammondii","L11139905","University of Idaho Experimental Forest—Flat Creek Unit","2025-05-10 08:05",3,46.8488632,-116.7320185,TRUE,FALSE,FALSE,"S235858891"
"172","hamfly","Hammond's Flycatcher","Empidonax hammondii","L128537","Creamer's Field MWR","2025-05-10 08:04",3,64.86305,-147.7381727,TRUE,FALSE,FALSE,"S235766431"
"173","hamfly","Hammond's Flycatcher","Empidonax hammondii","L461493","Ravenna Park / Cowen Park","2025-05-10 08:03",1,47.6721788,-122.3064566,TRUE,FALSE,FALSE,"S235844162"
"174","hamfly","Hammond's Flycatcher","Empidonax hammondii","L1571268","Oak Creek Wildlife Area","2025-05-10 07:59",1,46.7263214,-120.8236595,TRUE,FALSE,FALSE,"S236032262"
"175","hamfly","Hammond's Flycatcher","Empidonax hammondii","L447381","Mt. Tabor Park","2025-05-10 07:58",1,45.5114597,-122.5940323,TRUE,FALSE,FALSE,"S235713909"
"176","hamfly","Hammond's Flycatcher","Empidonax hammondii","L746272","Randolph GC/Hardesty Building","2025-05-10 07:55",1,32.2085164,-110.9111881,TRUE,FALSE,FALSE,"S235597868"
"177","hamfly","Hammond's Flycatcher","Empidonax hammondii","L12867799","De Anza Trail at Haven GC, Green Valley, Arizona, US (31.873, -110.981)","2025-05-10 07:50",1,31.8728743,-110.980821,TRUE,FALSE,TRUE,"S236051543"
"178","hamfly","Hammond's Flycatcher","Empidonax hammondii","L835470","W.E. Johnson Park","2025-05-10 07:48",1,46.2771185,-119.3125534,TRUE,FALSE,FALSE,"S235948244"
"179","hamfly","Hammond's Flycatcher","Empidonax hammondii","L4421012","Fiddle Way trail","2025-05-10 07:48",1,64.7799592,-148.0449986,TRUE,FALSE,TRUE,"S235630909"
"180","hamfly","Hammond's Flycatcher","Empidonax hammondii","L1183306","San Pedro RNCA--Kingfisher Pond","2025-05-10 07:47",2,31.5427632,-110.1337928,TRUE,FALSE,FALSE,"S235708160"
"181","hamfly","Hammond's Flycatcher","Empidonax hammondii","L36955371","Wilderness of Rocks Trail (#44)","2025-05-10 07:40",1,32.4317348,-110.7766512,TRUE,FALSE,TRUE,"S235808183"
"182","hamfly","Hammond's Flycatcher","Empidonax hammondii","L4700511","Oak Creek Vista","2025-05-10 07:39",2,35.029534,-111.7334998,TRUE,FALSE,FALSE,"S235676638"
"183","hamfly","Hammond's Flycatcher","Empidonax hammondii","L922594","Glacial Heritage Preserve (no public access)","2025-05-10 07:37",2,46.8655315,-123.0518103,TRUE,FALSE,FALSE,"S235694646"
"184","hamfly","Hammond's Flycatcher","Empidonax hammondii","L1207208","Lindberg W.A. Reynolds cabin loop walk","2025-05-10 07:36",1,47.3932997,-113.7250292,TRUE,FALSE,TRUE,"S235501883"
"185","hamfly","Hammond's Flycatcher","Empidonax hammondii","L18539428","C-Post Road","2025-05-10 07:36",4,48.2799818,-121.8307031,TRUE,FALSE,FALSE,"S235617145"
"186","hamfly","Hammond's Flycatcher","Empidonax hammondii","L25220587","Heady Road","2025-05-10 07:35",1,48.97813,-122.1427378,TRUE,FALSE,FALSE,"S235669857"
"187","hamfly","Hammond's Flycatcher","Empidonax hammondii","L1181883","Little Elden Springs","2025-05-10 07:34",1,35.2767952,-111.5804261,TRUE,FALSE,FALSE,"S235630095"
"188","hamfly","Hammond's Flycatcher","Empidonax hammondii","L587297","Elden Spring","2025-05-10 07:33",1,35.2273919,-111.6043997,TRUE,FALSE,FALSE,"S235643064"
"189","hamfly","Hammond's Flycatcher","Empidonax hammondii","L420597","Headwaters Trail (west Moscow Mountain)","2025-05-10 07:32",6,46.8124553,-116.9748688,TRUE,FALSE,FALSE,"S235702731"
"190","hamfly","Hammond's Flycatcher","Empidonax hammondii","L11448763","Omega Rd","2025-05-10 07:31",1,39.3264168,-120.7524451,TRUE,FALSE,TRUE,"S235989089"
"191","hamfly","Hammond's Flycatcher","Empidonax hammondii","L44644954","National Forest Development Road 3650, Klamath Falls, Oregon, US (42.422, -122.257)","2025-05-10 07:31",1,42.4222202,-122.2565837,TRUE,FALSE,TRUE,"S235925363"
"192","hamfly","Hammond's Flycatcher","Empidonax hammondii","L27579017","Deep Lake","2025-05-10 07:30",1,47.27306,-121.942,TRUE,FALSE,TRUE,"S235631314"
"193","hamfly","Hammond's Flycatcher","Empidonax hammondii","L208918","Sweetwater Wetlands","2025-05-10 07:27",1,32.2790144,-111.0216061,TRUE,FALSE,FALSE,"S235857959"
"194","hamfly","Hammond's Flycatcher","Empidonax hammondii","L2893818","Carr House Info Center (only, not all of Carr Canyon)","2025-05-10 07:24",1,31.4409275,-110.2862529,TRUE,FALSE,FALSE,"S235848309"
"195","hamfly","Hammond's Flycatcher","Empidonax hammondii","L1427615","Sauk River Boat Launch","2025-05-10 07:24",1,48.3449055,-121.5489175,TRUE,FALSE,FALSE,"S235530507"
"196","hamfly","Hammond's Flycatcher","Empidonax hammondii","L44567099","JBLM Area 6","2025-05-10 07:13",3,47.018081,-122.538658,TRUE,FALSE,TRUE,"S235549707"
"197","hamfly","Hammond's Flycatcher","Empidonax hammondii","L44430559","4250 Aspenwood Dr, Fairbanks US-AK 64.80541, -148.07842","2025-05-10 07:13",1,64.805414,-148.078415,TRUE,FALSE,TRUE,"S235598732"
"198","hamfly","Hammond's Flycatcher","Empidonax hammondii","L714949","Big Bend NP--Pinnacles Trail","2025-05-10 07:11",1,29.2518263,-103.3002913,TRUE,FALSE,FALSE,"S236027813"
"199","hamfly","Hammond's Flycatcher","Empidonax hammondii","L30941857","Vista Gold Neighborhood","2025-05-10 07:10",1,64.9536325,-147.8487843,TRUE,FALSE,TRUE,"S235581407"
"200","hamfly","Hammond's Flycatcher","Empidonax hammondii","L128937","Carr Canyon--Reef Townsite CG","2025-05-10 07:06",1,31.4286245,-110.2909517,TRUE,FALSE,FALSE,"S235971914"
"201","hamfly","Hammond's Flycatcher","Empidonax hammondii","L1222933","Swan River NWR--Bog Rd.","2025-05-10 07:06",1,47.9065686,-113.8388836,TRUE,FALSE,FALSE,"S235663671"
"202","hamfly","Hammond's Flycatcher","Empidonax hammondii","L1091644","La Posta Quemada Ranch","2025-05-10 07:01",4,32.0512984,-110.6363797,TRUE,TRUE,FALSE,"S235668474"
"203","hamfly","Hammond's Flycatcher","Empidonax hammondii","L1000726","UNM--Main Campus (including Duck Pond)","2025-05-10 07:01",1,35.084377,-106.6203403,TRUE,FALSE,FALSE,"S235638889"
"204","hamfly","Hammond's Flycatcher","Empidonax hammondii","L1167849","HB Van Duzer Park rest area","2025-05-10 07:00",1,45.0382554,-123.8088691,TRUE,FALSE,FALSE,"S236042771"
"205","hamfly","Hammond's Flycatcher","Empidonax hammondii","L129068","Mt. Lemmon--Rose Canyon and Lake","2025-05-10 06:58",1,32.3926274,-110.7024693,TRUE,FALSE,FALSE,"S236014111"
"206","hamfly","Hammond's Flycatcher","Empidonax hammondii","L9329481","Sherrard Point","2025-05-10 06:58",1,45.53289,-122.087717,TRUE,FALSE,FALSE,"S235632371"
"207","hamfly","Hammond's Flycatcher","Empidonax hammondii","L13119375","Putah Creek Riparian Reserve (YOL Co.)","2025-05-10 06:56",1,38.5275081,-121.7957319,TRUE,FALSE,FALSE,"S235965907"
"208","hamfly","Hammond's Flycatcher","Empidonax hammondii","L7749123","Four Bar Cottages (private)","2025-05-10 06:55",1,31.876886,-109.0619973,TRUE,FALSE,FALSE,"S235629669"
"209","hamfly","Hammond's Flycatcher","Empidonax hammondii","L30806711","Indian Camp Rd--Old Creek Bottom Rd","2025-05-10 06:48",1,47.5312834,-120.1132084,TRUE,FALSE,FALSE,"S235809013"
"210","hamfly","Hammond's Flycatcher","Empidonax hammondii","L9426032","Pinal Mt.- Ice House Canyon/lower FS 112","2025-05-10 06:45",1,33.3395663,-110.7983512,TRUE,FALSE,TRUE,"S235785710"
"211","hamfly","Hammond's Flycatcher","Empidonax hammondii","L31627367","North Umpqua River, National Forest Development Road 2614, Oregon, US (43.311, -122.155)","2025-05-10 06:37",2,43.3105478,-122.1550278,TRUE,FALSE,TRUE,"S235762905"
"212","hamfly","Hammond's Flycatcher","Empidonax hammondii","L44554047","880 Carling St, Hildale US-UT 37.00465, -112.96899","2025-05-10 06:32",1,37.004647,-112.968994,TRUE,FALSE,TRUE,"S235484088"
"213","hamfly","Hammond's Flycatcher","Empidonax hammondii","L30792856","2990 S Fork Rd, San Simon US-AZ 31.87341, -109.18494","2025-05-10 06:32",1,31.873406,-109.184941,TRUE,FALSE,TRUE,"S235701556"
"214","hamfly","Hammond's Flycatcher","Empidonax hammondii","L593695","South Fork Putah Creek Preserve","2025-05-10 06:22",1,38.5175251,-121.6911685,TRUE,FALSE,FALSE,"S235559869"
"215","hamfly","Hammond's Flycatcher","Empidonax hammondii","L247793","Ft. Greely--Bolio Lake & burn (restricted access)","2025-05-10 06:20",1,63.8931415,-145.8332062,TRUE,FALSE,FALSE,"S236058985"
"216","hamfly","Hammond's Flycatcher","Empidonax hammondii","L32474687","Curlew Aspen Marsh","2025-05-10 06:14",1,48.882112,-118.620078,TRUE,FALSE,FALSE,"S235986762"
"217","hamfly","Hammond's Flycatcher","Empidonax hammondii","L11812694","Jonesville Snowmobile Park--Colby Meadows","2025-05-10 06:12",8,40.1135548,-121.4791241,TRUE,FALSE,FALSE,"S236022031"
"218","hamfly","Hammond's Flycatcher","Empidonax hammondii","L5693633","Dungeness Fish Hatchery","2025-05-10 06:12",1,48.0280211,-123.1409025,TRUE,FALSE,FALSE,"S235903325"
"219","hamfly","Hammond's Flycatcher","Empidonax hammondii","L4531039","Rio Grande Valley SP--I-40 Bosque Trails","2025-05-10 06:12",1,35.105794,-106.6911878,TRUE,FALSE,FALSE,"S235809863"
"220","hamfly","Hammond's Flycatcher","Empidonax hammondii","L1823701","Lake Easton SP","2025-05-10 06:10",3,47.2497895,-121.2021102,TRUE,FALSE,FALSE,"S235728314"
"221","hamfly","Hammond's Flycatcher","Empidonax hammondii","L168765","Whitewater Draw Wildlife Area","2025-05-10 06:05",3,31.5614979,-109.7200191,TRUE,FALSE,FALSE,"S235898466"
"222","hamfly","Hammond's Flycatcher","Empidonax hammondii","L13741216","817 Gold Rush Way","2025-05-10 06:01",1,42.3124057,-122.9764171,TRUE,FALSE,TRUE,"S235483230"
"223","hamfly","Hammond's Flycatcher","Empidonax hammondii","L853244","Cibola NWR--Cornfield Nature Trail","2025-05-10 05:58",1,33.36505,-114.67832,TRUE,FALSE,FALSE,"S235567103"
"224","hamfly","Hammond's Flycatcher","Empidonax hammondii","L163561","San Jacinto Wildlife Area","2025-05-10 05:54",1,33.8854488,-117.104104,TRUE,FALSE,FALSE,"S235879997"
"225","hamfly","Hammond's Flycatcher","Empidonax hammondii","L167924","Rocky Mountain Arsenal NWR","2025-05-10 05:52",1,39.8209707,-104.8680639,TRUE,FALSE,FALSE,"S235944231"
"226","hamfly","Hammond's Flycatcher","Empidonax hammondii","L339731","Cave Creek Canyon--Sunny Flat CG","2025-05-10 05:49",1,31.8847242,-109.1755749,TRUE,FALSE,FALSE,"S235751892"
"227","hamfly","Hammond's Flycatcher","Empidonax hammondii","L266623","Oak Creek Canyon--Cave Springs CG","2025-05-10 05:47",1,34.9987102,-111.7397091,TRUE,FALSE,FALSE,"S236031948"
"228","hamfly","Hammond's Flycatcher","Empidonax hammondii","L4317534","Mad River","2025-05-10 05:44",2,47.7482694,-120.3937197,TRUE,FALSE,FALSE,"S235769173"
"229","hamfly","Hammond's Flycatcher","Empidonax hammondii","L198791","Hahamongna Watershed Park (formerly Oak Grove Park)","2025-05-10 05:43",1,34.1933989,-118.1758332,TRUE,FALSE,FALSE,"S235863784"
"230","hamfly","Hammond's Flycatcher","Empidonax hammondii","L44592801","Swan River conifer forest and beaver ponds","2025-05-10 05:43",2,47.8999797,-113.87007,TRUE,FALSE,TRUE,"S235662261"
"231","hamfly","Hammond's Flycatcher","Empidonax hammondii","L128943","San Pedro RNCA--Charleston Bridge","2025-05-10 05:41",2,31.6257,-110.1735992,TRUE,FALSE,FALSE,"S235770324"
"232","hamfly","Hammond's Flycatcher","Empidonax hammondii","L1287076","Sauk Prairie (Skagit Co.)","2025-05-10 05:40",2,48.3072721,-121.5230155,TRUE,FALSE,FALSE,"S235479507"
"233","hamfly","Hammond's Flycatcher","Empidonax hammondii","L211809","Madera Canyon--Proctor Rd.","2025-05-10 05:38",1,31.739938,-110.886147,TRUE,FALSE,FALSE,"S235546349"
"234","hamfly","Hammond's Flycatcher","Empidonax hammondii","L1159194","Mt. Soledad Natural Park","2025-05-10 05:36",1,32.8397531,-117.2448063,TRUE,TRUE,FALSE,"S235765852"
"235","hamfly","Hammond's Flycatcher","Empidonax hammondii","L44545186","Forest Service Road 3100, Fort Klamath US-OR (42.6850,-122.0805)","2025-05-10 05:23",1,42.684968,-122.080504,TRUE,FALSE,TRUE,"S235435610"
"236","hamfly","Hammond's Flycatcher","Empidonax hammondii","L11436937","607 Bullion Dr, Fairbanks US-AK 64.92908, -147.59027","2025-05-10 05:21",1,64.929081,-147.590271,TRUE,FALSE,TRUE,"S235495085"
"237","hamfly","Hammond's Flycatcher","Empidonax hammondii","L3380924","AZ-Cochise-Portal--2494 S. Old Canyon Rd. (private)","2025-05-10 05:00",1,31.9063055,-109.1534289,TRUE,FALSE,TRUE,"S236039789"
"238","hamfly","Hammond's Flycatcher","Empidonax hammondii","L32022018","Mad River Trail No. 1409","2025-05-10 04:53",6,47.762174,-120.430898,TRUE,FALSE,FALSE,"S235754178"
"239","hamfly","Hammond's Flycatcher","Empidonax hammondii","L14830312","786 Lost Mountain Lane, Sequim, Washington, US (48.024, -123.188)","2025-05-10 04:45",3,48.0241869,-123.1876934,TRUE,FALSE,TRUE,"S235585409"
"240","hamfly","Hammond's Flycatcher","Empidonax hammondii","L8868832","SW Scoggins Valley Rd, Gales Creek US-OR (45.5215,-123.2609)","2025-05-10 04:39",1,45.521473,-123.260914,TRUE,FALSE,TRUE,"S235516462"
"241","hamfly","Hammond's Flycatcher","Empidonax hammondii","L9322417","Lower Forest Service Road 28 & upper Palo Alto Rd","2025-05-10 03:20",5,47.9775281,-123.1011983,TRUE,FALSE,TRUE,"S235578541"
"242","hamfly","Hammond's Flycatcher","Empidonax hammondii","L3647656","Jones Creek Loop Trail","2025-05-10",NA,39.3614056,-119.8607719,TRUE,FALSE,FALSE,"S235756955"
"243","hamfly","Hammond's Flycatcher","Empidonax hammondii","L949315","Glacier NP--Polebridge","2025-05-09 19:09",1,48.7648632,-114.2848974,TRUE,FALSE,FALSE,"S235275579"
"244","hamfly","Hammond's Flycatcher","Empidonax hammondii","L44516663","Forest Service Road 42, San Simon US-AZ 31.89711, -109.21741","2025-05-09 19:06",1,31.897114,-109.217412,TRUE,FALSE,TRUE,"S235289264"
"245","hamfly","Hammond's Flycatcher","Empidonax hammondii","L25928121","The Yard and Garden, Burien WA","2025-05-09 17:42",NA,47.4811974,-122.3430809,TRUE,FALSE,TRUE,"S235278682"
"246","hamfly","Hammond's Flycatcher","Empidonax hammondii","L11005216","Creamer's Field MWR--Boreal Forest Trail","2025-05-09 17:30",1,64.8666675,-147.7306822,TRUE,FALSE,FALSE,"S235267749"
"247","hamfly","Hammond's Flycatcher","Empidonax hammondii","L11570904","C-Post Road (Oso)","2025-05-09 17:30",1,48.2811124,-121.8306101,TRUE,FALSE,TRUE,"S235285856"
"248","hamfly","Hammond's Flycatcher","Empidonax hammondii","L2438871","Sahuarita--North Santa Cruz Park","2025-05-09 16:34",1,31.9873804,-110.9630556,TRUE,FALSE,FALSE,"S235257082"
"249","hamfly","Hammond's Flycatcher","Empidonax hammondii","L9101331","Olympic Discovery Trail--18th Street Trailhead","2025-05-09 16:16",1,48.1271265,-123.5069553,TRUE,FALSE,FALSE,"S235269531"
"250","hamfly","Hammond's Flycatcher","Empidonax hammondii","L547951","County Line Ponds (Skagit Co.)","2025-05-09 15:15",1,48.6377866,-121.3142967,TRUE,FALSE,FALSE,"S235285051"
"251","hamfly","Hammond's Flycatcher","Empidonax hammondii","L2218331","Mineral Mountain Rest Area","2025-05-09 14:55",1,47.0407571,-116.8726754,TRUE,FALSE,FALSE,"S235208009"
"252","hamfly","Hammond's Flycatcher","Empidonax hammondii","L129102","Cave Creek Canyon--Southwestern Research Station","2025-05-09 14:13",1,31.8835432,-109.2058731,TRUE,FALSE,FALSE,"S236023205"
"253","hamfly","Hammond's Flycatcher","Empidonax hammondii","L44353840","610 Love Road, Fairbanks, Alaska, US (64.887, -147.507)","2025-05-09 14:05",1,64.8866202,-147.506948,TRUE,FALSE,TRUE,"S235228567"
"254","hamfly","Hammond's Flycatcher","Empidonax hammondii","L798569","Rock Canyon","2025-05-09 13:59",1,40.2638741,-111.6266727,TRUE,FALSE,FALSE,"S235176151"
"255","hamfly","Hammond's Flycatcher","Empidonax hammondii","L22492241","198125 U.S. 101, Forks, Washington, US (48.036, -124.387)","2025-05-09 13:40",2,48.0358378,-124.3866776,TRUE,FALSE,TRUE,"S235188321"
"256","hamfly","Hammond's Flycatcher","Empidonax hammondii","L209809","Joshua Tree NP--Barker Dam area","2025-05-09 13:30",NA,34.0309,-116.1463,TRUE,FALSE,FALSE,"S235707749"
"257","hamfly","Hammond's Flycatcher","Empidonax hammondii","L744437","Newhalem Agg Ponds","2025-05-09 13:10",3,48.6554796,-121.2935257,TRUE,FALSE,FALSE,"S235282275"
"258","hamfly","Hammond's Flycatcher","Empidonax hammondii","L279921","Peppersauce Canyon","2025-05-09 12:50",1,32.5379839,-110.716606,TRUE,FALSE,FALSE,"S235829486"
"259","hamfly","Hammond's Flycatcher","Empidonax hammondii","L18757153","Garden/Scheelite Canyon confluence","2025-05-09 12:38",1,31.4675037,-110.3565665,TRUE,FALSE,FALSE,"S235200985"
"260","hamfly","Hammond's Flycatcher","Empidonax hammondii","L2439998","Desert Breeze Park","2025-05-09 12:38",1,33.312903,-111.9197041,TRUE,FALSE,FALSE,"S235179621"
"261","hamfly","Hammond's Flycatcher","Empidonax hammondii","L11350270","TAPS road b/w Love and Andromeda Roads","2025-05-09 12:37",2,64.8669444,-147.4725176,TRUE,FALSE,TRUE,"S235196085"
"262","hamfly","Hammond's Flycatcher","Empidonax hammondii","L754065","Teanaway Campground","2025-05-09 12:34",1,47.2578544,-120.8965158,TRUE,FALSE,FALSE,"S235268587"
"263","hamfly","Hammond's Flycatcher","Empidonax hammondii","L44423624","Glacier Springs","2025-05-09 12:33",1,48.9139087,-121.9988512,TRUE,FALSE,TRUE,"S235183165"
"264","hamfly","Hammond's Flycatcher","Empidonax hammondii","L765027","Las Cienegas NCA--Empire Gulch","2025-05-09 12:31",1,31.7878465,-110.6365728,TRUE,FALSE,FALSE,"S235209360"
"265","hamfly","Hammond's Flycatcher","Empidonax hammondii","L18503422","Pend Oreille WMA --Gold Creek Segment","2025-05-09 12:25",1,48.3823007,-116.4286994,TRUE,FALSE,FALSE,"S235169520"
"266","hamfly","Hammond's Flycatcher","Empidonax hammondii","L444934","East Turkey Creek--FR42B","2025-05-09 12:22",1,31.9129118,-109.2404039,TRUE,FALSE,FALSE,"S236023042"
"267","hamfly","Hammond's Flycatcher","Empidonax hammondii","L1660345","Mt. Lemmon--Inspiration Rock Picnic Area","2025-05-09 12:17",1,32.4343387,-110.7526013,TRUE,FALSE,FALSE,"S235728809"
"268","hamfly","Hammond's Flycatcher","Empidonax hammondii","L15119948","83870, Tensed US-ID 47.18026, -116.82746","2025-05-09 11:56",1,47.18026,-116.82746,TRUE,FALSE,TRUE,"S235586518"
"269","hamfly","Hammond's Flycatcher","Empidonax hammondii","L152139","Madrona Marsh","2025-05-09 11:50",1,33.82865,-118.34328,TRUE,FALSE,FALSE,"S235250159"
"270","hamfly","Hammond's Flycatcher","Empidonax hammondii","L1357335","Huntington Central Park--East","2025-05-09 11:41",1,33.7040978,-118.0022383,TRUE,FALSE,FALSE,"S235165040"
"271","hamfly","Hammond's Flycatcher","Empidonax hammondii","L5001484","Hunter Canyon Rd (Huachuca Mts)","2025-05-09 11:35",1,31.4039316,-110.2506814,TRUE,FALSE,FALSE,"S235154173"
"272","hamfly","Hammond's Flycatcher","Empidonax hammondii","L8033247","Yosemite NP--Crane Flat Campground","2025-05-09 11:31",3,37.7480533,-119.8000489,TRUE,FALSE,FALSE,"S235159775"
"273","hamfly","Hammond's Flycatcher","Empidonax hammondii","L44647665","3348–3498 S Fork Rd, Yakima US-WA 46.50545, -120.92692","2025-05-09 11:28",1,46.505452,-120.926916,TRUE,FALSE,TRUE,"S235942352"
"274","hamfly","Hammond's Flycatcher","Empidonax hammondii","L9343581","Olympic National Forest, below Deer Ridge Trail, Gray Wolf R, US-WA (47.9461,-123.1950)","2025-05-09 11:13",1,47.946096,-123.19498,TRUE,FALSE,TRUE,"S235284416"
"275","hamfly","Hammond's Flycatcher","Empidonax hammondii","L44486757","French Creek Rd SE, Lyons US-OR 44.74272, -122.15715","2025-05-09 11:13",2,44.74272,-122.157145,TRUE,FALSE,TRUE,"S235134556"
"276","hamfly","Hammond's Flycatcher","Empidonax hammondii","L129069","Rustler Park","2025-05-09 11:00",3,31.9030991,-109.2776031,TRUE,FALSE,FALSE,"S235160392"
"277","hamfly","Hammond's Flycatcher","Empidonax hammondii","L44495789","Garden Canyon Rd, Sierra Vista US-AZ 31.47219, -110.35467","2025-05-09 10:55",6,31.472186,-110.354669,TRUE,FALSE,TRUE,"S235179267"
"278","hamfly","Hammond's Flycatcher","Empidonax hammondii","L152134","Chilao--Visitor Center","2025-05-09 10:53",1,34.326745,-118.0047137,TRUE,FALSE,FALSE,"S235473970"
"279","hamfly","Hammond's Flycatcher","Empidonax hammondii","L2413068","Madera Canyon--Carrie Nation Trail","2025-05-09 10:43",3,31.704511,-110.8764482,TRUE,FALSE,FALSE,"S235175693"
"280","hamfly","Hammond's Flycatcher","Empidonax hammondii","L14904479","ALE Pump house road","2025-05-09 10:34",1,46.407964,-119.61228,TRUE,FALSE,TRUE,"S235126683"
"281","hamfly","Hammond's Flycatcher","Empidonax hammondii","L234899","Onella Road","2025-05-09 10:26",1,48.1246785,-123.6607628,TRUE,FALSE,TRUE,"S236050887"
"282","hamfly","Hammond's Flycatcher","Empidonax hammondii","L447448","Marys Peak","2025-05-09 10:23",3,44.5101917,-123.5505647,TRUE,FALSE,FALSE,"S235217718"
"283","hamfly","Hammond's Flycatcher","Empidonax hammondii","L21159259","Dixie Rd.","2025-05-09 10:12",1,39.8363873,-121.4621257,TRUE,FALSE,FALSE,"S235255004"
"284","hamfly","Hammond's Flycatcher","Empidonax hammondii","L753059","Mt. Lemmon--Incinerator Ridge","2025-05-09 10:05",1,32.4111248,-110.7064819,TRUE,FALSE,FALSE,"S235121753"
"285","hamfly","Hammond's Flycatcher","Empidonax hammondii","L19796411","Concow Rd.--Flea Valley to Ragdump","2025-05-09 10:00",1,39.8388719,-121.4801743,TRUE,FALSE,FALSE,"S235240964"
"286","hamfly","Hammond's Flycatcher","Empidonax hammondii","L728130","Sandy River Delta Park","2025-05-09 09:55",1,45.5473441,-122.3731899,TRUE,FALSE,FALSE,"S235177678"
"287","hamfly","Hammond's Flycatcher","Empidonax hammondii","L16564052","Tahoe National Forest, Sierraville US-CA 39.44991, -120.23670","2025-05-09 09:53",1,39.449908,-120.236704,TRUE,FALSE,TRUE,"S236015068"
"288","hamfly","Hammond's Flycatcher","Empidonax hammondii","L43788752","Spencer Creek Rd","2025-05-09 09:46",1,47.7557079,-122.8783824,TRUE,FALSE,FALSE,"S235104562"
"289","hamfly","Hammond's Flycatcher","Empidonax hammondii","L44392914","Olympic Discovery Trail, Port Angeles, Washington, US (48.071, -123.978)","2025-05-09 09:40",1,48.0714087,-123.9783969,TRUE,FALSE,TRUE,"S235272245"
"290","hamfly","Hammond's Flycatcher","Empidonax hammondii","L275399","Mt. Diablo SP--Mitchell Canyon","2025-05-09 09:20",1,37.9149001,-121.9479203,TRUE,FALSE,FALSE,"S235163451"
"291","hamfly","Hammond's Flycatcher","Empidonax hammondii","L4408550","Bottiger's Pond WLT","2025-05-09 09:18",1,48.8935111,-121.9593472,TRUE,FALSE,TRUE,"S235149088"
"292","hamfly","Hammond's Flycatcher","Empidonax hammondii","L44473231","35115 Timberlane Rd, Ronan US-MT 47.50793, -114.06750","2025-05-09 09:11",2,47.507934,-114.067497,TRUE,FALSE,TRUE,"S235065649"
"293","hamfly","Hammond's Flycatcher","Empidonax hammondii","L2353750","Power Park","2025-05-09 09:07",1,46.907058,-113.967537,TRUE,FALSE,FALSE,"S235061773"
"294","hamfly","Hammond's Flycatcher","Empidonax hammondii","L41781570","Hilltop West Of Hwy And Bigelow Summit(32.409, -110.727)","2025-05-09 09:04",5,32.4086693,-110.7272479,TRUE,TRUE,TRUE,"S235183606"
"295","hamfly","Hammond's Flycatcher","Empidonax hammondii","L33464136","Timber Haven Rd, Sagle, creek to gate","2025-05-09 09:04",1,48.221165,-116.442974,TRUE,FALSE,TRUE,"S235082625"
"296","hamfly","Hammond's Flycatcher","Empidonax hammondii","L423101","Silver Lakes (SBE Co.)","2025-05-09 09:02",1,34.7435873,-117.3460007,TRUE,FALSE,FALSE,"S235120722"
"297","hamfly","Hammond's Flycatcher","Empidonax hammondii","L300587","Pinal Mountains--Sulfide del Rey Campground","2025-05-09 09:00",2,33.29467,-110.86638,TRUE,FALSE,FALSE,"S235233556"
"298","hamfly","Hammond's Flycatcher","Empidonax hammondii","L5296101","China Creek Park","2025-05-09 08:58",1,36.7219894,-119.5017242,TRUE,FALSE,FALSE,"S235128002"
"299","hamfly","Hammond's Flycatcher","Empidonax hammondii","L5234187","Kettle River--Foster's Bend","2025-05-09 08:56",1,48.8833933,-118.6790714,TRUE,FALSE,FALSE,"S235097721"
"300","hamfly","Hammond's Flycatcher","Empidonax hammondii","L44562205","Breitenbush Hot Springs","2025-05-09 08:56",1,44.7812649,-121.9715863,TRUE,FALSE,TRUE,"S235525119"
"301","hamfly","Hammond's Flycatcher","Empidonax hammondii","L38158169","Breitenbush Hot Springs","2025-05-09 08:55",1,44.781667,-121.972483,TRUE,FALSE,TRUE,"S235108366"
"302","hamfly","Hammond's Flycatcher","Empidonax hammondii","L8812892","Garden Canyon Rd--BETWEEN Upper Picnic Area and Sawmill Canyon","2025-05-09 08:49",2,31.460941,-110.361756,TRUE,FALSE,FALSE,"S235201054"
"303","hamfly","Hammond's Flycatcher","Empidonax hammondii","L898742","Bosque del Apache NWR--Seasonal Tour Road (closed Oct. 1 - Mar. 31)","2025-05-09 08:48",1,33.8071442,-106.8775535,TRUE,FALSE,FALSE,"S235119773"
"304","hamfly","Hammond's Flycatcher","Empidonax hammondii","L32639780","Lake Chaplain Road","2025-05-09 08:45",1,47.931347,-121.818861,TRUE,FALSE,FALSE,"S235149658"
"305","hamfly","Hammond's Flycatcher","Empidonax hammondii","L847626","Sehome Hill Arboretum","2025-05-09 08:43",1,48.7342289,-122.483139,TRUE,FALSE,FALSE,"S235135591"
"306","hamfly","Hammond's Flycatcher","Empidonax hammondii","L3663754","EC Garden","2025-05-09 08:43",1,38.5427227,-121.7654255,TRUE,FALSE,FALSE,"S235073144"
"307","hamfly","Hammond's Flycatcher","Empidonax hammondii","L687446","Lincoln Park (Port Angeles)","2025-05-09 08:39",1,48.115397,-123.4759212,TRUE,FALSE,FALSE,"S235128724"
"308","hamfly","Hammond's Flycatcher","Empidonax hammondii","L843548","Patagonia--Geoffrey Platts Trail","2025-05-09 08:30",1,31.5328784,-110.7675612,TRUE,FALSE,FALSE,"S235169039"
"309","hamfly","Hammond's Flycatcher","Empidonax hammondii","L1799967","Lake Cahuilla Veterans Regional Park","2025-05-09 08:30",1,33.6308835,-116.277214,TRUE,FALSE,FALSE,"S235222978"
"310","hamfly","Hammond's Flycatcher","Empidonax hammondii","L36390054","Gaddess Trail/canyon","2025-05-09 08:30",2,34.670258,-112.13835,TRUE,FALSE,TRUE,"S235860227"
"311","hamfly","Hammond's Flycatcher","Empidonax hammondii","L11536183","Lake West","2025-05-09 08:30",1,47.3556855,-123.2845127,TRUE,FALSE,FALSE,"S235225925"
"312","hamfly","Hammond's Flycatcher","Empidonax hammondii","L4548328","Eternal Hills Cemetery","2025-05-09 08:29",1,33.193707,-117.333028,TRUE,TRUE,FALSE,"S235175403"
"313","hamfly","Hammond's Flycatcher","Empidonax hammondii","L2199729","Glacier NP--Oxbow Trail","2025-05-09 08:27",2,48.5274056,-114.0015864,TRUE,FALSE,FALSE,"S235052248"
"314","hamfly","Hammond's Flycatcher","Empidonax hammondii","L44019727","Fremont-Winema National Forests, Klamath Falls US-OR 42.49786, -122.08076","2025-05-09 08:22",1,42.497856,-122.080758,TRUE,FALSE,TRUE,"S235054898"
"315","hamfly","Hammond's Flycatcher","Empidonax hammondii","L1028899","Stehekin--Head of Lake Chelan","2025-05-09 08:19",4,48.3201421,-120.6767077,TRUE,FALSE,FALSE,"S235082647"
"316","hamfly","Hammond's Flycatcher","Empidonax hammondii","L1884056","Mount Pleasant Cemetery","2025-05-09 08:19",1,47.6449113,-122.3655969,TRUE,FALSE,FALSE,"S235096344"
"317","hamfly","Hammond's Flycatcher","Empidonax hammondii","L3623818","Big Bend NP--Boot Canyon Trail","2025-05-09 08:15",1,29.2482183,-103.2933675,TRUE,FALSE,FALSE,"S236033376"
"318","hamfly","Hammond's Flycatcher","Empidonax hammondii","L268114","Madera Canyon--Santa Rita Lodge","2025-05-09 08:07",1,31.7251514,-110.8801067,TRUE,FALSE,FALSE,"S235058525"
"319","hamfly","Hammond's Flycatcher","Empidonax hammondii","L735303","Three Forks Park","2025-05-09 08:07",1,47.523852,-121.7963326,TRUE,FALSE,FALSE,"S235155107"
"320","hamfly","Hammond's Flycatcher","Empidonax hammondii","L677170","Sawyer Park","2025-05-09 08:04",1,44.0853521,-121.3105068,TRUE,FALSE,FALSE,"S235087604"
"321","hamfly","Hammond's Flycatcher","Empidonax hammondii","L794370","Presidio Park","2025-05-09 07:57",1,32.7579913,-117.1928083,TRUE,TRUE,FALSE,"S235151288"
"322","hamfly","Hammond's Flycatcher","Empidonax hammondii","L30435469","Black Lake","2025-05-09 07:56",1,48.8801411,-115.108621,TRUE,FALSE,FALSE,"S235094841"
"323","hamfly","Hammond's Flycatcher","Empidonax hammondii","L24317100","Box Canyon--old dam area","2025-05-09 07:56",1,31.798956,-110.777034,TRUE,FALSE,FALSE,"S235112514"
"324","hamfly","Hammond's Flycatcher","Empidonax hammondii","L769314","Canyon Park, Costa Mesa","2025-05-09 07:52",1,33.646448,-117.9395306,TRUE,FALSE,FALSE,"S235065664"
"325","hamfly","Hammond's Flycatcher","Empidonax hammondii","L9439457","Clearwater River Hiking and Canoe Trails","2025-05-09 07:47",1,47.2159591,-113.5265333,TRUE,FALSE,FALSE,"S235072116"
"326","hamfly","Hammond's Flycatcher","Empidonax hammondii","L27726884","Dirty Harry's Balcony","2025-05-09 07:45",2,47.4346068,-121.6114329,TRUE,FALSE,FALSE,"S235167860"
"327","hamfly","Hammond's Flycatcher","Empidonax hammondii","L1512830","Mendenhall Rd.","2025-05-09 07:42",1,37.600223,-121.6683987,TRUE,FALSE,FALSE,"S235106732"
"328","hamfly","Hammond's Flycatcher","Empidonax hammondii","L762169","Himmel Park","2025-05-09 07:41",1,32.2334226,-110.9327316,TRUE,FALSE,FALSE,"S235091717"
"329","hamfly","Hammond's Flycatcher","Empidonax hammondii","L6595533","Master's Gardeners building off S. Dandelion Street.","2025-05-09 07:37",1,36.1935944,-115.9818322,TRUE,FALSE,TRUE,"S235219472"
"330","hamfly","Hammond's Flycatcher","Empidonax hammondii","L3670091","Carlson Canyon","2025-05-09 07:35",6,47.255143,-120.905796,TRUE,FALSE,FALSE,"S235268460"
"331","hamfly","Hammond's Flycatcher","Empidonax hammondii","L502845","Craig Regional Park, Fullerton","2025-05-09 07:33",1,33.9046872,-117.8852749,TRUE,FALSE,FALSE,"S235155088"
"332","hamfly","Hammond's Flycatcher","Empidonax hammondii","L208278","Lytle Ranch Preserve","2025-05-09 07:32",1,37.1434192,-114.0232372,TRUE,FALSE,FALSE,"S235157837"
"333","hamfly","Hammond's Flycatcher","Empidonax hammondii","L12043122","Broadie Habitat Preserve","2025-05-09 07:30",1,48.8781247,-115.6567598,TRUE,FALSE,TRUE,"S235014168"
"334","hamfly","Hammond's Flycatcher","Empidonax hammondii","L266875","Willcox--Lake Cochise and Twin Lakes Golf Course","2025-05-09 07:29",2,32.2298515,-109.8243175,TRUE,FALSE,FALSE,"S235236865"
"335","hamfly","Hammond's Flycatcher","Empidonax hammondii","L878593","Horn Rapids County Park","2025-05-09 07:14",1,46.3805405,-119.4356561,TRUE,FALSE,FALSE,"S235174230"
"336","hamfly","Hammond's Flycatcher","Empidonax hammondii","L296633","Madera Canyon--Mt. Wrightson Picnic Area & Upper Canyon Trails","2025-05-09 07:03",4,31.7124,-110.8744,TRUE,FALSE,FALSE,"S235282276"
"337","hamfly","Hammond's Flycatcher","Empidonax hammondii","L44486848","Madera Nature Trail, Green Valley US-AZ 31.74117, -110.88700","2025-05-09 07:03",1,31.741167,-110.887004,TRUE,FALSE,TRUE,"S235183774"
"338","hamfly","Hammond's Flycatcher","Empidonax hammondii","L817016","Burke-Gilman Playground Park","2025-05-09 07:03",1,47.666081,-122.2835827,TRUE,FALSE,FALSE,"S235029853"
"339","hamfly","Hammond's Flycatcher","Empidonax hammondii","L6427356","Hay Canyon","2025-05-09 07:02",1,47.5438589,-120.4852688,TRUE,FALSE,FALSE,"S235166750"
"340","hamfly","Hammond's Flycatcher","Empidonax hammondii","L39226925","CBJB Home","2025-05-09 07:01",1,31.4270693,-110.2484136,TRUE,FALSE,TRUE,"S235068197"
"341","hamfly","Hammond's Flycatcher","Empidonax hammondii","L5001486","Upper Hunter Canyon Trail","2025-05-09 07:00",1,31.4024435,-110.2696245,TRUE,FALSE,FALSE,"S235102910"
"342","hamfly","Hammond's Flycatcher","Empidonax hammondii","L44463307","Marys Peak Rd, Philomath US-OR 44.48896, -123.53817","2025-05-09 06:56",1,44.488963,-123.538175,TRUE,FALSE,TRUE,"S235013732"
"343","hamfly","Hammond's Flycatcher","Empidonax hammondii","L32140595","Spring Mountains NRA--Lee Canyon Rd (Rt. 156) / Deer Creek Rd (Rt. 158) junction","2025-05-09 06:50",1,36.3407607,-115.6516896,TRUE,FALSE,FALSE,"S235251618"
"344","hamfly","Hammond's Flycatcher","Empidonax hammondii","L1743901","Putah Creek--Pedrick Rd. (SOL Co.)","2025-05-09 06:50",1,38.5263974,-121.8006958,TRUE,FALSE,FALSE,"S235036043"
"345","hamfly","Hammond's Flycatcher","Empidonax hammondii","L10059766","Chirpful Acres","2025-05-09 06:50",2,48.4509748,-116.4262399,TRUE,FALSE,TRUE,"S235095643"
"346","hamfly","Hammond's Flycatcher","Empidonax hammondii","L44466812","5390 Marshall Canyon Road, Missoula, Montana, US (46.905, -113.927)","2025-05-09 06:44",3,46.9054918,-113.9268271,TRUE,FALSE,TRUE,"S235032285"
"347","hamfly","Hammond's Flycatcher","Empidonax hammondii","L22450281","Curly Horse Ranch Rd—paved section","2025-05-09 06:42",1,31.699352,-110.638739,TRUE,FALSE,TRUE,"S235063157"
"348","hamfly","Hammond's Flycatcher","Empidonax hammondii","L718847","Lily Glen Park","2025-05-09 06:39",2,42.2720614,-122.4312329,TRUE,FALSE,FALSE,"S235157945"
"349","hamfly","Hammond's Flycatcher","Empidonax hammondii","L3549283","Mt. Rainier NP--Rampart Ridge Trail","2025-05-09 06:38",2,46.7501,-121.814,TRUE,FALSE,FALSE,"S235116871"
"350","hamfly","Hammond's Flycatcher","Empidonax hammondii","L18584113","117–169 Mitchell Canyon Rd, Clayton US-CA 37.92510, -121.94193","2025-05-09 06:30",1,37.925103,-121.94193,TRUE,FALSE,TRUE,"S235934621"
"351","hamfly","Hammond's Flycatcher","Empidonax hammondii","L296632","Madera Canyon--Madera Kubo B&B","2025-05-09 06:24",1,31.7200828,-110.8787354,TRUE,FALSE,FALSE,"S235074900"
"352","hamfly","Hammond's Flycatcher","Empidonax hammondii","L1937262","1. Alcyon Farm, 140 Oatfield Rd","2025-05-09 06:17",2,46.3237506,-123.4433707,TRUE,FALSE,TRUE,"S235033654"
"353","hamfly","Hammond's Flycatcher","Empidonax hammondii","L721658","Keystone Ridge","2025-05-09 06:15",2,64.9164763,-148.2849684,TRUE,FALSE,TRUE,"S235134425"
"354","hamfly","Hammond's Flycatcher","Empidonax hammondii","L10364950","Fenton Preserve (Whatcom Land Trust)","2025-05-09 06:08",1,48.9650315,-122.6589886,TRUE,FALSE,FALSE,"S235027790"
"355","hamfly","Hammond's Flycatcher","Empidonax hammondii","L7414548","Slate Creek Divide--Sycamore Spring","2025-05-09 06:05",2,33.938648,-111.451892,TRUE,FALSE,FALSE,"S235053775"
"356","hamfly","Hammond's Flycatcher","Empidonax hammondii","L24670924","Camp Progress","2025-05-09 06:02",1,48.267229,-119.25931,TRUE,FALSE,TRUE,"S235283431"
"357","hamfly","Hammond's Flycatcher","Empidonax hammondii","L1416495","1. Mule Pass Yard","2025-05-09 06:00",3,31.4641892,-109.9561961,TRUE,FALSE,TRUE,"S235106083"
"358","hamfly","Hammond's Flycatcher","Empidonax hammondii","L42273385","Aliperti Cabin (W Turkey Creek)","2025-05-09 05:43",1,31.864886,-109.340902,TRUE,FALSE,TRUE,"S235294003"
"359","hamfly","Hammond's Flycatcher","Empidonax hammondii","L830231","Mt. Diablo SP--Deer Flat area","2025-05-09 05:38",2,37.8947694,-121.9389725,TRUE,FALSE,FALSE,"S235117677"
"360","hamfly","Hammond's Flycatcher","Empidonax hammondii","L1292955","Tilden Regional Park--Vollmer Peak","2025-05-09 05:35",2,37.8830508,-122.222836,TRUE,FALSE,FALSE,"S235119183"
"361","hamfly","Hammond's Flycatcher","Empidonax hammondii","L789962","UC Field Station--Baker Forest","2025-05-09 05:34",2,39.9172412,-121.0669327,TRUE,FALSE,FALSE,"S235482521"
"362","hamfly","Hammond's Flycatcher","Empidonax hammondii","L721572","Base and Meridian WA","2025-05-09 05:31",4,33.3791718,-112.3074389,TRUE,TRUE,FALSE,"S235154750"
"363","hamfly","Hammond's Flycatcher","Empidonax hammondii","L326219","Leslie Canyon NWR","2025-05-09 05:30",4,31.5918899,-109.508758,TRUE,FALSE,FALSE,"S235279813"
"364","hamfly","Hammond's Flycatcher","Empidonax hammondii","L4591764","Angeles NF--Bear Divide","2025-05-09 05:24",1,34.3602832,-118.3958924,TRUE,FALSE,FALSE,"S235064193"
"365","hamfly","Hammond's Flycatcher","Empidonax hammondii","L44459999","South Fork Tolt Regulating Basin","2025-05-09 05:17",1,47.7023389,-121.7867435,TRUE,FALSE,TRUE,"S234999252"
"366","hamfly","Hammond's Flycatcher","Empidonax hammondii","L11738808","Argus Range—Bruce Canyon","2025-05-09 05:16",2,35.919426,-117.365399,TRUE,FALSE,TRUE,"S235279549"
"367","hamfly","Hammond's Flycatcher","Empidonax hammondii","L7064913","36 South Pheasant Run Road, Coupeville, Washington, US (48.209, -122.62)","2025-05-08 21:17",1,48.2087173,-122.6199524,TRUE,FALSE,TRUE,"S234834030"
"368","hamfly","Hammond's Flycatcher","Empidonax hammondii","L131333","Pawnee NG--Crow Valley CG","2025-05-08 19:34",1,40.6438845,-104.3404627,TRUE,FALSE,FALSE,"S234815893"
"369","hamfly","Hammond's Flycatcher","Empidonax hammondii","L1540959","Harding Lake SRA","2025-05-08 19:28",1,64.4372264,-146.8775201,TRUE,FALSE,FALSE,"S234830011"
"370","hamfly","Hammond's Flycatcher","Empidonax hammondii","L40328636","Thompson Backyard","2025-05-08 18:46",1,32.3750543,-111.0710533,TRUE,FALSE,TRUE,"S234823011"
"371","hamfly","Hammond's Flycatcher","Empidonax hammondii","L21551420","Jerry Cline Park","2025-05-08 18:28",1,35.095103,-106.564959,TRUE,FALSE,FALSE,"S234813314"
"372","hamfly","Hammond's Flycatcher","Empidonax hammondii","L31492838","12385 West Shugart Flats Road, Leavenworth, Washington, US (47.787, -120.66)","2025-05-08 18:25",1,47.7865844,-120.6603384,TRUE,FALSE,TRUE,"S234818534"
"373","hamfly","Hammond's Flycatcher","Empidonax hammondii","L44499530","Forest Service Road 42, San Simon US-AZ 31.88813, -109.20879","2025-05-08 18:12",1,31.888126,-109.208794,TRUE,FALSE,TRUE,"S235199297"
"374","hamfly","Hammond's Flycatcher","Empidonax hammondii","L152046","Lordsburg Sewage Ponds","2025-05-08 17:46",1,32.3592192,-108.6999428,TRUE,FALSE,FALSE,"S234832900"
"375","hamfly","Hammond's Flycatcher","Empidonax hammondii","L461293","Polliwog Park","2025-05-08 17:18",1,33.8888713,-118.3853674,TRUE,FALSE,FALSE,"S234831215"
"376","hamfly","Hammond's Flycatcher","Empidonax hammondii","L16545450","Young Park","2025-05-08 17:10",1,32.308309,-106.7547517,TRUE,FALSE,FALSE,"S236053654"
"377","hamfly","Hammond's Flycatcher","Empidonax hammondii","L44431503","Masterman’s orchard 1645 Violin Cir, Fairbanks US-AK 64.79410, -148.06957","2025-05-08 16:48",2,64.794102,-148.069573,TRUE,FALSE,TRUE,"S234826358"
"378","hamfly","Hammond's Flycatcher","Empidonax hammondii","L44427236","Cascade Park","2025-05-08 16:40",1,33.757356,-118.021072,TRUE,FALSE,TRUE,"S234810571"
"379","hamfly","Hammond's Flycatcher","Empidonax hammondii","L3541514","NE Sundial Rd.--Company Lake","2025-05-08 16:24",1,45.5615042,-122.40696,TRUE,FALSE,FALSE,"S234827497"
"380","hamfly","Hammond's Flycatcher","Empidonax hammondii","L127970","Mt. Lemmon--upper","2025-05-08 16:22",2,32.4404984,-110.7902985,TRUE,FALSE,FALSE,"S234796662"
"381","hamfly","Hammond's Flycatcher","Empidonax hammondii","L2498147","Graduation Canyon","2025-05-08 15:52",1,35.8847795,-106.2905606,TRUE,FALSE,FALSE,"S234768912"
"382","hamfly","Hammond's Flycatcher","Empidonax hammondii","L44435451","283 Peters Rd, Fairbanks US-AK 64.86747, -147.66233","2025-05-08 15:50",1,64.867468,-147.662332,TRUE,FALSE,TRUE,"S234846860"
"383","hamfly","Hammond's Flycatcher","Empidonax hammondii","L267654","Mt. Lemmon--Marshall Gulch","2025-05-08 15:47",NA,32.4280212,-110.7556783,TRUE,FALSE,FALSE,"S234796762"
"384","hamfly","Hammond's Flycatcher","Empidonax hammondii","L372919","Coronado National Memorial","2025-05-08 15:06",1,31.3459405,-110.2535668,TRUE,FALSE,FALSE,"S234801321"
"385","hamfly","Hammond's Flycatcher","Empidonax hammondii","L2092825","Mt Hope Cemetery","2025-05-08 14:21",1,46.0433314,-118.4005165,TRUE,FALSE,FALSE,"S234761501"
"386","hamfly","Hammond's Flycatcher","Empidonax hammondii","L44432820","Yaak River Campground north of river","2025-05-08 14:20",1,48.5625841,-115.9768681,TRUE,FALSE,TRUE,"S234833348"
"387","hamfly","Hammond's Flycatcher","Empidonax hammondii","L390362","Granite Basin Lake","2025-05-08 14:15",1,34.6168572,-112.5493392,TRUE,FALSE,FALSE,"S234820617"
"388","hamfly","Hammond's Flycatcher","Empidonax hammondii","L19446337","Trout Creek Trail","2025-05-08 14:00",1,44.3986664,-122.3470759,TRUE,FALSE,TRUE,"S234838048"
"389","hamfly","Hammond's Flycatcher","Empidonax hammondii","L526888","Tanana Lakes Recreation Area","2025-05-08 13:40",NA,64.7966492,-147.7180481,TRUE,FALSE,FALSE,"S235136895"
"390","hamfly","Hammond's Flycatcher","Empidonax hammondii","L11016839","Signal hill--north side trails","2025-05-08 13:40",1,33.8005771,-118.159521,TRUE,FALSE,FALSE,"S234772433"
"391","hamfly","Hammond's Flycatcher","Empidonax hammondii","L1368596","Huntington Central Park--Urban Forest","2025-05-08 13:31",1,33.6940085,-118.0108236,TRUE,FALSE,FALSE,"S235053054"
"392","hamfly","Hammond's Flycatcher","Empidonax hammondii","L564571","#12b Tall Timber Ranch/Napeequa","2025-05-08 13:09",4,47.921519,-120.8961296,TRUE,FALSE,TRUE,"S234840299"
"393","hamfly","Hammond's Flycatcher","Empidonax hammondii","L496500","Still Waters Farm","2025-05-08 12:49",2,47.2914558,-123.1351089,TRUE,FALSE,FALSE,"S234831112"
"394","hamfly","Hammond's Flycatcher","Empidonax hammondii","L1252842","Marblemount Fish Hatchery","2025-05-08 12:45",1,48.5220479,-121.4177012,TRUE,FALSE,FALSE,"S234813258"
"395","hamfly","Hammond's Flycatcher","Empidonax hammondii","L44426578","Huachuca Canyon--above upper picnic area","2025-05-08 12:40",11,31.506733,-110.395099,TRUE,TRUE,TRUE,"S234799356"
"396","hamfly","Hammond's Flycatcher","Empidonax hammondii","L2090377","MacDonald Mountain","2025-05-08 12:32",1,47.3548154,-121.8767452,TRUE,FALSE,FALSE,"S234727628"
"397","hamfly","Hammond's Flycatcher","Empidonax hammondii","L524998","West UAF Trails & Smith Lake","2025-05-08 12:28",1,64.8643458,-147.8634453,TRUE,FALSE,FALSE,"S234746155"
"398","hamfly","Hammond's Flycatcher","Empidonax hammondii","L129042","Parker Canyon Lake","2025-05-08 12:10",4,31.4253006,-110.4540024,TRUE,FALSE,FALSE,"S234805795"
"399","hamfly","Hammond's Flycatcher","Empidonax hammondii","L24131470","59802, Missoula US-MT (46.9052,-113.9353)","2025-05-08 12:10",1,46.905204,-113.935253,TRUE,FALSE,TRUE,"S234753254"
"400","hamfly","Hammond's Flycatcher","Empidonax hammondii","L6504063","Chase Lake","2025-05-08 11:50",1,47.7976299,-122.3464437,TRUE,FALSE,FALSE,"S234826826"
"401","hamfly","Hammond's Flycatcher","Empidonax hammondii","L561866","#7 Little Wenatchee Road/Bridge","2025-05-08 11:37",2,47.8476116,-120.8375931,TRUE,FALSE,TRUE,"S234715521"
"402","hamfly","Hammond's Flycatcher","Empidonax hammondii","L44429171","Mil Potrero Hwy, Pine Mountain Club US-CA 34.85483, -119.18317","2025-05-08 11:13",1,34.854828,-119.183169,TRUE,FALSE,TRUE,"S234814109"
"403","hamfly","Hammond's Flycatcher","Empidonax hammondii","L44424549","Forest Route 8N04, (Hike or Bike Only) Castaic, California, US (34.617, -118.701)","2025-05-08 10:58",1,34.6172351,-118.7012272,TRUE,FALSE,TRUE,"S234786807"
"404","hamfly","Hammond's Flycatcher","Empidonax hammondii","L44428101","Iron Goat Trail, Skykomish US-WA 47.71142, -121.16179","2025-05-08 10:50",1,47.711425,-121.16179,TRUE,FALSE,TRUE,"S234807976"
"405","hamfly","Hammond's Flycatcher","Empidonax hammondii","L31323628","1220 Great View Ln, Fairbanks US-AK 64.91478, -147.52978","2025-05-08 10:41",1,64.914782,-147.529785,TRUE,FALSE,TRUE,"S234700656"
"406","hamfly","Hammond's Flycatcher","Empidonax hammondii","L486310","Sly Park Rec Area","2025-05-08 10:41",2,38.7210101,-120.5626774,TRUE,FALSE,FALSE,"S234761418"
"407","hamfly","Hammond's Flycatcher","Empidonax hammondii","L11392188","Titlow Hill Road: Clear Lake","2025-05-08 10:35",3,40.8153636,-123.6968161,TRUE,FALSE,TRUE,"S235210537"
"408","hamfly","Hammond's Flycatcher","Empidonax hammondii","L44505495","59937, Whitefish US-MT 48.40289, -114.23742","2025-05-08 10:32",1,48.402888,-114.23742,TRUE,FALSE,TRUE,"S235232482"
"409","hamfly","Hammond's Flycatcher","Empidonax hammondii","L589670","Gila Cliff Dwellings NM","2025-05-08 10:25",1,33.2276494,-108.2663369,TRUE,FALSE,FALSE,"S235153288"
"410","hamfly","Hammond's Flycatcher","Empidonax hammondii","L275227","Piute Ponds (permit required)","2025-05-08 10:25",4,34.7901193,-118.1181776,TRUE,FALSE,FALSE,"S234832290"
"411","hamfly","Hammond's Flycatcher","Empidonax hammondii","L129054","Pena Blanca Lake","2025-05-08 10:21",1,31.401,-111.087,TRUE,FALSE,FALSE,"S234716899"
"412","hamfly","Hammond's Flycatcher","Empidonax hammondii","L7452056","Titlow Hill Rd.: 5N09","2025-05-08 10:20",1,40.8200805,-123.6989093,TRUE,FALSE,TRUE,"S235208589"
"413","hamfly","Hammond's Flycatcher","Empidonax hammondii","L44421582","Grant Creek Trail, Safford US-AZ 32.64724, -109.92701","2025-05-08 10:12",2,32.647244,-109.927007,TRUE,FALSE,TRUE,"S234768327"
"414","hamfly","Hammond's Flycatcher","Empidonax hammondii","L2747433","#2b East Fish Lake","2025-05-08 10:05",1,47.8370118,-120.6858444,TRUE,FALSE,TRUE,"S235062096"
"415","hamfly","Hammond's Flycatcher","Empidonax hammondii","L27669394","CA-49, Coulterville US-CA 37.64774, -120.14719","2025-05-08 10:02",1,37.647735,-120.147192,TRUE,FALSE,TRUE,"S234801682"
"416","hamfly","Hammond's Flycatcher","Empidonax hammondii","L30658531","Hoskins Lake","2025-05-08 10:00",1,48.8900494,-115.6379452,TRUE,FALSE,TRUE,"S234685848"
"417","hamfly","Hammond's Flycatcher","Empidonax hammondii","L2866972","Titlow Hill Rd: first pullout south of clearcut (west side)","2025-05-08 10:00",1,40.8239794,-123.7007858,TRUE,FALSE,TRUE,"S235207271"
"418","hamfly","Hammond's Flycatcher","Empidonax hammondii","L3177894","West San Gabriel River Parkway Nature Trail","2025-05-08 09:50",1,33.8374021,-118.0950344,TRUE,FALSE,FALSE,"S234693003"
"419","hamfly","Hammond's Flycatcher","Empidonax hammondii","L6021876","Mt. Rose trail","2025-05-08 09:50",1,47.5005614,-123.282094,TRUE,FALSE,FALSE,"S234740469"
"420","hamfly","Hammond's Flycatcher","Empidonax hammondii","L301174","Mt. Lemmon--Mt Bigelow Rd","2025-05-08 09:42",1,32.4170301,-110.7250857,TRUE,FALSE,FALSE,"S234676302"
"421","hamfly","Hammond's Flycatcher","Empidonax hammondii","L784046","Mount St. Helens NM -- Hummocks Trail","2025-05-08 09:39",1,46.2866836,-122.2722208,TRUE,FALSE,FALSE,"S234684306"
"422","hamfly","Hammond's Flycatcher","Empidonax hammondii","L31153556","S Fork Rd, San Simon US-AZ 31.87334, -109.18509","2025-05-08 09:37",1,31.873337,-109.185089,TRUE,FALSE,TRUE,"S235282619"
"423","hamfly","Hammond's Flycatcher","Empidonax hammondii","L1486456","Bull River wetland","2025-05-08 09:27",1,48.1969295,-115.8548644,TRUE,FALSE,FALSE,"S234789318"
"424","hamfly","Hammond's Flycatcher","Empidonax hammondii","L31870021","549–557 Penny Creek Rd, Quilcene US-WA (47.8136,-122.9216)","2025-05-08 09:22",1,47.813649,-122.921629,TRUE,FALSE,TRUE,"S234655006"
"425","hamfly","Hammond's Flycatcher","Empidonax hammondii","L24611426","Pinecrest Ave","2025-05-08 09:21",1,38.188966,-120.003172,TRUE,FALSE,TRUE,"S234800662"
"426","hamfly","Hammond's Flycatcher","Empidonax hammondii","L802762","Chino Creek Wetlands","2025-05-08 09:17",1,33.965644,-117.6771784,TRUE,FALSE,FALSE,"S234835704"
"427","hamfly","Hammond's Flycatcher","Empidonax hammondii","L1522641","Whitehorse Park","2025-05-08 09:07",2,48.2713287,-121.6035296,TRUE,FALSE,FALSE,"S234676966"
"428","hamfly","Hammond's Flycatcher","Empidonax hammondii","L2407898","Monte Cristo","2025-05-08 09:07",1,47.9850024,-121.3935614,TRUE,FALSE,FALSE,"S234825690"
"429","hamfly","Hammond's Flycatcher","Empidonax hammondii","L929052","NP213 Rd","2025-05-08 09:02",5,48.5919728,-121.3749468,TRUE,FALSE,FALSE,"S234811650"
"430","hamfly","Hammond's Flycatcher","Empidonax hammondii","L4217782","Hyland Forest Park","2025-05-08 09:00",1,45.4614257,-122.8193318,TRUE,FALSE,FALSE,"S234704687"
"431","hamfly","Hammond's Flycatcher","Empidonax hammondii","L129089","Scotia Canyon--upper","2025-05-08 08:58",5,31.45,-110.4,TRUE,FALSE,FALSE,"S234807223"
"432","hamfly","Hammond's Flycatcher","Empidonax hammondii","L12940520","GNP Headquarters","2025-05-08 08:56",1,48.5019556,-113.9832088,TRUE,FALSE,TRUE,"S234605116"
"433","hamfly","Hammond's Flycatcher","Empidonax hammondii","L269204","Huachuca Canyon","2025-05-08 08:52",10,31.5313995,-110.3805093,TRUE,TRUE,FALSE,"S234799311"
"434","hamfly","Hammond's Flycatcher","Empidonax hammondii","L250145","Sam Lena Park and KERP","2025-05-08 08:45",1,32.1812,-110.932,TRUE,FALSE,FALSE,"S234710290"
"435","hamfly","Hammond's Flycatcher","Empidonax hammondii","L685829","Umtanum Creek","2025-05-08 08:45",1,46.8554957,-120.4848719,TRUE,FALSE,FALSE,"S234772751"
"436","hamfly","Hammond's Flycatcher","Empidonax hammondii","L822637","Dixon Lane-Meadowcreek (incl. Greengate Cottonwoods)","2025-05-08 08:45",1,37.3904435,-118.4254295,TRUE,FALSE,FALSE,"S234692920"
"437","hamfly","Hammond's Flycatcher","Empidonax hammondii","L735009","Confluence Park","2025-05-08 08:40",1,37.2053292,-113.2876253,TRUE,FALSE,FALSE,"S234664314"
"438","hamfly","Hammond's Flycatcher","Empidonax hammondii","L189761","Organ Mountains-Desert Peaks NM--Dripping Springs NA","2025-05-08 08:39",1,32.32773,-106.59024,TRUE,FALSE,FALSE,"S234694019"
"439","hamfly","Hammond's Flycatcher","Empidonax hammondii","L733448","Sage Hen Rest Area","2025-05-08 08:38",1,43.5314692,-119.3212652,TRUE,FALSE,FALSE,"S234650075"
"440","hamfly","Hammond's Flycatcher","Empidonax hammondii","L16003114","Pullman--Dack St","2025-05-08 08:25",1,46.7420038,-117.1800234,TRUE,FALSE,TRUE,"S234619868"
"441","hamfly","Hammond's Flycatcher","Empidonax hammondii","L4094976","stakeout Sulphur-bellied Flycatcher, Bear Canyon pullout","2025-05-08 08:22",1,32.36573,-110.709329,TRUE,FALSE,FALSE,"S234675908"
"442","hamfly","Hammond's Flycatcher","Empidonax hammondii","L4530030","Mingus Mountain--Butterfly Spring","2025-05-08 08:11",1,34.7064731,-112.1391678,TRUE,FALSE,FALSE,"S234656834"
"443","hamfly","Hammond's Flycatcher","Empidonax hammondii","L716626","Rio Grande Valley SP--Pueblo Montano Bosque Trails","2025-05-08 08:03",1,35.1422405,-106.6843696,TRUE,FALSE,FALSE,"S234658666"
"444","hamfly","Hammond's Flycatcher","Empidonax hammondii","L30108972","Beacon Hill Homesite","2025-05-08 08:00",1,47.6319065,-116.7087269,TRUE,FALSE,TRUE,"S234816281"
"445","hamfly","Hammond's Flycatcher","Empidonax hammondii","L44409808","Cottonwood Peninsula traveling North from the Dog Park","2025-05-08 08:00",1,34.604397,-112.450931,TRUE,FALSE,TRUE,"S234702497"
"446","hamfly","Hammond's Flycatcher","Empidonax hammondii","L14512607","Mills Meadow","2025-05-08 07:53",1,41.3575743,-122.4043058,TRUE,FALSE,TRUE,"S234656517"
"447","hamfly","Hammond's Flycatcher","Empidonax hammondii","L929049","Bacon Creek","2025-05-08 07:46",2,48.5888149,-121.3930464,TRUE,FALSE,FALSE,"S234812505"
"448","hamfly","Hammond's Flycatcher","Empidonax hammondii","L374047","Cañada Larga Rd.","2025-05-08 07:43",1,34.3445699,-119.2783928,TRUE,FALSE,FALSE,"S234642540"
"449","hamfly","Hammond's Flycatcher","Empidonax hammondii","L15571213","Cochise County Complex","2025-05-08 07:40",1,31.390583,-109.930674,TRUE,FALSE,TRUE,"S234607342"
"450","hamfly","Hammond's Flycatcher","Empidonax hammondii","L29206850","1825 Monroe Lane, Camp Verde, Arizona, US (34.543, -111.868)","2025-05-08 07:39",2,34.5433098,-111.8684359,TRUE,FALSE,TRUE,"S234624694"
"451","hamfly","Hammond's Flycatcher","Empidonax hammondii","L26757079","S Cripple Creek Rd","2025-05-08 07:39",6,64.766526,-148.044727,TRUE,FALSE,TRUE,"S234655015"
"452","hamfly","Hammond's Flycatcher","Empidonax hammondii","L4645082","Gila NF--Deadman Canyon Trail","2025-05-08 07:30",2,32.6160721,-108.4068258,TRUE,FALSE,FALSE,"S234685009"
"453","hamfly","Hammond's Flycatcher","Empidonax hammondii","L30118924","Vault Mine Ct. Verandah Watch","2025-05-08 07:25",1,31.8560083,-110.9666535,TRUE,FALSE,TRUE,"S235068036"
"454","hamfly","Hammond's Flycatcher","Empidonax hammondii","L506275","San Diego River mudflats (including Robb Field & north side)","2025-05-08 07:17",1,32.7568803,-117.2401432,TRUE,TRUE,FALSE,"S234697720"
"455","hamfly","Hammond's Flycatcher","Empidonax hammondii","L44375275","765 Gold Mine Trail","2025-05-08 07:14",2,64.9363815,-147.5746018,TRUE,FALSE,TRUE,"S234625084"
"456","hamfly","Hammond's Flycatcher","Empidonax hammondii","L1358840","Bosque del Apache NWR--North Loop (formerly Farm Loop)","2025-05-08 07:11",1,33.8151614,-106.8722406,TRUE,FALSE,FALSE,"S234704378"
"457","hamfly","Hammond's Flycatcher","Empidonax hammondii","L24224827","Marshall Canyon","2025-05-08 07:09",1,46.905534,-113.92666,TRUE,FALSE,TRUE,"S234585607"
"458","hamfly","Hammond's Flycatcher","Empidonax hammondii","L629205","University of Arizona","2025-05-08 07:09",1,32.2321157,-110.9511852,TRUE,FALSE,FALSE,"S234629706"
"459","hamfly","Hammond's Flycatcher","Empidonax hammondii","L130598","Willowbank Ditch","2025-05-08 07:07",1,38.5427589,-121.7058716,TRUE,FALSE,FALSE,"S234631882"
"460","hamfly","Hammond's Flycatcher","Empidonax hammondii","L3640199","Edwards AFB--Mesquite Bosque (Kern County)","2025-05-08 07:06",1,34.825261,-117.931731,TRUE,FALSE,TRUE,"S234833311"
"461","hamfly","Hammond's Flycatcher","Empidonax hammondii","L1287648","Marblemount boat launch","2025-05-08 07:05",1,48.5254937,-121.4270353,TRUE,FALSE,FALSE,"S234807994"
"462","hamfly","Hammond's Flycatcher","Empidonax hammondii","L166979","Boyce Thompson Arboretum","2025-05-08 07:05",1,33.2795082,-111.158756,TRUE,FALSE,FALSE,"S234815611"
"463","hamfly","Hammond's Flycatcher","Empidonax hammondii","L44473306","Tulare--Mtn50 My Stop","2025-05-08 07:03",1,35.9391821,-118.6413482,TRUE,FALSE,TRUE,"S234610252"
"464","hamfly","Hammond's Flycatcher","Empidonax hammondii","L234314","Anza Trail--Tubac","2025-05-08 06:55",1,31.6128313,-111.040829,TRUE,FALSE,FALSE,"S234773267"
"465","hamfly","Hammond's Flycatcher","Empidonax hammondii","L2374007","FR 42--past Herb Martyr Rd to E Turkey Creek","2025-05-08 06:53",1,31.8984022,-109.2240679,TRUE,FALSE,FALSE,"S234630057"
"466","hamfly","Hammond's Flycatcher","Empidonax hammondii","L13768264","County Line Casita","2025-05-08 06:47",1,35.115188,-106.24703,TRUE,FALSE,TRUE,"S234546964"
"467","hamfly","Hammond's Flycatcher","Empidonax hammondii","L419636","Grasslands Regional Park","2025-05-08 06:45",1,38.4959689,-121.6941027,TRUE,FALSE,FALSE,"S234719228"
"468","hamfly","Hammond's Flycatcher","Empidonax hammondii","L1221749","Granite Creek Park","2025-05-08 06:40",1,34.5492664,-112.4683285,TRUE,FALSE,FALSE,"S234799321"
"469","hamfly","Hammond's Flycatcher","Empidonax hammondii","L140001","Big Ditch Park","2025-05-08 06:40",1,32.7725894,-108.2752419,TRUE,FALSE,FALSE,"S234556837"
"470","hamfly","Hammond's Flycatcher","Empidonax hammondii","L23697371","BLM Road 40-2E-11, Ashland US-OR 42.10916, -122.55380","2025-05-08 06:39",1,42.109161,-122.553796,TRUE,FALSE,TRUE,"S234708461"
"471","hamfly","Hammond's Flycatcher","Empidonax hammondii","L863316","Rio Grande Valley SP--Glass Beach Bosque Trails","2025-05-08 06:33",1,35.0592951,-106.6559104,TRUE,FALSE,FALSE,"S234593762"
"472","hamfly","Hammond's Flycatcher","Empidonax hammondii","L44322835","North Bank Road","2025-05-08 06:32",1,44.178273,-122.153704,TRUE,FALSE,TRUE,"S234580936"
"473","hamfly","Hammond's Flycatcher","Empidonax hammondii","L909870","Brooks Memorial SP","2025-05-08 06:24",1,45.9477481,-120.6671333,TRUE,FALSE,FALSE,"S234781338"
"474","hamfly","Hammond's Flycatcher","Empidonax hammondii","L367627","Salton Sea--Young Rd. (west end)","2025-05-08 06:16",1,33.1330196,-115.6666589,TRUE,FALSE,FALSE,"S234728351"
"475","hamfly","Hammond's Flycatcher","Empidonax hammondii","L129077","San Bernardino NWR","2025-05-08 05:55",8,31.3558004,-109.261533,TRUE,FALSE,FALSE,"S235279739"
"476","hamfly","Hammond's Flycatcher","Empidonax hammondii","L11510059","Spot Road Farm","2025-05-08 05:53",1,32.7969853,-113.352323,TRUE,FALSE,FALSE,"S234576443"
"477","hamfly","Hammond's Flycatcher","Empidonax hammondii","L4433751","Second Fork Squaw Creek","2025-05-08 05:45",1,44.3233415,-116.2621629,TRUE,FALSE,TRUE,"S234683469"
"478","hamfly","Hammond's Flycatcher","Empidonax hammondii","L4980186","Lake Kathleen","2025-05-08 05:40",1,47.4782554,-122.088232,TRUE,FALSE,FALSE,"S234608823"
"479","hamfly","Hammond's Flycatcher","Empidonax hammondii","L9329008","Argus Range—North Homewood Canyon","2025-05-08 05:26",1,35.907154,-117.409163,TRUE,FALSE,TRUE,"S235281086"
"480","hamfly","Hammond's Flycatcher","Empidonax hammondii","L44392567","97490, Walton US-OR 44.09292, -123.56139","2025-05-08 05:08",1,44.092918,-123.561387,TRUE,FALSE,TRUE,"S234614592"
"481","hamfly","Hammond's Flycatcher","Empidonax hammondii","L128939","Cave Creek Canyon","2025-05-07 16:45",1,31.8935,-109.166851,TRUE,FALSE,FALSE,"S234421506"
"482","hamfly","Hammond's Flycatcher","Empidonax hammondii","L9736198","Rye Creek--FR 184 (access pt. north of bridge)","2025-05-07 16:40",1,34.0426526,-111.3031462,TRUE,FALSE,FALSE,"S234445895"
"483","hamfly","Hammond's Flycatcher","Empidonax hammondii","L31914347","Shadow Rim Lake","2025-05-07 16:37",NA,34.4046372,-111.282316,TRUE,FALSE,TRUE,"S234400724"
"484","hamfly","Hammond's Flycatcher","Empidonax hammondii","L720787","Florida Canyon--lower","2025-05-07 16:22",1,31.7633436,-110.8458804,TRUE,FALSE,FALSE,"S234625367"
"485","hamfly","Hammond's Flycatcher","Empidonax hammondii","L8387432","Hains Ave.","2025-05-07 16:18",1,46.2873935,-119.2716439,TRUE,FALSE,TRUE,"S234391175"
"486","hamfly","Hammond's Flycatcher","Empidonax hammondii","L5244650","Willow Lake West","2025-05-07 16:10",1,34.6075234,-112.4474373,TRUE,FALSE,TRUE,"S234819530"
"487","hamfly","Hammond's Flycatcher","Empidonax hammondii","L162766","Union Bay Natural Area/Montlake Fill","2025-05-07 16:00",1,47.65424,-122.29137,TRUE,FALSE,FALSE,"S234449048"
"488","hamfly","Hammond's Flycatcher","Empidonax hammondii","L2388773","Mt. Lemmon--Thimble Peak Vista","2025-05-07 15:55",1,32.3521432,-110.7250857,TRUE,FALSE,FALSE,"S234433327"
"489","hamfly","Hammond's Flycatcher","Empidonax hammondii","L364919","Quincy Reservoir","2025-05-07 15:47",1,39.6347124,-104.7777271,TRUE,FALSE,FALSE,"S234413499"
"490","hamfly","Hammond's Flycatcher","Empidonax hammondii","L17977894","Boundary Trail--Via Solano to Via Valmonte","2025-05-07 15:45",1,33.8011048,-118.3581829,TRUE,FALSE,TRUE,"S234445647"
"491","hamfly","Hammond's Flycatcher","Empidonax hammondii","L720652","Ramsey Canyon Inn (opened 1988)","2025-05-07 15:11",1,31.4486597,-110.3068952,TRUE,FALSE,FALSE,"S234375227"
"492","hamfly","Hammond's Flycatcher","Empidonax hammondii","L469058","Apollo Park","2025-05-07 14:59",1,34.7421591,-118.2011104,TRUE,FALSE,FALSE,"S234391300"
"493","hamfly","Hammond's Flycatcher","Empidonax hammondii","L165391","Kamiak Butte","2025-05-07 14:59",1,46.86872,-117.156136,TRUE,FALSE,FALSE,"S234420907"
"494","hamfly","Hammond's Flycatcher","Empidonax hammondii","L4719141","Barrett-Stoddard Truck Trail (LA Co.)","2025-05-07 14:42",2,34.2232822,-117.6674151,TRUE,FALSE,FALSE,"S234428030"
"495","hamfly","Hammond's Flycatcher","Empidonax hammondii","L40131796","Old Apple Barn fields, High Rolls","2025-05-07 14:40",1,32.9540619,-105.8187794,TRUE,FALSE,TRUE,"S234387592"
"496","hamfly","Hammond's Flycatcher","Empidonax hammondii","L2092945","Leif Erickson Trail","2025-05-07 14:35",1,45.5498506,-122.7355725,TRUE,FALSE,FALSE,"S234382336"
"497","hamfly","Hammond's Flycatcher","Empidonax hammondii","L2862383","East Turkey Creek at FR42/FR42B","2025-05-07 14:14",2,31.9086083,-109.2508256,TRUE,FALSE,FALSE,"S234442929"
"498","hamfly","Hammond's Flycatcher","Empidonax hammondii","L1011538","Little Hyatt Reservoir","2025-05-07 13:35",1,42.1583136,-122.4851131,TRUE,FALSE,FALSE,"S234371486"
"499","hamfly","Hammond's Flycatcher","Empidonax hammondii","L2932915","Winslow--La Posada Hotel garden","2025-05-07 13:16",1,35.0218344,-110.6957665,TRUE,FALSE,FALSE,"S234407912"
"500","hamfly","Hammond's Flycatcher","Empidonax hammondii","L44349408","Auto selected 44.41496, -121.61230","2025-05-07 12:43",1,44.414964,-121.612295,TRUE,FALSE,TRUE,"S234357735"
"501","hamfly","Hammond's Flycatcher","Empidonax hammondii","L44347582","North Bogus Basin Road, Garden City, Idaho, US (43.732, -116.147)","2025-05-07 12:37",1,43.7323682,-116.1466987,TRUE,FALSE,TRUE,"S234347186"
"502","hamfly","Hammond's Flycatcher","Empidonax hammondii","L44516268","Bosque del Apache National Wildlife Refuge, Socorro US-NM 33.80373, -106.88056","2025-05-07 12:28",1,33.803731,-106.880562,TRUE,FALSE,TRUE,"S235287299"
"503","hamfly","Hammond's Flycatcher","Empidonax hammondii","L25338714","River View Golf Course, Santa Ana US-CA 33.77255, -117.89069","2025-05-07 12:25",1,33.772553,-117.89069,TRUE,FALSE,TRUE,"S234319999"
"504","hamfly","Hammond's Flycatcher","Empidonax hammondii","L14672816","Santa Fe River at Paseo Real","2025-05-07 12:07",1,35.6296653,-106.0919774,TRUE,FALSE,FALSE,"S234366747"
"505","hamfly","Hammond's Flycatcher","Empidonax hammondii","L12395330","Gila NF--Little Cherry Creek Road and Trail","2025-05-07 11:52",5,32.8993275,-108.228703,TRUE,FALSE,FALSE,"S235259480"
"506","hamfly","Hammond's Flycatcher","Empidonax hammondii","L1308894","Murphy Ranch Park","2025-05-07 11:42",1,33.9591124,-117.9812765,TRUE,FALSE,FALSE,"S234324774"
"507","hamfly","Hammond's Flycatcher","Empidonax hammondii","L23830171","L-1000, Yacolt, Washington, US (45.752, -122.327)","2025-05-07 11:36",1,45.7519806,-122.3274131,TRUE,FALSE,TRUE,"S234400322"
"508","hamfly","Hammond's Flycatcher","Empidonax hammondii","L3157311","Kennedy Creek Salmon Trail","2025-05-07 11:35",1,47.0909659,-123.0967748,TRUE,FALSE,FALSE,"S234332420"
"509","hamfly","Hammond's Flycatcher","Empidonax hammondii","L1450449","Miller Woods","2025-05-07 11:25",1,45.2469776,-123.2756276,TRUE,FALSE,FALSE,"S234323846"
"510","hamfly","Hammond's Flycatcher","Empidonax hammondii","L44348073","3496–3706 Camas Creek Rd, Peshastin US-WA 47.47381, -120.60203","2025-05-07 11:21",1,47.473806,-120.602028,TRUE,FALSE,TRUE,"S234350064"
"511","hamfly","Hammond's Flycatcher","Empidonax hammondii","L44353640","10819 East Hereford Road, Hereford, Arizona, US (31.438, -110.109)","2025-05-07 11:10",1,31.4380118,-110.1086179,TRUE,FALSE,TRUE,"S234384262"
"512","hamfly","Hammond's Flycatcher","Empidonax hammondii","L19108686","Camas Creek Rd- Peshastin US-WA 47.48251, -120.62327","2025-05-07 11:00",1,47.482513,-120.623271,TRUE,FALSE,TRUE,"S234349967"
"513","hamfly","Hammond's Flycatcher","Empidonax hammondii","L44351695","Middle San Pedro River Preserve ( Restricted)","2025-05-07 10:59",1,32.160105,-110.287922,TRUE,FALSE,TRUE,"S234373575"
"514","hamfly","Hammond's Flycatcher","Empidonax hammondii","L43677206","Super Trail, Nogales US-AZ (31.6879,-110.8475)","2025-05-07 10:52",1,31.687934,-110.847512,TRUE,FALSE,TRUE,"S234395265"
"515","hamfly","Hammond's Flycatcher","Empidonax hammondii","L1429374","Big Hank Campground","2025-05-07 10:48",1,47.8234987,-116.1003482,TRUE,FALSE,FALSE,"S234357748"
"516","hamfly","Hammond's Flycatcher","Empidonax hammondii","L1599542","Glacier NP--Rock Point Nature Trail","2025-05-07 10:41",1,48.5538872,-113.977704,TRUE,FALSE,FALSE,"S234300112"
"517","hamfly","Hammond's Flycatcher","Empidonax hammondii","L11274108","623 Bellamah","2025-05-07 10:41",1,35.100207,-106.652511,TRUE,FALSE,TRUE,"S234577559"
"518","hamfly","Hammond's Flycatcher","Empidonax hammondii","L2434761","Fairview Cemetery","2025-05-07 10:24",1,35.071951,-106.618942,TRUE,FALSE,FALSE,"S234437811"
"519","hamfly","Hammond's Flycatcher","Empidonax hammondii","L268207","Melrose Woods","2025-05-07 10:16",1,34.4343548,-103.7991207,TRUE,FALSE,FALSE,"S234274921"
"520","hamfly","Hammond's Flycatcher","Empidonax hammondii","L1841551","Steilacoom--Farrell Marsh Park","2025-05-07 10:10",1,47.163581,-122.5959661,TRUE,FALSE,FALSE,"S234324415"
"521","hamfly","Hammond's Flycatcher","Empidonax hammondii","L1482533","Olympic NP--Elwha Campground and vicinity","2025-05-07 10:08",7,48.0304974,-123.5878707,TRUE,FALSE,FALSE,"S234323765"
"522","hamfly","Hammond's Flycatcher","Empidonax hammondii","L44347536","Forest Service Road 42, San Simon US-AZ 31.88407, -109.20570","2025-05-07 10:05",4,31.884073,-109.205697,TRUE,FALSE,TRUE,"S234346829"
"523","hamfly","Hammond's Flycatcher","Empidonax hammondii","L2963816","Smith Creek Fire Station","2025-05-07 09:55",1,37.3233719,-121.669035,TRUE,TRUE,FALSE,"S234335789"
"524","hamfly","Hammond's Flycatcher","Empidonax hammondii","L5716623","Carr Canyon Road--BETWEEN Reef Townsite and Ramsey Vista CGs","2025-05-07 09:52",2,31.4283152,-110.2991402,TRUE,FALSE,FALSE,"S234369837"
"525","hamfly","Hammond's Flycatcher","Empidonax hammondii","L8527427","Pacific Crest Trail--Old Hiway 99 access","2025-05-07 09:51",1,42.0577424,-122.6024391,TRUE,FALSE,TRUE,"S234297380"
"526","hamfly","Hammond's Flycatcher","Empidonax hammondii","L44419097","Nez Perce-Clearwater National Forest, Elk City US-ID 46.12245, -114.92985","2025-05-07 09:51",1,46.122453,-114.929848,TRUE,FALSE,TRUE,"S234753240"
"527","hamfly","Hammond's Flycatcher","Empidonax hammondii","L5219326","Anza Trail--Tubac kiosk area","2025-05-07 09:47",4,31.6047365,-111.0429811,TRUE,FALSE,FALSE,"S234326662"
"528","hamfly","Hammond's Flycatcher","Empidonax hammondii","L7337120","120 Maryleigh Ave.","2025-05-07 09:34",1,64.8575296,-147.7292275,TRUE,FALSE,TRUE,"S234271390"
"529","hamfly","Hammond's Flycatcher","Empidonax hammondii","L128885","Barfoot Park","2025-05-07 09:30",8,31.9172001,-109.2790985,TRUE,FALSE,FALSE,"S234349400"
"530","hamfly","Hammond's Flycatcher","Empidonax hammondii","L8210396","Vesper Meadow","2025-05-07 09:30",1,42.2615536,-122.4569836,TRUE,FALSE,FALSE,"S234440473"
"531","hamfly","Hammond's Flycatcher","Empidonax hammondii","L44334084","Moose Creek Landing","2025-05-07 09:28",1,64.7177275,-147.2591444,TRUE,FALSE,TRUE,"S234271092"
"532","hamfly","Hammond's Flycatcher","Empidonax hammondii","L4778972","Creston Fish Hatchery and Jessup Mill Pond","2025-05-07 09:24",4,48.1985143,-114.1155995,TRUE,FALSE,FALSE,"S234278602"
"533","hamfly","Hammond's Flycatcher","Empidonax hammondii","L2086051","Japanese Gulch, Mukilteo","2025-05-07 09:23",1,47.9466235,-122.2922033,TRUE,FALSE,FALSE,"S234317736"
"534","hamfly","Hammond's Flycatcher","Empidonax hammondii","L20490110","Dungeness Trails--West of River Rd","2025-05-07 09:02",1,48.0498489,-123.1388005,TRUE,FALSE,FALSE,"S234288391"
"535","hamfly","Hammond's Flycatcher","Empidonax hammondii","L855860","Mt. Lemmon--San Pedro Vista","2025-05-07 09:00",2,32.4003,-110.6900509,TRUE,FALSE,FALSE,"S234296115"
"536","hamfly","Hammond's Flycatcher","Empidonax hammondii","L11293554","Crick Ave. Greenbelt","2025-05-07 08:58",2,35.001917,-106.619699,TRUE,FALSE,FALSE,"S234227712"
"537","hamfly","Hammond's Flycatcher","Empidonax hammondii","L209342","Henderson Bird Viewing Preserve","2025-05-07 08:50",1,36.0749791,-115.0021416,TRUE,FALSE,FALSE,"S234283283"
"538","hamfly","Hammond's Flycatcher","Empidonax hammondii","L44392912","Olympic Discovery Trail, Port Angeles, Washington, US (48.071, -123.978)","2025-05-07 08:45",1,48.0714087,-123.9783969,TRUE,FALSE,TRUE,"S234616390"
"539","hamfly","Hammond's Flycatcher","Empidonax hammondii","L44396015","Flowery Trail Rd, Usk US-WA 48.28280, -117.46288","2025-05-07 08:41",1,48.282803,-117.462878,TRUE,FALSE,TRUE,"S234632324"
"540","hamfly","Hammond's Flycatcher","Empidonax hammondii","L1354720","my yard; Boy Scout Lane","2025-05-07 08:30",1,31.818084,-106.5769609,TRUE,FALSE,TRUE,"S234257107"
"541","hamfly","Hammond's Flycatcher","Empidonax hammondii","L951805","Beeline Highway--Mesquite Wash","2025-05-07 08:29",1,33.7300861,-111.5110159,TRUE,FALSE,FALSE,"S234605702"
"542","hamfly","Hammond's Flycatcher","Empidonax hammondii","L44336570","Ochoco National Forest, Prineville US-OR 44.03347, -120.53936","2025-05-07 08:26",2,44.033467,-120.539361,TRUE,FALSE,TRUE,"S234283735"
"543","hamfly","Hammond's Flycatcher","Empidonax hammondii","L160935","Ballona Freshwater Marsh","2025-05-07 08:24",1,33.9701285,-118.4305573,TRUE,TRUE,FALSE,"S234243009"
"544","hamfly","Hammond's Flycatcher","Empidonax hammondii","L473858","Yost Memorial Park","2025-05-07 08:11",2,47.8081973,-122.3598862,TRUE,FALSE,FALSE,"S234341007"
"545","hamfly","Hammond's Flycatcher","Empidonax hammondii","L854653","Deschutes NF--NFD Rd. 62","2025-05-07 08:01",1,43.5199873,-121.6791523,TRUE,FALSE,FALSE,"S234215283"
"546","hamfly","Hammond's Flycatcher","Empidonax hammondii","L3964871","Manito Park","2025-05-07 07:58",1,47.6371233,-117.4117128,TRUE,FALSE,FALSE,"S234237884"
"547","hamfly","Hammond's Flycatcher","Empidonax hammondii","L44321838","Law Driveway","2025-05-07 07:57",1,47.478672,-116.749299,TRUE,FALSE,TRUE,"S234204063"
"548","hamfly","Hammond's Flycatcher","Empidonax hammondii","L11739418","Morrow Park Area","2025-05-07 07:55",1,47.6019672,-117.1989921,TRUE,FALSE,FALSE,"S234230915"
"549","hamfly","Hammond's Flycatcher","Empidonax hammondii","L19121608","Roy Peterson Wolf Creek Preserve (Private)","2025-05-07 07:50",1,39.0564845,-121.096734,TRUE,FALSE,FALSE,"S234439821"
"550","hamfly","Hammond's Flycatcher","Empidonax hammondii","L3448024","Page Springs Fish Hatchery","2025-05-07 07:43",1,34.764743,-111.8900013,TRUE,FALSE,TRUE,"S234301496"
"551","hamfly","Hammond's Flycatcher","Empidonax hammondii","L742900","Hills Creek Pond","2025-05-07 07:42",2,43.7133789,-122.4286473,TRUE,FALSE,FALSE,"S234257456"
"552","hamfly","Hammond's Flycatcher","Empidonax hammondii","L19117120","Home","2025-05-07 07:41",1,47.567826,-113.730693,TRUE,FALSE,TRUE,"S234175597"
"553","hamfly","Hammond's Flycatcher","Empidonax hammondii","L128887","Mt. Lemmon--Bear Canyon (General Hitchcock Campground)","2025-05-07 07:38",1,32.3771019,-110.6850967,TRUE,FALSE,FALSE,"S234799101"
"554","hamfly","Hammond's Flycatcher","Empidonax hammondii","L622120","Packwood Memorial Cemetery","2025-05-07 07:35",1,48.0117311,-119.8187828,TRUE,FALSE,FALSE,"S234273332"
"555","hamfly","Hammond's Flycatcher","Empidonax hammondii","L23843986","Fisk Rd","2025-05-07 07:34",1,44.122713,-123.463491,TRUE,FALSE,TRUE,"S234255574"
"556","hamfly","Hammond's Flycatcher","Empidonax hammondii","L168656","Desert NWR--Corn Creek (Field Station)","2025-05-07 07:30",1,36.438797,-115.359566,TRUE,FALSE,FALSE,"S234324091"
"557","hamfly","Hammond's Flycatcher","Empidonax hammondii","L905903","Grizzly Peak","2025-05-07 07:27",1,42.27127,-122.60934,TRUE,FALSE,FALSE,"S234298992"
"558","hamfly","Hammond's Flycatcher","Empidonax hammondii","L3058433","Griffith Park--Bronson (Brush) Canyon","2025-05-07 07:19",1,34.1225877,-118.3156246,TRUE,FALSE,FALSE,"S234259930"
"559","hamfly","Hammond's Flycatcher","Empidonax hammondii","L44348463","Forest Service Road 42D, San Simon US-AZ 31.93293, -109.26372","2025-05-07 07:16",5,31.932927,-109.263723,TRUE,FALSE,TRUE,"S234352363"
