"","speciesCode","comName","sciName","locId","locName","obsDt","howMany","lat","lng","obsValid","obsReviewed","locationPrivate","subId"
"1","hawama","Hawaii Amakihi","Chlorodrepanis virens","L366605","Pu'u O'o Trail, Kipuka Ainahou section (first 2 miles)","2025-05-27 07:35",35,19.6714434,-155.3849602,TRUE,FALSE,FALSE,"S243631267"
"2","hawama","Hawaii Amakihi","Chlorodrepanis virens","L880993","Hawaiʻi Volcanoes NP--Mauna Loa Trail, Top of Strip Road","2025-05-26 11:15",9,19.4929006,-155.385561,TRUE,FALSE,FALSE,"S243271989"
"3","hawama","Hawaii Amakihi","Chlorodrepanis virens","L247163","Haleakala NP--Hosmer Grove","2025-05-26 09:37",2,20.7684183,-156.2365883,TRUE,FALSE,FALSE,"S243208180"
"4","hawama","Hawaii Amakihi","Chlorodrepanis virens","L36255784","Unnamed Road, Hawaii, US (19.818, -155.622)","2025-05-26 06:58",40,19.8181265,-155.6222837,TRUE,FALSE,TRUE,"S243183356"
"5","hawama","Hawaii Amakihi","Chlorodrepanis virens","L1614549","HI: Haleakala NP - Visitors' Center (lower)","2025-05-25 17:16",1,20.7587584,-156.2470973,TRUE,FALSE,FALSE,"S242809178"
"6","hawama","Hawaii Amakihi","Chlorodrepanis virens","L370534","Kaulana Manu Nature Trail (""Kīpuka 21"")","2025-05-25 11:49",6,19.6713676,-155.3679389,TRUE,FALSE,FALSE,"S242798473"
"7","hawama","Hawaii Amakihi","Chlorodrepanis virens","L10085221","Cockatoo spot","2025-05-25 08:46",6,19.7074059,-155.9502137,TRUE,FALSE,TRUE,"S242796520"
"8","hawama","Hawaii Amakihi","Chlorodrepanis virens","L45985684","Saddle Road, Hilo, Hawaii, US (19.67, -155.371)","2025-05-25 06:32",17,19.6702923,-155.3712904,TRUE,FALSE,TRUE,"S242695627"
"9","hawama","Hawaii Amakihi","Chlorodrepanis virens","L45889880","Twin Falls","2025-05-24 14:39",2,20.911643,-156.243464,TRUE,FALSE,TRUE,"S242267125"
"10","hawama","Hawaii Amakihi","Chlorodrepanis virens","L880983","Pu'u Maka'ala NAR, 'Wright Road Trail'","2025-05-24 13:54",18,19.4849205,-155.2697325,TRUE,FALSE,FALSE,"S242250683"
"11","hawama","Hawaii Amakihi","Chlorodrepanis virens","L45867230","Mauna Kea Forest Reserve, Honokaa US-HI 19.81521, -155.55524","2025-05-24 09:43",5,19.815205,-155.555242,TRUE,FALSE,TRUE,"S242162120"
"12","hawama","Hawaii Amakihi","Chlorodrepanis virens","L695639","Hakalau Forest NWR--Pua Akala Tract (restricted access)","2025-05-24 09:30",7,19.7895,-155.3262,TRUE,FALSE,FALSE,"S242188216"
"13","hawama","Hawaii Amakihi","Chlorodrepanis virens","L45854420","96727, Honokaa US-HI 19.83234, -155.59689","2025-05-24 08:16",5,19.832343,-155.596888,TRUE,FALSE,TRUE,"S242110522"
"14","hawama","Hawaii Amakihi","Chlorodrepanis virens","L1107884","Hawai'i Volcanoes NP--Waldron Ledge and 'Earthquake Trail'","2025-05-24 05:25",1,19.4220778,-155.2561069,TRUE,FALSE,FALSE,"S242061179"
"15","hawama","Hawaii Amakihi","Chlorodrepanis virens","L45776643","Hawai’i Volcanoes NP — Kīlauea Iki Crater","2025-05-23 15:02",1,19.41354,-155.248694,TRUE,FALSE,TRUE,"S241770715"
"16","hawama","Hawaii Amakihi","Chlorodrepanis virens","L16572749","HI: Keanakolu Road (19.732, -155.389)","2025-05-23 13:44",1,19.732357,-155.3886948,TRUE,FALSE,TRUE,"S242140550"
"17","hawama","Hawaii Amakihi","Chlorodrepanis virens","L7615600","Hosmer Grove Campground","2025-05-23 11:42",NA,20.7682265,-156.2381816,TRUE,FALSE,FALSE,"S241715320"
"18","hawama","Hawaii Amakihi","Chlorodrepanis virens","L21014880","HI: Mana Road (19.739, -155.382)","2025-05-23 08:06",2,19.7388791,-155.3818278,TRUE,FALSE,TRUE,"S241772204"
"19","hawama","Hawaii Amakihi","Chlorodrepanis virens","L285822","Hawaiʻi Volcanoes NP--Kīpuka Puaulu","2025-05-23 07:15",3,19.4405764,-155.3024554,TRUE,FALSE,FALSE,"S241728505"
"20","hawama","Hawaii Amakihi","Chlorodrepanis virens","L45628032","Mauna Kea Forest Reserve, Honokaa US-HI 19.81825, -155.55415","2025-05-23 05:54",3,19.818254,-155.554155,TRUE,FALSE,TRUE,"S241776409"
"21","hawama","Hawaii Amakihi","Chlorodrepanis virens","L880987","Hale pōhaku and the Mauna Kea Visitor Center","2025-05-22 15:13",2,19.7596054,-155.4553413,TRUE,FALSE,FALSE,"S241398266"
"22","hawama","Hawaii Amakihi","Chlorodrepanis virens","L10123074","Hawaiʻi Volcanoes NP--Devastation Trail","2025-05-22 12:06",1,19.4070035,-155.252863,TRUE,FALSE,FALSE,"S241352967"
"23","hawama","Hawaii Amakihi","Chlorodrepanis virens","L38594920","Hosmer Nature Trail, Kula US-HI 20.76770, -156.23580","2025-05-22 10:38",4,20.767699,-156.235801,TRUE,FALSE,TRUE,"S241347820"
"24","hawama","Hawaii Amakihi","Chlorodrepanis virens","L368256","Start of Mana/Keanakolu Road","2025-05-22 08:02",1,19.7124,-155.4478,TRUE,FALSE,FALSE,"S241404367"
"25","hawama","Hawaii Amakihi","Chlorodrepanis virens","L285813","Pu'u La'au, Palila Discovery Trail and Ka'ohe GMA","2025-05-21 14:22",18,19.8319137,-155.5947653,TRUE,FALSE,FALSE,"S241127553"
"26","hawama","Hawaii Amakihi","Chlorodrepanis virens","L8599253","Honua‘ula Forest Reserve (Makāula -‘O‘oma section)","2025-05-20 18:45",1,19.7179801,-155.9487784,TRUE,FALSE,FALSE,"S240801622"
"27","hawama","Hawaii Amakihi","Chlorodrepanis virens","L28843431","HI: Keanakolu/Mana Road (19.713, -155.447)","2025-05-20 13:20",1,19.7126757,-155.4472424,TRUE,FALSE,TRUE,"S240800097"
"28","hawama","Hawaii Amakihi","Chlorodrepanis virens","L16572751","HI: Keanakolu Road (19.727, -155.412)","2025-05-20 13:08",1,19.7265098,-155.4115398,TRUE,FALSE,TRUE,"S240800060"
"29","hawama","Hawaii Amakihi","Chlorodrepanis virens","L16532746","HI: Keanakolu Road (19.786, -155.342)","2025-05-20 12:35",3,19.7858812,-155.3423516,TRUE,FALSE,TRUE,"S240799695"
"30","hawama","Hawaii Amakihi","Chlorodrepanis virens","L45564596","Hosmer Nature Trail, Kula US-HI 20.76842, -156.23686","2025-05-20 09:54",5,20.768416,-156.236857,TRUE,FALSE,TRUE,"S240739084"
"31","hawama","Hawaii Amakihi","Chlorodrepanis virens","L17087837","HI: Keanakolu Road (19.78, -155.346)","2025-05-20 08:26",3,19.7801174,-155.346376,TRUE,FALSE,TRUE,"S240793068"
"32","hawama","Hawaii Amakihi","Chlorodrepanis virens","L678130","Haleakala NP--Halemau'u Trail","2025-05-20 06:30",NA,20.7553514,-156.2233114,TRUE,FALSE,FALSE,"S240738759"
"33","hawama","Hawaii Amakihi","Chlorodrepanis virens","L20398850","HI: Keanakolu (19.731, -155.394)","2025-05-19 14:16",1,19.7312383,-155.3936314,TRUE,FALSE,TRUE,"S240791171"
"34","hawama","Hawaii Amakihi","Chlorodrepanis virens","L5296438","Hawai'i Volcanoes NP--Namakanipaio Campground","2025-05-19 11:20",1,19.4252751,-155.2957499,TRUE,FALSE,FALSE,"S241701156"
"35","hawama","Hawaii Amakihi","Chlorodrepanis virens","L999569","Kahakapao Trail, Makawao Forest Reserve","2025-05-19 11:00",1,20.82968,-156.27786,TRUE,FALSE,FALSE,"S240471895"
"36","hawama","Hawaii Amakihi","Chlorodrepanis virens","L1428621","Hawai'i Volcanoes NP--Steam Vents and Sulfur Banks Only","2025-05-19 09:59",1,19.4308804,-155.2673883,TRUE,FALSE,FALSE,"S240413299"
"37","hawama","Hawaii Amakihi","Chlorodrepanis virens","L45509829","6290 Hana Hwy, Haiku US-HI 20.91175, -156.24372","2025-05-19 08:32",3,20.911745,-156.243724,TRUE,FALSE,TRUE,"S240464715"
"38","hawama","Hawaii Amakihi","Chlorodrepanis virens","L16532705","HI: Keanakolu Road (19.781, -155.346)","2025-05-19 08:30",4,19.7814801,-155.3457164,TRUE,FALSE,TRUE,"S240448402"
"39","hawama","Hawaii Amakihi","Chlorodrepanis virens","L26310114","HI: Keanakolu Rd (19.77, -155.359)","2025-05-19 08:16",1,19.7696179,-155.3592292,TRUE,FALSE,TRUE,"S240447151"
"40","hawama","Hawaii Amakihi","Chlorodrepanis virens","L16437213","HI: Keanakolu Road (19.73, -155.401)","2025-05-19 07:45",1,19.729688,-155.401485,TRUE,FALSE,TRUE,"S240440100"
"41","hawama","Hawaii Amakihi","Chlorodrepanis virens","L16999051","HI: Keanakolu Road (19.727, -155.426)","2025-05-19 07:35",1,19.7274552,-155.4257492,TRUE,FALSE,TRUE,"S240439933"
"42","hawama","Hawaii Amakihi","Chlorodrepanis virens","L17170303","Kilohana Hunter Checking Station, Kaʻohe GMA","2025-05-19 06:30",17,19.8078193,-155.6297627,TRUE,FALSE,FALSE,"S240391373"
"43","hawama","Hawaii Amakihi","Chlorodrepanis virens","L601097","Hawaiʻi Volcanoes NP--Kīpuka Kī","2025-05-18 10:49",2,19.4435086,-155.3193855,TRUE,FALSE,FALSE,"S241101420"
"44","hawama","Hawaii Amakihi","Chlorodrepanis virens","L45387525","Mauna Kea Golf Course, Kamuela US-HI 20.00644, -155.82513","2025-05-18 08:51",1,20.006437,-155.825125,TRUE,FALSE,TRUE,"S239870402"
"45","hawama","Hawaii Amakihi","Chlorodrepanis virens","L285811","Powerline Road and far kipukas on Pu'u O'o Trail","2025-05-18 08:49",9,19.6482527,-155.3710127,TRUE,FALSE,FALSE,"S239944663"
