"","speciesCode","comName","sciName","locId","locName","obsDt","howMany","lat","lng","obsValid","obsReviewed","locationPrivate","subId"
"1","sursco","Surf Scoter","Melanitta perspicillata","L809637","Hoicks Hollow Rd.--Seawatch","2025-05-12 13:01",1,41.2909316,-69.9689627,TRUE,FALSE,FALSE,"S236970698"
"2","sursco","Surf Scoter","Melanitta perspicillata","L44832966","Cape Island, Cape May US-NJ 38.95193, -74.88065","2025-05-12 12:54",1,38.951934,-74.880653,TRUE,FALSE,TRUE,"S236952891"
"3","sursco","Surf Scoter","Melanitta perspicillata","L1018992","Hadley Point, Bar Harbor","2025-05-12 12:35",1,44.4441366,-68.3189964,TRUE,FALSE,FALSE,"S236957618"
"4","sursco","Surf Scoter","Melanitta perspicillata","L486255","Biddeford Pool","2025-05-12 12:25",1,43.4441328,-70.3623676,TRUE,FALSE,FALSE,"S236982456"
"5","sursco","Surf Scoter","Melanitta perspicillata","L1303132","Rockland Harbor--Breakwater","2025-05-12 11:25",8,44.1130005,-69.0810657,TRUE,FALSE,FALSE,"S236909244"
"6","sursco","Surf Scoter","Melanitta perspicillata","L168335","Odiorne Point SP, Rye","2025-05-12 11:02",10,43.045555,-70.71444,TRUE,FALSE,FALSE,"S236968077"
"7","sursco","Surf Scoter","Melanitta perspicillata","L487666","Marconi Station Site","2025-05-12 11:00",80,41.9140224,-69.9714196,TRUE,FALSE,FALSE,"S236917558"
"8","sursco","Surf Scoter","Melanitta perspicillata","L466873","Scusset Beach State Reservation","2025-05-12 10:30",4,41.7781927,-70.500555,TRUE,FALSE,FALSE,"S236899198"
"9","sursco","Surf Scoter","Melanitta perspicillata","L996025","Seal Cove Picnic Area","2025-05-12 09:32",8,44.2829852,-68.4081007,TRUE,FALSE,FALSE,"S236863756"
"10","sursco","Surf Scoter","Melanitta perspicillata","L140043","Sachuest Point NWR","2025-05-12 09:28",6,41.4799232,-71.2431946,TRUE,FALSE,FALSE,"S236901082"
"11","sursco","Surf Scoter","Melanitta perspicillata","L693848","Cape Island--CMP--Coral Ave. dune crossing","2025-05-12 09:25",8,38.9327948,-74.9651502,TRUE,FALSE,FALSE,"S236879799"
"12","sursco","Surf Scoter","Melanitta perspicillata","L11617323","Great Duck Island (restricted access)","2025-05-12 09:25",5,44.144019,-68.24627,TRUE,FALSE,FALSE,"S236874072"
"13","sursco","Surf Scoter","Melanitta perspicillata","L161004","Barnegat Lighthouse SP","2025-05-12 09:22",15,39.7633333,-74.1058333,TRUE,FALSE,FALSE,"S236936859"
"14","sursco","Surf Scoter","Melanitta perspicillata","L2870193","Todd Wildlife Sanctuary, Bremen","2025-05-12 09:19",16,43.983956,-69.4201854,TRUE,FALSE,FALSE,"S236869086"
"15","sursco","Surf Scoter","Melanitta perspicillata","L997003","Coyote Point County Park--yacht club, harbor and freshwater marsh","2025-05-12 08:57",2,37.5886459,-122.3152274,TRUE,FALSE,FALSE,"S236929429"
"16","sursco","Surf Scoter","Melanitta perspicillata","L447385","Ecola SP","2025-05-12 08:45",10,45.9183632,-123.9774513,TRUE,FALSE,FALSE,"S236929387"
"17","sursco","Surf Scoter","Melanitta perspicillata","L9597284","Point Defiance Park--Dune Peninsula & Wilson Way","2025-05-12 08:44",5,47.3050674,-122.5095794,TRUE,FALSE,FALSE,"S236939557"
"18","sursco","Surf Scoter","Melanitta perspicillata","L7497115","Myrtle Edwards Park / Centennial Park","2025-05-12 08:30",30,47.6226242,-122.3664308,TRUE,FALSE,FALSE,"S236915890"
"19","sursco","Surf Scoter","Melanitta perspicillata","L278317","Rye Harbor","2025-05-12 08:21",1,43.0008809,-70.747962,TRUE,FALSE,FALSE,"S236827096"
"20","sursco","Surf Scoter","Melanitta perspicillata","L140452","Whitefish Point","2025-05-12 08:16",6,46.7706876,-84.9569493,TRUE,FALSE,FALSE,"S236970794"
"21","sursco","Surf Scoter","Melanitta perspicillata","L6634609","South Bristol","2025-05-12 08:16",5,43.8622575,-69.5583916,TRUE,FALSE,FALSE,"S236856210"
"22","sursco","Surf Scoter","Melanitta perspicillata","L601522","Scott's Landing Preserve (IHT), Deer Isle","2025-05-12 08:11",6,44.2775316,-68.6762452,TRUE,FALSE,FALSE,"S236849149"
"23","sursco","Surf Scoter","Melanitta perspicillata","L6743152","Swartz Bay-Tswassen Ferry (WA water portion)","2025-05-12 08:09",40,48.9707523,-123.1677675,TRUE,FALSE,FALSE,"S236913902"
"24","sursco","Surf Scoter","Melanitta perspicillata","L1283631","Islesboro--Turtle Head Preserve","2025-05-12 07:59",30,44.386489,-68.8794614,TRUE,FALSE,TRUE,"S236834930"
"25","sursco","Surf Scoter","Melanitta perspicillata","L1049638","Lordship Seawall","2025-05-12 07:53",4,41.1476501,-73.1290092,TRUE,FALSE,FALSE,"S236814195"
"26","sursco","Surf Scoter","Melanitta perspicillata","L548476","Haystack Rock","2025-05-12 07:43",120,45.8847357,-123.9683104,TRUE,FALSE,FALSE,"S236897504"
"27","sursco","Surf Scoter","Melanitta perspicillata","L19107384","ME-Islesboro -sprague beach","2025-05-12 07:41",45,44.3779778,-68.8837339,TRUE,FALSE,TRUE,"S236806805"
"28","sursco","Surf Scoter","Melanitta perspicillata","L285940","Cape Kiwanda SP","2025-05-12 07:40",100,45.2174028,-123.9778006,TRUE,FALSE,FALSE,"S236898556"
"29","sursco","Surf Scoter","Melanitta perspicillata","L1676092","Rachel Carson NWR--Timber Point Trail","2025-05-12 07:40",4,43.4012099,-70.3969941,TRUE,FALSE,FALSE,"S236867430"
"30","sursco","Surf Scoter","Melanitta perspicillata","L15761084","Piscataqua River, Kittery Point US-ME to Isles of Shoals","2025-05-12 07:33",8,43.053253,-70.701854,TRUE,FALSE,TRUE,"S236810103"
"31","sursco","Surf Scoter","Melanitta perspicillata","L5272264","Clark Island","2025-05-12 07:23",13,43.9868246,-69.1827106,TRUE,FALSE,FALSE,"S236943946"
"32","sursco","Surf Scoter","Melanitta perspicillata","L1877342","Browns Point Lighthouse Park","2025-05-12 07:02",4,47.3057,-122.44382,TRUE,FALSE,FALSE,"S236929382"
"33","sursco","Surf Scoter","Melanitta perspicillata","L44358547","Airport Dike Rd, Fairbanks US-AK 64.79895, -147.89546","2025-05-12 06:47",7,64.798953,-147.895465,TRUE,FALSE,TRUE,"S236926698"
"34","sursco","Surf Scoter","Melanitta perspicillata","L109135","Cape Island--Higbee Beach WMA","2025-05-12 06:30",1,38.9613889,-74.9608333,TRUE,FALSE,FALSE,"S236980852"
"35","sursco","Surf Scoter","Melanitta perspicillata","L610504","Homer AK - Bishop's Beach","2025-05-12 06:30",3,59.6393155,-151.5558386,TRUE,FALSE,TRUE,"S236913010"
"36","sursco","Surf Scoter","Melanitta perspicillata","L109309","Pt. Pinos--seawatch only","2025-05-12 06:28",11,36.6373821,-121.9357538,TRUE,FALSE,FALSE,"S236871961"
"37","sursco","Surf Scoter","Melanitta perspicillata","L6789367","5014 NE Canal Ln, Hansville, WA","2025-05-12 06:10",10,47.9094506,-122.5849664,TRUE,FALSE,TRUE,"S236946850"
"38","sursco","Surf Scoter","Melanitta perspicillata","L11479287","Hall Point General Area","2025-05-12 06:10",1,38.187545,-75.9337462,TRUE,FALSE,TRUE,"S236977360"
"39","sursco","Surf Scoter","Melanitta perspicillata","L602509","Sears Island","2025-05-12 06:03",5,44.453009,-68.8808956,TRUE,FALSE,FALSE,"S236808834"
"40","sursco","Surf Scoter","Melanitta perspicillata","L933275","Hampton Harbor--Yankee Fisherman's Coop","2025-05-12 06:03",3,42.8910738,-70.8190835,TRUE,FALSE,FALSE,"S236773327"
"41","sursco","Surf Scoter","Melanitta perspicillata","L129046","Parker River NWR","2025-05-12 06:02",1,42.7639008,-70.8022995,TRUE,FALSE,FALSE,"S236917426"
"42","sursco","Surf Scoter","Melanitta perspicillata","L1137033","Cape Island--Higbee Beach WMA--Morning Flight platform","2025-05-12 06:01",10,38.96391,-74.96159,TRUE,FALSE,FALSE,"S236873870"
"43","sursco","Surf Scoter","Melanitta perspicillata","L241815","Willard Beach","2025-05-12 05:50",4,43.6432593,-70.2269073,TRUE,FALSE,FALSE,"S236787956"
"44","sursco","Surf Scoter","Melanitta perspicillata","L207383","Manomet Conservation Sciences","2025-05-12 05:31",100,41.921005,-70.5442548,TRUE,TRUE,FALSE,"S236813209"
"45","sursco","Surf Scoter","Melanitta perspicillata","L10946930","70 Bayside","2025-05-12 05:29",3,44.382355,-68.980359,TRUE,FALSE,TRUE,"S236786387"
"46","sursco","Surf Scoter","Melanitta perspicillata","L526888","Tanana Lakes Recreation Area","2025-05-11 21:22",5,64.7966492,-147.7180481,TRUE,FALSE,FALSE,"S236750878"
"47","sursco","Surf Scoter","Melanitta perspicillata","L44638340","Richardson Hwy, Delta Junction US-AK 63.67874, -145.88403","2025-05-11 21:18",9,63.678736,-145.884033,TRUE,FALSE,TRUE,"S236727715"
"48","sursco","Surf Scoter","Melanitta perspicillata","L29757613","Nelchina Lodge","2025-05-11 19:35",5,61.989779,-146.779167,TRUE,FALSE,FALSE,"S236717920"
"49","sursco","Surf Scoter","Melanitta perspicillata","L730351","Charleston Slough/Coast Casey Forebay","2025-05-11 19:20",1,37.4359191,-122.098918,TRUE,FALSE,FALSE,"S236719211"
"50","sursco","Surf Scoter","Melanitta perspicillata","L5070181","Gustavus--ferry dock","2025-05-11 18:30",4,58.3901089,-135.7296596,TRUE,FALSE,FALSE,"S236718670"
"51","sursco","Surf Scoter","Melanitta perspicillata","L280298","Jodrey State Fish Pier","2025-05-11 18:25",NA,42.61408,-70.65221,TRUE,FALSE,FALSE,"S236620373"
"52","sursco","Surf Scoter","Melanitta perspicillata","L109136","Cape Island--South Cape May Meadows (SCMM)","2025-05-11 18:14",1,38.9359287,-74.9434519,TRUE,FALSE,FALSE,"S236635701"
"53","sursco","Surf Scoter","Melanitta perspicillata","L15873803","Anchor River SRA","2025-05-11 18:03",35,59.7739031,-151.8658974,TRUE,FALSE,FALSE,"S236716565"
"54","sursco","Surf Scoter","Melanitta perspicillata","L906328","Fairbanks Int. Airpt--Float Plane Ponds (possibly restricted)","2025-05-11 17:21",2,64.8246316,-147.8380394,TRUE,FALSE,FALSE,"S236721590"
"55","sursco","Surf Scoter","Melanitta perspicillata","L4901417","Walker's Cove marsh","2025-05-11 17:15",3,43.34629,-70.4599142,TRUE,FALSE,TRUE,"S236708510"
"56","sursco","Surf Scoter","Melanitta perspicillata","L782141","Gustavus--Forelands Preserve (Salmon River)","2025-05-11 17:06",37,58.3996429,-135.7380581,TRUE,FALSE,FALSE,"S236718793"
"57","sursco","Surf Scoter","Melanitta perspicillata","L610793","Jones Beach SP--Zachs Bay","2025-05-11 16:46",11,40.6014415,-73.4918618,TRUE,FALSE,FALSE,"S236593885"
"58","sursco","Surf Scoter","Melanitta perspicillata","L2416295","Luna Park","2025-05-11 16:45",13,47.5952692,-122.3865366,TRUE,FALSE,FALSE,"S236666794"
"59","sursco","Surf Scoter","Melanitta perspicillata","L38098981","Olcott Small Piers","2025-05-11 16:45",2,43.339884,-78.7132386,TRUE,FALSE,FALSE,"S236571073"
"60","sursco","Surf Scoter","Melanitta perspicillata","L1128506","Homer--Crittenden Dr.","2025-05-11 16:45",5,59.6403702,-151.555506,TRUE,FALSE,FALSE,"S236705034"
"61","sursco","Surf Scoter","Melanitta perspicillata","L25302252","End of Wild Rose","2025-05-11 16:33",12,43.058967,-70.71346,TRUE,FALSE,TRUE,"S236595023"
"62","sursco","Surf Scoter","Melanitta perspicillata","L823013","Garcia River mouth and adjacent pasture","2025-05-11 16:27",8,38.9520335,-123.7310529,TRUE,FALSE,FALSE,"S236723610"
"63","sursco","Surf Scoter","Melanitta perspicillata","L450426","Cape Island--CMP--St. Peter's dune crossing","2025-05-11 16:16",1,38.9334623,-74.9665347,TRUE,FALSE,FALSE,"S236604611"
"64","sursco","Surf Scoter","Melanitta perspicillata","L2608551","Charles Richey Sr. Viewpoint","2025-05-11 16:10",1,47.5726544,-122.4140185,TRUE,FALSE,FALSE,"S236646505"
"65","sursco","Surf Scoter","Melanitta perspicillata","L164186","Reed's Beach and Road","2025-05-11 15:57",3,39.1167451,-74.8916665,TRUE,FALSE,FALSE,"S236571031"
"66","sursco","Surf Scoter","Melanitta perspicillata","L280301","Edmonds-Kingston Ferry (Snohomish Co.)","2025-05-11 15:55",13,47.8097152,-122.4237442,TRUE,FALSE,FALSE,"S236652610"
"67","sursco","Surf Scoter","Melanitta perspicillata","L3881355","Gastineau Channel","2025-05-11 15:42",1500,58.293704,-134.4118452,TRUE,FALSE,FALSE,"S236695657"
"68","sursco","Surf Scoter","Melanitta perspicillata","L1273677","Acadia NP--Thompson Island","2025-05-11 15:39",16,44.4267926,-68.3651733,TRUE,FALSE,FALSE,"S236540386"
"69","sursco","Surf Scoter","Melanitta perspicillata","L447860","Nahant--East Point Headland","2025-05-11 15:35",1,42.4184842,-70.9043393,TRUE,FALSE,FALSE,"S236554009"
"70","sursco","Surf Scoter","Melanitta perspicillata","L464998","Wells Beach","2025-05-11 15:32",20,43.2978231,-70.5681038,TRUE,FALSE,FALSE,"S236572593"
"71","sursco","Surf Scoter","Melanitta perspicillata","L299385","Rainbow Lake","2025-05-11 15:00",8,61.6986198,-150.0954062,TRUE,FALSE,TRUE,"S236689524"
"72","sursco","Surf Scoter","Melanitta perspicillata","L38614029","11800 N Douglas Hwy, Juneau US-AK 58.32326, -134.61979","2025-05-11 14:53",19,58.323263,-134.619791,TRUE,FALSE,TRUE,"S236950744"
"73","sursco","Surf Scoter","Melanitta perspicillata","L477509","Stover's Point Preserve (HHLT), Harpswell","2025-05-11 14:53",3,43.7578559,-69.9988639,TRUE,FALSE,FALSE,"S236546072"
"74","sursco","Surf Scoter","Melanitta perspicillata","L129084","Sandy Point State Reservation","2025-05-11 14:37",1,42.702006,-70.777711,TRUE,FALSE,FALSE,"S236540600"
"75","sursco","Surf Scoter","Melanitta perspicillata","L491609","Yaquina River--SW Jetty Way","2025-05-11 14:37",2,44.6158891,-124.0618658,TRUE,FALSE,FALSE,"S236605299"
"76","sursco","Surf Scoter","Melanitta perspicillata","L7540451","Pigeon Hill Bay","2025-05-11 14:25",10,44.436082,-67.880703,TRUE,FALSE,FALSE,"S236555524"
"77","sursco","Surf Scoter","Melanitta perspicillata","L590835","Pt. Reyes--New Willows","2025-05-11 14:22",20,37.9974943,-122.9831564,TRUE,FALSE,FALSE,"S236718499"
"78","sursco","Surf Scoter","Melanitta perspicillata","L1291922","Port Clyde Harbor","2025-05-11 14:15",3,43.9255782,-69.260087,TRUE,FALSE,FALSE,"S236646741"
"79","sursco","Surf Scoter","Melanitta perspicillata","L109489","Bodega Bay--harbor and immediate vicinity","2025-05-11 14:00",1,38.3238144,-123.0488491,TRUE,FALSE,FALSE,"S236699483"
"80","sursco","Surf Scoter","Melanitta perspicillata","L109147","Jones Beach SP--West End","2025-05-11 14:00",3,40.5835871,-73.5514346,TRUE,FALSE,FALSE,"S236564173"
"81","sursco","Surf Scoter","Melanitta perspicillata","L524998","West UAF Trails & Smith Lake","2025-05-11 13:54",3,64.8643458,-147.8634453,TRUE,FALSE,FALSE,"S236614419"
"82","sursco","Surf Scoter","Melanitta perspicillata","L44778001","Kachemak Bay State Park","2025-05-11 13:53",50,59.633255,-151.201598,TRUE,FALSE,TRUE,"S236631871"
"83","sursco","Surf Scoter","Melanitta perspicillata","L191685","Mendenhall Wetlands SGR--Fish Creek Delta","2025-05-11 13:28",15,58.3311702,-134.5996857,TRUE,FALSE,FALSE,"S236713641"
"84","sursco","Surf Scoter","Melanitta perspicillata","L167326","Biddeford Pool--East Point Sanctuary","2025-05-11 13:25",11,43.4470928,-70.3369403,TRUE,FALSE,FALSE,"S236480733"
"85","sursco","Surf Scoter","Melanitta perspicillata","L791371","Lake Merced--Concrete Bridge area","2025-05-11 13:23",1,37.7126918,-122.4879456,TRUE,FALSE,FALSE,"S236602709"
"86","sursco","Surf Scoter","Melanitta perspicillata","L453386","Pt. Reyes--Fish Docks (DO NOT INCLUDE Chimney Rock area)","2025-05-11 13:15",14,37.9956216,-122.9782104,TRUE,FALSE,FALSE,"S236716119"
"87","sursco","Surf Scoter","Melanitta perspicillata","L480663","Rockland-Vinalhaven and North Haven Ferries (open waters only!!)","2025-05-11 13:02",5,44.0964458,-68.977541,TRUE,FALSE,FALSE,"S236473316"
"88","sursco","Surf Scoter","Melanitta perspicillata","L444827","Parker River NWR--Lot 1","2025-05-11 13:00",2,42.7897793,-70.8091271,TRUE,FALSE,FALSE,"S236446270"
"89","sursco","Surf Scoter","Melanitta perspicillata","L1509283","Kachemak Bay--Eldred Passage","2025-05-11 12:59",4,59.5187342,-151.464698,TRUE,FALSE,FALSE,"S236579439"
"90","sursco","Surf Scoter","Melanitta perspicillata","L734546","Crescent City--Pebble Beach","2025-05-11 12:54",2,41.7669266,-124.234128,TRUE,FALSE,FALSE,"S236549522"
"91","sursco","Surf Scoter","Melanitta perspicillata","L128530","Discovery Park","2025-05-11 12:51",74,47.663868,-122.4215317,TRUE,FALSE,FALSE,"S236614597"
"92","sursco","Surf Scoter","Melanitta perspicillata","L1843449","Gravesend Bay, middle parking lot","2025-05-11 12:36",8,40.6040297,-74.0243731,TRUE,TRUE,FALSE,"S236424449"
"93","sursco","Surf Scoter","Melanitta perspicillata","L338560","Mori Pt.","2025-05-11 12:33",20,37.6204026,-122.4934964,TRUE,FALSE,FALSE,"S236682288"
"94","sursco","Surf Scoter","Melanitta perspicillata","L767320","Anchor Point","2025-05-11 12:32",25,59.7790573,-151.8633485,TRUE,FALSE,FALSE,"S236614491"
"95","sursco","Surf Scoter","Melanitta perspicillata","L4011832","Woodneck Beach and Marsh","2025-05-11 12:27",4,41.5750275,-70.6413388,TRUE,FALSE,FALSE,"S236444401"
"96","sursco","Surf Scoter","Melanitta perspicillata","L23925184","Nichols Passage","2025-05-11 12:22",1,55.288407,-131.594686,TRUE,FALSE,TRUE,"S236622879"
"97","sursco","Surf Scoter","Melanitta perspicillata","L1298816","Beach House","2025-05-11 12:20",16,45.252877,-123.966628,TRUE,FALSE,TRUE,"S236540420"
"98","sursco","Surf Scoter","Melanitta perspicillata","L2079999","Scituate, North","2025-05-11 12:15",10,42.23411,-70.7691193,TRUE,FALSE,TRUE,"S236577569"
"99","sursco","Surf Scoter","Melanitta perspicillata","L937291","Pt. Reyes--Pt. Reyes Beach North","2025-05-11 12:08",350,38.0754286,-122.9742192,TRUE,FALSE,FALSE,"S236714686"
"100","sursco","Surf Scoter","Melanitta perspicillata","L20643232","Brackett's Landing","2025-05-11 11:59",30,47.8133344,-122.3820588,TRUE,FALSE,FALSE,"S236521337"
"101","sursco","Surf Scoter","Melanitta perspicillata","L3719790","Denali NP&P--Railroad Crossing pond","2025-05-11 11:59",2,63.7009798,-148.8777575,TRUE,FALSE,FALSE,"S236633736"
"102","sursco","Surf Scoter","Melanitta perspicillata","L353732","Scarborough Marsh--Pine Point","2025-05-11 11:55",4,43.5445303,-70.3331662,TRUE,FALSE,FALSE,"S236381810"
"103","sursco","Surf Scoter","Melanitta perspicillata","L6206350","Parker River NWR--Stage Island Trail","2025-05-11 11:50",1,42.7095765,-70.7840538,TRUE,FALSE,FALSE,"S236481458"
"104","sursco","Surf Scoter","Melanitta perspicillata","L791486","Fauntleroy Ferry Terminal","2025-05-11 11:45",3,47.5232362,-122.3943123,TRUE,FALSE,FALSE,"S236518222"
"105","sursco","Surf Scoter","Melanitta perspicillata","L1890177","Kachemak Bay SP--Glacier Spit","2025-05-11 11:39",1,59.6467272,-151.2036124,TRUE,FALSE,FALSE,"S236729102"
"106","sursco","Surf Scoter","Melanitta perspicillata","L418748","Seacoast Drive to Tijuana River mouth","2025-05-11 11:31",5,32.5665347,-117.1322003,TRUE,FALSE,FALSE,"S236574287"
"107","sursco","Surf Scoter","Melanitta perspicillata","L516847","Mendenhall Wetlands SGR--E of river mouth","2025-05-11 11:30",NA,58.3495957,-134.5714474,TRUE,FALSE,FALSE,"S236721203"
"108","sursco","Surf Scoter","Melanitta perspicillata","L3738869","Kachemak Bay SP--Grewingk Creek/Lake","2025-05-11 11:27",1,59.6269709,-151.1631846,TRUE,FALSE,FALSE,"S236674050"
"109","sursco","Surf Scoter","Melanitta perspicillata","L298379","Hammonasset Beach SP","2025-05-11 11:24",6,41.2619859,-72.5548234,TRUE,FALSE,FALSE,"S236443659"
"110","sursco","Surf Scoter","Melanitta perspicillata","L1142122","Crescent City Harbor--Anchor Way & Whaler Island","2025-05-11 11:19",3,41.7426017,-124.1819268,TRUE,FALSE,FALSE,"S236503159"
"111","sursco","Surf Scoter","Melanitta perspicillata","L44718813","Beach Ave","2025-05-11 11:15",10,38.932378,-74.908703,TRUE,FALSE,TRUE,"S236346628"
"112","sursco","Surf Scoter","Melanitta perspicillata","L1550876","Crescent Beach SP","2025-05-11 11:07",7,43.5638781,-70.2285522,TRUE,FALSE,FALSE,"S236461334"
"113","sursco","Surf Scoter","Melanitta perspicillata","L9501900","Allen Island dock (Friendship SW)","2025-05-11 11:05",6,43.876502,-69.312836,TRUE,FALSE,TRUE,"S236366080"
"114","sursco","Surf Scoter","Melanitta perspicillata","L44756498","Kachemak Bay State Wilderness Park, Homer US-AK 59.61169, -151.18930","2025-05-11 10:52",1,59.611691,-151.189299,TRUE,FALSE,TRUE,"S236526540"
"115","sursco","Surf Scoter","Melanitta perspicillata","L92443","Cape Island--CMPSP--Hawkwatch Platform","2025-05-11 10:50",18,38.9328558,-74.9579416,TRUE,FALSE,FALSE,"S236384516"
"116","sursco","Surf Scoter","Melanitta perspicillata","L390227","Eagle Beach SRA","2025-05-11 10:47",200,58.5283716,-134.8270512,TRUE,FALSE,FALSE,"S236691515"
"117","sursco","Surf Scoter","Melanitta perspicillata","L109146","Jones Beach SP--Coast Guard Station","2025-05-11 10:43",3,40.5888889,-73.5566667,TRUE,FALSE,FALSE,"S236338205"
"118","sursco","Surf Scoter","Melanitta perspicillata","L292851","Fort Worden SP","2025-05-11 10:31",1,48.1408906,-122.7680969,TRUE,FALSE,FALSE,"S236607713"
"119","sursco","Surf Scoter","Melanitta perspicillata","L1518775","Biddeford Pool--South Point Sanctuary","2025-05-11 10:31",15,43.4439243,-70.3453101,TRUE,FALSE,FALSE,"S236474006"
"120","sursco","Surf Scoter","Melanitta perspicillata","L2384171","Mousam River Estuary","2025-05-11 10:29",4,43.3455763,-70.5140787,TRUE,FALSE,FALSE,"S236340743"
"121","sursco","Surf Scoter","Melanitta perspicillata","L514035","Winthrop Beach and Five Sisters","2025-05-11 10:28",2,42.3747938,-70.9681878,TRUE,FALSE,FALSE,"S236378306"
"122","sursco","Surf Scoter","Melanitta perspicillata","L199273","Semiahmoo Spit","2025-05-11 10:11",13,48.9800492,-122.7883112,TRUE,FALSE,FALSE,"S236580504"
"123","sursco","Surf Scoter","Melanitta perspicillata","L391136","Pt. Reyes--Drakes Beach (DO NOT INCLUDE Horseshoe Pond or beach/estero beyond Horseshoe Pond)","2025-05-11 10:10",16,38.0271821,-122.9615507,TRUE,FALSE,FALSE,"S236713701"
"124","sursco","Surf Scoter","Melanitta perspicillata","L1990251","Pleasure House Point Natural Area","2025-05-11 09:53",1,36.903226,-76.0994303,TRUE,FALSE,FALSE,"S236315079"
"125","sursco","Surf Scoter","Melanitta perspicillata","L1565459","Newcomb Hollow Beach","2025-05-11 09:40",28,41.9637463,-69.9958109,TRUE,FALSE,FALSE,"S236349171"
"126","sursco","Surf Scoter","Melanitta perspicillata","L272612","Blaine Marine Park","2025-05-11 09:40",13,48.9950387,-122.7580957,TRUE,FALSE,FALSE,"S236707357"
"127","sursco","Surf Scoter","Melanitta perspicillata","L1788797","Ocean Ave (Water St), Edmonds","2025-05-11 09:36",2,47.825776,-122.3687986,TRUE,FALSE,FALSE,"S236415610"
"128","sursco","Surf Scoter","Melanitta perspicillata","L1166668","Cape Island--Higbee Beach WMA--Canal Overlook/Jetty","2025-05-11 09:35",28,38.9658365,-74.9632305,TRUE,FALSE,FALSE,"S236303674"
"129","sursco","Surf Scoter","Melanitta perspicillata","L2804738","Tanglewood Preserve","2025-05-11 09:32",1,40.6657397,-73.6591401,TRUE,FALSE,FALSE,"S236303719"
"130","sursco","Surf Scoter","Melanitta perspicillata","L34912894","Eagle Beach","2025-05-11 09:30",25,58.5291726,-134.8286283,TRUE,FALSE,TRUE,"S236583251"
"131","sursco","Surf Scoter","Melanitta perspicillata","L831918","CBBT--North Scenic Overlook","2025-05-11 09:18",1,37.1214539,-75.9692574,TRUE,FALSE,FALSE,"S236248232"
"132","sursco","Surf Scoter","Melanitta perspicillata","L478845","Pt. Reyes--Tomales Point Trail","2025-05-11 09:11",1,38.211209,-122.9720306,TRUE,FALSE,FALSE,"S236664966"
"133","sursco","Surf Scoter","Melanitta perspicillata","L2875552","SJCR stationary point 1 (tower)","2025-05-11 09:07",30,46.2264812,-124.0142409,TRUE,FALSE,TRUE,"S236402876"
"134","sursco","Surf Scoter","Melanitta perspicillata","L245894","Port Angeles City Pier","2025-05-11 09:05",21,48.1205005,-123.4287722,TRUE,FALSE,FALSE,"S236399261"
"135","sursco","Surf Scoter","Melanitta perspicillata","L467584","Herring Cove Beach","2025-05-11 08:56",9,42.0461217,-70.2185583,TRUE,FALSE,FALSE,"S236282126"
"136","sursco","Surf Scoter","Melanitta perspicillata","L787279","Lewes-Cape May Ferry (DE waters)","2025-05-11 08:51",1,38.8308824,-75.1073456,TRUE,FALSE,FALSE,"S236650078"
"137","sursco","Surf Scoter","Melanitta perspicillata","L684397","Potlatch State Park","2025-05-11 08:51",5,47.3610803,-123.1569099,TRUE,FALSE,FALSE,"S236399747"
"138","sursco","Surf Scoter","Melanitta perspicillata","L374382","Edmonds Waterfront","2025-05-11 08:39",8,47.8119268,-122.3854144,TRUE,FALSE,FALSE,"S236399637"
"139","sursco","Surf Scoter","Melanitta perspicillata","L9847543","Kachemak Bay--Gull Island","2025-05-11 08:27",NA,59.5850521,-151.3284206,TRUE,FALSE,FALSE,"S236450556"
"140","sursco","Surf Scoter","Melanitta perspicillata","L24092187","Tanana Lakes Recreation Area, Fairbanks US-AK 64.79992, -147.72985","2025-05-11 08:25",3,64.799919,-147.729852,TRUE,FALSE,TRUE,"S236490595"
"141","sursco","Surf Scoter","Melanitta perspicillata","L271476","Pigeon Pt.","2025-05-11 08:22",1,37.182,-122.394,TRUE,FALSE,FALSE,"S236642478"
"142","sursco","Surf Scoter","Melanitta perspicillata","L12465921","Private location, Mattituck","2025-05-11 08:13",5,40.9993256,-72.5685124,TRUE,FALSE,TRUE,"S236625760"
"143","sursco","Surf Scoter","Melanitta perspicillata","L483548","Gravesend Bay, Shore Parkway Greenway Trail","2025-05-11 07:59",6,40.601293,-74.0120164,TRUE,TRUE,FALSE,"S236633293"
"144","sursco","Surf Scoter","Melanitta perspicillata","L718307","**Back Bay NWR","2025-05-11 07:57",1,36.672127,-75.915661,TRUE,FALSE,FALSE,"S236338412"
"145","sursco","Surf Scoter","Melanitta perspicillata","L10319999","Eel Pond, Mattapoisett","2025-05-11 07:49",2,41.6578107,-70.8193602,TRUE,FALSE,FALSE,"S236238870"
"146","sursco","Surf Scoter","Melanitta perspicillata","L20643235","Edmonds Public Fishing Pier","2025-05-11 07:39",8,47.8110241,-122.3899493,TRUE,FALSE,FALSE,"S236327685"
"147","sursco","Surf Scoter","Melanitta perspicillata","L26025593","American Camp - South Beach Trail Loop","2025-05-11 07:39",12,48.4637882,-123.02259,TRUE,FALSE,TRUE,"S236474387"
"148","sursco","Surf Scoter","Melanitta perspicillata","L298030","Carkeek Park","2025-05-11 07:30",NA,47.7126411,-122.377647,TRUE,FALSE,FALSE,"S236398903"
"149","sursco","Surf Scoter","Melanitta perspicillata","L27127544","Perkins Point","2025-05-11 07:25",6,43.99597,-69.552239,TRUE,FALSE,TRUE,"S236194827"
"150","sursco","Surf Scoter","Melanitta perspicillata","L25914336","Pt Bridget Trail 99801, Juneau US-AK 58.65105, -134.93665","2025-05-11 07:24",1000,58.651053,-134.936655,TRUE,FALSE,TRUE,"S236610580"
"151","sursco","Surf Scoter","Melanitta perspicillata","L4115903","Primary location","2025-05-11 07:19",3,47.4879333,-122.5194743,TRUE,FALSE,TRUE,"S236687024"
"152","sursco","Surf Scoter","Melanitta perspicillata","L892424","West Beach","2025-05-11 07:06",1,34.4100608,-119.6901655,TRUE,FALSE,FALSE,"S236302516"
"153","sursco","Surf Scoter","Melanitta perspicillata","L1022599","Ocean Beach-- across from Oceanside Water Polution Plant (FOR STATIONARY SEAWATCH ONLY)","2025-05-11 07:03",24,37.7294017,-122.5069034,TRUE,FALSE,FALSE,"S236381190"
"154","sursco","Surf Scoter","Melanitta perspicillata","L613298","Mark Hatfield Marine Science Center and Estuary Trail","2025-05-11 06:58",6,44.6231604,-124.0434766,TRUE,FALSE,FALSE,"S236356034"
"155","sursco","Surf Scoter","Melanitta perspicillata","L109542","Point No Point","2025-05-11 06:56",2,47.9118696,-122.5283182,TRUE,FALSE,FALSE,"S236420676"
"156","sursco","Surf Scoter","Melanitta perspicillata","L20643227","Marina Beach Park","2025-05-11 06:49",8,47.8046691,-122.3942634,TRUE,FALSE,FALSE,"S236306537"
"157","sursco","Surf Scoter","Melanitta perspicillata","L631718","Ventura Harbor--Marina Park","2025-05-11 06:45",4,34.2542014,-119.2683935,TRUE,FALSE,FALSE,"S236281484"
"158","sursco","Surf Scoter","Melanitta perspicillata","L18661633","Schooner Point (Private)","2025-05-11 06:42",8,44.462584,-67.932375,TRUE,FALSE,TRUE,"S236451291"
"159","sursco","Surf Scoter","Melanitta perspicillata","L44796307","Private - End of Mud Bay Road","2025-05-11 06:38",NA,59.1465759,-135.3461039,TRUE,FALSE,TRUE,"S236737546"
"160","sursco","Surf Scoter","Melanitta perspicillata","L800627","North Spit--old Weyco Settling Pond & deflation plain","2025-05-11 06:35",2,43.4210895,-124.2850935,TRUE,FALSE,FALSE,"S236407890"
"161","sursco","Surf Scoter","Melanitta perspicillata","L4147009","Nahant Wharf","2025-05-11 06:29",8,42.4210805,-70.9172845,TRUE,FALSE,TRUE,"S236150804"
"162","sursco","Surf Scoter","Melanitta perspicillata","L340595","Wells Reserve at Laudholm","2025-05-11 06:23",2,43.3377737,-70.5497131,TRUE,FALSE,FALSE,"S236333562"
"163","sursco","Surf Scoter","Melanitta perspicillata","L44180297","Gunlow Pond Rd, Bernard US-ME (private)","2025-05-11 06:01",45,44.247144,-68.373647,TRUE,FALSE,TRUE,"S236145264"
"164","sursco","Surf Scoter","Melanitta perspicillata","L985351","Cape Henlopen SP--Herring Point","2025-05-11 06:00",5,38.7657665,-75.0821221,TRUE,FALSE,FALSE,"S236259342"
"165","sursco","Surf Scoter","Melanitta perspicillata","L1312792","Ketchikan Airport Perimeter","2025-05-11 06:00",17,55.3612831,-131.7197227,TRUE,FALSE,FALSE,"S236711830"
"166","sursco","Surf Scoter","Melanitta perspicillata","L2973484","Fire Island--Davis Park","2025-05-11 05:58",18,40.6840955,-73.0041835,TRUE,FALSE,FALSE,"S236654741"
"167","sursco","Surf Scoter","Melanitta perspicillata","L40936427","HarveyCedars/Loveladies","2025-05-11 05:35",NA,39.710204,-74.132018,TRUE,FALSE,TRUE,"S236601752"
"168","sursco","Surf Scoter","Melanitta perspicillata","L152499","Breezy Point Tip","2025-05-11 05:34",50,40.5506643,-73.9357889,TRUE,TRUE,FALSE,"S236340784"
"169","sursco","Surf Scoter","Melanitta perspicillata","L1855036","Cedar Point County Park","2025-05-11 05:34",2,41.0404941,-72.2334008,TRUE,FALSE,FALSE,"S236171233"
"170","sursco","Surf Scoter","Melanitta perspicillata","L265656","South Cape Beach SP","2025-05-11 05:30",6,41.5536361,-70.4993146,TRUE,FALSE,FALSE,"S236143492"
"171","sursco","Surf Scoter","Melanitta perspicillata","L21374870","Towers Rd, Juneau US-AK 58.38916, -134.76825","2025-05-11 04:55",300,58.389163,-134.76825,TRUE,FALSE,TRUE,"S236689853"
"172","sursco","Surf Scoter","Melanitta perspicillata","L443195","Sitka (town)","2025-05-11",4,57.049881,-135.3335381,TRUE,FALSE,FALSE,"S236552004"
"173","sursco","Surf Scoter","Melanitta perspicillata","L8835879","Cabin","2025-05-10 23:10",3,61.5739028,-149.9372651,TRUE,FALSE,TRUE,"S236079703"
"174","sursco","Surf Scoter","Melanitta perspicillata","L27938606","Lalen Lake","2025-05-10 21:15",5,61.608195,-149.69216,TRUE,FALSE,TRUE,"S236066903"
"175","sursco","Surf Scoter","Melanitta perspicillata","L845195","Samish Island--Day Use Area","2025-05-10 20:03",52,48.5781665,-122.541408,TRUE,FALSE,FALSE,"S236044427"
"176","sursco","Surf Scoter","Melanitta perspicillata","L594012","Shoreline Park--Shoreline Lake area","2025-05-10 19:48",1,37.432341,-122.0918369,TRUE,FALSE,FALSE,"S236046582"
"177","sursco","Surf Scoter","Melanitta perspicillata","L894831","Freshwater Bay","2025-05-10 19:33",52,48.1461024,-123.6414242,TRUE,FALSE,FALSE,"S236036735"
"178","sursco","Surf Scoter","Melanitta perspicillata","L372937","Humboldt Bay--Fields Landing Boat Ramp","2025-05-10 19:22",1,40.7260554,-124.2211032,TRUE,FALSE,FALSE,"S236033039"
"179","sursco","Surf Scoter","Melanitta perspicillata","L793855","Elwha River Mouth -- west access","2025-05-10 18:46",9,48.1454438,-123.5673952,TRUE,FALSE,FALSE,"S236027982"
"180","sursco","Surf Scoter","Melanitta perspicillata","L1128824","Homer Spit--Freight Dock Rd & Overlooks","2025-05-10 18:43",2,59.6094117,-151.4287233,TRUE,FALSE,FALSE,"S236084486"
"181","sursco","Surf Scoter","Melanitta perspicillata","L278184","Rye Harbor SP (Ragged Neck)","2025-05-10 18:40",4,43.00162,-70.74497,TRUE,FALSE,FALSE,"S236024538"
"182","sursco","Surf Scoter","Melanitta perspicillata","L594639","Pine Point Beach","2025-05-10 18:32",20,43.5376916,-70.3483987,TRUE,FALSE,FALSE,"S235913943"
"183","sursco","Surf Scoter","Melanitta perspicillata","L276107","Cape Island--CMP (Cape May Point)","2025-05-10 18:30",5,38.9377865,-74.9670721,TRUE,FALSE,FALSE,"S236585317"
"184","sursco","Surf Scoter","Melanitta perspicillata","L271497","Humboldt Bay--King Salmon","2025-05-10 18:27",60,40.740336,-124.218596,TRUE,FALSE,FALSE,"S236029453"
"185","sursco","Surf Scoter","Melanitta perspicillata","L779533","Yaquina River--South Jetty","2025-05-10 18:07",20,44.6110011,-124.0752983,TRUE,FALSE,FALSE,"S236023700"
"186","sursco","Surf Scoter","Melanitta perspicillata","L509262","Point Wilson","2025-05-10 18:05",3,48.1442626,-122.7539778,TRUE,FALSE,FALSE,"S236016584"
"187","sursco","Surf Scoter","Melanitta perspicillata","L17518900","San Juan Island--Cattle Point Lighthouse","2025-05-10 18:03",8,48.45063,-122.963337,TRUE,FALSE,FALSE,"S236026144"
"188","sursco","Surf Scoter","Melanitta perspicillata","L1169563","Pine Point Beach--Ave. 5","2025-05-10 18:03",12,43.5406589,-70.3370583,TRUE,FALSE,FALSE,"S235896658"
"189","sursco","Surf Scoter","Melanitta perspicillata","L1329429","Ocean Drive--Middle Thorofare Bridge & fish docks","2025-05-10 17:55",1,38.9566812,-74.8757897,TRUE,FALSE,FALSE,"S235877304"
"190","sursco","Surf Scoter","Melanitta perspicillata","L857100","Little Creek West Side Beach","2025-05-10 17:46",1,36.929562,-76.1795004,TRUE,FALSE,FALSE,"S236195132"
"191","sursco","Surf Scoter","Melanitta perspicillata","L44703663","Gustavus, Gustavus US-AK (58.3928,-135.7325)","2025-05-10 17:46",19,58.392762,-135.732547,TRUE,FALSE,TRUE,"S236266049"
"192","sursco","Surf Scoter","Melanitta perspicillata","L1047906","Presidio--bluffs from Coastal Trail","2025-05-10 17:34",1,37.8014767,-122.4791479,TRUE,FALSE,FALSE,"S235986576"
"193","sursco","Surf Scoter","Melanitta perspicillata","L4862324","Similk Beach","2025-05-10 17:24",8,48.44713,-122.5741711,TRUE,FALSE,FALSE,"S235982211"
"194","sursco","Surf Scoter","Melanitta perspicillata","L109132","Cape Island--Cape May Point SP (CMPSP)","2025-05-10 17:24",1,38.9338272,-74.9550854,TRUE,FALSE,FALSE,"S236687809"
"195","sursco","Surf Scoter","Melanitta perspicillata","L788284","Homer--Beluga Slough & Bishops Beach","2025-05-10 17:16",3,59.6385129,-151.5362263,TRUE,FALSE,FALSE,"S236068883"
"196","sursco","Surf Scoter","Melanitta perspicillata","L23776985","Long Sands York Beach ME","2025-05-10 17:12",2,43.1662873,-70.6151813,TRUE,FALSE,TRUE,"S235848109"
"197","sursco","Surf Scoter","Melanitta perspicillata","L752023","Lake Morey - Fairlee (547 acres)","2025-05-10 17:00",1,43.9246689,-72.1488856,TRUE,FALSE,FALSE,"S235959698"
"198","sursco","Surf Scoter","Melanitta perspicillata","L812287","Fort Flagler SP - Campground/Beach","2025-05-10 16:54",8,48.0938751,-122.7226067,TRUE,FALSE,FALSE,"S235960696"
"199","sursco","Surf Scoter","Melanitta perspicillata","L726782","March Point","2025-05-10 16:52",20,48.4988626,-122.5581551,TRUE,FALSE,FALSE,"S236006573"
"200","sursco","Surf Scoter","Melanitta perspicillata","L1449797","Port Angeles waterfront","2025-05-10 16:48",4,48.1254249,-123.449569,TRUE,FALSE,FALSE,"S236005779"
"201","sursco","Surf Scoter","Melanitta perspicillata","L4486780","Morro Bay Harbor","2025-05-10 16:45",1,35.3699,-120.857,TRUE,FALSE,FALSE,"S235959332"
"202","sursco","Surf Scoter","Melanitta perspicillata","L638805","Cannon Beach","2025-05-10 16:43",12,45.888186,-123.9646626,TRUE,FALSE,FALSE,"S236738985"
"203","sursco","Surf Scoter","Melanitta perspicillata","L44650923","Cape May County (general)","2025-05-10 16:42",10,38.939642,-74.951039,TRUE,FALSE,TRUE,"S235962846"
"204","sursco","Surf Scoter","Melanitta perspicillata","L596958","Campbell Cove and Hole in the Head - ONLY","2025-05-10 16:40",2,38.3053873,-123.0577433,TRUE,FALSE,FALSE,"S236539691"
"205","sursco","Surf Scoter","Melanitta perspicillata","L1764188","Bodega Bay--Gaffney Pt. - includes Marine Lab and residence entrances","2025-05-10 16:35",3,38.3150602,-123.0578613,TRUE,FALSE,FALSE,"S235947652"
"206","sursco","Surf Scoter","Melanitta perspicillata","L872490","Cape Charles Beach","2025-05-10 16:35",15,37.2679227,-76.0235667,TRUE,FALSE,FALSE,"S235824203"
"207","sursco","Surf Scoter","Melanitta perspicillata","L295630","Devils Elbow SP (Heceta Head Lighthouse State Scenic Area)","2025-05-10 16:33",5,44.1350095,-124.1230775,TRUE,FALSE,FALSE,"S235998978"
"208","sursco","Surf Scoter","Melanitta perspicillata","L1897302","Salt Marsh South of Odiorne Point, Rye","2025-05-10 16:32",NA,43.0394679,-70.7178759,TRUE,FALSE,FALSE,"S236107516"
"209","sursco","Surf Scoter","Melanitta perspicillata","L207664","Las Gallinas Valley Sanitary District","2025-05-10 16:32",1,38.0274109,-122.515583,TRUE,FALSE,FALSE,"S236119736"
"210","sursco","Surf Scoter","Melanitta perspicillata","L12665930","Ocean City - 3rd St. Jetty","2025-05-10 16:31",2,39.279961,-74.561323,TRUE,FALSE,TRUE,"S235842963"
"211","sursco","Surf Scoter","Melanitta perspicillata","L549315","DuPont Nature Center and Lighthouse Rd.","2025-05-10 16:30",2,38.947648,-75.314868,TRUE,FALSE,FALSE,"S236133598"
"212","sursco","Surf Scoter","Melanitta perspicillata","L6020236","Kachemak Bay--Hesketh Island","2025-05-10 16:23",2,59.5035802,-151.5270853,TRUE,FALSE,FALSE,"S236012282"
"213","sursco","Surf Scoter","Melanitta perspicillata","L268076","Cape Island--WCM (West Cape May)","2025-05-10 16:20",8,38.94018,-74.93539,TRUE,FALSE,FALSE,"S235856234"
"214","sursco","Surf Scoter","Melanitta perspicillata","L358490","Raritan Bay Waterfront Park & Morgan Avenue Mudflats","2025-05-10 16:19",1,40.4769114,-74.268578,TRUE,TRUE,FALSE,"S235825153"
"215","sursco","Surf Scoter","Melanitta perspicillata","L10509100","11th View Street Public Beach Access","2025-05-10 16:15",2,36.968393,-76.2811099,TRUE,FALSE,FALSE,"S236002266"
"216","sursco","Surf Scoter","Melanitta perspicillata","L830335","Plum Island (please use more refined location)","2025-05-10 16:15",30,42.7987508,-70.8114526,TRUE,FALSE,FALSE,"S236040705"
"217","sursco","Surf Scoter","Melanitta perspicillata","L17197580","Juneau -- Outer Point Loop Trail","2025-05-10 16:14",140,58.2996411,-134.6685755,TRUE,FALSE,TRUE,"S236010655"
"218","sursco","Surf Scoter","Melanitta perspicillata","L2158283","Ship Harbor Interpretive Preserve","2025-05-10 16:12",2,48.5035261,-122.6748633,TRUE,FALSE,FALSE,"S236005777"
"219","sursco","Surf Scoter","Melanitta perspicillata","L257970","Tokeland","2025-05-10 16:12",1,46.70642,-123.97198,TRUE,FALSE,FALSE,"S235989639"
"220","sursco","Surf Scoter","Melanitta perspicillata","L2060983","Lake Merced--Concrete Bridge area","2025-05-10 16:08",1,37.71269,-122.48794,TRUE,FALSE,TRUE,"S235968839"
"221","sursco","Surf Scoter","Melanitta perspicillata","L3200107","Halfmoon Bay","2025-05-10 16:05",2,43.6714161,-124.1948605,TRUE,FALSE,FALSE,"S236534648"
"222","sursco","Surf Scoter","Melanitta perspicillata","L4253557","Godfrey’s Cove, Maine, USA","2025-05-10 16:00",11,43.113703,-70.6462285,TRUE,FALSE,TRUE,"S236377180"
"223","sursco","Surf Scoter","Melanitta perspicillata","L17042504","Frank D. Robinson Beach","2025-05-10 15:49",25,47.992703,-122.541157,TRUE,FALSE,FALSE,"S235987560"
"224","sursco","Surf Scoter","Melanitta perspicillata","L1018792","Boiler Bay State Wayside","2025-05-10 15:49",64,44.8288173,-124.0658998,TRUE,FALSE,FALSE,"S235983274"
"225","sursco","Surf Scoter","Melanitta perspicillata","L3135600","Rogue River--North Jetty","2025-05-10 15:46",2,42.4259274,-124.4264317,TRUE,FALSE,FALSE,"S236062480"
"226","sursco","Surf Scoter","Melanitta perspicillata","L336663","Lighthouse Marine Park, Point Roberts","2025-05-10 15:45",45,48.9722422,-123.0836705,TRUE,FALSE,FALSE,"S236003261"
"227","sursco","Surf Scoter","Melanitta perspicillata","L109380","Manchester SP","2025-05-10 15:45",2,38.9860335,-123.7045097,TRUE,FALSE,FALSE,"S235929470"
"228","sursco","Surf Scoter","Melanitta perspicillata","L469938","Manomet Point","2025-05-10 15:36",7,41.9264999,-70.5395651,TRUE,FALSE,FALSE,"S235804494"
"229","sursco","Surf Scoter","Melanitta perspicillata","L771473","Lynn Harbor","2025-05-10 15:25",4,42.4554479,-70.9417631,TRUE,FALSE,FALSE,"S236001210"
"230","sursco","Surf Scoter","Melanitta perspicillata","L256020","Zmudowski SB","2025-05-10 15:24",4,36.8372464,-121.8014572,TRUE,FALSE,FALSE,"S236034941"
"231","sursco","Surf Scoter","Melanitta perspicillata","L481406","Nauset Light Beach, Eastham","2025-05-10 15:22",3,41.8586304,-69.9517322,TRUE,FALSE,FALSE,"S235793057"
"232","sursco","Surf Scoter","Melanitta perspicillata","L479571","Wharton Point, Brunswick","2025-05-10 15:20",11,43.8675956,-69.9933701,TRUE,FALSE,FALSE,"S235964520"
"233","sursco","Surf Scoter","Melanitta perspicillata","L1130061","Kodiak Is.--bight off of Brookers Lagoon (Kalsin Bay)","2025-05-10 15:18",350,57.6201747,-152.3463821,TRUE,TRUE,FALSE,"S236050351"
"234","sursco","Surf Scoter","Melanitta perspicillata","L595101","Biddeford Pool--Sky Harbor Dr.","2025-05-10 15:15",4,43.4492426,-70.3599215,TRUE,FALSE,FALSE,"S236007847"
"235","sursco","Surf Scoter","Melanitta perspicillata","L351481","Monterey Harbor","2025-05-10 15:14",2,36.6063012,-121.8912935,TRUE,FALSE,FALSE,"S235889543"
"236","sursco","Surf Scoter","Melanitta perspicillata","L268312","Siuslaw River--North Jetty","2025-05-10 15:13",3,44.0182419,-124.136678,TRUE,FALSE,FALSE,"S235911381"
"237","sursco","Surf Scoter","Melanitta perspicillata","L44657171","Boulevard Park to Bellwhether Marina","2025-05-10 15:09",6,48.716134,-122.524802,TRUE,FALSE,TRUE,"S236000617"
"238","sursco","Surf Scoter","Melanitta perspicillata","L419447","Malibu Beach WMA","2025-05-10 14:59",10,39.3109586,-74.5479655,TRUE,TRUE,FALSE,"S235771273"
"239","sursco","Surf Scoter","Melanitta perspicillata","L800185","Cape Flattery","2025-05-10 14:51",6,48.385884,-124.7266299,TRUE,FALSE,FALSE,"S235957177"
"240","sursco","Surf Scoter","Melanitta perspicillata","L109134","North Wildwood--Hereford Inlet/Seawall","2025-05-10 14:51",1,39.0119444,-74.7925,TRUE,FALSE,FALSE,"S235760710"
"241","sursco","Surf Scoter","Melanitta perspicillata","L2480164","Franklin D. Roosevelt Boardwalk and Beach--Ocean Breeze Fishing Pier","2025-05-10 14:36",5,40.5790814,-74.0748311,TRUE,FALSE,FALSE,"S236001096"
"242","sursco","Surf Scoter","Melanitta perspicillata","L44757541","JFK Memorial Bridge, Broad Thorofareoro","2025-05-10 14:36",5,39.3160688,-74.531077,TRUE,TRUE,TRUE,"S235759612"
"243","sursco","Surf Scoter","Melanitta perspicillata","L17102462","Seaview Harbor","2025-05-10 14:36",5,39.31415,-74.532789,TRUE,TRUE,TRUE,"S235759614"
"244","sursco","Surf Scoter","Melanitta perspicillata","L999240","Presidio--Battery Godfrey","2025-05-10 14:31",2,37.8037613,-122.4774715,TRUE,FALSE,FALSE,"S235864743"
"245","sursco","Surf Scoter","Melanitta perspicillata","L21395480","Chuckanut Bay","2025-05-10 14:31",30,48.679165,-122.498403,TRUE,FALSE,TRUE,"S235999480"
"246","sursco","Surf Scoter","Melanitta perspicillata","L887381","Fort Stevens SP--South Jetty/Parking Area C","2025-05-10 14:23",10,46.2286726,-124.0217721,TRUE,FALSE,FALSE,"S235857191"
"247","sursco","Surf Scoter","Melanitta perspicillata","L6010590","Coolidge Reservation (TTOR)","2025-05-10 14:19",11,42.5757821,-70.7264594,TRUE,FALSE,FALSE,"S235747373"
"248","sursco","Surf Scoter","Melanitta perspicillata","L28122542","24th Ave Pavillion","2025-05-10 14:11",4,39.3125775,-74.5280469,TRUE,TRUE,TRUE,"S235959460"
"249","sursco","Surf Scoter","Melanitta perspicillata","L1598186","Kennebunk Beach","2025-05-10 14:09",4,43.3450614,-70.4933023,TRUE,FALSE,FALSE,"S235736120"
"250","sursco","Surf Scoter","Melanitta perspicillata","L1107853","Bodega Bay--north shore (includes rail ponds)","2025-05-10 14:08",1,38.3358833,-123.0592346,TRUE,FALSE,FALSE,"S235881108"
"251","sursco","Surf Scoter","Melanitta perspicillata","L1265319","Cape Henlopen SP--The Point","2025-05-10 14:06",1,38.8000272,-75.092376,TRUE,FALSE,FALSE,"S235749233"
"252","sursco","Surf Scoter","Melanitta perspicillata","L2087594","Oregon Dunes Day Use Area","2025-05-10 13:58",36,43.8331956,-124.151516,TRUE,FALSE,FALSE,"S236534498"
"253","sursco","Surf Scoter","Melanitta perspicillata","L588693","Kachemak Bay (SW of Homer Spit)","2025-05-10 13:50",6,59.5962308,-151.5014648,TRUE,FALSE,FALSE,"S236013181"
"254","sursco","Surf Scoter","Melanitta perspicillata","L589021","Bay City Oyster Company","2025-05-10 13:46",8,45.5239689,-123.8946891,TRUE,FALSE,FALSE,"S235843643"
"255","sursco","Surf Scoter","Melanitta perspicillata","L302743","Protection Island","2025-05-10 13:39",21,48.1275273,-122.9284031,TRUE,FALSE,FALSE,"S235928387"
"256","sursco","Surf Scoter","Melanitta perspicillata","L496326","Outer Point Trail","2025-05-10 13:39",10,58.302364,-134.6786499,TRUE,FALSE,FALSE,"S235999978"
"257","sursco","Surf Scoter","Melanitta perspicillata","L2572643","Gap Cove","2025-05-10 13:37",9,42.6578346,-70.597415,TRUE,FALSE,FALSE,"S235704934"
"258","sursco","Surf Scoter","Melanitta perspicillata","L5829215","Fairbanks International Airport--Perimeter Rd./Tria Rd. pond","2025-05-10 13:35",3,64.7984675,-147.8698182,TRUE,FALSE,FALSE,"S235881131"
"259","sursco","Surf Scoter","Melanitta perspicillata","L251458","Homer Spit--Mud Bay","2025-05-10 13:31",6,59.635823,-151.4965296,TRUE,FALSE,FALSE,"S236049859"
"260","sursco","Surf Scoter","Melanitta perspicillata","L44607955","Ocean Drive-Two Mile/CG Ponds","2025-05-10 13:28",1,38.956623,-74.862588,TRUE,FALSE,TRUE,"S235734096"
"261","sursco","Surf Scoter","Melanitta perspicillata","L26798122","The Pearl","2025-05-10 13:26",8,43.778773,-69.952264,TRUE,FALSE,TRUE,"S236777695"
"262","sursco","Surf Scoter","Melanitta perspicillata","L198202","Auke Recreation Area--Pt. Louisa","2025-05-10 13:22",20,58.3729854,-134.7267151,TRUE,FALSE,FALSE,"S235876646"
"263","sursco","Surf Scoter","Melanitta perspicillata","L370924","Humboldt Bay--South Spit","2025-05-10 13:19",5,40.7251448,-124.2533112,TRUE,FALSE,FALSE,"S235892235"
"264","sursco","Surf Scoter","Melanitta perspicillata","L44631366","Kathy’s Pond","2025-05-10 13:11",2,62.367315,-145.151298,TRUE,FALSE,TRUE,"S236031782"
"265","sursco","Surf Scoter","Melanitta perspicillata","L421689","Freshwater Bay and pond","2025-05-10 13:09",23,48.1461597,-123.64254,TRUE,FALSE,TRUE,"S235837945"
"266","sursco","Surf Scoter","Melanitta perspicillata","L1053958","Longport--11th St & Atlantic Ave jetties","2025-05-10 13:08",10,39.3029227,-74.534812,TRUE,TRUE,FALSE,"S235708599"
"267","sursco","Surf Scoter","Melanitta perspicillata","L3143017","Homer Spit--Outer Spit (Fishing Hole to Lands End)","2025-05-10 13:02",10,59.6070451,-151.4331865,TRUE,FALSE,FALSE,"S235858693"
"268","sursco","Surf Scoter","Melanitta perspicillata","L1067145","Kasilof--Kasilof River Mouth","2025-05-10 13:00",2,60.3859137,-151.302166,TRUE,FALSE,FALSE,"S236036418"
"269","sursco","Surf Scoter","Melanitta perspicillata","L517778","Deer Lagoon","2025-05-10 12:59",4,47.9938851,-122.4926662,TRUE,FALSE,FALSE,"S235843909"
"270","sursco","Surf Scoter","Melanitta perspicillata","L159580","Kronenberg County Park--Coquille Point","2025-05-10 12:57",NA,43.1147,-124.4353,TRUE,FALSE,FALSE,"S235935162"
"271","sursco","Surf Scoter","Melanitta perspicillata","L355646","Cliff House","2025-05-10 12:53",2,37.7786269,-122.5141132,TRUE,FALSE,FALSE,"S235807125"
"272","sursco","Surf Scoter","Melanitta perspicillata","L338362","Ocean Drive--Cape May to Diamond Beach (general area)","2025-05-10 12:43",1,38.957626,-74.8812973,TRUE,FALSE,FALSE,"S235655378"
"273","sursco","Surf Scoter","Melanitta perspicillata","L34611628","Ocean Blvd, Hampton Yard List","2025-05-10 12:41",1,42.924967,-70.799463,TRUE,FALSE,TRUE,"S235645008"
"274","sursco","Surf Scoter","Melanitta perspicillata","L776836","Iceberg Point, Lopez Island","2025-05-10 12:39",12,48.4221807,-122.8939891,TRUE,FALSE,FALSE,"S235994781"
"275","sursco","Surf Scoter","Melanitta perspicillata","L16500533","Port of Astoria","2025-05-10 12:37",2,46.1870164,-123.8588913,TRUE,FALSE,TRUE,"S235815040"
"276","sursco","Surf Scoter","Melanitta perspicillata","L828590","Dungeness Landing Park/Oyster House","2025-05-10 12:33",5,48.1514639,-123.143456,TRUE,FALSE,FALSE,"S235808669"
"277","sursco","Surf Scoter","Melanitta perspicillata","L865061","Pelham Bay Park--Twin Islands","2025-05-10 12:29",1,40.8715659,-73.7853384,TRUE,TRUE,FALSE,"S235740433"
"278","sursco","Surf Scoter","Melanitta perspicillata","L44590747","Anglesea Dr, North Wildwood US-NJ 39.01486, -74.79414","2025-05-10 12:20",1,39.01486,-74.794137,TRUE,FALSE,TRUE,"S235651199"
"279","sursco","Surf Scoter","Melanitta perspicillata","L7895034","Sisters Rock State Park","2025-05-10 12:19",1,42.5924999,-124.396881,TRUE,FALSE,FALSE,"S235871248"
"280","sursco","Surf Scoter","Melanitta perspicillata","L44629343","Fort Stevens State Park, Warrenton US-OR 46.22647, -124.01422","2025-05-10 12:14",5,46.226471,-124.014217,TRUE,FALSE,TRUE,"S235842181"
"281","sursco","Surf Scoter","Melanitta perspicillata","L235280","Larrabee State Park","2025-05-10 12:01",11,48.6515,-122.4933833,TRUE,FALSE,FALSE,"S235774253"
"282","sursco","Surf Scoter","Melanitta perspicillata","L4821923","Saginaw Channel--Pt Retreat to Strauss Rock","2025-05-10 12:01",8,58.3929223,-134.8874588,TRUE,FALSE,FALSE,"S235817363"
"283","sursco","Surf Scoter","Melanitta perspicillata","L29690471","Dungeness NWR","2025-05-10 12:00",9,48.1463111,-123.1865094,TRUE,FALSE,FALSE,"S235798196"
"284","sursco","Surf Scoter","Melanitta perspicillata","L2492616","Kingston Ferry Terminal","2025-05-10 11:57",25,47.7958271,-122.496078,TRUE,FALSE,FALSE,"S235758222"
"285","sursco","Surf Scoter","Melanitta perspicillata","L9494727","Valdez--Harborside","2025-05-10 11:42",1,61.1267701,-146.3467113,TRUE,FALSE,FALSE,"S235964372"
"286","sursco","Surf Scoter","Melanitta perspicillata","L587226","Fire Island--Watch Hill","2025-05-10 11:40",15,40.6925484,-72.9873276,TRUE,FALSE,FALSE,"S235757149"
"287","sursco","Surf Scoter","Melanitta perspicillata","L517682","Castle Rock NWR","2025-05-10 11:27",NA,41.7623492,-124.2485476,TRUE,FALSE,FALSE,"S235735576"
"288","sursco","Surf Scoter","Melanitta perspicillata","L8268918","Alki (including north and south beaches)","2025-05-10 11:27",2,47.5761017,-122.4190941,TRUE,FALSE,FALSE,"S235845573"
"289","sursco","Surf Scoter","Melanitta perspicillata","L5154795","Clinton Ferry Terminal","2025-05-10 11:25",34,47.975396,-122.3494577,TRUE,FALSE,FALSE,"S236028593"
"290","sursco","Surf Scoter","Melanitta perspicillata","L265438","Three Crabs","2025-05-10 11:12",65,48.151945,-123.1222855,TRUE,FALSE,FALSE,"S235774502"
"291","sursco","Surf Scoter","Melanitta perspicillata","L985990","Arcadia Beach SP","2025-05-10 11:12",1,45.8464246,-123.9601672,TRUE,FALSE,FALSE,"S235725780"
"292","sursco","Surf Scoter","Melanitta perspicillata","L43282939","S Siltcoos - Douglas Co.","2025-05-10 11:09",2,43.8619622,-124.1585966,TRUE,FALSE,TRUE,"S236277018"
"293","sursco","Surf Scoter","Melanitta perspicillata","L16077275","Cormorant Cove, West Seattle","2025-05-10 11:08",2,47.5708987,-122.4115382,TRUE,FALSE,FALSE,"S235863540"
"294","sursco","Surf Scoter","Melanitta perspicillata","L286501","Tillamook Bay--Barview Jetty","2025-05-10 11:04",16,45.56952,-123.949414,TRUE,FALSE,FALSE,"S235831784"
"295","sursco","Surf Scoter","Melanitta perspicillata","L1742212","Picnic Point Park","2025-05-10 11:02",16,47.8809387,-122.3332976,TRUE,FALSE,FALSE,"S235825641"
"296","sursco","Surf Scoter","Melanitta perspicillata","L44661666","104–106 Tok Cutoff Hwy, Gakona US-AK 62.36732, -145.15137","2025-05-10 10:53",2,62.367325,-145.151367,TRUE,FALSE,TRUE,"S236028043"
"297","sursco","Surf Scoter","Melanitta perspicillata","L589099","MacKerricher SP- Please use more precise location","2025-05-10 10:52",6,39.4892047,-123.7889671,TRUE,FALSE,FALSE,"S235844808"
"298","sursco","Surf Scoter","Melanitta perspicillata","L2311484","Lake Tolowa Mouth","2025-05-10 10:50",6,41.8298092,-124.2246437,TRUE,FALSE,FALSE,"S235976185"
"299","sursco","Surf Scoter","Melanitta perspicillata","L44649323","Berners Bay, West side","2025-05-10 10:49",27,58.7702879,-135.0009657,TRUE,FALSE,TRUE,"S235761143"
"300","sursco","Surf Scoter","Melanitta perspicillata","L44655622","Hale Passage-Lummi Bay","2025-05-10 10:43",350,48.695742,-122.646359,TRUE,FALSE,TRUE,"S235990902"
"301","sursco","Surf Scoter","Melanitta perspicillata","L265654","Ellisville Harbor SP","2025-05-10 10:43",5,41.8442379,-70.536532,TRUE,FALSE,FALSE,"S235693214"
"302","sursco","Surf Scoter","Melanitta perspicillata","L4856050","Short Beach, Winthrop","2025-05-10 10:33",1,42.391756,-70.980489,TRUE,FALSE,FALSE,"S235569746"
"303","sursco","Surf Scoter","Melanitta perspicillata","L15064759","Anchor River--Anchor Point beach","2025-05-10 10:31",2,59.7790981,-151.8631308,TRUE,FALSE,FALSE,"S236173612"
"304","sursco","Surf Scoter","Melanitta perspicillata","L44662654","Auto selected 34.02289, -119.87647","2025-05-10 10:31",7,34.02289,-119.876472,TRUE,FALSE,TRUE,"S236033444"
"305","sursco","Surf Scoter","Melanitta perspicillata","L5053582","Berners Bay","2025-05-10 10:30",800,58.7430904,-134.9833644,TRUE,FALSE,FALSE,"S235977428"
"306","sursco","Surf Scoter","Melanitta perspicillata","L455424","North Hampton State Beach","2025-05-10 10:28",8,42.9546165,-70.7819617,TRUE,FALSE,FALSE,"S235601636"
"307","sursco","Surf Scoter","Melanitta perspicillata","L1458076","Fortunes Rocks--Beach and Ponds","2025-05-10 10:27",2,43.4287166,-70.3761886,TRUE,FALSE,FALSE,"S235545325"
"308","sursco","Surf Scoter","Melanitta perspicillata","L444583","Kachemak Bay (NE of Homer Spit)","2025-05-10 10:19",1,59.6698211,-151.2432861,TRUE,FALSE,FALSE,"S236467085"
"309","sursco","Surf Scoter","Melanitta perspicillata","L9564097","Resurrection Bay--Rugged Island","2025-05-10 10:12",2,59.8667823,-149.4055922,TRUE,FALSE,FALSE,"S236220694"
"310","sursco","Surf Scoter","Melanitta perspicillata","L985991","Silver Point","2025-05-10 10:09",2,45.8547974,-123.9647484,TRUE,FALSE,FALSE,"S235722217"
"311","sursco","Surf Scoter","Melanitta perspicillata","L794486","Hammonasset Beach SP--East Beach Pavilion","2025-05-10 10:08",1,41.25863,-72.5542045,TRUE,FALSE,FALSE,"S235574834"
"312","sursco","Surf Scoter","Melanitta perspicillata","L341510","Brigantine Island--North Brigantine Natural Area","2025-05-10 10:02",35,39.4218976,-74.34919,TRUE,TRUE,FALSE,"S235700306"
"313","sursco","Surf Scoter","Melanitta perspicillata","L44611132","Juneau, Alaska, US (58.582, -134.946)","2025-05-10 10:02",800,58.5819738,-134.9456842,TRUE,FALSE,TRUE,"S235749983"
"314","sursco","Surf Scoter","Melanitta perspicillata","L7204361","Kodiak Is.--Middle Bay-Head of bay","2025-05-10 10:00",25,57.6479906,-152.5133186,TRUE,FALSE,FALSE,"S236479097"
"315","sursco","Surf Scoter","Melanitta perspicillata","L392640","Washington Park, Anacortes","2025-05-10 10:00",4,48.495268,-122.6951408,TRUE,FALSE,FALSE,"S236562025"
"316","sursco","Surf Scoter","Melanitta perspicillata","L1331370","Pebble Beach","2025-05-10 09:59",NA,42.6358609,-70.6003547,TRUE,FALSE,FALSE,"S235720355"
"317","sursco","Surf Scoter","Melanitta perspicillata","L834171","Deception Pass SP -- West Beach","2025-05-10 09:57",5,48.4000277,-122.6643831,TRUE,FALSE,FALSE,"S235661920"
"318","sursco","Surf Scoter","Melanitta perspicillata","L390083","Marlyn Nelson County Park","2025-05-10 09:55",10,48.094649,-123.045845,TRUE,FALSE,FALSE,"S235676231"
"319","sursco","Surf Scoter","Melanitta perspicillata","L1793840","Samish Island--Blue Heron Road and Fish Point","2025-05-10 09:51",210,48.5753235,-122.5024409,TRUE,FALSE,FALSE,"S235677448"
"320","sursco","Surf Scoter","Melanitta perspicillata","L8668491","Oceanside (town)","2025-05-10 09:43",20,45.4630345,-123.9660251,TRUE,FALSE,FALSE,"S235784496"
"321","sursco","Surf Scoter","Melanitta perspicillata","L130809","Pt. Reyes--Lighthouse","2025-05-10 09:34",12,37.996,-123.022,TRUE,FALSE,FALSE,"S235898657"
"322","sursco","Surf Scoter","Melanitta perspicillata","L508397","Bartlett Pond, Manomet","2025-05-10 09:33",3,41.9276972,-70.55686,TRUE,FALSE,FALSE,"S235952434"
"323","sursco","Surf Scoter","Melanitta perspicillata","L782177","Gustavus--Forelands (W of dock to Critical Habitat boundary)","2025-05-10 09:32",NA,58.3921763,-135.7899857,TRUE,FALSE,FALSE,"S235812264"
"324","sursco","Surf Scoter","Melanitta perspicillata","L44601249","3 mi NW of Johnstone Pt","2025-05-10 09:26",1,60.5257302,-146.6863758,TRUE,FALSE,TRUE,"S235701069"
"325","sursco","Surf Scoter","Melanitta perspicillata","L3870544","Ketchikan Int. Airport--floatplane base","2025-05-10 09:26",37,55.3585752,-131.7118864,TRUE,FALSE,FALSE,"S235923504"
"326","sursco","Surf Scoter","Melanitta perspicillata","L197353","Sandy Hook","2025-05-10 09:22",7,40.4392518,-73.9869263,TRUE,FALSE,FALSE,"S235817101"
"327","sursco","Surf Scoter","Melanitta perspicillata","L6055998","Chinitna Bay--Gull Island","2025-05-10 09:14",53,59.8407084,-152.9916221,TRUE,FALSE,FALSE,"S236067474"
"328","sursco","Surf Scoter","Melanitta perspicillata","L44611418","Kachemak Bay, Ninilchik US-AK 59.60073, -151.39849","2025-05-10 09:10",10,59.600731,-151.398486,TRUE,FALSE,TRUE,"S235751364"
"329","sursco","Surf Scoter","Melanitta perspicillata","L23955572","Bellingham Bay","2025-05-10 09:06",1400,48.749506,-122.499124,TRUE,FALSE,TRUE,"S235985729"
"330","sursco","Surf Scoter","Melanitta perspicillata","L574284","Lower Suwannee NWR--Shired Island","2025-05-10 09:05",6,29.3972423,-83.2015336,TRUE,TRUE,FALSE,"S235629541"
"331","sursco","Surf Scoter","Melanitta perspicillata","L16712312","Copalis Beach","2025-05-10 09:03",4,47.1112564,-124.1759749,TRUE,FALSE,FALSE,"S235728892"
"332","sursco","Surf Scoter","Melanitta perspicillata","L249781","Fort Flagler SP","2025-05-10 09:02",32,48.0960511,-122.7139785,TRUE,FALSE,FALSE,"S236715045"
"333","sursco","Surf Scoter","Melanitta perspicillata","L2155797","Homer Spit--Boat Harbor entrance","2025-05-10 09:01",5,59.6038316,-151.415205,TRUE,FALSE,FALSE,"S235684178"
"334","sursco","Surf Scoter","Melanitta perspicillata","L44580144","62 Utsalady Road, Camano, Washington, US (48.251, -122.48)","2025-05-10 08:59",7,48.2514764,-122.4795785,TRUE,FALSE,TRUE,"S235613916"
"335","sursco","Surf Scoter","Melanitta perspicillata","L1121612","Kodiak Is.--Middle Bay (east side)","2025-05-10 08:54",125,57.6502262,-152.4708501,TRUE,FALSE,FALSE,"S235681773"
"336","sursco","Surf Scoter","Melanitta perspicillata","L44653496","RRAS pelagic trip, Steller Sunrise, Leg 2, 5/10/25","2025-05-10 08:50",25,40.730995,-124.457697,TRUE,FALSE,TRUE,"S235978556"
"337","sursco","Surf Scoter","Melanitta perspicillata","L1557188","Point Whitehorn Marine Reserve","2025-05-10 08:46",5,48.8872412,-122.7799062,TRUE,FALSE,FALSE,"S235692599"
"338","sursco","Surf Scoter","Melanitta perspicillata","L964068","Port Orford Dock","2025-05-10 08:45",4,42.7381558,-124.4979286,TRUE,FALSE,FALSE,"S236671318"
"339","sursco","Surf Scoter","Melanitta perspicillata","L285366","Golden Gardens Park","2025-05-10 08:43",8,47.6928546,-122.4054806,TRUE,FALSE,FALSE,"S235653572"
"340","sursco","Surf Scoter","Melanitta perspicillata","L21094167","Tongue Point Rd, Port Angeles US-WA 48.16627, -123.70641","2025-05-10 08:41",16,48.166271,-123.706413,TRUE,FALSE,TRUE,"S235623241"
"341","sursco","Surf Scoter","Melanitta perspicillata","L825162","Van Damme SP- Beach","2025-05-10 08:35",3,39.2736933,-123.7911987,TRUE,FALSE,FALSE,"S235622799"
"342","sursco","Surf Scoter","Melanitta perspicillata","L284497","John Wayne Marina","2025-05-10 08:32",41,48.0623184,-123.0416377,TRUE,FALSE,FALSE,"S235618888"
"343","sursco","Surf Scoter","Melanitta perspicillata","L2298610","Northeast Creek, Bar Harbor","2025-05-10 08:31",15,44.4247698,-68.3275366,TRUE,FALSE,FALSE,"S235442846"
"344","sursco","Surf Scoter","Melanitta perspicillata","L41308502","Camano--Irenella Beach","2025-05-10 08:30",4,48.1090171,-122.4458064,TRUE,FALSE,FALSE,"S235616342"
"345","sursco","Surf Scoter","Melanitta perspicillata","L3707658","Holkham Bay","2025-05-10 08:25",7,57.7686296,-133.6315584,TRUE,FALSE,FALSE,"S235645291"
"346","sursco","Surf Scoter","Melanitta perspicillata","L18401717","Dungeness NWR--Dungeness Spit","2025-05-10 08:18",10,48.1476683,-123.1856696,TRUE,FALSE,FALSE,"S235697143"
"347","sursco","Surf Scoter","Melanitta perspicillata","L294440","Hammonasset Beach SP--pond by rotary","2025-05-10 08:16",2,41.2636384,-72.5566024,TRUE,FALSE,FALSE,"S235498878"
"348","sursco","Surf Scoter","Melanitta perspicillata","L613456","Tracy Arm","2025-05-10 08:05",10,57.8096514,-133.5992432,TRUE,FALSE,FALSE,"S235660383"
"349","sursco","Surf Scoter","Melanitta perspicillata","L5004261","Sunset SB--Palm Beach Unit","2025-05-10 07:55",2,36.8678033,-121.8201697,TRUE,FALSE,FALSE,"S235835858"
"350","sursco","Surf Scoter","Melanitta perspicillata","L1096408","Seaside Cove","2025-05-10 07:55",23,45.9755964,-123.9397073,TRUE,FALSE,FALSE,"S236041966"
"351","sursco","Surf Scoter","Melanitta perspicillata","L578601","Doran Regional Park - entrance pond to jetty","2025-05-10 07:55",43,38.3146057,-123.0438066,TRUE,FALSE,FALSE,"S235876151"
"352","sursco","Surf Scoter","Melanitta perspicillata","L2292572","Homer Spit--Mariner Park Campground","2025-05-10 07:41",3,59.6321457,-151.4953279,TRUE,FALSE,FALSE,"S235848099"
"353","sursco","Surf Scoter","Melanitta perspicillata","L190512","Ediz Hook","2025-05-10 07:36",1,48.14035,-123.44711,TRUE,FALSE,FALSE,"S235634470"
"354","sursco","Surf Scoter","Melanitta perspicillata","L20785297","Shoreline Park--Rengstorff House","2025-05-10 07:33",1,37.431427,-122.087385,TRUE,FALSE,FALSE,"S235554045"
"355","sursco","Surf Scoter","Melanitta perspicillata","L455897","Gooseberry Neck","2025-05-10 07:24",2,41.4869773,-71.0375977,TRUE,FALSE,FALSE,"S235495650"
"356","sursco","Surf Scoter","Melanitta perspicillata","L374648","Halibut Point SP","2025-05-10 07:22",1,42.6910153,-70.6317011,TRUE,FALSE,FALSE,"S235719473"
"357","sursco","Surf Scoter","Melanitta perspicillata","L34935728","Shoreline Park, Mountain View US-CA 37.43432, -122.09299","2025-05-10 07:21",1,37.434317,-122.09299,TRUE,FALSE,TRUE,"S235525956"
"358","sursco","Surf Scoter","Melanitta perspicillata","L44537196","David Douglass Sr. Memorial Park, Cape May US-NJ 38.96783, -74.96335","2025-05-10 07:15",2,38.967827,-74.963346,TRUE,FALSE,TRUE,"S235389763"
"359","sursco","Surf Scoter","Melanitta perspicillata","L44581853","28512, Atlantic Beach US-NC (34.6934,-76.6820)","2025-05-10 07:14",1,34.693365,-76.681993,TRUE,FALSE,TRUE,"S235622122"
"360","sursco","Surf Scoter","Melanitta perspicillata","L40312736","Forebay   Lake","2025-05-10 07:14",1,37.434891,-122.095567,TRUE,FALSE,TRUE,"S235582744"
"361","sursco","Surf Scoter","Melanitta perspicillata","L889837","Humboldt pelagic--Humboldt Bay portion only","2025-05-10 07:12",3,40.7585725,-124.2123591,TRUE,FALSE,FALSE,"S236469381"
"362","sursco","Surf Scoter","Melanitta perspicillata","L383517","Olympic NP--Kalaloch","2025-05-10 07:04",30,47.6053895,-124.3737439,TRUE,FALSE,FALSE,"S235643258"
"363","sursco","Surf Scoter","Melanitta perspicillata","L200019","Island Beach SP (please consider using more specific locations)","2025-05-10 06:56",4,39.8483707,-74.0880203,TRUE,FALSE,FALSE,"S235683501"
"364","sursco","Surf Scoter","Melanitta perspicillata","L11243088","Eagle Beach Rec Area, Juneau US-AK 58.53040, -134.82843","2025-05-10 06:39",350,58.530399,-134.828433,TRUE,FALSE,TRUE,"S235842595"
"365","sursco","Surf Scoter","Melanitta perspicillata","L6517534","Neah Bay--town and bay only","2025-05-10 06:33",35,48.3666101,-124.6215677,TRUE,FALSE,FALSE,"S235973326"
"366","sursco","Surf Scoter","Melanitta perspicillata","L42049867","Tidewater Drive","2025-05-10 06:30",1,43.7531426,-69.8489403,TRUE,FALSE,TRUE,"S236504837"
"367","sursco","Surf Scoter","Melanitta perspicillata","L44576543","207 East 5th Street, Cannon Beach, Oregon, US (45.902, -123.958)","2025-05-10 06:25",12,45.9022185,-123.9576994,TRUE,FALSE,TRUE,"S235595990"
"368","sursco","Surf Scoter","Melanitta perspicillata","L218324","Pt. Reyes--Abbotts Lagoon","2025-05-10 06:16",50,38.1190611,-122.9522467,TRUE,FALSE,FALSE,"S236007970"
"369","sursco","Surf Scoter","Melanitta perspicillata","L19837311","431 Race Rd, Coupeville US-WA","2025-05-10 06:09",2,48.19443,-122.601171,TRUE,FALSE,TRUE,"S235487846"
"370","sursco","Surf Scoter","Melanitta perspicillata","L492504","Restoration Point (restricted access)","2025-05-10 06:00",23,47.583705,-122.480135,TRUE,FALSE,FALSE,"S235889546"
"371","sursco","Surf Scoter","Melanitta perspicillata","L198255","Wells","2025-05-10 05:50",12,43.32199,-70.5809,TRUE,FALSE,TRUE,"S236235320"
"372","sursco","Surf Scoter","Melanitta perspicillata","L44663834","141 West Buttercup Road, Wildwood Crest, New Jersey, US (38.982, -74.831)","2025-05-10 00:01",NA,38.9821837,-74.8306195,TRUE,FALSE,TRUE,"S236040042"
"373","sursco","Surf Scoter","Melanitta perspicillata","L44523329","99652, Big Lake US-AK (61.7255,-150.3233)","2025-05-09 22:30",4,61.725459,-150.32328,TRUE,FALSE,TRUE,"S235323170"
"374","sursco","Surf Scoter","Melanitta perspicillata","L678227","Crescent City Harbor--Elk Creek mouth","2025-05-09 19:15",16,41.7496555,-124.1931653,TRUE,FALSE,FALSE,"S235275371"
"375","sursco","Surf Scoter","Melanitta perspicillata","L158628","Belfast Harbor","2025-05-09 18:36",1,44.4269197,-68.9974222,TRUE,FALSE,FALSE,"S235229056"
"376","sursco","Surf Scoter","Melanitta perspicillata","L833038","Susquehanna River--from West Fairview (Dauphin Co.)","2025-05-09 18:08",2,40.2720977,-76.9132984,TRUE,TRUE,FALSE,"S235242328"
"377","sursco","Surf Scoter","Melanitta perspicillata","L14837020","Juneau--Eagle Beach Turnout","2025-05-09 18:05",750,58.5325434,-134.8301956,TRUE,FALSE,FALSE,"S235268926"
"378","sursco","Surf Scoter","Melanitta perspicillata","L278355","Isles of Shoals--Star Island, Rye","2025-05-09 17:44",1,42.9764333,-70.6125,TRUE,FALSE,FALSE,"S235198041"
"379","sursco","Surf Scoter","Melanitta perspicillata","L787853","Tokeland--marina","2025-05-09 17:37",4,46.7063518,-123.9671946,TRUE,FALSE,FALSE,"S235257557"
"380","sursco","Surf Scoter","Melanitta perspicillata","L28421950","Tunnel Beach","2025-05-09 17:29",7,45.4638347,-123.9733679,TRUE,FALSE,FALSE,"S235284882"
"381","sursco","Surf Scoter","Melanitta perspicillata","L627297","Yaquina River--North Shore","2025-05-09 17:20",22,44.6215148,-124.0640116,TRUE,FALSE,FALSE,"S235262966"
"382","sursco","Surf Scoter","Melanitta perspicillata","L127964","Seward--Lowell Point","2025-05-09 17:07",2,60.0706365,-149.4349383,TRUE,FALSE,FALSE,"S236229331"
"383","sursco","Surf Scoter","Melanitta perspicillata","L267764","Cape Island--Sunset Beach/Concrete Ship","2025-05-09 16:59",1,38.9445079,-74.9704993,TRUE,FALSE,FALSE,"S235194824"
"384","sursco","Surf Scoter","Melanitta perspicillata","L1296241","Fogarty Creek SP","2025-05-09 16:50",8,44.8390126,-124.0502357,TRUE,FALSE,FALSE,"S236018083"
"385","sursco","Surf Scoter","Melanitta perspicillata","L2237395","Littlejohn Island Preserve","2025-05-09 16:18",35,43.7632839,-70.1196384,TRUE,FALSE,FALSE,"S235176345"
"386","sursco","Surf Scoter","Melanitta perspicillata","L272015","Marsh Creek SP","2025-05-09 16:10",8,40.0675599,-75.719985,TRUE,TRUE,FALSE,"S235181326"
"387","sursco","Surf Scoter","Melanitta perspicillata","L766025","Mukilteo-Clinton Ferry","2025-05-09 16:07",46,47.9590353,-122.3177703,TRUE,FALSE,FALSE,"S235227794"
"388","sursco","Surf Scoter","Melanitta perspicillata","L44507835","Coal Bay, Homer US-AK (59.6285,-151.4667)","2025-05-09 15:57",2,59.628547,-151.466663,TRUE,FALSE,TRUE,"S235245777"
"389","sursco","Surf Scoter","Melanitta perspicillata","L465131","Mission Creek outflow","2025-05-09 15:54",1,34.4127959,-119.6869361,TRUE,FALSE,FALSE,"S235242623"
"390","sursco","Surf Scoter","Melanitta perspicillata","L44502919","Boom Road, Neah Bay, Washington, US (48.377, -124.623)","2025-05-09 15:38",1,48.3773992,-124.6228758,TRUE,FALSE,TRUE,"S235218091"
"391","sursco","Surf Scoter","Melanitta perspicillata","L294441","Anacortes Ferry Terminal","2025-05-09 15:08",3,48.5064005,-122.6780041,TRUE,FALSE,FALSE,"S235221851"
"392","sursco","Surf Scoter","Melanitta perspicillata","L267998","Oak Beach","2025-05-09 14:59",17,40.63923,-73.28832,TRUE,FALSE,FALSE,"S235147210"
"393","sursco","Surf Scoter","Melanitta perspicillata","L4026633","Marsh Creek SP--West Side","2025-05-09 14:20",8,40.064103,-75.729668,TRUE,TRUE,FALSE,"S235148719"
"394","sursco","Surf Scoter","Melanitta perspicillata","L2424501","Red Rock Park","2025-05-09 13:50",1,42.4613809,-70.9278417,TRUE,FALSE,FALSE,"S235208475"
"395","sursco","Surf Scoter","Melanitta perspicillata","L449476","Nelson Field, Plymouth","2025-05-09 13:28",1,41.9676273,-70.6720448,TRUE,FALSE,FALSE,"S235183880"
"396","sursco","Surf Scoter","Melanitta perspicillata","L10216419","Homer Spit--Green Timbers","2025-05-09 13:20",5,59.6277719,-151.4729304,TRUE,FALSE,FALSE,"S235214008"
"397","sursco","Surf Scoter","Melanitta perspicillata","L836994","Salmon Creek mouth (SON Co.)","2025-05-09 13:13",1,38.3547149,-123.0679035,TRUE,FALSE,FALSE,"S235177561"
"398","sursco","Surf Scoter","Melanitta perspicillata","L268372","Bottle Beach","2025-05-09 12:44",2,46.893277,-124.0468136,TRUE,FALSE,FALSE,"S235187260"
"399","sursco","Surf Scoter","Melanitta perspicillata","L10902360","Kelker St, Harrisburg US-PA 40.27365, -76.89673","2025-05-09 12:28",2,40.273652,-76.89673,TRUE,TRUE,TRUE,"S235285277"
"400","sursco","Surf Scoter","Melanitta perspicillata","L492468","North Point Natural Area--Morro Bay","2025-05-09 11:58",26,35.407079,-120.8717568,TRUE,FALSE,FALSE,"S235195965"
"401","sursco","Surf Scoter","Melanitta perspicillata","L490188","Scarborough State Beach","2025-05-09 11:28",3,41.3859213,-71.4763641,TRUE,FALSE,FALSE,"S235071548"
"402","sursco","Surf Scoter","Melanitta perspicillata","L468899","Seal Rocks, Rye","2025-05-09 11:20",32,43.0278264,-70.7248941,TRUE,FALSE,FALSE,"S235067614"
"403","sursco","Surf Scoter","Melanitta perspicillata","L16428752","Odiorne Point State Park, Rye US-NH 43.04964, -70.72729","2025-05-09 11:17",6,43.049645,-70.727287,TRUE,FALSE,TRUE,"S235055484"
"404","sursco","Surf Scoter","Melanitta perspicillata","L2869528","Curtis Farm Preserve (HHLT), Harpswell","2025-05-09 11:11",1,43.7616095,-70.0138468,TRUE,FALSE,FALSE,"S236765913"
"405","sursco","Surf Scoter","Melanitta perspicillata","L256021","Moss Landing--Jetty Road, north jetty & State Beach","2025-05-09 10:55",8,36.8151691,-121.7900355,TRUE,FALSE,FALSE,"S235139321"
"406","sursco","Surf Scoter","Melanitta perspicillata","L6488774","Barnum Point","2025-05-09 10:44",7,48.1964361,-122.4580765,TRUE,FALSE,FALSE,"S235177170"
"407","sursco","Surf Scoter","Melanitta perspicillata","L762068","Presidio - Fort Point NHS","2025-05-09 10:35",1,37.8106824,-122.4767876,TRUE,FALSE,FALSE,"S235263731"
"408","sursco","Surf Scoter","Melanitta perspicillata","L766034","Fort Casey State Park","2025-05-09 10:30",1,48.1581848,-122.6776314,TRUE,FALSE,FALSE,"S235115788"
"409","sursco","Surf Scoter","Melanitta perspicillata","L3702102","Neahkahnie Mt. Wayfinding Point","2025-05-09 10:28",150,45.7446243,-123.9608324,TRUE,FALSE,FALSE,"S235114198"
"410","sursco","Surf Scoter","Melanitta perspicillata","L207333","Birch Bay State Park","2025-05-09 10:24",34,48.9056565,-122.7625198,TRUE,FALSE,FALSE,"S235171080"
"411","sursco","Surf Scoter","Melanitta perspicillata","L491638","Pt. Reyes--Chimney Rock (DO NOT INCLUDE Fish Docks/Life Boat station area)","2025-05-09 10:24",1,37.9895338,-122.9631042,TRUE,FALSE,FALSE,"S236185710"
"412","sursco","Surf Scoter","Melanitta perspicillata","L1240934","Cape Cod National Seashore--Salt Pond Visitors Center","2025-05-09 10:15",8,41.837154,-69.9726588,TRUE,FALSE,FALSE,"S235095723"
"413","sursco","Surf Scoter","Melanitta perspicillata","L862963","Westport Marina","2025-05-09 10:15",2,46.9096434,-124.1138792,TRUE,FALSE,FALSE,"S236453448"
"414","sursco","Surf Scoter","Melanitta perspicillata","L285627","Bayocean Spit--bay (east) side","2025-05-09 10:13",1,45.5217439,-123.9484406,TRUE,FALSE,FALSE,"S235161091"
"415","sursco","Surf Scoter","Melanitta perspicillata","L36413228","West side Seal Cove US-ME 44.28605, -68.41569","2025-05-09 10:09",45,44.286054,-68.415685,TRUE,FALSE,TRUE,"S235040655"
"416","sursco","Surf Scoter","Melanitta perspicillata","L5228143","Elliott Bay Trail, Seattle","2025-05-09 10:00",58,47.6154919,-122.3563221,TRUE,FALSE,FALSE,"S235209994"
"417","sursco","Surf Scoter","Melanitta perspicillata","L279945","Andrews Point","2025-05-09 09:46",4,42.687714,-70.6204365,TRUE,FALSE,FALSE,"S235040904"
"418","sursco","Surf Scoter","Melanitta perspicillata","L44488670","6 W Cleveland Ave, Beach Haven US-NJ 39.53108, -74.26385","2025-05-09 09:44",1,39.531078,-74.263852,TRUE,FALSE,TRUE,"S235144351"
"419","sursco","Surf Scoter","Melanitta perspicillata","L15309741","Dungeness Recreation Area, Sequim US-WA 48.13373, -123.19744","2025-05-09 09:40",6,48.13373,-123.197444,TRUE,FALSE,TRUE,"S235125502"
"420","sursco","Surf Scoter","Melanitta perspicillata","L1847433","Gravesend Bay, southern parking lot","2025-05-09 09:33",5,40.5972024,-74.0049123,TRUE,TRUE,FALSE,"S235025795"
"421","sursco","Surf Scoter","Melanitta perspicillata","L714449","Villas--Miami Ave. beach","2025-05-09 09:31",16,39.0373447,-74.9368429,TRUE,FALSE,FALSE,"S234993603"
"422","sursco","Surf Scoter","Melanitta perspicillata","L9810217","Oak Point Farm (BRLT)","2025-05-09 09:18",5,43.8525718,-69.6564531,TRUE,FALSE,FALSE,"S235033675"
"423","sursco","Surf Scoter","Melanitta perspicillata","L8380173","Hat Island ferry crossing","2025-05-09 09:15",1075,47.9978948,-122.2703032,TRUE,FALSE,FALSE,"S235267173"
"424","sursco","Surf Scoter","Melanitta perspicillata","L830867","Monterey--Del Monte seawatch","2025-05-09 09:09",2,36.6046635,-121.8695291,TRUE,FALSE,FALSE,"S235142981"
"425","sursco","Surf Scoter","Melanitta perspicillata","L480335","Oak Bay County Park","2025-05-09 08:45",2,48.0201853,-122.7313614,TRUE,FALSE,FALSE,"S235104076"
"426","sursco","Surf Scoter","Melanitta perspicillata","L306109","Cook's Beach and Road","2025-05-09 08:43",3,39.1088683,-74.8936135,TRUE,FALSE,FALSE,"S235175994"
"427","sursco","Surf Scoter","Melanitta perspicillata","L44478328","4666 Freight Dock Road, Homer, Alaska, US (59.605, -151.418)","2025-05-09 08:38",14,59.6054832,-151.418143,TRUE,FALSE,TRUE,"S235091726"
"428","sursco","Surf Scoter","Melanitta perspicillata","L44672698","North Pacific Ocean US (39.5365,-123.9520)","2025-05-09 08:32",19,39.536456,-123.952029,TRUE,FALSE,TRUE,"S236088269"
"429","sursco","Surf Scoter","Melanitta perspicillata","L28315303","Gully Point Cove","2025-05-09 08:32",12,42.6599376,-70.5990485,TRUE,FALSE,FALSE,"S234972311"
"430","sursco","Surf Scoter","Melanitta perspicillata","L211434","Crane Beach (TTOR)","2025-05-09 08:15",1,42.6839598,-70.7667586,TRUE,FALSE,FALSE,"S235022615"
"431","sursco","Surf Scoter","Melanitta perspicillata","L1044370","Weekapaug Park","2025-05-09 08:15",1,41.326424,-71.7542303,TRUE,FALSE,FALSE,"S234927666"
"432","sursco","Surf Scoter","Melanitta perspicillata","L3883665","Sitka Sound--north","2025-05-09 08:11",1,57.1560736,-135.4254284,TRUE,FALSE,FALSE,"S235140604"
"433","sursco","Surf Scoter","Melanitta perspicillata","L42092229","41329 Foulweather Bluff Rd NE, Hansville US-WA 47.93902, -122.61430","2025-05-09 07:59",9,47.939018,-122.614304,TRUE,FALSE,TRUE,"S235059133"
"434","sursco","Surf Scoter","Melanitta perspicillata","L734464","Cohasset--Little Harbor and Sandy Beach","2025-05-09 07:58",11,42.2557766,-70.8008766,TRUE,FALSE,FALSE,"S235301764"
"435","sursco","Surf Scoter","Melanitta perspicillata","L44484953","Auto selected 55.16172, -131.85047","2025-05-09 07:35",22,55.161724,-131.850466,TRUE,FALSE,TRUE,"S235125256"
"436","sursco","Surf Scoter","Melanitta perspicillata","L289463","MacKerricher SP--Laguna Pt. and Boardwalk","2025-05-09 07:22",4,39.488921,-123.8033143,TRUE,FALSE,FALSE,"S235129418"
"437","sursco","Surf Scoter","Melanitta perspicillata","L1311850","Ketchikan--Mountain Point","2025-05-09 07:15",35,55.2931036,-131.5416026,TRUE,FALSE,FALSE,"S235919979"
"438","sursco","Surf Scoter","Melanitta perspicillata","L234625","Petit Manan NWR--Petit Manan Island","2025-05-09 07:04",6,44.367175,-67.864624,TRUE,FALSE,FALSE,"S235248523"
"439","sursco","Surf Scoter","Melanitta perspicillata","L269277","Hatteras Point","2025-05-09 06:52",1,35.1976636,-75.7332529,TRUE,TRUE,FALSE,"S235848540"
"440","sursco","Surf Scoter","Melanitta perspicillata","L126644","Cape Henlopen State Park","2025-05-09 06:33",31,38.7714636,-75.086344,TRUE,TRUE,FALSE,"S235088698"
"441","sursco","Surf Scoter","Melanitta perspicillata","L44484967","Auto selected 55.43636, -131.98966","2025-05-09 06:29",NA,55.436358,-131.989659,TRUE,FALSE,TRUE,"S235125332"
"442","sursco","Surf Scoter","Melanitta perspicillata","L802523","Tulalip Bay (Tulalip Reservation)","2025-05-09 06:15",5,48.0545637,-122.2884498,TRUE,FALSE,FALSE,"S235035053"
"443","sursco","Surf Scoter","Melanitta perspicillata","L489240","Dungeness NWR","2025-05-09 06:07",42,48.1628795,-123.164978,TRUE,FALSE,FALSE,"S235111531"
"444","sursco","Surf Scoter","Melanitta perspicillata","L275264","Cape Island--Higbee Beach WMA--Dike/Morning Flight Songbird Count","2025-05-09 06:03",2,38.9637983,-74.960618,TRUE,FALSE,FALSE,"S234904792"
"445","sursco","Surf Scoter","Melanitta perspicillata","L455487","Great Pond, Randolph","2025-05-09 05:45",1,42.1926621,-71.0484982,TRUE,FALSE,FALSE,"S234966269"
"446","sursco","Surf Scoter","Melanitta perspicillata","L44400525","4394 Kachemak Dr, Homer US-AK (59.6539,-151.4430)","2025-05-08 19:20",4,59.653907,-151.442978,TRUE,FALSE,TRUE,"S234845958"
"447","sursco","Surf Scoter","Melanitta perspicillata","L1284994","Me-Kwa-Mooks Park","2025-05-08 18:46",5,47.563362,-122.4064708,TRUE,FALSE,FALSE,"S234828686"
"448","sursco","Surf Scoter","Melanitta perspicillata","L5086328","West Island Beach","2025-05-08 18:44",2,41.5851223,-70.8219668,TRUE,FALSE,FALSE,"S234787438"
"449","sursco","Surf Scoter","Melanitta perspicillata","L6002700","Prince of Wales Is.--Eagle's Nest Campground","2025-05-08 18:02",2,55.7028629,-132.843343,TRUE,FALSE,FALSE,"S234825354"
"450","sursco","Surf Scoter","Melanitta perspicillata","L44428826","Casco Bay Ferry, Maine","2025-05-08 17:50",30,43.6984077,-70.1574938,TRUE,FALSE,TRUE,"S234812169"
"451","sursco","Surf Scoter","Melanitta perspicillata","L6975167","Little Private Beach, Marblehead","2025-05-08 17:49",60,42.490443,-70.844304,TRUE,FALSE,FALSE,"S234754253"
"452","sursco","Surf Scoter","Melanitta perspicillata","L489398","Hills Beach and Basket Island Causeway","2025-05-08 17:10",33,43.4527802,-70.3656473,TRUE,FALSE,FALSE,"S234787417"
"453","sursco","Surf Scoter","Melanitta perspicillata","L99615","Myers Point","2025-05-08 17:06",1,42.5371252,-76.5506476,TRUE,TRUE,FALSE,"S234749274"
"454","sursco","Surf Scoter","Melanitta perspicillata","L2309821","NY:TOM:Lansing: Myers Pt","2025-05-08 17:04",1,42.5373453,-76.5504692,TRUE,TRUE,TRUE,"S234750243"
"455","sursco","Surf Scoter","Melanitta perspicillata","L464564","Bicentennial Park, Hampton","2025-05-08 17:02",3,42.9413131,-70.7930875,TRUE,FALSE,FALSE,"S234749376"
"456","sursco","Surf Scoter","Melanitta perspicillata","L1129610","Kodiak Is.--Lake Rose Tead and Pasagshak River","2025-05-08 16:42",7,57.4756505,-152.4627686,TRUE,FALSE,FALSE,"S234805460"
"457","sursco","Surf Scoter","Melanitta perspicillata","L825449","MacKerricher SP--end of Ward Ave Beach and Bluffs","2025-05-08 16:13",1,39.502236,-123.7872505,TRUE,FALSE,FALSE,"S234785154"
"458","sursco","Surf Scoter","Melanitta perspicillata","L350286","Sacandaga Lake","2025-05-08 16:12",2,43.482429,-74.4428039,TRUE,TRUE,FALSE,"S234726736"
"459","sursco","Surf Scoter","Melanitta perspicillata","L301069","Parsons Beach","2025-05-08 15:55",4,43.3443346,-70.5181011,TRUE,FALSE,FALSE,"S234730126"
"460","sursco","Surf Scoter","Melanitta perspicillata","L7706326","Smith Island","2025-05-08 15:52",4,48.318233,-122.8410187,TRUE,FALSE,FALSE,"S234837012"
"461","sursco","Surf Scoter","Melanitta perspicillata","L452647","Fort Foster Park, Kittery","2025-05-08 15:40",8,43.0678845,-70.692451,TRUE,FALSE,FALSE,"S234746740"
"462","sursco","Surf Scoter","Melanitta perspicillata","L233763","Ebey's Landing","2025-05-08 15:24",6,48.19475,-122.71165,TRUE,FALSE,FALSE,"S234808980"
"463","sursco","Surf Scoter","Melanitta perspicillata","L21742604","End of Fawn Lake Road, Sacandaga Lake","2025-05-08 15:20",2,43.482581,-74.443388,TRUE,TRUE,TRUE,"S234718180"
"464","sursco","Surf Scoter","Melanitta perspicillata","L44410950","North Atlantic Ocean, Sea Bright US-NJ 40.36244, -73.97162","2025-05-08 15:19",2,40.362436,-73.971623,TRUE,FALSE,TRUE,"S234708298"
"465","sursco","Surf Scoter","Melanitta perspicillata","L2944567","Hog Island--Audubon Camp, North Peninsula","2025-05-08 15:15",1,43.9784052,-69.4171894,TRUE,FALSE,FALSE,"S234711764"
"466","sursco","Surf Scoter","Melanitta perspicillata","L621111","Smith Point County Park","2025-05-08 15:13",2,40.7352017,-72.8641286,TRUE,FALSE,FALSE,"S234805824"
"467","sursco","Surf Scoter","Melanitta perspicillata","L673585","Avalon--8th St. Jetty (Avalon Seawatch 2015-present)","2025-05-08 15:07",1,39.1072112,-74.7053629,TRUE,FALSE,FALSE,"S234835871"
"468","sursco","Surf Scoter","Melanitta perspicillata","L27062189","seeing birds","2025-05-08 15:03",28,47.9949033,-122.5384626,TRUE,FALSE,TRUE,"S234777645"
"469","sursco","Surf Scoter","Melanitta perspicillata","L444898","Hampton Harbor (overall)","2025-05-08 14:52",2,42.8964669,-70.8253055,TRUE,FALSE,FALSE,"S235194204"
"470","sursco","Surf Scoter","Melanitta perspicillata","L44426178","Gastineau Channel, Juneau US-AK 58.25491, -134.33483","2025-05-08 14:49",NA,58.254913,-134.334826,TRUE,FALSE,TRUE,"S234796945"
"471","sursco","Surf Scoter","Melanitta perspicillata","L4600417","US-NJ-Sea Isle City-18 29th St - 39.1631x-74.6841","2025-05-08 14:18",8,39.163064,-74.684117,TRUE,FALSE,TRUE,"S236052912"
"472","sursco","Surf Scoter","Melanitta perspicillata","L44476063","Bay of Booothbay","2025-05-08 13:30",25,43.8285533,-69.6352264,TRUE,FALSE,TRUE,"S235169627"
"473","sursco","Surf Scoter","Melanitta perspicillata","L44469742","4287 Homer Spit Rd, Homer US-AK (59.6017,-151.4233)","2025-05-08 13:26",5,59.601714,-151.423316,TRUE,FALSE,TRUE,"S235047582"
"474","sursco","Surf Scoter","Melanitta perspicillata","L19079828","Lakefront Hotel-Lake Spenard","2025-05-08 13:20",2,61.177119,-149.944308,TRUE,FALSE,TRUE,"S234747095"
"475","sursco","Surf Scoter","Melanitta perspicillata","L450388","Lake Hood & Lake Spenard","2025-05-08 12:55",2,61.1787982,-149.9607182,TRUE,FALSE,FALSE,"S234746354"
"476","sursco","Surf Scoter","Melanitta perspicillata","L44415649","Ecola State Park, Seaside US-OR (45.9202,-123.9746)","2025-05-08 12:33",25,45.920161,-123.974594,TRUE,FALSE,TRUE,"S234733926"
"477","sursco","Surf Scoter","Melanitta perspicillata","L6322209","Suminsby Park and Sargent Drive","2025-05-08 12:16",15,44.3361417,-68.304306,TRUE,FALSE,FALSE,"S234648657"
"478","sursco","Surf Scoter","Melanitta perspicillata","L130929","Pemaquid Harbor","2025-05-08 11:59",1,43.8798599,-69.5206451,TRUE,FALSE,FALSE,"S234731665"
"479","sursco","Surf Scoter","Melanitta perspicillata","L752017","Lake Lamoille - Morristown (148 acres)","2025-05-08 11:58",2,44.5715173,-72.6075666,TRUE,FALSE,FALSE,"S234809300"
"480","sursco","Surf Scoter","Melanitta perspicillata","L44431550","Echo Cove, Juneau US-AK (58.6777,-134.9229)","2025-05-08 11:51",100,58.67766,-134.922942,TRUE,FALSE,TRUE,"S234826581"
"481","sursco","Surf Scoter","Melanitta perspicillata","L1048752","Lake Merced--Boathouse/Harding Park entrance drive","2025-05-08 11:43",1,37.7260074,-122.5005627,TRUE,FALSE,FALSE,"S234757110"
"482","sursco","Surf Scoter","Melanitta perspicillata","L4001247","Kachemak Bay--Homer to Seldovia ferry route","2025-05-08 11:30",10,59.540513,-151.5706444,TRUE,FALSE,FALSE,"S234854758"
"483","sursco","Surf Scoter","Melanitta perspicillata","L742878","Siuslaw River--South Jetty (jetty only)","2025-05-08 11:12",1,44.0155337,-124.1370106,TRUE,FALSE,FALSE,"S234704376"
"484","sursco","Surf Scoter","Melanitta perspicillata","L1474534","Driftwood Key","2025-05-08 11:00",6,47.9089626,-122.5873425,TRUE,FALSE,FALSE,"S234681491"
"485","sursco","Surf Scoter","Melanitta perspicillata","L8145524","Coskata - Great Point Area","2025-05-08 10:38",2,41.355516,-70.0128999,TRUE,FALSE,TRUE,"S234712077"
"486","sursco","Surf Scoter","Melanitta perspicillata","L820722","Homer Spit--Lands End","2025-05-08 10:30",3,59.6003137,-151.408596,TRUE,FALSE,FALSE,"S234700028"
"487","sursco","Surf Scoter","Melanitta perspicillata","L773102","Lake Lucille-Carter Park","2025-05-08 10:18",7,61.5777108,-149.4501114,TRUE,FALSE,FALSE,"S234692116"
"488","sursco","Surf Scoter","Melanitta perspicillata","L44416948","4350 Homer Spit Rd, Homer US-AK 59.60301, -151.42187","2025-05-08 09:50",4,59.603009,-151.421871,TRUE,FALSE,TRUE,"S234741146"
"489","sursco","Surf Scoter","Melanitta perspicillata","L18597194","86 Broad Cove Ln, Cushing US-ME 44.01121, -69.24440","2025-05-08 09:17",14,44.011214,-69.244399,TRUE,FALSE,TRUE,"S234594435"
"490","sursco","Surf Scoter","Melanitta perspicillata","L1364956","Kachemak Bay--Halibut Cove","2025-05-08 09:10",10,59.5936678,-151.2371063,TRUE,FALSE,FALSE,"S235058699"
"491","sursco","Surf Scoter","Melanitta perspicillata","L20717219","Doran Regional Park, Bodega Bay US-CA (38.3147,-123.0396)","2025-05-08 09:09",48,38.314659,-123.039558,TRUE,FALSE,TRUE,"S234754157"
"492","sursco","Surf Scoter","Melanitta perspicillata","L44411490","3020 Maxwell Mountain Rd, Oceanside US-OR 45.46559, -123.97122","2025-05-08 09:05",5,45.465587,-123.971216,TRUE,FALSE,TRUE,"S234711046"
"493","sursco","Surf Scoter","Melanitta perspicillata","L573612","Pismo Beach Pier","2025-05-08 09:03",1,35.1379484,-120.6454299,TRUE,FALSE,FALSE,"S234641754"
"494","sursco","Surf Scoter","Melanitta perspicillata","L14552773","Marrowstone--Morningtide (Jefferson Land Trust)","2025-05-08 08:52",7,48.0712285,-122.69161,TRUE,FALSE,FALSE,"S234738548"
"495","sursco","Surf Scoter","Melanitta perspicillata","L30740310","Seacoast Science Center, Rye US-NH 43.04504, -70.71565","2025-05-08 08:47",13,43.045044,-70.715651,TRUE,FALSE,TRUE,"S234604378"
"496","sursco","Surf Scoter","Melanitta perspicillata","L1015237","Wrangell--City Dock","2025-05-08 08:30",16,56.4709629,-132.3887193,TRUE,FALSE,FALSE,"S234653576"
"497","sursco","Surf Scoter","Melanitta perspicillata","L3956253","Passage Canal (Whittier)","2025-05-08 08:17",20,60.8127808,-148.5804749,TRUE,FALSE,FALSE,"S234659571"
"498","sursco","Surf Scoter","Melanitta perspicillata","L19104315","Chief Kiawanda Rock","2025-05-08 08:08",15,45.2120032,-123.9875279,TRUE,FALSE,FALSE,"S234618964"
"499","sursco","Surf Scoter","Melanitta perspicillata","L463985","BHI--Deer Island","2025-05-08 08:08",4,42.3516938,-70.9582901,TRUE,FALSE,FALSE,"S234564299"
"500","sursco","Surf Scoter","Melanitta perspicillata","L44498774","Thumb Cove","2025-05-08 08:00",1,60.003589,-149.3047941,TRUE,FALSE,TRUE,"S235196151"
"501","sursco","Surf Scoter","Melanitta perspicillata","L520045","Eel Point","2025-05-08 07:45",28,41.2917377,-70.2069283,TRUE,FALSE,FALSE,"S234596527"
"502","sursco","Surf Scoter","Melanitta perspicillata","L215343","Napatree Point","2025-05-08 07:41",5,41.3103371,-71.8743918,TRUE,FALSE,FALSE,"S234708177"
"503","sursco","Surf Scoter","Melanitta perspicillata","L6023480","Round Island  - Beneficial Use Site (Restricted Access)","2025-05-08 07:36",1,30.3119125,-88.604393,TRUE,TRUE,TRUE,"S234811557"
"504","sursco","Surf Scoter","Melanitta perspicillata","L44350754","28 Round Pond Landing Rd, Round Pond US-ME (43.9453,-69.4584)","2025-05-08 07:28",6,43.945289,-69.458374,TRUE,FALSE,TRUE,"S234754732"
"505","sursco","Surf Scoter","Melanitta perspicillata","L781318","Gustavus--Forelands","2025-05-08 07:24",7,58.4121436,-135.724411,TRUE,FALSE,FALSE,"S236058111"
"506","sursco","Surf Scoter","Melanitta perspicillata","L2529193","Home - Old Glacier Hwy / Lena Loop Junction - Favorite Channel - Juneau","2025-05-08 07:20",40,58.3828943,-134.7464883,TRUE,FALSE,TRUE,"S234639965"
"507","sursco","Surf Scoter","Melanitta perspicillata","L248057","Pte. Mouillee SGA (permit required Sep 1-Dec 15)","2025-05-08 07:15",1,42.0146112,-83.2001495,TRUE,TRUE,FALSE,"S234770820"
"508","sursco","Surf Scoter","Melanitta perspicillata","L305617","Cape Island--CMP--Alexander Ave. dunes/beach","2025-05-08 07:07",2,38.9405526,-74.9714112,TRUE,FALSE,FALSE,"S234544931"
"509","sursco","Surf Scoter","Melanitta perspicillata","L269484","Duxbury Beach","2025-05-08 07:06",1,42.0295225,-70.6261466,TRUE,FALSE,FALSE,"S234665980"
"510","sursco","Surf Scoter","Melanitta perspicillata","L1149353","Island Pond Access Area","2025-05-08 06:40",1,44.7926325,-71.8664753,TRUE,FALSE,FALSE,"S234672400"
"511","sursco","Surf Scoter","Melanitta perspicillata","L43513461","Coast Hwy 101 at SE 143rd St","2025-05-08 06:35",6,44.5350894,-124.0748248,TRUE,FALSE,TRUE,"S234736772"
"512","sursco","Surf Scoter","Melanitta perspicillata","L1845416","Cape Island--CMP--Brainard Ave. dune crossing","2025-05-08 06:30",12,38.9382538,-74.9705146,TRUE,FALSE,FALSE,"S234606262"
"513","sursco","Surf Scoter","Melanitta perspicillata","L5609326","Cordova--Goose Cove (Pt. Whitshed)","2025-05-08 06:30",7,60.4598416,-145.9562016,TRUE,FALSE,FALSE,"S234697996"
"514","sursco","Surf Scoter","Melanitta perspicillata","L15258351","Coronado Cays--park & residential","2025-05-08 05:53",1,32.6226073,-117.1342498,TRUE,FALSE,FALSE,"S234558486"
"515","sursco","Surf Scoter","Melanitta perspicillata","L44426155","Gastineau Channel, Juneau US-AK 58.26335, -134.35043","2025-05-08 05:51",NA,58.263349,-134.350426,TRUE,FALSE,TRUE,"S234796814"
"516","sursco","Surf Scoter","Melanitta perspicillata","L2264349","Ketchikan--Rainbird Trail","2025-05-07 20:28",60,55.3502315,-131.6656923,TRUE,FALSE,FALSE,"S234448927"
"517","sursco","Surf Scoter","Melanitta perspicillata","L44364899","Juneau-Cruise Ship Dock","2025-05-07 20:05",250,58.2934814,-134.3981831,TRUE,FALSE,TRUE,"S234454145"
"518","sursco","Surf Scoter","Melanitta perspicillata","L788239","Alaska Maritime NWR--East Amatuli Island","2025-05-07 19:58",17,58.9171441,-151.9905281,TRUE,FALSE,FALSE,"S234573300"
"519","sursco","Surf Scoter","Melanitta perspicillata","L25198306","Old oar house thane","2025-05-07 19:36",200,58.262009,-134.331393,TRUE,FALSE,TRUE,"S234445830"
"520","sursco","Surf Scoter","Melanitta perspicillata","L3296037","Sunset Avenue","2025-05-07 18:53",2,47.8171642,-122.3775244,TRUE,FALSE,TRUE,"S234430895"
"521","sursco","Surf Scoter","Melanitta perspicillata","L2786593","Tillamook Bay--Garibaldi Marina","2025-05-07 18:39",20,45.5559147,-123.913192,TRUE,FALSE,FALSE,"S234455163"
"522","sursco","Surf Scoter","Melanitta perspicillata","L44360055","122 Lookout Point Rd, Harpswell US-ME 43.80803, -69.99311","2025-05-07 18:15",10,43.808028,-69.993113,TRUE,FALSE,TRUE,"S234426349"
"523","sursco","Surf Scoter","Melanitta perspicillata","L6464340","Valley Creek Estuary Park","2025-05-07 18:06",1,48.1222956,-123.4365034,TRUE,FALSE,FALSE,"S234655129"
"524","sursco","Surf Scoter","Melanitta perspicillata","L247966","Coyote Point County Park","2025-05-07 17:24",1,37.5899626,-122.3215145,TRUE,FALSE,FALSE,"S234423720"
"525","sursco","Surf Scoter","Melanitta perspicillata","L3773033","Ledgeview Ln","2025-05-07 16:59",2,43.845254,-69.889459,TRUE,FALSE,TRUE,"S234347294"
"526","sursco","Surf Scoter","Melanitta perspicillata","L31418103","Anglesea Drive, WIldwood","2025-05-07 16:51",10,39.0157539,-74.7946597,TRUE,FALSE,TRUE,"S234340773"
"527","sursco","Surf Scoter","Melanitta perspicillata","L3724406","Ross Island","2025-05-07 15:30",5,43.8982326,-69.4348598,TRUE,FALSE,FALSE,"S235266000"
"528","sursco","Surf Scoter","Melanitta perspicillata","L474417","Kettle Cove","2025-05-07 15:17",15,43.5622948,-70.2186012,TRUE,FALSE,FALSE,"S234356173"
"529","sursco","Surf Scoter","Melanitta perspicillata","L44341211","926–930 Ocean Dr, Cape May US-NJ 38.95556, -74.89722","2025-05-07 15:16",2,38.95556,-74.897225,TRUE,FALSE,TRUE,"S234309537"
"530","sursco","Surf Scoter","Melanitta perspicillata","L156941","Yaquina Head Outstanding Natural Area--Lighthouse","2025-05-07 13:51",NA,44.6768624,-124.0788388,TRUE,FALSE,FALSE,"S234350542"
"531","sursco","Surf Scoter","Melanitta perspicillata","L44422025","Ocean Cape to Point Carrew","2025-05-07 13:45",300,59.5488108,-139.8535199,TRUE,FALSE,FALSE,"S234770991"
"532","sursco","Surf Scoter","Melanitta perspicillata","L433644","Sandy Point","2025-05-07 13:41",32,48.7871878,-122.7081871,TRUE,FALSE,FALSE,"S235206458"
"533","sursco","Surf Scoter","Melanitta perspicillata","L6330359","McNeil St. trail","2025-05-07 12:42",10,47.1023233,-122.6737717,TRUE,FALSE,FALSE,"S234338995"
"534","sursco","Surf Scoter","Melanitta perspicillata","L372660","Seattle-Bremerton Ferry (King Co.)","2025-05-07 12:42",7,47.5886933,-122.4398546,TRUE,FALSE,FALSE,"S234341840"
"535","sursco","Surf Scoter","Melanitta perspicillata","L570868","Rogue River mouth","2025-05-07 12:30",1,42.4219676,-124.4292641,TRUE,FALSE,FALSE,"S234320326"
"536","sursco","Surf Scoter","Melanitta perspicillata","L1133976","Kiptopeke SP--Fishing Pier","2025-05-07 11:52",1,37.1666606,-75.9883332,TRUE,FALSE,FALSE,"S234388786"
"537","sursco","Surf Scoter","Melanitta perspicillata","L109201","Griswold Point","2025-05-07 11:40",1,41.2797819,-72.3196399,TRUE,FALSE,FALSE,"S234292843"
"538","sursco","Surf Scoter","Melanitta perspicillata","L3738360","Lynnhaven Inlet Flats","2025-05-07 11:34",2,36.903687,-76.0915983,TRUE,FALSE,FALSE,"S234241680"
"539","sursco","Surf Scoter","Melanitta perspicillata","L1218789","Hastie Lake Rd beach access","2025-05-07 11:34",NA,48.264558,-122.7479535,TRUE,FALSE,FALSE,"S235098585"
"540","sursco","Surf Scoter","Melanitta perspicillata","L9792780","Mendenhall Wetlands SGR (E of Mendenhall River mouth)","2025-05-07 11:13",400,58.3504297,-134.6000631,TRUE,FALSE,FALSE,"S234354824"
"541","sursco","Surf Scoter","Melanitta perspicillata","L862612","Fort Stark, New Castle","2025-05-07 11:00",30,43.05858,-70.7136012,TRUE,FALSE,FALSE,"S234257351"
"542","sursco","Surf Scoter","Melanitta perspicillata","L2135865","Kachemak Bay--Cohen Is./ 60' Rk / Lancashire Rks","2025-05-07 10:49",3,59.5460658,-151.4738274,TRUE,FALSE,FALSE,"S234314583"
"543","sursco","Surf Scoter","Melanitta perspicillata","L803300","North River","2025-05-07 10:46",3,46.7478596,-123.8869858,TRUE,FALSE,FALSE,"S235110474"
"544","sursco","Surf Scoter","Melanitta perspicillata","L682177","Glacier Bay NP--Tarr Inlet","2025-05-07 10:45",650,59.0008815,-136.9730759,TRUE,FALSE,FALSE,"S234445046"
"545","sursco","Surf Scoter","Melanitta perspicillata","L34238871","86 Broad Cove Ln, Cushing US-ME 44.01116, -69.24431","2025-05-07 10:36",7,44.011157,-69.244308,TRUE,FALSE,TRUE,"S234204519"
"546","sursco","Surf Scoter","Melanitta perspicillata","L5198057","Jack's Island","2025-05-07 10:33",22,41.5942632,-71.2078561,TRUE,FALSE,FALSE,"S234207982"
"547","sursco","Surf Scoter","Melanitta perspicillata","L131686","Wolfe's Neck Woods SP","2025-05-07 10:30",4,43.8212814,-70.0819397,TRUE,FALSE,FALSE,"S234330371"
"548","sursco","Surf Scoter","Melanitta perspicillata","L25847156","China Poot Bay","2025-05-07 10:30",15,59.5607145,-151.3010958,TRUE,FALSE,FALSE,"S234312288"
"549","sursco","Surf Scoter","Melanitta perspicillata","L798675","Libbey Beach Park","2025-05-07 10:29",NA,48.2319,-122.767,TRUE,FALSE,FALSE,"S235619889"
"550","sursco","Surf Scoter","Melanitta perspicillata","L450133","Seapoint Beach","2025-05-07 10:26",5,43.0883224,-70.6629038,TRUE,FALSE,FALSE,"S234242677"
"551","sursco","Surf Scoter","Melanitta perspicillata","L1072372","UCSB--Campus Lagoon","2025-05-07 10:17",5,34.4076516,-119.845165,TRUE,FALSE,FALSE,"S234307120"
"552","sursco","Surf Scoter","Melanitta perspicillata","L624665","Dana Point--nearshore (ORA Co.)","2025-05-07 10:06",1,33.4046334,-117.7724762,TRUE,FALSE,FALSE,"S234401923"
"553","sursco","Surf Scoter","Melanitta perspicillata","L1280497","Cape May Harbor","2025-05-07 10:05",1,38.9496627,-74.8943564,TRUE,FALSE,FALSE,"S234254958"
"554","sursco","Surf Scoter","Melanitta perspicillata","L16355704","West Island State Reservation","2025-05-07 10:04",12,41.5981039,-70.8308942,TRUE,FALSE,FALSE,"S234215794"
"555","sursco","Surf Scoter","Melanitta perspicillata","L1660789","Cuttyhunk Ferry (Bristol Co.)","2025-05-07 09:54",5,41.577779,-70.884234,TRUE,FALSE,FALSE,"S234296797"
"556","sursco","Surf Scoter","Melanitta perspicillata","L813393","Utsalady Bay","2025-05-07 09:52",400,48.2561699,-122.4839973,TRUE,FALSE,FALSE,"S234829251"
"557","sursco","Surf Scoter","Melanitta perspicillata","L159353","Metompkin Island","2025-05-07 09:43",9,37.7636414,-75.5430007,TRUE,FALSE,FALSE,"S234894671"
"558","sursco","Surf Scoter","Melanitta perspicillata","L1049118","Port Townsend Marine Science Center","2025-05-07 09:41",2,48.1357285,-122.7616489,TRUE,FALSE,FALSE,"S234271330"
"559","sursco","Surf Scoter","Melanitta perspicillata","L1121614","Kodiak Is.--Middle Bay (NW)","2025-05-07 09:40",26,57.6592909,-152.5080007,TRUE,FALSE,FALSE,"S234330816"
"560","sursco","Surf Scoter","Melanitta perspicillata","L23870615","Fort Flagler State Park, Nordland US-WA 48.10030, -122.68932","2025-05-07 09:29",4,48.1003,-122.689318,TRUE,FALSE,TRUE,"S234246031"
"561","sursco","Surf Scoter","Melanitta perspicillata","L2418908","Fambrini's Farm Fresh Produce","2025-05-07 09:14",3,36.9962531,-122.1734372,TRUE,FALSE,FALSE,"S235011501"
"562","sursco","Surf Scoter","Melanitta perspicillata","L1044419","Sakonnet Point--Sand Bar","2025-05-07 09:06",200,41.4564294,-71.194582,TRUE,TRUE,FALSE,"S234174765"
"563","sursco","Surf Scoter","Melanitta perspicillata","L14698362","5569 S Mutiny Sands Rd, Freeland US-WA 48.00812, -122.56041","2025-05-07 09:05",50,48.008123,-122.560405,TRUE,FALSE,TRUE,"S234416724"
"564","sursco","Surf Scoter","Melanitta perspicillata","L450041","Poplar Island","2025-05-07 09:04",1,38.7648589,-76.3814163,TRUE,FALSE,FALSE,"S234280822"
"565","sursco","Surf Scoter","Melanitta perspicillata","L2416232","SR 16-WA, Sinclair Inlet/Gorst - behind Peninsula Subaru","2025-05-07 09:03",1,47.5260209,-122.697131,TRUE,FALSE,TRUE,"S234270587"
"566","sursco","Surf Scoter","Melanitta perspicillata","L1528587","Point Julia (restricted access)","2025-05-07 08:57",45,47.855307,-122.575618,TRUE,FALSE,FALSE,"S234249043"
"567","sursco","Surf Scoter","Melanitta perspicillata","L30790775","Pedestrian Beach Crossing, Lewes US-DE 38.79579, -75.09298","2025-05-07 08:56",3,38.795793,-75.092976,TRUE,FALSE,TRUE,"S234177024"
"568","sursco","Surf Scoter","Melanitta perspicillata","L34750633","River Mouth Loop Tijuana Slough","2025-05-07 08:47",3,32.5595779,-117.1278305,TRUE,FALSE,TRUE,"S234277158"
"569","sursco","Surf Scoter","Melanitta perspicillata","L470024","Goosewing Beach Preserve & Quicksand Pond","2025-05-07 08:32",1,41.5008498,-71.1290502,TRUE,FALSE,FALSE,"S234140526"
"570","sursco","Surf Scoter","Melanitta perspicillata","L44344444","4350 Homer Spit Rd, Homer US-AK 59.60281, -151.42189","2025-05-07 08:25",NA,59.60281,-151.421885,TRUE,FALSE,TRUE,"S234327739"
"571","sursco","Surf Scoter","Melanitta perspicillata","L36449233","10-Mile Beach N - Inglenook Creekmouth","2025-05-07 08:15",15,39.5391263,-123.7698961,TRUE,FALSE,TRUE,"S234757492"
"572","sursco","Surf Scoter","Melanitta perspicillata","L1135300","Squantum Marshes","2025-05-07 08:04",1,42.2941991,-71.0211182,TRUE,FALSE,FALSE,"S234168721"
"573","sursco","Surf Scoter","Melanitta perspicillata","L44314589","Kiawah Island Golf Resort - The Ocean Course, Kiawah Island US-SC 32.61228, -80.02231","2025-05-07 07:57",2,32.612283,-80.022309,TRUE,TRUE,TRUE,"S234160068"
"574","sursco","Surf Scoter","Melanitta perspicillata","L6512061","Meduncook Drive","2025-05-07 07:32",2,43.9807199,-69.3188294,TRUE,FALSE,TRUE,"S234164818"
"575","sursco","Surf Scoter","Melanitta perspicillata","L2382351","Quonochontaug Pond","2025-05-07 07:30",2,41.3405382,-71.7272472,TRUE,FALSE,FALSE,"S234297677"
"576","sursco","Surf Scoter","Melanitta perspicillata","L126634","Ocean City Inlet","2025-05-07 07:25",45,38.324,-75.091,TRUE,FALSE,FALSE,"S234129765"
"577","sursco","Surf Scoter","Melanitta perspicillata","L2092321","Chetco River--South Jetty","2025-05-07 07:20",1,42.0445123,-124.2695332,TRUE,FALSE,FALSE,"S234216157"
"578","sursco","Surf Scoter","Melanitta perspicillata","L1087486","Mashpee Pond--Attaquin Park","2025-05-07 07:11",18,41.6515592,-70.4834533,TRUE,FALSE,FALSE,"S234127162"
"579","sursco","Surf Scoter","Melanitta perspicillata","L839024","Horseneck Beach","2025-05-07 07:01",5,41.5061348,-71.0554504,TRUE,FALSE,FALSE,"S234162596"
"580","sursco","Surf Scoter","Melanitta perspicillata","L4579576","Great Hill Park","2025-05-07 06:41",1,42.250161,-70.9419719,TRUE,FALSE,FALSE,"S234398632"
"581","sursco","Surf Scoter","Melanitta perspicillata","L998431","Sutro Baths--seawatch","2025-05-07 06:28",18,37.7810776,-122.5143653,TRUE,FALSE,FALSE,"S234250057"
