"","speciesCode","comName","sciName","locId","locName","obsDt","howMany","lat","lng","obsValid","obsReviewed","locationPrivate","subId"
"1","blkski","Black Skimmer","Rynchops niger","L1950528","Scipio Creek &  boat basin","2025-05-20 19:41",1,29.734387,-84.994169,TRUE,FALSE,FALSE,"S240752837"
"2","blkski","Black Skimmer","Rynchops niger","L45567099","57910 NC-12, Hatteras US-NC 35.21945, -75.69404","2025-05-20 19:04",2,35.219447,-75.694039,TRUE,FALSE,TRUE,"S240750315"
"3","blkski","Black Skimmer","Rynchops niger","L109136","Cape Island--South Cape May Meadows (SCMM)","2025-05-20 18:15",6,38.9359287,-74.9434519,TRUE,FALSE,FALSE,"S240746762"
"4","blkski","Black Skimmer","Rynchops niger","L6517539","Mastry Lake Park","2025-05-20 16:33",3,27.8316055,-82.6525423,TRUE,FALSE,FALSE,"S240707225"
"5","blkski","Black Skimmer","Rynchops niger","L998470","Don Edwards NWR--Ravenswood Salt Pond SF2","2025-05-20 16:31",15,37.4887844,-122.1341944,TRUE,FALSE,FALSE,"S240752584"
"6","blkski","Black Skimmer","Rynchops niger","L730351","Charleston Slough/Coast Casey Forebay","2025-05-20 15:51",1,37.4359191,-122.098918,TRUE,FALSE,FALSE,"S240750583"
"7","blkski","Black Skimmer","Rynchops niger","L1131629","Lake Seminole Park","2025-05-20 15:46",1,27.8452331,-82.7763927,TRUE,FALSE,FALSE,"S240708316"
"8","blkski","Black Skimmer","Rynchops niger","L1162083","Heislerville WMA--Main Pool","2025-05-20 15:44",NA,39.2310077,-75.0085974,TRUE,FALSE,FALSE,"S240690716"
"9","blkski","Black Skimmer","Rynchops niger","L45307086","57241 Hatteras Escape, Buxton US-NC","2025-05-20 15:32",1,35.21313,-75.681975,TRUE,FALSE,TRUE,"S240696372"
"10","blkski","Black Skimmer","Rynchops niger","L1804056","Red Bank Road & Boat Ramp","2025-05-20 15:00",1,37.4457835,-75.839889,TRUE,FALSE,FALSE,"S240700350"
"11","blkski","Black Skimmer","Rynchops niger","L714512","Sunset Lake  (Portland)","2025-05-20 15:00",1,27.8679131,-97.3274088,TRUE,FALSE,FALSE,"S240733992"
"12","blkski","Black Skimmer","Rynchops niger","L42752621","Williamson Bar","2025-05-20 14:55",80,31.943071,-80.914873,TRUE,FALSE,TRUE,"S240677100"
"13","blkski","Black Skimmer","Rynchops niger","L1458509","Destin Bridge- SW side","2025-05-20 14:25",2,30.3913277,-86.5212437,TRUE,FALSE,FALSE,"S240699522"
"14","blkski","Black Skimmer","Rynchops niger","L92448","Edwin B. Forsythe NWR--Wildlife Drive (8-mile auto tour loop only)","2025-05-20 13:37",54,39.464298,-74.417612,TRUE,FALSE,FALSE,"S240709498"
"15","blkski","Black Skimmer","Rynchops niger","L1125706","Big Talbot Island SP--Spoonbill Pond (includes parking & boat ramp)","2025-05-20 13:29",1,30.5101704,-81.4585671,TRUE,FALSE,FALSE,"S240652323"
"16","blkski","Black Skimmer","Rynchops niger","L624261","Betz Tiger Point Preserve","2025-05-20 13:25",4,30.4860793,-81.4905122,TRUE,FALSE,FALSE,"S240700400"
"17","blkski","Black Skimmer","Rynchops niger","L14757026","Katama Bay","2025-05-20 13:19",1,41.3588779,-70.4732249,TRUE,FALSE,TRUE,"S240662247"
"18","blkski","Black Skimmer","Rynchops niger","L2364364","Brigantine Island--South Cove","2025-05-20 13:04",10,39.3839768,-74.4151104,TRUE,FALSE,FALSE,"S240681441"
"19","blkski","Black Skimmer","Rynchops niger","L249999","Heislerville WMA","2025-05-20 13:04",105,39.2302586,-75.0034046,TRUE,FALSE,FALSE,"S240650064"
"20","blkski","Black Skimmer","Rynchops niger","L693848","Cape Island--CMP--Coral Ave. dune crossing","2025-05-20 12:46",2,38.9327948,-74.9651502,TRUE,FALSE,FALSE,"S240630285"
"21","blkski","Black Skimmer","Rynchops niger","L725012","Dauphin Island--Audubon Bird Sanctuary","2025-05-20 12:26",6,30.2487987,-88.0864692,TRUE,FALSE,FALSE,"S240712694"
"22","blkski","Black Skimmer","Rynchops niger","L92447","Edwin B. Forsythe NWR--Visitor Center","2025-05-20 11:53",NA,39.4648594,-74.4506477,TRUE,FALSE,FALSE,"S240695655"
"23","blkski","Black Skimmer","Rynchops niger","L478948","Prime Hook NWR--Prime Hook Beach Rd.","2025-05-20 10:58",22,38.8536119,-75.2592659,TRUE,FALSE,FALSE,"S240614607"
"24","blkski","Black Skimmer","Rynchops niger","L302921","Norbury's Landing","2025-05-20 10:45",1,39.0501634,-74.9273613,TRUE,FALSE,FALSE,"S240589618"
"25","blkski","Black Skimmer","Rynchops niger","L10707040","East End Lagoon Nature Preserve","2025-05-20 10:39",1,29.333603,-94.7454326,TRUE,FALSE,FALSE,"S240612259"
"26","blkski","Black Skimmer","Rynchops niger","L14420278","Chester Island Bird Sanctuary (restricted access)","2025-05-20 10:33",NA,28.4507003,-96.3484675,TRUE,FALSE,FALSE,"S240751996"
"27","blkski","Black Skimmer","Rynchops niger","L566310","Cupsogue Beach County Park","2025-05-20 10:31",20,40.7713119,-72.7373457,TRUE,FALSE,FALSE,"S240644108"
"28","blkski","Black Skimmer","Rynchops niger","L5888379","Wolfes Pond Park, New York US-NY (40.5128,-74.1936)","2025-05-20 09:58",1,40.512836,-74.193576,TRUE,FALSE,TRUE,"S240566257"
"29","blkski","Black Skimmer","Rynchops niger","L45529264","2701 Gulf Shore Blvd N, Naples US-FL 26.17799, -81.81459","2025-05-20 09:53",2,26.177993,-81.814589,TRUE,FALSE,TRUE,"S240566467"
"30","blkski","Black Skimmer","Rynchops niger","L2979881","Kenneth D. Batts Family Park","2025-05-20 09:46",2,34.4204108,-77.5566101,TRUE,FALSE,FALSE,"S240584760"
"31","blkski","Black Skimmer","Rynchops niger","L211914","Nummy Island","2025-05-20 09:35",2,39.0365891,-74.7912741,TRUE,FALSE,FALSE,"S240560933"
"32","blkski","Black Skimmer","Rynchops niger","L109132","Cape Island--Cape May Point SP (CMPSP)","2025-05-20 09:34",4,38.9338272,-74.9550854,TRUE,FALSE,FALSE,"S240599258"
"33","blkski","Black Skimmer","Rynchops niger","L109133","Edwin B. Forsythe NWR (formerly Brig)","2025-05-20 09:29",1,39.465,-74.4477778,TRUE,FALSE,FALSE,"S240616864"
"34","blkski","Black Skimmer","Rynchops niger","L8109579","Palm Island Mitigation Site","2025-05-20 09:16",1,26.8883858,-82.3372074,TRUE,FALSE,FALSE,"S240580477"
"35","blkski","Black Skimmer","Rynchops niger","L12129231","Hans and Pat Suter Wildlife Refuge, Corpus Christi US-TX 27.70867, -97.33794","2025-05-20 09:15",1,27.708674,-97.337936,TRUE,FALSE,TRUE,"S240664925"
"36","blkski","Black Skimmer","Rynchops niger","L45550571","Gates Channel","2025-05-20 09:04",5,37.5920174,-75.6628784,TRUE,FALSE,TRUE,"S240668869"
"37","blkski","Black Skimmer","Rynchops niger","L45546880","Mustang Island, Port Aransas US-TX 27.82992, -97.08943","2025-05-20 09:03",8,27.829921,-97.089427,TRUE,FALSE,TRUE,"S240651887"
"38","blkski","Black Skimmer","Rynchops niger","L9965931","Anastasia SP--Salt Run","2025-05-20 09:02",1,29.8707018,-81.2740243,TRUE,FALSE,FALSE,"S240563287"
"39","blkski","Black Skimmer","Rynchops niger","L2263572","San Joaquin Wildlife Sanctuary--Fledgling Loop Trail","2025-05-20 09:00",50,33.6609892,-117.8437141,TRUE,FALSE,FALSE,"S240726691"
"40","blkski","Black Skimmer","Rynchops niger","L420537","Nob Hill Pond","2025-05-20 08:59",17,37.5218818,-122.2498887,TRUE,FALSE,FALSE,"S240614841"
"41","blkski","Black Skimmer","Rynchops niger","L770565","South Padre Is.--Birding and Nature Center","2025-05-20 08:55",26,26.1374628,-97.1739367,TRUE,FALSE,FALSE,"S240585382"
"42","blkski","Black Skimmer","Rynchops niger","L674614","East Shackleford Banks","2025-05-20 08:52",1,34.6495906,-76.5520477,TRUE,FALSE,FALSE,"S240624089"
"43","blkski","Black Skimmer","Rynchops niger","L852706","West Ocean City--Hooper's Restaurant (private)","2025-05-20 08:45",45,38.3348566,-75.098505,TRUE,FALSE,FALSE,"S240546818"
"44","blkski","Black Skimmer","Rynchops niger","L27701859","13600 Immokalee Road, Naples, Florida, US (26.28, -81.596)","2025-05-20 08:43",3,26.2795114,-81.5964352,TRUE,FALSE,TRUE,"S240537726"
"45","blkski","Black Skimmer","Rynchops niger","L580981","Merritt Island NWR--West Gator Creek","2025-05-20 08:32",75,28.6283331,-80.7873852,TRUE,FALSE,FALSE,"S240545079"
"46","blkski","Black Skimmer","Rynchops niger","L296391","Conaskonk Point","2025-05-20 08:12",2,40.454367,-74.17673,TRUE,FALSE,FALSE,"S240574250"
"47","blkski","Black Skimmer","Rynchops niger","L1054424","Wrightsville Beach--Masonboro Inlet","2025-05-20 08:11",60,34.1870979,-77.8114414,TRUE,FALSE,FALSE,"S240533102"
"48","blkski","Black Skimmer","Rynchops niger","L5124889","Starkey Ranch Development","2025-05-20 08:09",1,28.1968392,-82.6105866,TRUE,FALSE,FALSE,"S240574335"
"49","blkski","Black Skimmer","Rynchops niger","L12278863","Wachapreague creeks","2025-05-20 08:07",2,37.6030308,-75.6754099,TRUE,FALSE,TRUE,"S240664599"
"50","blkski","Black Skimmer","Rynchops niger","L45539035","Billy Mitchell Rd, Buxton US-NC 35.23629, -75.60429","2025-05-20 08:00",1,35.236291,-75.604289,TRUE,FALSE,TRUE,"S240615231"
"51","blkski","Black Skimmer","Rynchops niger","L470628","Thompson's Beach and Road","2025-05-20 07:59",6,39.1928839,-74.9945641,TRUE,FALSE,FALSE,"S240570678"
"52","blkski","Black Skimmer","Rynchops niger","L718307","**Back Bay NWR","2025-05-20 07:48",1,36.672127,-75.915661,TRUE,FALSE,FALSE,"S240597931"
"53","blkski","Black Skimmer","Rynchops niger","L3124649","Ocracoke Island--Springer's Point Preserve","2025-05-20 07:47",3,35.1042513,-75.9891915,TRUE,FALSE,FALSE,"S240562239"
"54","blkski","Black Skimmer","Rynchops niger","L2039395","Galveston--Boddeker Rd","2025-05-20 07:45",1,29.3339241,-94.7480679,TRUE,FALSE,FALSE,"S240696614"
"55","blkski","Black Skimmer","Rynchops niger","L1032547","Fort Morgan--Mobile Point","2025-05-20 07:22",5,30.2253848,-88.0279326,TRUE,FALSE,FALSE,"S240574360"
"56","blkski","Black Skimmer","Rynchops niger","L793778","Port Aransas Nature Preserve at Charlie's Pasture","2025-05-20 07:21",2,27.8327765,-97.0873833,TRUE,FALSE,FALSE,"S240593801"
"57","blkski","Black Skimmer","Rynchops niger","L827977","Bayfront Park (J St.)","2025-05-20 07:15",5,32.6186091,-117.1033868,TRUE,FALSE,FALSE,"S240701156"
"58","blkski","Black Skimmer","Rynchops niger","L40939877","San Joaquin Marsh and Wildlife Sanctuary, Irvine US-CA 33.66194, -117.84226","2025-05-20 07:07",30,33.661942,-117.842265,TRUE,FALSE,TRUE,"S240685280"
"59","blkski","Black Skimmer","Rynchops niger","L506275","San Diego River mudflats (including Robb Field & north side)","2025-05-20 07:00",1,32.7568803,-117.2401432,TRUE,FALSE,FALSE,"S240632311"
"60","blkski","Black Skimmer","Rynchops niger","L795156","Dauphin Island--Pier","2025-05-20 06:53",3,30.2478562,-88.126322,TRUE,FALSE,FALSE,"S240539177"
"61","blkski","Black Skimmer","Rynchops niger","L557007","Cape Hatteras NS--Salt Pond","2025-05-20 06:37",1,35.2300561,-75.5322504,TRUE,FALSE,FALSE,"S240542380"
"62","blkski","Black Skimmer","Rynchops niger","L43340022","Gulfport Armed Forces Retirement Home Area Beach","2025-05-20 06:35",1,30.3833598,-89.0218077,TRUE,FALSE,TRUE,"S240515076"
"63","blkski","Black Skimmer","Rynchops niger","L4162948","Veteran's Memorial Park","2025-05-20 06:34",1,28.3553837,-80.6832933,TRUE,FALSE,TRUE,"S240519632"
"64","blkski","Black Skimmer","Rynchops niger","L367627","Salton Sea--Young Rd. (west end)","2025-05-20 06:31",2,33.1330196,-115.6666589,TRUE,FALSE,FALSE,"S240729131"
"65","blkski","Black Skimmer","Rynchops niger","L646019","Lighthouse Inlet Heritage Preserve","2025-05-20 06:30",2,32.6849697,-79.8875141,TRUE,FALSE,FALSE,"S240599504"
"66","blkski","Black Skimmer","Rynchops niger","L3033063","Oak Island--West End","2025-05-20 06:25",8,33.9185505,-78.2347369,TRUE,FALSE,FALSE,"S240495074"
"67","blkski","Black Skimmer","Rynchops niger","L5946246","Sullivan's Island Nature Trail","2025-05-20 06:23",2,32.7572884,-79.8519874,TRUE,FALSE,FALSE,"S240504132"
"68","blkski","Black Skimmer","Rynchops niger","L4929734","Redington Beach & Pier","2025-05-20 06:12",200,27.8185821,-82.8252772,TRUE,FALSE,FALSE,"S240606128"
"69","blkski","Black Skimmer","Rynchops niger","L127248","St. Vincent NWR","2025-05-20 06:12",3,29.6613,-85.1336,TRUE,FALSE,FALSE,"S240715022"
"70","blkski","Black Skimmer","Rynchops niger","L17028983","Mission Bay--Mariners Point","2025-05-20 06:11",3,32.766686,-117.2453127,TRUE,FALSE,FALSE,"S240615184"
"71","blkski","Black Skimmer","Rynchops niger","L3161280","Seabrook Island--North Beach","2025-05-20 06:04",4,32.5727539,-80.1518404,TRUE,FALSE,FALSE,"S240525149"
"72","blkski","Black Skimmer","Rynchops niger","L600062","Mason Inlet Waterbird Management Area","2025-05-20 06:01",4,34.2371024,-77.7735901,TRUE,FALSE,FALSE,"S240517926"
"73","blkski","Black Skimmer","Rynchops niger","L17557211","Townsend’s Inlet Waterfront Park","2025-05-20 05:58",2,39.121029,-74.715542,TRUE,FALSE,FALSE,"S240498033"
"74","blkski","Black Skimmer","Rynchops niger","L15684387","32951, Melbourne Beach US-FL 27.99982, -80.52403","2025-05-20 05:54",1,27.999819,-80.524027,TRUE,FALSE,TRUE,"S240500398"
"75","blkski","Black Skimmer","Rynchops niger","L1396236","Anaheim Coves Park (aka Burris Basin)","2025-05-20 05:49",36,33.8257044,-117.869868,TRUE,FALSE,FALSE,"S240579206"
"76","blkski","Black Skimmer","Rynchops niger","L45514285","621 Front St, Union Beach US-NJ 40.45072, -74.16981","2025-05-20 05:22",4,40.45072,-74.16981,TRUE,FALSE,TRUE,"S240483907"
"77","blkski","Black Skimmer","Rynchops niger","L1300483","Cape May NWR--Two Mile Unit","2025-05-19 20:30",1,38.9518672,-74.8578212,TRUE,FALSE,FALSE,"S240455509"
"78","blkski","Black Skimmer","Rynchops niger","L157037","Kimble's Beach and Road","2025-05-19 20:14",13,39.1049766,-74.8948436,TRUE,FALSE,FALSE,"S240431237"
"79","blkski","Black Skimmer","Rynchops niger","L12462074","North Woodmere Park Trail, Valley Stream, New York, US (40.647, -73.738)","2025-05-19 20:03",2,40.6468317,-73.7383484,TRUE,FALSE,TRUE,"S240749165"
"80","blkski","Black Skimmer","Rynchops niger","L676978","Crescent Lake Park","2025-05-19 20:00",4,27.7881373,-82.6414776,TRUE,FALSE,FALSE,"S240415124"
"81","blkski","Black Skimmer","Rynchops niger","L604728","Fort Monroe","2025-05-19 19:49",NA,37.0039407,-76.3073874,TRUE,FALSE,FALSE,"S240416687"
"82","blkski","Black Skimmer","Rynchops niger","L18352467","Private Residence","2025-05-19 19:46",3,27.8640714,-82.7884031,TRUE,FALSE,TRUE,"S240413027"
"83","blkski","Black Skimmer","Rynchops niger","L586013","Big Stone Beach","2025-05-19 19:40",3,39.0006968,-75.3286772,TRUE,FALSE,FALSE,"S240438087"
"84","blkski","Black Skimmer","Rynchops niger","L1836931","Cedar Island NWR--Causeway","2025-05-19 19:36",3,34.9408513,-76.3378386,TRUE,FALSE,FALSE,"S240438541"
"85","blkski","Black Skimmer","Rynchops niger","L8677827","Villas--New York Ave. beach","2025-05-19 19:31",2,39.0282383,-74.9427109,TRUE,FALSE,FALSE,"S240425225"
"86","blkski","Black Skimmer","Rynchops niger","L370646","Saint Simons Island--Pier","2025-05-19 19:30",1,31.1341963,-81.3967073,TRUE,FALSE,FALSE,"S240491487"
"87","blkski","Black Skimmer","Rynchops niger","L718822","Willis Wharf","2025-05-19 19:30",2,37.5118393,-75.8065867,TRUE,FALSE,FALSE,"S240414836"
"88","blkski","Black Skimmer","Rynchops niger","L594012","Shoreline Park--Shoreline Lake area","2025-05-19 19:30",11,37.432341,-122.0918369,TRUE,FALSE,FALSE,"S240497108"
"89","blkski","Black Skimmer","Rynchops niger","L19201954","Redington Shores public beach","2025-05-19 18:54",420,27.83178,-82.834467,TRUE,FALSE,TRUE,"S240417484"
"90","blkski","Black Skimmer","Rynchops niger","L302411","Tuckerton--Great Bay Bvld WMA Inlet","2025-05-19 18:31",55,39.5080978,-74.3204483,TRUE,FALSE,FALSE,"S240383854"
"91","blkski","Black Skimmer","Rynchops niger","L973373","North Fort Monroe","2025-05-19 18:30",6,37.030651,-76.2958002,TRUE,FALSE,FALSE,"S240674264"
"92","blkski","Black Skimmer","Rynchops niger","L5403306","Batiquitos Lagoon--Navigator Circle","2025-05-19 18:30",1,33.0896202,-117.3067053,TRUE,FALSE,FALSE,"S240437330"
"93","blkski","Black Skimmer","Rynchops niger","L985868","Milford Neck Wildlife Area--Big Stone Beach Rd.","2025-05-19 18:29",1,38.9970942,-75.3590012,TRUE,FALSE,FALSE,"S240438180"
"94","blkski","Black Skimmer","Rynchops niger","L10092349","Lighthouse Beach, Edgartown","2025-05-19 17:56",1,41.3905209,-70.5027817,TRUE,FALSE,FALSE,"S240397316"
"95","blkski","Black Skimmer","Rynchops niger","L296392","Tuckerton--Great Bay Bvld. WMA","2025-05-19 17:54",2,39.5301285,-74.3183899,TRUE,FALSE,FALSE,"S240391907"
"96","blkski","Black Skimmer","Rynchops niger","L25001461","Shoreline Park","2025-05-19 17:47",2,37.432898,-122.095179,TRUE,FALSE,TRUE,"S240426606"
"97","blkski","Black Skimmer","Rynchops niger","L17817340","Eighth St, Quintana US-TX 28.93103, -95.30662","2025-05-19 17:24",3,28.931028,-95.306622,TRUE,FALSE,TRUE,"S240381919"
"98","blkski","Black Skimmer","Rynchops niger","L589195","Jekyll Island--South Beach","2025-05-19 17:10",150,31.0117481,-81.4304924,TRUE,FALSE,FALSE,"S240387739"
"99","blkski","Black Skimmer","Rynchops niger","L248659","Quintana Neotropical Bird Sanctuary (UTC 121)","2025-05-19 17:02",2,28.9336226,-95.3087246,TRUE,FALSE,FALSE,"S240377309"
"100","blkski","Black Skimmer","Rynchops niger","L12578086","Pea Island NWR--North Pond Photo Blind","2025-05-19 16:50",11,35.732008,-75.50033,TRUE,FALSE,FALSE,"S240422470"
"101","blkski","Black Skimmer","Rynchops niger","L1824475","Slaughter Beach--North","2025-05-19 16:44",1,38.9288375,-75.3149203,TRUE,FALSE,FALSE,"S240507842"
"102","blkski","Black Skimmer","Rynchops niger","L45394340","1601 Bienville Blvd, Dauphin Island US-AL 30.24930, -88.13024","2025-05-19 16:24",2,30.249302,-88.130244,TRUE,FALSE,TRUE,"S240372571"
"103","blkski","Black Skimmer","Rynchops niger","L1663502","Pea Island NWR--North Pond Wildlife Trail","2025-05-19 16:08",105,35.7156212,-75.4935891,TRUE,FALSE,FALSE,"S240421193"
"104","blkski","Black Skimmer","Rynchops niger","L14700346","68 Bayview Ave., Chappaquiddick","2025-05-19 15:30",2,41.3561205,-70.4655168,TRUE,FALSE,TRUE,"S240430939"
"105","blkski","Black Skimmer","Rynchops niger","L21536704","Williamson Bar","2025-05-19 15:00",160,31.943605,-80.912695,TRUE,FALSE,TRUE,"S240616386"
"106","blkski","Black Skimmer","Rynchops niger","L465131","Mission Creek outflow","2025-05-19 14:29",13,34.4127959,-119.6869361,TRUE,FALSE,FALSE,"S240376550"
"107","blkski","Black Skimmer","Rynchops niger","L2169706","GA-ISS-plot 1","2025-05-19 14:17",12,31.1455783,-81.515851,TRUE,FALSE,TRUE,"S240328393"
"108","blkski","Black Skimmer","Rynchops niger","L4679458","Cape Hatteras NS--Ramp 55","2025-05-19 13:30",2,35.205733,-75.7045609,TRUE,FALSE,FALSE,"S240293790"
"109","blkski","Black Skimmer","Rynchops niger","L36134831","Pritchard’s Island","2025-05-19 13:18",34,32.3026709,-80.5154594,TRUE,FALSE,FALSE,"S240305103"
"110","blkski","Black Skimmer","Rynchops niger","L4634926","Wasque Point","2025-05-19 13:18",1,41.3515245,-70.4505479,TRUE,FALSE,TRUE,"S240300235"
"111","blkski","Black Skimmer","Rynchops niger","L45474828","Nickerson Beach Park, Lido Beach US-NY 40.59077, -73.60280","2025-05-19 13:12",40,40.590775,-73.602799,TRUE,FALSE,TRUE,"S240286968"
"112","blkski","Black Skimmer","Rynchops niger","L13920854","Bolivar side ferry landing, Port Bolivar","2025-05-19 13:03",NA,29.362279,-94.7783661,TRUE,FALSE,FALSE,"S240545816"
"113","blkski","Black Skimmer","Rynchops niger","L92443","Cape Island--CMPSP--Hawkwatch Platform","2025-05-19 12:48",1,38.9328558,-74.9579416,TRUE,FALSE,FALSE,"S240658052"
"114","blkski","Black Skimmer","Rynchops niger","L549315","DuPont Nature Center and Lighthouse Rd.","2025-05-19 12:40",3,38.947648,-75.314868,TRUE,FALSE,FALSE,"S240284974"
"115","blkski","Black Skimmer","Rynchops niger","L598880","Edwin B. Forsythe NWR--Southwest Pool","2025-05-19 12:34",4,39.4621738,-74.4368362,TRUE,FALSE,FALSE,"S240305193"
"116","blkski","Black Skimmer","Rynchops niger","L12858504","Edwin B. Forsythe NWR--Bristow Trail (formerly Songbird Trail)","2025-05-19 12:25",1,39.4755316,-74.4480687,TRUE,FALSE,FALSE,"S240391955"
"117","blkski","Black Skimmer","Rynchops niger","L1130357","Heislerville WMA--North impoundment","2025-05-19 12:04",26,39.2340482,-75.0064945,TRUE,FALSE,FALSE,"S240238848"
"118","blkski","Black Skimmer","Rynchops niger","L422541","Leonabelle Turnbull Birding Ctr. (CTC 057)","2025-05-19 11:51",3,27.8275297,-97.0789558,TRUE,FALSE,FALSE,"S240272934"
"119","blkski","Black Skimmer","Rynchops niger","L10908867","Pea Island NWR--Visitor Center","2025-05-19 11:17",52,35.7166887,-75.4940924,TRUE,FALSE,FALSE,"S240233537"
"120","blkski","Black Skimmer","Rynchops niger","L45467105","Gull Pond Rd, Absecon US-NJ 39.46983, -74.44592","2025-05-19 11:10",60,39.469828,-74.445916,TRUE,FALSE,TRUE,"S240250984"
"121","blkski","Black Skimmer","Rynchops niger","L444485","Plumb Beach","2025-05-19 10:56",12,40.5823284,-73.9153746,TRUE,FALSE,FALSE,"S240263597"
"122","blkski","Black Skimmer","Rynchops niger","L508149","Nickerson Beach","2025-05-19 10:44",200,40.5871823,-73.6024,TRUE,FALSE,FALSE,"S240228830"
"123","blkski","Black Skimmer","Rynchops niger","L22577253","Oso Bay—Ocean Drive mud flats just E. of Texas A&M Corpus Christi campus","2025-05-19 10:37",1,27.7101193,-97.3150831,TRUE,FALSE,FALSE,"S240237744"
"124","blkski","Black Skimmer","Rynchops niger","L498357","Huntington Beach SP--Mullet Pond","2025-05-19 10:36",1,33.5075867,-79.0691809,TRUE,FALSE,FALSE,"S240312038"
"125","blkski","Black Skimmer","Rynchops niger","L857502","Beasley Park","2025-05-19 10:32",1,30.3934961,-86.583209,TRUE,FALSE,FALSE,"S240318066"
"126","blkski","Black Skimmer","Rynchops niger","L191760","Bear Island WMA (fall and winter restricted access)","2025-05-19 10:22",2,32.5918043,-80.4641247,TRUE,FALSE,FALSE,"S240229043"
"127","blkski","Black Skimmer","Rynchops niger","L36294436","Bald Point State Park, Panacea US-FL 29.91454, -84.33648","2025-05-19 10:10",2,29.914538,-84.336476,TRUE,FALSE,TRUE,"S240248845"
"128","blkski","Black Skimmer","Rynchops niger","L2502917","Coliseum Pier","2025-05-19 09:55",2,30.3900719,-88.974849,TRUE,FALSE,FALSE,"S240217686"
"129","blkski","Black Skimmer","Rynchops niger","L129107","Texas City Dike (UTC 074)","2025-05-19 09:33",1,29.3838952,-94.867115,TRUE,FALSE,FALSE,"S240207726"
"130","blkski","Black Skimmer","Rynchops niger","L1022449","Bolsa Chica--Interpretive Center/Bolsa Bay","2025-05-19 09:29",1,33.7107751,-118.061657,TRUE,FALSE,FALSE,"S240297982"
"131","blkski","Black Skimmer","Rynchops niger","L12894357","Shoreline Park--maintenance road","2025-05-19 09:04",4,37.4310174,-122.095066,TRUE,FALSE,FALSE,"S240240909"
"132","blkski","Black Skimmer","Rynchops niger","L43707625","Cumberland Dividings bird island","2025-05-19 09:04",4,30.886762,-81.510735,TRUE,FALSE,TRUE,"S240426653"
"133","blkski","Black Skimmer","Rynchops niger","L1273924","Rachel Carson Reserve--Bird Shoals","2025-05-19 09:00",3,34.7095153,-76.6742277,TRUE,FALSE,FALSE,"S240429539"
"134","blkski","Black Skimmer","Rynchops niger","L282666","Magic Ridge (CTC-032)","2025-05-19 08:56",3,28.5411756,-96.5206432,TRUE,FALSE,FALSE,"S240432393"
"135","blkski","Black Skimmer","Rynchops niger","L2596297","Vista View Park","2025-05-19 08:55",1,26.0658811,-80.3439456,TRUE,FALSE,FALSE,"S240294037"
"136","blkski","Black Skimmer","Rynchops niger","L17985986","Rookery Bay NERR--Dickman’s Island","2025-05-19 08:55",1,25.901526,-81.715901,TRUE,FALSE,FALSE,"S240227554"
"137","blkski","Black Skimmer","Rynchops niger","L127337","Lettuce Lake County Park","2025-05-19 08:34",1,28.0725,-82.3754,TRUE,FALSE,FALSE,"S240153936"
"138","blkski","Black Skimmer","Rynchops niger","L1292820","East Ship Island","2025-05-19 08:31",25,30.2359338,-88.8821411,TRUE,FALSE,FALSE,"S240364563"
"139","blkski","Black Skimmer","Rynchops niger","L42447439","Elmer's Island","2025-05-19 08:15",5,29.174969,-90.078471,TRUE,FALSE,TRUE,"S240420611"
"140","blkski","Black Skimmer","Rynchops niger","L160668","Lovers Key SP","2025-05-19 08:06",50,26.3911316,-81.8713188,TRUE,FALSE,FALSE,"S240159872"
"141","blkski","Black Skimmer","Rynchops niger","L8979225","Slaughter Beach--Marvel Saltmarsh Preserve","2025-05-19 08:06",3,38.9252366,-75.314854,TRUE,FALSE,FALSE,"S240435151"
"142","blkski","Black Skimmer","Rynchops niger","L124353","Huntington Beach SP","2025-05-19 08:01",3,33.5083,-79.0659,TRUE,FALSE,FALSE,"S240247602"
"143","blkski","Black Skimmer","Rynchops niger","L109339","IRWD San Joaquin Marsh & Wildlife Sanctuary, Irvine","2025-05-19 07:51",50,33.6637274,-117.8426814,TRUE,FALSE,FALSE,"S240231043"
"144","blkski","Black Skimmer","Rynchops niger","L127294","Anastasia SP","2025-05-19 07:45",50,29.8661797,-81.2705122,TRUE,FALSE,FALSE,"S240242260"
"145","blkski","Black Skimmer","Rynchops niger","L283726","South Padre Is.--WBC/Conv. Center/Laguna Madre Trail (LTC 035)","2025-05-19 07:40",12,26.1400912,-97.1748233,TRUE,FALSE,FALSE,"S240161204"
"146","blkski","Black Skimmer","Rynchops niger","L12755896","Clam Factory Shoal","2025-05-19 07:39",1,25.9065455,-81.6974649,TRUE,FALSE,FALSE,"S240120832"
"147","blkski","Black Skimmer","Rynchops niger","L14662834","Disappearing Island. Volusia.","2025-05-19 07:29",46,29.071882,-80.929353,TRUE,FALSE,TRUE,"S240208373"
"148","blkski","Black Skimmer","Rynchops niger","L582429","John Stretch Park","2025-05-19 07:29",12,26.6979637,-80.8098078,TRUE,FALSE,FALSE,"S240133500"
"149","blkski","Black Skimmer","Rynchops niger","L723695","Lido Beach Passive Nature Area","2025-05-19 07:28",1,40.5923663,-73.5957384,TRUE,FALSE,FALSE,"S240130459"
"150","blkski","Black Skimmer","Rynchops niger","L6750487","MacDill AFB - Recreational Beach","2025-05-19 07:13",5,27.8227634,-82.486099,TRUE,FALSE,FALSE,"S240119000"
"151","blkski","Black Skimmer","Rynchops niger","L127332","Fort De Soto Park","2025-05-19 07:08",20,27.6327266,-82.718157,TRUE,FALSE,FALSE,"S240220843"
"152","blkski","Black Skimmer","Rynchops niger","L234146","The Celery Fields","2025-05-19 07:00",2,27.3253186,-82.4336821,TRUE,FALSE,FALSE,"S240262821"
"153","blkski","Black Skimmer","Rynchops niger","L668814","Botany Bay Plantation WMA","2025-05-19 07:00",2,32.5481155,-80.2504921,TRUE,FALSE,FALSE,"S240218194"
"154","blkski","Black Skimmer","Rynchops niger","L1252858","ACBS surveys ONLY! - Rutherford Beach","2025-05-19 07:00",2,29.7584911,-93.1237221,TRUE,FALSE,FALSE,"S240420519"
"155","blkski","Black Skimmer","Rynchops niger","L45481041","North Atlantic Ocean, Ocean Ridge US-FL 26.51871, -80.04693","2025-05-19 06:30",2,26.518708,-80.04693,TRUE,FALSE,TRUE,"S240315071"
"156","blkski","Black Skimmer","Rynchops niger","L450184","East Beach","2025-05-19 06:26",2,34.4158318,-119.6733427,TRUE,FALSE,FALSE,"S240184398"
"157","blkski","Black Skimmer","Rynchops niger","L2316412","Pecan Lake Estates, Lake Jackson, TX","2025-05-19 06:15",1,29.0402156,-95.4166192,TRUE,FALSE,TRUE,"S240122111"
"158","blkski","Black Skimmer","Rynchops niger","L286004","Deer Island","2025-05-19 06:12",1,30.3847226,-88.8718414,TRUE,FALSE,FALSE,"S240257253"
"159","blkski","Black Skimmer","Rynchops niger","L5281758","Harbor Island Beach (restricted access)","2025-05-19 06:11",1,32.4041792,-80.4275179,TRUE,FALSE,FALSE,"S240384658"
"160","blkski","Black Skimmer","Rynchops niger","L165792","Fort Morgan State Historic Site","2025-05-19 06:10",5,30.2294449,-88.0180432,TRUE,FALSE,FALSE,"S240265382"
"161","blkski","Black Skimmer","Rynchops niger","L473168","Cape Hatteras NS--Cape Point","2025-05-19 06:10",4,35.2234655,-75.5286026,TRUE,FALSE,FALSE,"S240430632"
"162","blkski","Black Skimmer","Rynchops niger","L45437598","1150 Fort Pickens Rd, Gulf Breeze US-FL 30.32834, -87.17241","2025-05-19 05:55",12,30.328343,-87.17241,TRUE,FALSE,TRUE,"S240105311"
"163","blkski","Black Skimmer","Rynchops niger","L27182293","8129 Bilston Village Ln, Gibsonton US-FL (27.8260,-82.3625)","2025-05-18 19:58",4,27.826012,-82.362456,TRUE,FALSE,TRUE,"S240023087"
"164","blkski","Black Skimmer","Rynchops niger","L305617","Cape Island--CMP--Alexander Ave. dunes/beach","2025-05-18 19:25",3,38.9405526,-74.9714112,TRUE,FALSE,FALSE,"S240003993"
"165","blkski","Black Skimmer","Rynchops niger","L3493840","Fort Myers Beach","2025-05-18 19:05",4,26.4490491,-81.9471502,TRUE,FALSE,FALSE,"S240030989"
"166","blkski","Black Skimmer","Rynchops niger","L45418212","Fishermans Wharf, Fort Myers Beach","2025-05-18 19:02",2,26.4590037,-81.952879,TRUE,FALSE,TRUE,"S240007867"
"167","blkski","Black Skimmer","Rynchops niger","L10814652","Jet Lag, Dauphin Island US-AL (30.2438,-88.1032)","2025-05-18 18:57",30,30.243835,-88.103199,TRUE,FALSE,TRUE,"S240618828"
"168","blkski","Black Skimmer","Rynchops niger","L4780127","Pine Valley Street at Firestone Drive","2025-05-18 18:48",1,27.4139738,-82.4347544,TRUE,FALSE,TRUE,"S240004068"
"169","blkski","Black Skimmer","Rynchops niger","L241664","Fort Fisher SRA--Basin Trail and Aquarium Pond","2025-05-18 18:44",1,33.964264,-77.922871,TRUE,FALSE,FALSE,"S240005550"
"170","blkski","Black Skimmer","Rynchops niger","L6365148","Lido Key Beach","2025-05-18 18:42",6,27.3116887,-82.5773835,TRUE,FALSE,FALSE,"S240008964"
"171","blkski","Black Skimmer","Rynchops niger","L24096139","Hatteras Beach","2025-05-18 18:38",3,35.215499,-75.673997,TRUE,FALSE,TRUE,"S239968312"
"172","blkski","Black Skimmer","Rynchops niger","L2265749","Point Yard","2025-05-18 18:15",2,38.93368,-74.9618,TRUE,FALSE,TRUE,"S240028631"
"173","blkski","Black Skimmer","Rynchops niger","L268067","Salton Sea--Garst Rd./Morton Bay","2025-05-18 18:08",1,33.2015723,-115.597136,TRUE,FALSE,FALSE,"S240027247"
"174","blkski","Black Skimmer","Rynchops niger","L45425777","To Newport Beach From 15th St, Newport Beach US-CA 33.60581, -117.92111","2025-05-18 18:06",1,33.605809,-117.921108,TRUE,FALSE,TRUE,"S240048471"
"175","blkski","Black Skimmer","Rynchops niger","L449889","Patriot's Point -- nature trail and surrounding areas","2025-05-18 17:57",5,32.7912107,-79.9011505,TRUE,FALSE,FALSE,"S240000919"
"176","blkski","Black Skimmer","Rynchops niger","L152499","Breezy Point Tip","2025-05-18 17:55",7,40.5506643,-73.9357889,TRUE,FALSE,FALSE,"S239990158"
"177","blkski","Black Skimmer","Rynchops niger","L27725441","Private Residence, Hernando Pl, Dauphin Island","2025-05-18 17:50",90,30.24448,-88.103816,TRUE,FALSE,TRUE,"S239982757"
"178","blkski","Black Skimmer","Rynchops niger","L45007342","Hatteras Point","2025-05-18 17:41",3,35.1991783,-75.722874,TRUE,FALSE,TRUE,"S240023732"
"179","blkski","Black Skimmer","Rynchops niger","L5226294","Wasque Reservation (TTOR)","2025-05-18 17:15",2,41.3528453,-70.4542494,TRUE,FALSE,FALSE,"S240039607"
"180","blkski","Black Skimmer","Rynchops niger","L45420379","1102 Palmetto Blvd, Edisto Beach US-SC 32.48836, -80.31639","2025-05-18 17:04",1,32.488355,-80.316391,TRUE,FALSE,TRUE,"S240020179"
"181","blkski","Black Skimmer","Rynchops niger","L8963426","Tarpon Cove","2025-05-18 17:03",6,26.6922397,-80.0475276,TRUE,FALSE,FALSE,"S240022217"
"182","blkski","Black Skimmer","Rynchops niger","L1437797","West Ocean City--Homer Gudelsky Park","2025-05-18 17:00",3,38.3302629,-75.0960255,TRUE,FALSE,FALSE,"S239929656"
"183","blkski","Black Skimmer","Rynchops niger","L788729","Tybee Island--North Beach","2025-05-18 15:30",20,32.0270701,-80.8530664,TRUE,FALSE,FALSE,"S240185589"
"184","blkski","Black Skimmer","Rynchops niger","L589206","Andrews Island Causeway","2025-05-18 15:04",8,31.16246,-81.50159,TRUE,FALSE,FALSE,"S240021284"
"185","blkski","Black Skimmer","Rynchops niger","L1050482","TX48--Shrimp Basin Bridge / Zapata Memorial Boat Ramp/ San Martin Lake outlet","2025-05-18 12:59",25,26.0023329,-97.2999001,TRUE,FALSE,FALSE,"S239847164"
"186","blkski","Black Skimmer","Rynchops niger","L197073","Stone Harbor Point","2025-05-18 12:30",NA,39.0317999,-74.7723111,TRUE,FALSE,FALSE,"S239967295"
"187","blkski","Black Skimmer","Rynchops niger","L165143","Jamaica Bay Wildlife Refuge","2025-05-18 12:30",1,40.6170296,-73.8244561,TRUE,FALSE,FALSE,"S239879633"
"188","blkski","Black Skimmer","Rynchops niger","L2625642","Gulf Islands National Seashore--Fort McRee","2025-05-18 12:20",1,30.3229523,-87.316246,TRUE,FALSE,FALSE,"S239857884"
"189","blkski","Black Skimmer","Rynchops niger","L19419173","2813 Gulf Drive, Holmes Beach, Florida, US (27.487, -82.706)","2025-05-18 12:20",3,27.4872215,-82.7061131,TRUE,FALSE,TRUE,"S239929814"
"190","blkski","Black Skimmer","Rynchops niger","L7667763","Edwin B. Forsythe National Wildlife Refuge, Galloway US-NJ (39.4648,-74.4505)","2025-05-18 11:39",34,39.464833,-74.45049,TRUE,FALSE,TRUE,"S239946160"
"191","blkski","Black Skimmer","Rynchops niger","L273461","Goose Island SP (CTC 048)","2025-05-18 11:09",1,28.13255,-96.985052,TRUE,FALSE,FALSE,"S239822655"
"192","blkski","Black Skimmer","Rynchops niger","L45463129","Bay And Beach Club","2025-05-18 11:00",1,27.8515079,-82.8455433,TRUE,FALSE,TRUE,"S239966071"
"193","blkski","Black Skimmer","Rynchops niger","L452423","Airlie Gardens","2025-05-18 10:40",1,34.215,-77.8294444,TRUE,FALSE,FALSE,"S239801434"
"194","blkski","Black Skimmer","Rynchops niger","L1341211","Breezy Point--Silver Gull Beach Club","2025-05-18 10:33",2,40.5598332,-73.904462,TRUE,FALSE,FALSE,"S239752646"
"195","blkski","Black Skimmer","Rynchops niger","L29227681","Orlando Apopka Airport Industrial Area","2025-05-18 10:23",13,28.7067118,-81.5827368,TRUE,TRUE,TRUE,"S239843903"
"196","blkski","Black Skimmer","Rynchops niger","L42502368","East Gator Creek Trail, Florida, US (28.636, -80.776)","2025-05-18 10:10",350,28.63562,-80.7761733,TRUE,FALSE,TRUE,"S239758257"
"197","blkski","Black Skimmer","Rynchops niger","L464099","Prime Hook NWR--Dike Trail (formerly Observation Point Trail)","2025-05-18 10:10",1,38.831785,-75.2446157,TRUE,FALSE,FALSE,"S240001539"
"198","blkski","Black Skimmer","Rynchops niger","L370644","Saint Simons Island--Massingale Park","2025-05-18 09:32",2,31.1413889,-81.3777778,TRUE,FALSE,FALSE,"S239756858"
"199","blkski","Black Skimmer","Rynchops niger","L45516850","Goodland to Second Chance","2025-05-18 09:30",300,25.8447276,-81.6653656,TRUE,FALSE,TRUE,"S240498087"
"200","blkski","Black Skimmer","Rynchops niger","L1310963","Masonboro Island--NERR (Main Island)","2025-05-18 09:20",2,34.1680678,-77.8244019,TRUE,FALSE,FALSE,"S239827308"
"201","blkski","Black Skimmer","Rynchops niger","L859942","Bayshore Bikeway--10th Street (Pond 23)","2025-05-18 09:09",NA,32.5901154,-117.1133738,TRUE,FALSE,FALSE,"S239834961"
"202","blkski","Black Skimmer","Rynchops niger","L45027476","Stone Harbor Point","2025-05-18 09:08",200,39.025866,-74.782654,TRUE,TRUE,TRUE,"S239717160"
"203","blkski","Black Skimmer","Rynchops niger","L923371","Dauphin Island--Pelican Island","2025-05-18 08:52",5,30.2385292,-88.1218529,TRUE,FALSE,FALSE,"S239764674"
"204","blkski","Black Skimmer","Rynchops niger","L483019","Bombay Hook NWR--Shearness Pool","2025-05-18 08:43",2,39.2684108,-75.4772758,TRUE,FALSE,FALSE,"S239756825"
"205","blkski","Black Skimmer","Rynchops niger","L45348558","1235–1239 Fort Pickens Rd, Gulf Breeze US-FL 30.32569, -87.18037","2025-05-18 08:33",75,30.325689,-87.180374,TRUE,FALSE,TRUE,"S239675256"
"206","blkski","Black Skimmer","Rynchops niger","L306109","Cook's Beach and Road","2025-05-18 08:31",1,39.1088683,-74.8936135,TRUE,FALSE,FALSE,"S239635646"
"207","blkski","Black Skimmer","Rynchops niger","L4608839","Anna Maria Island--Bean Point","2025-05-18 08:30",1,27.5372054,-82.7455044,TRUE,FALSE,FALSE,"S239759557"
"208","blkski","Black Skimmer","Rynchops niger","L405340","Marco Island--Tiger Tail Beach","2025-05-18 08:28",20,25.948098,-81.74456,TRUE,FALSE,FALSE,"S239697960"
"209","blkski","Black Skimmer","Rynchops niger","L1415315","Mission Bay--El Carmel Place","2025-05-18 08:20",50,32.7790009,-117.2478917,TRUE,FALSE,FALSE,"S240034514"
"210","blkski","Black Skimmer","Rynchops niger","L3243111","Siesta Key--Beach Access 5","2025-05-18 08:12",4,27.2726991,-82.5676659,TRUE,FALSE,FALSE,"S239739579"
"211","blkski","Black Skimmer","Rynchops niger","L1784230","Wachapreague--Marsh Islands","2025-05-18 08:09",15,37.6109851,-75.6552482,TRUE,FALSE,FALSE,"S239938551"
"212","blkski","Black Skimmer","Rynchops niger","L1399106","Eckerd College (restricted access)","2025-05-18 08:02",1,27.7130332,-82.6875043,TRUE,FALSE,FALSE,"S239616385"
"213","blkski","Black Skimmer","Rynchops niger","L164929","Bolsa Chica Ecological Reserve","2025-05-18 08:00",1,33.7026531,-118.050735,TRUE,FALSE,FALSE,"S240035542"
"214","blkski","Black Skimmer","Rynchops niger","L855856","Stump Pass Beach SP","2025-05-18 07:41",7,26.9022934,-82.346805,TRUE,FALSE,FALSE,"S239677906"
"215","blkski","Black Skimmer","Rynchops niger","L126637","Bombay Hook National Wildlife Refuge","2025-05-18 07:33",2,39.2670818,-75.4695511,TRUE,FALSE,FALSE,"S239975547"
"216","blkski","Black Skimmer","Rynchops niger","L13101797","Duncan yard, Gulf Breeze","2025-05-18 07:30",2,30.3604091,-87.197123,TRUE,FALSE,TRUE,"S240023102"
"217","blkski","Black Skimmer","Rynchops niger","L443565","Isla del Sol","2025-05-18 07:19",2,27.7108296,-82.7153778,TRUE,FALSE,FALSE,"S239662247"
"218","blkski","Black Skimmer","Rynchops niger","L22751198","Gulf State Park Pier, Gulf Shores, Alabama, US (30.251, -87.668)","2025-05-18 07:07",4,30.25063,-87.668298,TRUE,FALSE,TRUE,"S239732387"
"219","blkski","Black Skimmer","Rynchops niger","L44111651","3859 Gulf Blvd, St. Pete Beach US-FL 27.71619, -82.73857","2025-05-18 06:56",531,27.716187,-82.73857,TRUE,TRUE,TRUE,"S239708481"
"220","blkski","Black Skimmer","Rynchops niger","L19296461","Brunjes Beach House","2025-05-18 06:29",2,34.211581,-77.792966,TRUE,FALSE,TRUE,"S239590816"
"221","blkski","Black Skimmer","Rynchops niger","L677310","Robinson Preserve","2025-05-18 06:28",1,27.5167212,-82.6700163,TRUE,FALSE,FALSE,"S239647736"
"222","blkski","Black Skimmer","Rynchops niger","L269277","Hatteras Point","2025-05-18 06:26",10,35.1976636,-75.7332529,TRUE,FALSE,FALSE,"S239652281"
"223","blkski","Black Skimmer","Rynchops niger","L45296864","5492 Amrien Circle Dr, Chincoteague US-VA 37.94983, -75.34416","2025-05-18 06:16",1,37.949832,-75.344158,TRUE,FALSE,TRUE,"S239575226"
"224","blkski","Black Skimmer","Rynchops niger","L592872","Ocean Drive--Two Mile Landing","2025-05-18 06:00",3,38.9595423,-74.866333,TRUE,FALSE,FALSE,"S239613352"
"225","blkski","Black Skimmer","Rynchops niger","L999214","Long Beach Harbor","2025-05-18 05:51",26,33.7361891,-118.1778717,TRUE,FALSE,FALSE,"S239928301"
"226","blkski","Black Skimmer","Rynchops niger","L45407145","DI Pelagic 5/25 Leg 1","2025-05-18 05:32",2,30.228946,-88.061487,TRUE,FALSE,TRUE,"S239948081"
"227","blkski","Black Skimmer","Rynchops niger","L1166668","Cape Island--Higbee Beach WMA--Canal Overlook/Jetty","2025-05-17 20:12",3,38.9658365,-74.9632305,TRUE,FALSE,FALSE,"S239493972"
"228","blkski","Black Skimmer","Rynchops niger","L28206897","Private property, Eastport,NY","2025-05-17 19:57",3,40.824496,-72.727924,TRUE,FALSE,TRUE,"S239462112"
"229","blkski","Black Skimmer","Rynchops niger","L1265319","Cape Henlopen SP--The Point","2025-05-17 19:43",3,38.8000272,-75.092376,TRUE,FALSE,FALSE,"S239586263"
"230","blkski","Black Skimmer","Rynchops niger","L16586449","Sol Legare Boat Landing","2025-05-17 19:37",2,32.6684838,-79.9968467,TRUE,FALSE,TRUE,"S239461943"
"231","blkski","Black Skimmer","Rynchops niger","L28916339","Wrightsville Beach--Crystal Pier","2025-05-17 19:23",2,34.1932346,-77.8042392,TRUE,FALSE,FALSE,"S239464357"
"232","blkski","Black Skimmer","Rynchops niger","L45302477","6 Sanchez Cove, St. Augustine, Florida, US (29.892, -81.29)","2025-05-17 19:18",3,29.8923492,-81.2903386,TRUE,FALSE,TRUE,"S239439948"
"233","blkski","Black Skimmer","Rynchops niger","L45302402","57 Comares Avenue, St. Augustine, Florida, US (29.897, -81.292)","2025-05-17 19:15",1,29.8967382,-81.2921735,TRUE,FALSE,TRUE,"S239439444"
"234","blkski","Black Skimmer","Rynchops niger","L109134","North Wildwood--Hereford Inlet/Seawall","2025-05-17 19:14",130,39.0119444,-74.7925,TRUE,TRUE,FALSE,"S239459387"
"235","blkski","Black Skimmer","Rynchops niger","L39009293","North Wildwood home (747 W Pine Ave)","2025-05-17 19:07",2,39.0196441,-74.7975513,TRUE,FALSE,TRUE,"S239436125"
"236","blkski","Black Skimmer","Rynchops niger","L2125093","St. Christopher Camp and Conference Center","2025-05-17 19:04",2,32.5671054,-80.1819992,TRUE,FALSE,FALSE,"S240319363"
"237","blkski","Black Skimmer","Rynchops niger","L323275","Fort McAllister SP--Savage Island","2025-05-17 18:50",14,31.8842233,-81.1791155,TRUE,FALSE,FALSE,"S239455497"
"238","blkski","Black Skimmer","Rynchops niger","L2074515","Bolivar Flats Shorebird Survey Start","2025-05-17 18:40",3,29.3794826,-94.7245502,TRUE,FALSE,FALSE,"S239467248"
"239","blkski","Black Skimmer","Rynchops niger","L1041187","Sandy Hook--Spermaceti Cove area","2025-05-17 18:40",4,40.4259441,-73.9882851,TRUE,FALSE,FALSE,"S239461382"
"240","blkski","Black Skimmer","Rynchops niger","L45302009","Pond To Salt Pond","2025-05-17 18:36",1,35.2358344,-75.530139,TRUE,FALSE,TRUE,"S239437354"
"241","blkski","Black Skimmer","Rynchops niger","L4653074","Headquarters Plantation Drive","2025-05-17 18:28",2,32.7565665,-80.0232339,TRUE,FALSE,FALSE,"S239433287"
"242","blkski","Black Skimmer","Rynchops niger","L2723507","Cape Hatteras NS--Ramp 43-44 (Ponds & Beach)","2025-05-17 18:15",1,35.2364534,-75.5286992,TRUE,FALSE,FALSE,"S239466271"
"243","blkski","Black Skimmer","Rynchops niger","L1882358","WBC/Conv. Center/Laguna Madre Trail (LTC 035)","2025-05-17 18:12",20,26.1395883,-97.1739785,TRUE,FALSE,TRUE,"S239495818"
"244","blkski","Black Skimmer","Rynchops niger","L588398","Buck Island Ranch","2025-05-17 18:11",1,27.1545411,-81.1977705,TRUE,FALSE,FALSE,"S239476698"
"245","blkski","Black Skimmer","Rynchops niger","L11031296","Veterans Memorial Center","2025-05-17 18:06",8,28.3507698,-80.6825209,TRUE,FALSE,FALSE,"S239439643"
"246","blkski","Black Skimmer","Rynchops niger","L45309265","Jones Beach State Park, Point Lookout US-NY 40.58456, -73.56052","2025-05-17 18:04",1,40.584565,-73.560516,TRUE,FALSE,TRUE,"S239476255"
"247","blkski","Black Skimmer","Rynchops niger","L632694","Sunset Lake","2025-05-17 17:58",NA,38.9749244,-74.8438883,TRUE,FALSE,FALSE,"S239456893"
"248","blkski","Black Skimmer","Rynchops niger","L11014997","Oso Bay Wetlands Preserve--Holly Hike & Bike Trail","2025-05-17 17:14",6,27.6748465,-97.3289764,TRUE,FALSE,FALSE,"S239454584"
"249","blkski","Black Skimmer","Rynchops niger","L597492","Cape Island--CMP--CMBO Northwood Center","2025-05-17 16:55",1,38.9403683,-74.9622944,TRUE,FALSE,FALSE,"S239406726"
"250","blkski","Black Skimmer","Rynchops niger","L17349699","Ocracoke Island - South Point Road","2025-05-17 16:40",2,35.1507303,-75.8579732,TRUE,FALSE,TRUE,"S239403682"
"251","blkski","Black Skimmer","Rynchops niger","L1779056","Hotel del Coronado & beach","2025-05-17 16:30",1,32.6790278,-117.1796072,TRUE,FALSE,FALSE,"S240248512"
"252","blkski","Black Skimmer","Rynchops niger","L6923379","0. River Run - Recreation Island","2025-05-17 16:20",1,33.940358,-78.2129574,TRUE,FALSE,TRUE,"S239403909"
"253","blkski","Black Skimmer","Rynchops niger","L1514629","South Lido County Park","2025-05-17 16:12",1,27.2995048,-82.5665436,TRUE,FALSE,FALSE,"S239967538"
"254","blkski","Black Skimmer","Rynchops niger","L45167363","James Island Airbnb","2025-05-17 16:08",1,32.680889,-79.964421,TRUE,FALSE,TRUE,"S239393582"
"255","blkski","Black Skimmer","Rynchops niger","L1777744","Dauphin Island--Ferry Terminal","2025-05-17 15:30",2,30.2514713,-88.0817257,TRUE,FALSE,FALSE,"S240451913"
"256","blkski","Black Skimmer","Rynchops niger","L126639","Pickering Beach","2025-05-17 15:30",5,39.137,-75.41,TRUE,FALSE,FALSE,"S239479158"
"257","blkski","Black Skimmer","Rynchops niger","L45304593","Dauphin Island, Dauphin Island US-AL (30.2458,-88.0855)","2025-05-17 15:29",4,30.245806,-88.085503,TRUE,FALSE,TRUE,"S239451305"
"258","blkski","Black Skimmer","Rynchops niger","L109217","Milford Point — Sandbars","2025-05-17 15:22",2,41.1725812,-73.1003666,TRUE,FALSE,FALSE,"S239458156"
"259","blkski","Black Skimmer","Rynchops niger","L2081198","Canal Rd Marsh","2025-05-17 15:22",8,41.0966236,-73.3740807,TRUE,FALSE,FALSE,"S239365298"
"260","blkski","Black Skimmer","Rynchops niger","L1165694","Bolsa Chica--walkbridge/inner bay","2025-05-17 15:06",2,33.6965128,-118.0451372,TRUE,FALSE,FALSE,"S239436244"
"261","blkski","Black Skimmer","Rynchops niger","L849163","Knapps Landing","2025-05-17 14:42",2,41.1710185,-73.1141478,TRUE,TRUE,FALSE,"S239356226"
"262","blkski","Black Skimmer","Rynchops niger","L2759848","Heislerville WMA--South Impoundment","2025-05-17 14:25",50,39.223909,-75.0034475,TRUE,FALSE,FALSE,"S239360900"
"263","blkski","Black Skimmer","Rynchops niger","L109216","Milford Point, CT Audubon","2025-05-17 14:24",2,41.1754303,-73.1032485,TRUE,FALSE,FALSE,"S239351392"
"264","blkski","Black Skimmer","Rynchops niger","L810122","Chincoteague NWR--Toms Cove Visitor Center","2025-05-17 14:15",1,37.890028,-75.3449035,TRUE,FALSE,FALSE,"S239631190"
"265","blkski","Black Skimmer","Rynchops niger","L36386084","Auto selected 34.18563, -77.81391","2025-05-17 13:11",200,34.185635,-77.813914,TRUE,FALSE,TRUE,"S239293203"
"266","blkski","Black Skimmer","Rynchops niger","L817703","Upper Newport Bay--Back Bay Dr. parking lot","2025-05-17 13:03",9,33.6308076,-117.8856719,TRUE,FALSE,FALSE,"S239409898"
"267","blkski","Black Skimmer","Rynchops niger","L45273829","1294–1306 Miracle Strip Pkwy SE, Fort Walton Beach US-FL 30.39495, -86.56721","2025-05-17 12:54",12,30.394953,-86.567207,TRUE,FALSE,TRUE,"S239311718"
"268","blkski","Black Skimmer","Rynchops niger","L3629139","Wasque Ave and Katama Bay","2025-05-17 12:49",2,41.3536184,-70.4688835,TRUE,FALSE,TRUE,"S239319228"
"269","blkski","Black Skimmer","Rynchops niger","L127333","Egmont Key NWR","2025-05-17 11:45",56,27.5906,-82.763,TRUE,FALSE,FALSE,"S239337223"
"270","blkski","Black Skimmer","Rynchops niger","L29401570","Truman Waterfront Park","2025-05-17 11:34",1,24.5521295,-81.8066883,TRUE,FALSE,FALSE,"S239291453"
"271","blkski","Black Skimmer","Rynchops niger","L365394","Pea Island NWR--South Pond","2025-05-17 11:16",50,35.693971,-75.485696,TRUE,FALSE,FALSE,"S239240723"
"272","blkski","Black Skimmer","Rynchops niger","L22270979","Gulf Islands NS—Beach Access 19A","2025-05-17 10:52",1,30.322828,-87.208429,TRUE,FALSE,TRUE,"S239383949"
"273","blkski","Black Skimmer","Rynchops niger","L337931","Fort Fisher SRA","2025-05-17 09:12",9,33.9513428,-77.9276087,TRUE,FALSE,FALSE,"S239170101"
"274","blkski","Black Skimmer","Rynchops niger","L45250115","Greenfield Park, Wilmington US-NC 34.21372, -77.94362","2025-05-17 09:02",1,34.21372,-77.943624,TRUE,FALSE,TRUE,"S239208204"
"275","blkski","Black Skimmer","Rynchops niger","L357304","Greenfield Park & Gardens","2025-05-17 09:01",1,34.2137541,-77.9444361,TRUE,FALSE,FALSE,"S240415747"
"276","blkski","Black Skimmer","Rynchops niger","L1571611","DuPont Nature Center--Osprey Beach (Sussex Co.)","2025-05-17 08:58",2,38.9450672,-75.3132708,TRUE,FALSE,FALSE,"S240024431"
"277","blkski","Black Skimmer","Rynchops niger","L799912","St. Marks NWR--Mounds Pool No. 1","2025-05-17 08:52",3,30.1161297,-84.1484606,TRUE,FALSE,FALSE,"S239220948"
"278","blkski","Black Skimmer","Rynchops niger","L358125","Greenfield Lake","2025-05-17 08:50",1,34.2072993,-77.9349732,TRUE,FALSE,FALSE,"S239254726"
"279","blkski","Black Skimmer","Rynchops niger","L2826655","Dennis Creek WMA--Conswell Road","2025-05-17 08:47",1,39.0696486,-74.9066,TRUE,FALSE,FALSE,"S239328464"
"280","blkski","Black Skimmer","Rynchops niger","L2220366","Hayward Regional Shoreline--Hayward Marsh","2025-05-17 08:47",24,37.6298244,-122.138958,TRUE,TRUE,FALSE,"S239330557"
"281","blkski","Black Skimmer","Rynchops niger","L128874","Jocelyn Nungaray NWR  Anahuac, TX (UTC 049)","2025-05-17 08:45",1,29.6148414,-94.5344353,TRUE,FALSE,FALSE,"S239411262"
"282","blkski","Black Skimmer","Rynchops niger","L481023","Los Angeles River--Willow St.","2025-05-17 08:40",23,33.8048977,-118.2059383,TRUE,FALSE,FALSE,"S239394302"
"283","blkski","Black Skimmer","Rynchops niger","L129067","Rollover Pass (UTC 056)","2025-05-17 08:36",3,29.5100602,-94.5008326,TRUE,FALSE,FALSE,"S239188416"
"284","blkski","Black Skimmer","Rynchops niger","L580980","St. Marks NWR--Stoney Bayou 1 & Twin Dikes","2025-05-17 08:35",1,30.1257123,-84.1436863,TRUE,FALSE,FALSE,"S239152887"
"285","blkski","Black Skimmer","Rynchops niger","L1009347","Roosevelt Wetland","2025-05-17 08:32",2,27.8708722,-82.6895428,TRUE,FALSE,FALSE,"S239229158"
"286","blkski","Black Skimmer","Rynchops niger","L5063962","South Padre Is.--County Park mudflats N. of Conv Ctr.","2025-05-17 08:29",10,26.1440832,-97.1757324,TRUE,FALSE,FALSE,"S239162870"
"287","blkski","Black Skimmer","Rynchops niger","L1007732","Magothy Bay Natural Area Preserve","2025-05-17 08:27",1,37.1524498,-75.9502029,TRUE,FALSE,FALSE,"S239171450"
"288","blkski","Black Skimmer","Rynchops niger","L374051","Santa Barbara Harbor--Stearns Wharf","2025-05-17 08:24",7,34.4098907,-119.6858793,TRUE,FALSE,FALSE,"S239253658"
"289","blkski","Black Skimmer","Rynchops niger","L20111680","Big Stone Beach road marsh","2025-05-17 08:20",1,39.0004399,-75.3320788,TRUE,FALSE,TRUE,"S239485578"
"290","blkski","Black Skimmer","Rynchops niger","L45239624","Refuge Atlantic City Anna Bball","2025-05-17 08:18",20,39.46158,-74.44038,TRUE,FALSE,TRUE,"S239265668"
"291","blkski","Black Skimmer","Rynchops niger","L1784485","Wachapreague--Back Bays","2025-05-17 08:10",7,37.6021044,-75.6457395,TRUE,FALSE,FALSE,"S239480325"
"292","blkski","Black Skimmer","Rynchops niger","L45255921","Mission Bay Park, San Diego US-CA (32.7817,-117.2505)","2025-05-17 08:07",3,32.781744,-117.250508,TRUE,FALSE,TRUE,"S239234832"
"293","blkski","Black Skimmer","Rynchops niger","L39535385","Pelagic Trip 30.39935, -81.31256","2025-05-17 08:03",1,30.399348,-81.312563,TRUE,FALSE,TRUE,"S239423026"
"294","blkski","Black Skimmer","Rynchops niger","L771347","Edwin B. Forsythe NWR","2025-05-17 07:57",58,39.4637641,-74.4261932,TRUE,FALSE,TRUE,"S239334257"
"295","blkski","Black Skimmer","Rynchops niger","L43949020","Little Cumberland Island","2025-05-17 07:55",1,30.937329,-81.412231,TRUE,FALSE,TRUE,"S239111078"
"296","blkski","Black Skimmer","Rynchops niger","L31964752","Fort Pickens, Gulf Breeze US-FL (30.3217,-87.2301)","2025-05-17 07:34",38,30.321711,-87.230065,TRUE,FALSE,TRUE,"S239162850"
"297","blkski","Black Skimmer","Rynchops niger","L45229330","Emerson point 2","2025-05-17 07:30",2,27.534481,-82.6323395,TRUE,FALSE,TRUE,"S239418214"
"298","blkski","Black Skimmer","Rynchops niger","L45356879","San Joaquin Marsh and Wildlife Sanctuary, Irvine US-CA (l","2025-05-17 07:28",100,33.660992,-117.841356,TRUE,FALSE,TRUE,"S239717591"
"299","blkski","Black Skimmer","Rynchops niger","L2939514","Boardwalk Bridge","2025-05-17 07:27",3,37.9215132,-75.3523697,TRUE,FALSE,FALSE,"S239948945"
"300","blkski","Black Skimmer","Rynchops niger","L301036","San Carlos Bay/Bunche Beach Preserve","2025-05-17 07:27",3,26.476174,-81.9673795,TRUE,FALSE,FALSE,"S239115349"
"301","blkski","Black Skimmer","Rynchops niger","L805361","New River Inlet","2025-05-17 07:21",4,34.529576,-77.3440719,TRUE,FALSE,FALSE,"S239162118"
"302","blkski","Black Skimmer","Rynchops niger","L45230950","ORV Ramp 44, Buxton, North Carolina, US (35.235, -75.531)","2025-05-17 07:07",4,35.234653,-75.5306443,TRUE,FALSE,TRUE,"S239106166"
"303","blkski","Black Skimmer","Rynchops niger","L751303","Sullivan's Island causeway","2025-05-17 07:07",2,32.7710011,-79.8410261,TRUE,FALSE,FALSE,"S239078759"
"304","blkski","Black Skimmer","Rynchops niger","L45196082","Lighthouse Road, Pond Buxton","2025-05-17 06:59",3,35.2358745,-75.5303594,TRUE,FALSE,TRUE,"S239077800"
"305","blkski","Black Skimmer","Rynchops niger","L446576","Cape Romain NWR--Garris Landing, Awendaw (Moore's Landing Historical)","2025-05-17 06:59",2,32.9400467,-79.6578838,TRUE,FALSE,FALSE,"S239090662"
"306","blkski","Black Skimmer","Rynchops niger","L527266","East Point Lighthouse","2025-05-17 06:49",2,39.1963928,-75.0278878,TRUE,FALSE,FALSE,"S239210056"
"307","blkski","Black Skimmer","Rynchops niger","L9288644","Hyatt coconut point","2025-05-17 06:46",2,26.3980743,-81.8377192,TRUE,FALSE,TRUE,"S239090602"
"308","blkski","Black Skimmer","Rynchops niger","L127286","Huguenot Memorial City Park","2025-05-17 06:45",50,30.4112444,-81.4206594,TRUE,FALSE,FALSE,"S239556172"
"309","blkski","Black Skimmer","Rynchops niger","L19536384","1015 Beach Ave, Cape May US-NJ 38.93145, -74.91201","2025-05-17 06:18",1,38.931448,-74.912008,TRUE,FALSE,TRUE,"S239091805"
"310","blkski","Black Skimmer","Rynchops niger","L4442533","Wild Dunes","2025-05-17 06:09",2,32.8015303,-79.753406,TRUE,FALSE,FALSE,"S239452524"
"311","blkski","Black Skimmer","Rynchops niger","L126644","Cape Henlopen State Park","2025-05-17 06:09",1,38.7714636,-75.086344,TRUE,FALSE,FALSE,"S239171337"
"312","blkski","Black Skimmer","Rynchops niger","L25449628","4225 SR-A1A, Melbourne Beach US-FL 28.00508, -80.52674","2025-05-17 05:43",4,28.00508,-80.526741,TRUE,FALSE,TRUE,"S239077691"
"313","blkski","Black Skimmer","Rynchops niger","L45208040","Jamaica Beach","2025-05-16 21:54",1,29.175416,-94.982079,TRUE,FALSE,TRUE,"S238994462"
"314","blkski","Black Skimmer","Rynchops niger","L1845416","Cape Island--CMP--Brainard Ave. dune crossing","2025-05-16 20:20",2,38.9382538,-74.9705146,TRUE,FALSE,FALSE,"S240000348"
"315","blkski","Black Skimmer","Rynchops niger","L45202378","Auto selected 28.12337, -80.57545","2025-05-16 20:17",2,28.123369,-80.575445,TRUE,FALSE,TRUE,"S238965890"
"316","blkski","Black Skimmer","Rynchops niger","L1034951","Edisto Beach--Helena Inlet Sound","2025-05-16 20:13",1,32.4851166,-80.3420627,TRUE,FALSE,FALSE,"S238983247"
"317","blkski","Black Skimmer","Rynchops niger","L370807","Saint Simons Island--Causeway","2025-05-16 20:03",4,31.167866,-81.4186478,TRUE,FALSE,FALSE,"S238969927"
"318","blkski","Black Skimmer","Rynchops niger","L694875","Emily Renzel Wetlands","2025-05-16 19:45",2,37.4425693,-122.1150649,TRUE,FALSE,FALSE,"S239003617"
"319","blkski","Black Skimmer","Rynchops niger","L389007","Richard W. DeKorte Park","2025-05-16 19:35",3,40.7833,-74.1025167,TRUE,FALSE,FALSE,"S238978171"
"320","blkski","Black Skimmer","Rynchops niger","L291444","Quintana Beach & Jetty (UTC122)","2025-05-16 19:34",4,28.9343,-95.2987,TRUE,FALSE,FALSE,"S238975150"
"321","blkski","Black Skimmer","Rynchops niger","L357297","Wrightsville Beach","2025-05-16 19:31",5,34.2144993,-77.7905846,TRUE,FALSE,FALSE,"S239140641"
"322","blkski","Black Skimmer","Rynchops niger","L45204787","Richard W. DeKorte Park, Lyndhurst US-NJ 40.78505, -74.10492","2025-05-16 19:25",3,40.785048,-74.104918,TRUE,FALSE,TRUE,"S238978788"
"323","blkski","Black Skimmer","Rynchops niger","L1802173","Saw Mill Creek Trail","2025-05-16 19:22",3,40.7839183,-74.1097996,TRUE,FALSE,FALSE,"S239486196"
"324","blkski","Black Skimmer","Rynchops niger","L45204283","Pensacola Beach, Gulf Breeze US-FL 30.32693, -87.16558","2025-05-16 19:08",1,30.326933,-87.165582,TRUE,FALSE,TRUE,"S238976435"
"325","blkski","Black Skimmer","Rynchops niger","L17115171","Hunting Island SP--North Spit","2025-05-16 18:53",3,32.3944722,-80.426661,TRUE,FALSE,FALSE,"S238976559"
"326","blkski","Black Skimmer","Rynchops niger","L2167041","Oakwood Beach--tidal marshes, NW to Mill Rd.","2025-05-16 18:53",6,40.5494903,-74.1131688,TRUE,FALSE,FALSE,"S238962258"
"327","blkski","Black Skimmer","Rynchops niger","L837165","Eagle Lakes Community Park","2025-05-16 18:50",1,26.0773686,-81.7141414,TRUE,FALSE,FALSE,"S238966310"
"328","blkski","Black Skimmer","Rynchops niger","L12174209","Cape May Reef (Offshore by boat only)","2025-05-16 18:39",1,38.8684833,-74.68565,TRUE,FALSE,FALSE,"S238958679"
"329","blkski","Black Skimmer","Rynchops niger","L11115640","Hunting Island SP--Lighthouse & North Beach","2025-05-16 18:37",1,32.3755398,-80.4372597,TRUE,FALSE,FALSE,"S238940183"
"330","blkski","Black Skimmer","Rynchops niger","L1280497","Cape May Harbor","2025-05-16 18:24",1,38.9496627,-74.8943564,TRUE,FALSE,FALSE,"S238936074"
"331","blkski","Black Skimmer","Rynchops niger","L771154","Norton Point Tidal Flats","2025-05-16 18:00",2,41.3497848,-70.5046749,TRUE,FALSE,FALSE,"S239760450"
"332","blkski","Black Skimmer","Rynchops niger","L243650","Carolina Beach State Park","2025-05-16 17:58",1,34.0499847,-77.9176247,TRUE,FALSE,FALSE,"S238958381"
"333","blkski","Black Skimmer","Rynchops niger","L45234051","460 Pensacola Beach Rd, Gulf Breeze US-FL (30.3393,-87.1461)","2025-05-16 17:42",1,30.339272,-87.146137,TRUE,FALSE,TRUE,"S239124571"
"334","blkski","Black Skimmer","Rynchops niger","L266434","Bryan Beach, Freeport (UTC 123)","2025-05-16 17:33",11,28.9020747,-95.3488313,TRUE,FALSE,FALSE,"S238963213"
"335","blkski","Black Skimmer","Rynchops niger","L8677808","Villas--Hudson Ave. beach","2025-05-16 17:32",3,39.0324662,-74.9401067,TRUE,FALSE,FALSE,"S240080129"
"336","blkski","Black Skimmer","Rynchops niger","L10248819","Quintana Boat Ramp","2025-05-16 17:20",6,28.9222135,-95.3427458,TRUE,FALSE,FALSE,"S238929839"
"337","blkski","Black Skimmer","Rynchops niger","L45193713","Canaveral National Seashore, Titusville US-FL 28.63555, -80.77619","2025-05-16 16:59",120,28.635552,-80.776193,TRUE,FALSE,TRUE,"S238917862"
"338","blkski","Black Skimmer","Rynchops niger","L3638546","Plumb Beach, Brooklyn","2025-05-16 16:45",2,40.5830455,-73.9175284,TRUE,FALSE,TRUE,"S239042904"
"339","blkski","Black Skimmer","Rynchops niger","L714449","Villas--Miami Ave. beach","2025-05-16 16:09",1,39.0373447,-74.9368429,TRUE,FALSE,FALSE,"S238898685"
"340","blkski","Black Skimmer","Rynchops niger","L31902245","1402 Bay Street","2025-05-16 15:58",1,33.870884,-78.518794,TRUE,FALSE,TRUE,"S238948752"
"341","blkski","Black Skimmer","Rynchops niger","L45186308","Pamlico Sound, Hatteras US-NC 35.22170, -75.69776","2025-05-16 15:51",2,35.221698,-75.697757,TRUE,FALSE,TRUE,"S238878879"
"342","blkski","Black Skimmer","Rynchops niger","L197353","Sandy Hook","2025-05-16 15:35",NA,40.4392518,-73.9869263,TRUE,FALSE,FALSE,"S238937560"
"343","blkski","Black Skimmer","Rynchops niger","L509134","Elsie Roemer Bird Sanctuary","2025-05-16 15:31",1,37.7525975,-122.2473836,TRUE,FALSE,FALSE,"S238937706"
"344","blkski","Black Skimmer","Rynchops niger","L45190301","610 Texas State Highway 87, Bolivar Peninsula, Texas, US (29.365, -94.77)","2025-05-16 15:21",70,29.3651219,-94.7695492,TRUE,FALSE,TRUE,"S238899499"
"345","blkski","Black Skimmer","Rynchops niger","L45186630","114 Matt's Landing Rd, Leesburg US-NJ 39.23287, -75.01055","2025-05-16 14:31",75,39.232867,-75.010546,TRUE,FALSE,TRUE,"S238880797"
"346","blkski","Black Skimmer","Rynchops niger","L1298509","Cape Island--Spicers Creek Boat Access","2025-05-16 13:42",2,38.9531953,-74.9086542,TRUE,FALSE,FALSE,"S238891896"
"347","blkski","Black Skimmer","Rynchops niger","L771306","Jarvis Sound","2025-05-16 13:30",4,38.967751,-74.8683929,TRUE,FALSE,FALSE,"S238910190"
"348","blkski","Black Skimmer","Rynchops niger","L5889882","Elsie Roemer Sanctuary","2025-05-16 13:10",1,37.7543365,-122.2492182,TRUE,FALSE,TRUE,"S239519673"
"349","blkski","Black Skimmer","Rynchops niger","L45178246","19500 Gulf Blvd, Indian Shores US-FL 27.85113, -82.84579","2025-05-16 11:40",150,27.851127,-82.845793,TRUE,FALSE,TRUE,"S238841125"
"350","blkski","Black Skimmer","Rynchops niger","L13925696","Lake Jesup Park/Wilderness Area","2025-05-16 11:12",1,28.7275668,-81.2613112,TRUE,TRUE,FALSE,"S238802918"
"351","blkski","Black Skimmer","Rynchops niger","L3917783","Disappearing Island","2025-05-16 10:51",34,29.0676462,-80.9213448,TRUE,FALSE,FALSE,"S239230752"
"352","blkski","Black Skimmer","Rynchops niger","L1190770","Packery Channel Mustang Isl. (TX361 bridge area)","2025-05-16 10:32",1,27.621,-97.211,TRUE,FALSE,FALSE,"S238795935"
"353","blkski","Black Skimmer","Rynchops niger","L127252","Alligator Point","2025-05-16 10:24",1,29.8937866,-84.3737608,TRUE,FALSE,FALSE,"S239080075"
"354","blkski","Black Skimmer","Rynchops niger","L1296469","West Ship Island","2025-05-16 10:17",30,30.2122016,-88.9542389,TRUE,FALSE,FALSE,"S238869844"
"355","blkski","Black Skimmer","Rynchops niger","L6983693","Hospitality Point","2025-05-16 10:00",3,32.7610345,-117.2412327,TRUE,FALSE,FALSE,"S238992309"
"356","blkski","Black Skimmer","Rynchops niger","L16373785","Tubbs Inlet","2025-05-16 09:53",47,33.8757345,-78.4823179,TRUE,FALSE,TRUE,"S238925590"
"357","blkski","Black Skimmer","Rynchops niger","L45142880","6051 Gulf of Mexico Drive, Longboat Key, Florida, US (27.421, -82.67)","2025-05-16 09:32",3,27.4209815,-82.6703536,TRUE,FALSE,TRUE,"S238597153"
"358","blkski","Black Skimmer","Rynchops niger","L9379841","Plum Tree Island NWR (restricted access)","2025-05-16 09:13",2,37.121984,-76.297572,TRUE,FALSE,FALSE,"S238954773"
"359","blkski","Black Skimmer","Rynchops niger","L612914","Carolina Beach--North End","2025-05-16 08:51",2,34.0583482,-77.8855133,TRUE,FALSE,FALSE,"S238958490"
"360","blkski","Black Skimmer","Rynchops niger","L45093088","Ocean City Bike Path, Ocean City, New Jersey, US (39.295, -74.588)","2025-05-16 08:49",6,39.2945986,-74.5878341,TRUE,FALSE,TRUE,"S238773186"
"361","blkski","Black Skimmer","Rynchops niger","L45191252","Little Bulls Bar","2025-05-16 08:43",140,32.947023,-79.57017,TRUE,FALSE,TRUE,"S238904262"
"362","blkski","Black Skimmer","Rynchops niger","L2979766","Oso Bay Wetlands Preserve","2025-05-16 08:34",5,27.6680951,-97.3299247,TRUE,FALSE,FALSE,"S238966578"
"363","blkski","Black Skimmer","Rynchops niger","L45338237","2189 Inlet View Drive, Chincoteague, Virginia, US (37.904, -75.409)","2025-05-16 08:25",1,37.9039579,-75.4088732,TRUE,FALSE,TRUE,"S239616285"
"364","blkski","Black Skimmer","Rynchops niger","L16158959","LASP, Pea Island NWR vtr ctr trail, Rodanthe US-NC (35.7140,-75.4974)","2025-05-16 08:23",50,35.713951,-75.497387,TRUE,FALSE,TRUE,"S238615042"
"365","blkski","Black Skimmer","Rynchops niger","L6004879","Little Saint Simons Island--Myrtle Pond North Tower","2025-05-16 08:20",3,31.2862765,-81.2950582,TRUE,FALSE,FALSE,"S238778468"
"366","blkski","Black Skimmer","Rynchops niger","L280834","Walsingham Park","2025-05-16 08:02",2,27.8763584,-82.8090332,TRUE,FALSE,FALSE,"S238627760"
"367","blkski","Black Skimmer","Rynchops niger","L2456547","Spoil Island SL3","2025-05-16 07:59",3,27.5350649,-80.339756,TRUE,FALSE,TRUE,"S238566865"
"368","blkski","Black Skimmer","Rynchops niger","L25588737","Sunset Lake Park Walking Path","2025-05-16 07:57",1,27.8613479,-97.3420718,TRUE,FALSE,TRUE,"S238613978"
"369","blkski","Black Skimmer","Rynchops niger","L1642362","Holden Beach, West End","2025-05-16 07:50",1,33.9051959,-78.3594418,TRUE,FALSE,TRUE,"S238967478"
"370","blkski","Black Skimmer","Rynchops niger","L109135","Cape Island--Higbee Beach WMA","2025-05-16 07:30",4,38.9613889,-74.9608333,TRUE,FALSE,FALSE,"S240578746"
"371","blkski","Black Skimmer","Rynchops niger","L999406","Mustang Island SP- Bathhouse area","2025-05-16 07:24",2,27.6696562,-97.1717548,TRUE,FALSE,FALSE,"S238580627"
"372","blkski","Black Skimmer","Rynchops niger","L21408464","Greyhawk Landing","2025-05-16 07:21",1,27.505959,-82.413858,TRUE,FALSE,TRUE,"S238562897"
"373","blkski","Black Skimmer","Rynchops niger","L366370","Audubon Park","2025-05-16 07:19",2,29.9253976,-90.128804,TRUE,FALSE,FALSE,"S238615228"
"374","blkski","Black Skimmer","Rynchops niger","L26861049","Tigertail","2025-05-16 07:16",1,25.941189,-81.739197,TRUE,FALSE,TRUE,"S238617074"
"375","blkski","Black Skimmer","Rynchops niger","L30501404","Tiana Beach","2025-05-16 07:00",1,40.8306967,-72.5145721,TRUE,FALSE,TRUE,"S238811048"
"376","blkski","Black Skimmer","Rynchops niger","L7086958","Stormwater Treatment Area 1W (Limited Access)","2025-05-16 06:58",3,26.6762842,-80.4273806,TRUE,FALSE,FALSE,"S238611293"
"377","blkski","Black Skimmer","Rynchops niger","L7341266","Robinson Preserve South","2025-05-16 06:56",2,27.5095641,-82.6649941,TRUE,FALSE,FALSE,"S238560648"
"378","blkski","Black Skimmer","Rynchops niger","L4115372","Eel Pond, Edgartown","2025-05-16 06:23",1,41.396849,-70.511165,TRUE,FALSE,FALSE,"S238522096"
"379","blkski","Black Skimmer","Rynchops niger","L130081","Cape Hatteras","2025-05-16 06:13",4,35.2390251,-75.5356293,TRUE,FALSE,FALSE,"S238595548"
"380","blkski","Black Skimmer","Rynchops niger","L45113498","Santa Rosa Island, Navarre US-FL (30.3781,-86.8700)","2025-05-16 06:03",1,30.378108,-86.870045,TRUE,FALSE,TRUE,"S238572469"
"381","blkski","Black Skimmer","Rynchops niger","L29449420","Pier","2025-05-16 05:51",6,30.3604622,-89.0894737,TRUE,FALSE,TRUE,"S238570996"
"382","blkski","Black Skimmer","Rynchops niger","L335811","Assateague Island","2025-05-16 05:20",8,37.8872945,-75.3440039,TRUE,FALSE,FALSE,"S238603104"
"383","blkski","Black Skimmer","Rynchops niger","L351189","Calvert Vaux Park (Dreier-Offerman Park)","2025-05-16 04:47",3,40.5848762,-73.9945752,TRUE,FALSE,FALSE,"S238882153"
"384","blkski","Black Skimmer","Rynchops niger","L127295","Porpoise Point","2025-05-15 19:35",2,29.9098,-81.2954,TRUE,FALSE,FALSE,"S238432495"
"385","blkski","Black Skimmer","Rynchops niger","L8199426","Winterberry Park","2025-05-15 19:27",3,25.9242504,-81.7121512,TRUE,FALSE,FALSE,"S238429207"
"386","blkski","Black Skimmer","Rynchops niger","L10854077","Belmar Beachfront","2025-05-15 19:22",6,40.1768142,-74.0134642,TRUE,FALSE,TRUE,"S238454281"
"387","blkski","Black Skimmer","Rynchops niger","L3237617","St. George Island--Franklin Blvd bayside","2025-05-15 19:19",3,29.668204,-84.865534,TRUE,FALSE,FALSE,"S238994345"
"388","blkski","Black Skimmer","Rynchops niger","L45088228","Mud Flats At The Esplanade (Private Access) (27.427, -82.609)","2025-05-15 19:06",6,27.4270929,-82.6088284,TRUE,FALSE,TRUE,"S238425458"
"389","blkski","Black Skimmer","Rynchops niger","L45087660","409 Beach Drive, Lower Township, New Jersey, US (38.98, -74.96)","2025-05-15 19:02",1,38.9799009,-74.9602307,TRUE,FALSE,TRUE,"S238421695"
"390","blkski","Black Skimmer","Rynchops niger","L45085054","Boiling Spring Lakes, North Carolina, US (33.911, -77.947)","2025-05-15 19:02",1,33.9111676,-77.947069,TRUE,FALSE,TRUE,"S238405982"
"391","blkski","Black Skimmer","Rynchops niger","L370811","Saint Simons Island--Coast Guard Beach","2025-05-15 18:45",6,31.1441965,-81.3702017,TRUE,FALSE,FALSE,"S238414964"
"392","blkski","Black Skimmer","Rynchops niger","L941882","Gulf SP--Pier","2025-05-15 18:38",1,30.2488451,-87.6674974,TRUE,FALSE,FALSE,"S238413755"
"393","blkski","Black Skimmer","Rynchops niger","L13277209","Homer Gudelsky Park, Ocean City US-MD 38.33013, -75.09610","2025-05-15 18:34",5,38.33013,-75.096096,TRUE,FALSE,TRUE,"S238517808"
"394","blkski","Black Skimmer","Rynchops niger","L45092952","I-95 N, Brunswick US-GA (31.2067,-81.5342)","2025-05-15 18:30",3,31.206655,-81.534226,TRUE,FALSE,TRUE,"S238452428"
"395","blkski","Black Skimmer","Rynchops niger","L45082805","North Carolina, US (33.92, -77.943)","2025-05-15 18:24",2,33.9198036,-77.9430519,TRUE,FALSE,TRUE,"S238392599"
"396","blkski","Black Skimmer","Rynchops niger","L6572021","stakeout Snowy Plover, Cumberland Island National Seashore--Dungeness Beach To South Jetty (2017)","2025-05-15 18:15",3,30.7360054,-81.4557474,TRUE,FALSE,FALSE,"S238412509"
"397","blkski","Black Skimmer","Rynchops niger","L299557","Cape Island--Nature Center of CM & Delaware Ave.","2025-05-15 18:08",7,38.9451667,-74.8998888,TRUE,FALSE,FALSE,"S238508813"
"398","blkski","Black Skimmer","Rynchops niger","L3797793","Ocean City Welcome Center","2025-05-15 17:59",2,39.2881767,-74.5824587,TRUE,FALSE,FALSE,"S238382953"
"399","blkski","Black Skimmer","Rynchops niger","L718342","Brownsville Preserve","2025-05-15 17:56",4,37.4689,-75.8327,TRUE,FALSE,FALSE,"S238416241"
"400","blkski","Black Skimmer","Rynchops niger","L36758041","Bushy Park Boat Landing","2025-05-15 17:48",1,32.9683064,-79.9368334,TRUE,FALSE,TRUE,"S238606582"
"401","blkski","Black Skimmer","Rynchops niger","L45083448","HRBT North Island (private)","2025-05-15 17:40",2,37.001236,-76.319217,TRUE,FALSE,TRUE,"S238396505"
"402","blkski","Black Skimmer","Rynchops niger","L718378","Chincoteague NWR* (general area)","2025-05-15 17:31",NA,37.9106228,-75.3479719,TRUE,FALSE,FALSE,"S239948707"
"403","blkski","Black Skimmer","Rynchops niger","L4542281","Clearwater Beach/Pier 60 Park","2025-05-15 17:30",1,27.9772246,-82.8288567,TRUE,FALSE,FALSE,"S238373601"
"404","blkski","Black Skimmer","Rynchops niger","L683111","Batiquitos Lagoon--east end","2025-05-15 17:02",2,33.0940148,-117.2795257,TRUE,FALSE,FALSE,"S238455973"
"405","blkski","Black Skimmer","Rynchops niger","L846390","Fisherman Island NWR (restricted access)","2025-05-15 16:58",2,37.095289,-75.9762526,TRUE,FALSE,FALSE,"S238363579"
"406","blkski","Black Skimmer","Rynchops niger","L44806099","Pensacola beach","2025-05-15 16:45",3,30.3276135,-87.1572838,TRUE,FALSE,TRUE,"S238777959"
"407","blkski","Black Skimmer","Rynchops niger","L192875","Upper Newport Bay Nature Preserve","2025-05-15 16:19",NA,33.636203,-117.8876352,TRUE,FALSE,FALSE,"S238454127"
"408","blkski","Black Skimmer","Rynchops niger","L11660929","Royal Oak Dr - Everett Creek (private-permission required)","2025-05-15 15:45",7,34.1146204,-77.8767973,TRUE,FALSE,TRUE,"S238350922"
"409","blkski","Black Skimmer","Rynchops niger","L2101187","Fisherman's Cove Conservation Area","2025-05-15 15:21",2,40.1089316,-74.0406418,TRUE,FALSE,FALSE,"S238421086"
"410","blkski","Black Skimmer","Rynchops niger","L6172443","Sheriff's Meadow Pond","2025-05-15 14:30",2,41.3943969,-70.5139875,TRUE,FALSE,FALSE,"S238447875"
"411","blkski","Black Skimmer","Rynchops niger","L385839","Salt Marsh Nature Center at Marine Park","2025-05-15 14:23",3,40.599946,-73.9243268,TRUE,FALSE,FALSE,"S238954930"
"412","blkski","Black Skimmer","Rynchops niger","L29494461","Forsyth","2025-05-15 14:08",75,39.4646797,-74.449791,TRUE,FALSE,TRUE,"S238325262"
"413","blkski","Black Skimmer","Rynchops niger","L483821","Little Creek Wildlife Area--Main Tract","2025-05-15 12:29",6,39.1506971,-75.4237175,TRUE,FALSE,FALSE,"S238314117"
"414","blkski","Black Skimmer","Rynchops niger","L366514","Nickerson Beach","2025-05-15 12:21",185,40.5847565,-73.6166382,TRUE,FALSE,TRUE,"S238383559"
"415","blkski","Black Skimmer","Rynchops niger","L1641918","Bivalve--High St","2025-05-15 12:04",60,39.2337656,-75.0365728,TRUE,FALSE,FALSE,"S238317478"
"416","blkski","Black Skimmer","Rynchops niger","L4943760","Milford Point-Outer Platform (Big Sit!)","2025-05-15 11:32",2,41.1738854,-73.1044181,TRUE,FALSE,FALSE,"S238182126"
"417","blkski","Black Skimmer","Rynchops niger","L470629","Fortescue Beach","2025-05-15 11:12",11,39.2232108,-75.1667404,TRUE,FALSE,FALSE,"S238174047"
"418","blkski","Black Skimmer","Rynchops niger","L148720","Gulf Islands National Seashore--Ft. Massachusetts","2025-05-15 10:52",5,30.2091599,-88.9791107,TRUE,FALSE,FALSE,"S238384365"
"419","blkski","Black Skimmer","Rynchops niger","L5776103","South Padre Is.--KOA marsh/beach","2025-05-15 10:44",1,26.0799705,-97.1663207,TRUE,FALSE,FALSE,"S238196538"
"420","blkski","Black Skimmer","Rynchops niger","L10874116","Sandy Hook--Lot I, Proving Grounds, and North Beach Pavillion","2025-05-15 10:42",2,40.4670489,-73.9983956,TRUE,FALSE,FALSE,"S238193379"
"421","blkski","Black Skimmer","Rynchops niger","L597862","Rutherford Beach","2025-05-15 10:30",5,29.7584911,-93.1245375,TRUE,FALSE,FALSE,"S238465182"
"422","blkski","Black Skimmer","Rynchops niger","L4705858","Bradenton Beach","2025-05-15 10:27",1,27.4685637,-82.7000395,TRUE,FALSE,FALSE,"S238439186"
"423","blkski","Black Skimmer","Rynchops niger","L32206442","Wassaw NWR (North Sand Bar)","2025-05-15 09:45",2,31.9138617,-80.945203,TRUE,FALSE,TRUE,"S238304285"
"424","blkski","Black Skimmer","Rynchops niger","L4873603","Rookery Bay NERR--Goodland Bridge and mudflats","2025-05-15 09:44",3,25.9328744,-81.6530058,TRUE,FALSE,FALSE,"S239485255"
"425","blkski","Black Skimmer","Rynchops niger","L484987","Bald Point SP","2025-05-15 09:38",2,29.9377826,-84.3381304,TRUE,FALSE,FALSE,"S238177065"
"426","blkski","Black Skimmer","Rynchops niger","L589790","Corson's Inlet SP","2025-05-15 09:32",7,39.2167774,-74.6462631,TRUE,FALSE,FALSE,"S238156838"
"427","blkski","Black Skimmer","Rynchops niger","L18933394","509 Edmunds Ave, Union Beach US-NJ 40.44815, -74.18151","2025-05-15 09:19",3,40.448154,-74.181514,TRUE,FALSE,TRUE,"S238188341"
"428","blkski","Black Skimmer","Rynchops niger","L271098","Bethel Beach Natural Area Preserve","2025-05-15 09:12",5,37.4106814,-76.2503958,TRUE,FALSE,FALSE,"S238308155"
"429","blkski","Black Skimmer","Rynchops niger","L1990251","Pleasure House Point Natural Area","2025-05-15 08:58",1,36.903226,-76.0994303,TRUE,FALSE,FALSE,"S238166163"
"430","blkski","Black Skimmer","Rynchops niger","L284440","Jones Park","2025-05-15 08:39",30,30.3670574,-89.085007,TRUE,FALSE,FALSE,"S238329478"
"431","blkski","Black Skimmer","Rynchops niger","L1774964","Edwin B. Forsythe NWR--Leeds Eco-Trail","2025-05-15 08:09",2,39.4636714,-74.4487429,TRUE,FALSE,FALSE,"S238116900"
"432","blkski","Black Skimmer","Rynchops niger","L318918","South Padre Is.--Valley Land Fund lots (LTC 036)","2025-05-15 08:08",1,26.0988053,-97.1678612,TRUE,FALSE,FALSE,"S238157133"
"433","blkski","Black Skimmer","Rynchops niger","L36891828","ScottsL-RubesC-kayak","2025-05-15 07:50",3,39.4794684,-74.4188105,TRUE,FALSE,TRUE,"S238291905"
"434","blkski","Black Skimmer","Rynchops niger","L207063","Upper Newport Bay","2025-05-15 07:40",7,33.6432772,-117.8879356,TRUE,FALSE,FALSE,"S238197583"
"435","blkski","Black Skimmer","Rynchops niger","L2272159","Private Personal Residence, NE, St.Pete, FL","2025-05-15 07:17",2,27.8209833,-82.6345328,TRUE,FALSE,TRUE,"S238288110"
"436","blkski","Black Skimmer","Rynchops niger","L616660","Huntington Beach SP--North Beach/Jetty/Dunes Trail","2025-05-15 07:00",22,33.5253779,-79.0367106,TRUE,FALSE,FALSE,"S239439053"
"437","blkski","Black Skimmer","Rynchops niger","L127346","Anna Maria Island","2025-05-15 06:54",5,27.5189,-82.7263,TRUE,FALSE,FALSE,"S238292936"
"438","blkski","Black Skimmer","Rynchops niger","L45023883","1000 Loggerhead Road, Kure Beach, North Carolina, US (33.954, -77.928)","2025-05-15 06:47",3,33.9542988,-77.9275576,TRUE,FALSE,TRUE,"S238064739"
"439","blkski","Black Skimmer","Rynchops niger","L4400453","Perico Preserve","2025-05-15 06:44",1,27.4972082,-82.6779646,TRUE,FALSE,FALSE,"S238111805"
"440","blkski","Black Skimmer","Rynchops niger","L1616913","Chincoteague NWR--Beach","2025-05-15 06:34",2,37.8800638,-75.3495458,TRUE,FALSE,FALSE,"S238323303"
"441","blkski","Black Skimmer","Rynchops niger","L14039007","Largo Golf Course","2025-05-15 06:30",2,27.8869754,-82.8209321,TRUE,FALSE,FALSE,"S239682748"
"442","blkski","Black Skimmer","Rynchops niger","L9820130","New Round Island (restricted access)","2025-05-15 06:25",60,30.3055357,-88.5953804,TRUE,FALSE,FALSE,"S238308169"
"443","blkski","Black Skimmer","Rynchops niger","L44395587","Round Island","2025-05-15 06:18",400,30.3154031,-88.6020811,TRUE,FALSE,TRUE,"S238188178"
"444","blkski","Black Skimmer","Rynchops niger","L45022131","Old Hermit Bunker, Kure Beach, North Carolina, US (33.957, -77.931)","2025-05-15 06:08",1,33.9572364,-77.9312856,TRUE,FALSE,TRUE,"S238052799"
"445","blkski","Black Skimmer","Rynchops niger","L159297","Craney Island Disposal Area (restricted access)","2025-05-15 06:00",1,36.9065,-76.37,TRUE,FALSE,FALSE,"S238369155"
"446","blkski","Black Skimmer","Rynchops niger","L283564","Captree SP","2025-05-14 22:50",14,40.6394313,-73.2644575,TRUE,FALSE,FALSE,"S238002774"
"447","blkski","Black Skimmer","Rynchops niger","L44684133","Bradenton Missionary Village","2025-05-14 20:30",3,27.487019,-82.421859,TRUE,FALSE,TRUE,"S237987751"
"448","blkski","Black Skimmer","Rynchops niger","L2925921","West Ashley Greenway--MP7-MP8","2025-05-14 19:44",2,32.7938328,-80.1036712,TRUE,FALSE,FALSE,"S237978970"
"449","blkski","Black Skimmer","Rynchops niger","L1034892","Galveston Island SP--Observation tower area","2025-05-14 19:33",2,29.2013871,-94.963012,TRUE,FALSE,FALSE,"S237989418"
"450","blkski","Black Skimmer","Rynchops niger","L338851","Edwin B. Forsythe NWR--Barnegat","2025-05-14 19:32",2,39.7635439,-74.200852,TRUE,FALSE,FALSE,"S237968960"
"451","blkski","Black Skimmer","Rynchops niger","L128974","Galveston Island SP (UTC 070)","2025-05-14 17:58",1,29.1956654,-94.9559069,TRUE,FALSE,FALSE,"S237953942"
"452","blkski","Black Skimmer","Rynchops niger","L612115","Fish Haul Beach Park","2025-05-14 17:46",5,32.2415556,-80.6863701,TRUE,FALSE,FALSE,"S237958444"
"453","blkski","Black Skimmer","Rynchops niger","L267764","Cape Island--Sunset Beach/Concrete Ship","2025-05-14 17:39",3,38.9445079,-74.9704993,TRUE,FALSE,FALSE,"S238063979"
"454","blkski","Black Skimmer","Rynchops niger","L45204835","348 Gulick Drive, Hampton, Virginia, US (37.008, -76.301)","2025-05-14 17:17",196,37.0075158,-76.3013545,TRUE,FALSE,TRUE,"S238978987"
"455","blkski","Black Skimmer","Rynchops niger","L45012501","Pinellas Bayway intersection","2025-05-14 17:17",1,27.7120516,-82.7145646,TRUE,FALSE,TRUE,"S238006900"
"456","blkski","Black Skimmer","Rynchops niger","L3129794","Savannah NWR--Onslow Island (public access on Wednesdays ONLY)","2025-05-14 17:11",2,32.1624028,-81.1453414,TRUE,FALSE,FALSE,"S238004764"
"457","blkski","Black Skimmer","Rynchops niger","L498948","Siesta Key Public Beach","2025-05-14 16:57",3,27.2643958,-82.5517845,TRUE,FALSE,FALSE,"S237986577"
"458","blkski","Black Skimmer","Rynchops niger","L11504874","466 Biscayne Dr, Wilmington US-NC 34.27737, -77.79458","2025-05-14 16:41",2,34.27737,-77.794584,TRUE,FALSE,TRUE,"S237903632"
"459","blkski","Black Skimmer","Rynchops niger","L20376584","Bushy Park Boat Landing, Goose Creek US-SC 32.96680, -79.93727","2025-05-14 16:08",1,32.966803,-79.937274,TRUE,FALSE,TRUE,"S237893318"
"460","blkski","Black Skimmer","Rynchops niger","L9819333","Wachapreague to Cedar Island","2025-05-14 16:01",9,37.6122221,-75.6319967,TRUE,FALSE,TRUE,"S237978926"
"461","blkski","Black Skimmer","Rynchops niger","L256021","Moss Landing--Jetty Road, north jetty & State Beach","2025-05-14 15:43",2,36.8151691,-121.7900355,TRUE,TRUE,FALSE,"S237959598"
"462","blkski","Black Skimmer","Rynchops niger","L37543561","Cormal Point","2025-05-14 15:30",2,38.133359,-75.8272133,TRUE,TRUE,TRUE,"S238291064"
"463","blkski","Black Skimmer","Rynchops niger","L483813","Bombay Hook NWR--Bear Swamp Pool","2025-05-14 15:26",4,39.286207,-75.4787221,TRUE,FALSE,FALSE,"S237974073"
"464","blkski","Black Skimmer","Rynchops niger","L2455153","Shem Creek Park","2025-05-14 14:15",1,32.7912704,-79.8844732,TRUE,FALSE,FALSE,"S237870804"
"465","blkski","Black Skimmer","Rynchops niger","L718480","Grandview Nature Preserve","2025-05-14 13:41",6,37.0869534,-76.2774324,TRUE,FALSE,FALSE,"S238979929"
"466","blkski","Black Skimmer","Rynchops niger","L764380","Gulf Islands National Seashore-- Santa Rosa Island - East beach access","2025-05-14 13:05",2,30.3683,-86.9384167,TRUE,FALSE,FALSE,"S238146462"
"467","blkski","Black Skimmer","Rynchops niger","L276368","Packery Channel Park (CTC 064)","2025-05-14 12:17",5,27.6264996,-97.2204369,TRUE,FALSE,FALSE,"S240380744"
"468","blkski","Black Skimmer","Rynchops niger","L38292395","Prime Hook National Wildlife Refuge, Milton US-DE 38.82890, -75.24846","2025-05-14 12:11",5,38.8289,-75.248457,TRUE,FALSE,TRUE,"S237892156"
"469","blkski","Black Skimmer","Rynchops niger","L768907","Fort Sumter National Monument (not for observations from ferry ride)","2025-05-14 11:24",5,32.7519107,-79.8746395,TRUE,FALSE,FALSE,"S237807745"
"470","blkski","Black Skimmer","Rynchops niger","L12548090","San Joaquin Marsh","2025-05-14 11:00",120,33.6629261,-117.842401,TRUE,TRUE,TRUE,"S237889319"
"471","blkski","Black Skimmer","Rynchops niger","L9254286","Charleston Harbor Marina","2025-05-14 10:44",9,32.7859396,-79.905839,TRUE,FALSE,FALSE,"S237783203"
"472","blkski","Black Skimmer","Rynchops niger","L910949","Harbor Island (restricted access)","2025-05-14 10:34",250,32.4050699,-80.4330345,TRUE,FALSE,FALSE,"S239303800"
"473","blkski","Black Skimmer","Rynchops niger","L6318418","Little Saint Simons Island--South End","2025-05-14 10:32",2,31.2400268,-81.3055846,TRUE,FALSE,FALSE,"S237839321"
"474","blkski","Black Skimmer","Rynchops niger","L45005824","Bombay hook NWR","2025-05-14 10:30",4,39.268416,-75.46568,TRUE,FALSE,TRUE,"S237965684"
"475","blkski","Black Skimmer","Rynchops niger","L16683081","Little Saint Simons Island—Skimmer boat tour loop","2025-05-14 10:23",3,31.249086,-81.313663,TRUE,FALSE,TRUE,"S237847134"
"476","blkski","Black Skimmer","Rynchops niger","L1429267","Cape Island--Schellenger's Landing/The Lobster House","2025-05-14 10:23",3,38.9491318,-74.9057248,TRUE,FALSE,FALSE,"S237813007"
"477","blkski","Black Skimmer","Rynchops niger","L2917891","Port Isobel Island","2025-05-14 10:22",4,37.8313615,-75.9779799,TRUE,FALSE,FALSE,"S237772339"
"478","blkski","Black Skimmer","Rynchops niger","L632896","Lake Belleview","2025-05-14 09:29",1,27.9465497,-82.7934623,TRUE,FALSE,FALSE,"S237805521"
"479","blkski","Black Skimmer","Rynchops niger","L12019251","North Jones","2025-05-14 09:20",78,33.3248652,-79.1688427,TRUE,FALSE,TRUE,"S237740949"
"480","blkski","Black Skimmer","Rynchops niger","L45067044","Beach Hammock","2025-05-14 09:00",150,31.9428445,-80.9281214,TRUE,FALSE,TRUE,"S238375874"
"481","blkski","Black Skimmer","Rynchops niger","L44975077","Beach, Bay County US-FL (30.2008,-85.8512)","2025-05-14 08:52",39,30.200813,-85.851225,TRUE,TRUE,TRUE,"S237798453"
"482","blkski","Black Skimmer","Rynchops niger","L450041","Poplar Island","2025-05-14 08:41",1,38.7648589,-76.3814163,TRUE,TRUE,FALSE,"S237780864"
"483","blkski","Black Skimmer","Rynchops niger","L37936001","Hubert SE - Hubert US-NC (34.6290,-77.1519)","2025-05-14 08:32",1,34.629035,-77.15194,TRUE,FALSE,TRUE,"S237859254"
"484","blkski","Black Skimmer","Rynchops niger","L356505","Santee Coastal Reserve (fall and winter restricted access)","2025-05-14 08:22",1,33.1477339,-79.3961066,TRUE,FALSE,FALSE,"S237887783"
"485","blkski","Black Skimmer","Rynchops niger","L871818","North Lido Beach Park","2025-05-14 08:15",400,27.3167045,-82.583995,TRUE,FALSE,FALSE,"S237757107"
"486","blkski","Black Skimmer","Rynchops niger","L24627749","Guana Tolomato Matanzas NERR - Dock Near Visitors Center","2025-05-14 08:13",3,30.0226211,-81.326251,TRUE,FALSE,FALSE,"S237717753"
"487","blkski","Black Skimmer","Rynchops niger","L2473134","Jim King Park and Boat Ramp at Sisters Creek Marina","2025-05-14 07:35",5,30.3953606,-81.4584947,TRUE,FALSE,FALSE,"S237728024"
"488","blkski","Black Skimmer","Rynchops niger","L29835049","Pinellas Trail - north of Trinity Blvd","2025-05-14 07:30",1,28.1803283,-82.6539874,TRUE,FALSE,FALSE,"S237812575"
"489","blkski","Black Skimmer","Rynchops niger","L9345941","Pinebrook Park","2025-05-14 07:28",1,27.1057322,-82.4152279,TRUE,FALSE,FALSE,"S237705720"
"490","blkski","Black Skimmer","Rynchops niger","L269018","Cape Island--2nd Ave. jetty/pavilion","2025-05-14 07:23",3,38.9293612,-74.9345362,TRUE,FALSE,FALSE,"S237686281"
"491","blkski","Black Skimmer","Rynchops niger","L14877710","217 Beach Ave, Cape May US-NJ 38.93040, -74.92801","2025-05-14 07:17",7,38.930399,-74.928007,TRUE,FALSE,TRUE,"S237681417"
"492","blkski","Black Skimmer","Rynchops niger","L279421","Riverwinds","2025-05-14 07:11",1,39.8608105,-75.2064077,TRUE,TRUE,FALSE,"S237822640"
"493","blkski","Black Skimmer","Rynchops niger","L1286702","ACBS Surveys ONLY--Bon Secour NWR-Fort Morgan Unit","2025-05-14 07:06",1,30.2290626,-88.0089641,TRUE,FALSE,FALSE,"S237729732"
"494","blkski","Black Skimmer","Rynchops niger","L614549","Santa Ana River mouth","2025-05-14 06:45",2,33.6299142,-117.9575443,TRUE,FALSE,FALSE,"S237996546"
"495","blkski","Black Skimmer","Rynchops niger","L127303","Gulf Islands National Seashore--Fort Pickens","2025-05-14 06:42",48,30.3231,-87.2829,TRUE,FALSE,FALSE,"S237789976"
"496","blkski","Black Skimmer","Rynchops niger","L45007815","496 Ebb Tide Lane, Gulf Shores, Alabama, US (30.231, -87.977)","2025-05-14 06:41",NA,30.2309586,-87.9772822,TRUE,FALSE,TRUE,"S237978955"
"497","blkski","Black Skimmer","Rynchops niger","L1050138","Johnnie Mercer's Pier","2025-05-14 06:40",1,34.2132146,-77.7864314,TRUE,FALSE,FALSE,"S237671629"
"498","blkski","Black Skimmer","Rynchops niger","L123565","Merritt Island NWR (Please consider using more specific locations)","2025-05-14 06:36",80,28.6628762,-80.7234192,TRUE,FALSE,FALSE,"S237970574"
"499","blkski","Black Skimmer","Rynchops niger","L18727687","turtle patrol","2025-05-14 06:23",4,27.304319,-82.572524,TRUE,FALSE,TRUE,"S237683852"
"500","blkski","Black Skimmer","Rynchops niger","L1069194","Philadelphia Naval Yard (restricted access)","2025-05-14 06:14",1,39.8876082,-75.1659143,TRUE,TRUE,FALSE,"S237758181"
"501","blkski","Black Skimmer","Rynchops niger","L10509100","11th View Street Public Beach Access","2025-05-14 06:01",3,36.968393,-76.2811099,TRUE,FALSE,FALSE,"S237680312"
"502","blkski","Black Skimmer","Rynchops niger","L985351","Cape Henlopen SP--Herring Point","2025-05-14 06:00",24,38.7657665,-75.0821221,TRUE,FALSE,FALSE,"S237738669"
"503","blkski","Black Skimmer","Rynchops niger","L7424978","Sammy's Beach","2025-05-14 05:35",3,41.0290844,-72.1875189,TRUE,FALSE,FALSE,"S237659578"
"504","blkski","Black Skimmer","Rynchops niger","L28768258","Bob Gardner Community Park","2025-05-13 20:41",1,27.47492,-82.41833,TRUE,FALSE,FALSE,"S237574954"
"505","blkski","Black Skimmer","Rynchops niger","L1316658","Morro Bay SP--Marina/Boardwalk Trail","2025-05-13 18:34",3,35.3445235,-120.8418006,TRUE,TRUE,FALSE,"S237605064"
"506","blkski","Black Skimmer","Rynchops niger","L44936296","West Ashley Greenway Parking to Mutual Drive","2025-05-13 18:33",2,32.79381,-80.104556,TRUE,FALSE,TRUE,"S237571512"
"507","blkski","Black Skimmer","Rynchops niger","L44931866","1294–1306 Miracle Strip Pkwy SE, Fort Walton Beach US-FL 30.39474, -86.56425","2025-05-13 18:02",10,30.39474,-86.56425,TRUE,FALSE,TRUE,"S237533196"
"508","blkski","Black Skimmer","Rynchops niger","L1415317","Mission Bay--Bonita Cove/Mariners Basin","2025-05-13 17:35",30,32.7698344,-117.2491679,TRUE,FALSE,FALSE,"S237578264"
"509","blkski","Black Skimmer","Rynchops niger","L7426888","San Francisquito Creek Mouth (SCL Co.)","2025-05-13 17:14",3,37.4656362,-122.1154672,TRUE,FALSE,FALSE,"S237588616"
"510","blkski","Black Skimmer","Rynchops niger","L9073552","The Island House Restaurant & Marina","2025-05-13 17:13",3,37.6040181,-75.6873262,TRUE,FALSE,FALSE,"S237544534"
"511","blkski","Black Skimmer","Rynchops niger","L3301614","Okaloosa Island Pier","2025-05-13 16:38",2,30.3930056,-86.5932083,TRUE,FALSE,FALSE,"S237523806"
"512","blkski","Black Skimmer","Rynchops niger","L44926424","19–33 Carrigan Ave, Port Lavaca US-TX 28.58292, -96.57186","2025-05-13 16:10",100,28.582917,-96.571862,TRUE,FALSE,TRUE,"S237498560"
"513","blkski","Black Skimmer","Rynchops niger","L16027191","Moran’s Dockside 1400 Ocean Drive Avalon","2025-05-13 15:45",1,39.107033,-74.717034,TRUE,FALSE,TRUE,"S237474159"
"514","blkski","Black Skimmer","Rynchops niger","L1395631","Little Talbot Island--South Beach","2025-05-13 15:43",7,30.4278505,-81.4070682,TRUE,FALSE,FALSE,"S237581408"
"515","blkski","Black Skimmer","Rynchops niger","L44923479","Hampton River, Brunswick US-GA 31.29399, -81.38011","2025-05-13 15:23",3,31.293994,-81.38011,TRUE,FALSE,TRUE,"S237480765"
"516","blkski","Black Skimmer","Rynchops niger","L1050808","Bogue Inlet","2025-05-13 14:08",20,34.6444855,-77.1039562,TRUE,FALSE,FALSE,"S238423525"
"517","blkski","Black Skimmer","Rynchops niger","L44915584","17925 Gulf Boulevard, Redington Shores, Florida, US (27.831, -82.834)","2025-05-13 13:52",200,27.8308178,-82.8336066,TRUE,FALSE,TRUE,"S237438175"
"518","blkski","Black Skimmer","Rynchops niger","L6193969","Tybee Island--North Jetty","2025-05-13 13:38",76,32.0241168,-80.8430266,TRUE,FALSE,FALSE,"S237533910"
"519","blkski","Black Skimmer","Rynchops niger","L831918","CBBT--North Scenic Overlook","2025-05-13 13:30",12,37.1214539,-75.9692574,TRUE,FALSE,FALSE,"S237437489"
"520","blkski","Black Skimmer","Rynchops niger","L129090","Sea Rim SP (UTC 027)","2025-05-13 12:29",1,29.6755873,-94.0421026,TRUE,FALSE,FALSE,"S237593316"
"521","blkski","Black Skimmer","Rynchops niger","L21892412","Bayshore Gardens Condominiums & Beaches","2025-05-13 12:24",2,27.4244471,-82.5986148,TRUE,FALSE,FALSE,"S237398500"
"522","blkski","Black Skimmer","Rynchops niger","L1037720","Gulf Islands NS: Fort Pickens entrance beach","2025-05-13 10:58",81,30.3262677,-87.1803653,TRUE,FALSE,FALSE,"S237393885"
"523","blkski","Black Skimmer","Rynchops niger","L955750","Dewees Island","2025-05-13 10:26",1,32.8353179,-79.7163677,TRUE,FALSE,FALSE,"S237520981"
"524","blkski","Black Skimmer","Rynchops niger","L4838245","Ocean Isle--East End","2025-05-13 09:40",25,33.9010986,-78.3941245,TRUE,FALSE,FALSE,"S237999353"
"525","blkski","Black Skimmer","Rynchops niger","L127258","St. Marks NWR (please consider using a more precise location)","2025-05-13 08:46",1,30.1515653,-84.1473314,TRUE,FALSE,FALSE,"S237416671"
"526","blkski","Black Skimmer","Rynchops niger","L3557104","Cabrillo Beach Park","2025-05-13 08:38",2,33.7120446,-118.2839732,TRUE,FALSE,FALSE,"S237378911"
"527","blkski","Black Skimmer","Rynchops niger","L189003","Emerson Point Preserve","2025-05-13 08:35",5,27.5320111,-82.6256604,TRUE,FALSE,FALSE,"S237316961"
"528","blkski","Black Skimmer","Rynchops niger","L129005","Laguna Atascosa NWR (LTC 024)","2025-05-13 08:30",8,26.2295776,-97.3466982,TRUE,FALSE,FALSE,"S237604129"
"529","blkski","Black Skimmer","Rynchops niger","L28825897","Crabby Lady","2025-05-13 08:20",4,25.927568,-81.646557,TRUE,FALSE,TRUE,"S237283697"
"530","blkski","Black Skimmer","Rynchops niger","L1015140","Possum Branch Preserve","2025-05-13 08:00",1,28.0454136,-82.7083611,TRUE,FALSE,FALSE,"S237305476"
"531","blkski","Black Skimmer","Rynchops niger","L42733155","Palm Island Ferry","2025-05-13 08:00",1,26.871995,-82.312401,TRUE,FALSE,TRUE,"S237275632"
"532","blkski","Black Skimmer","Rynchops niger","L127324","Honeymoon Island SP","2025-05-13 07:55",2,28.0706,-82.8314,TRUE,FALSE,FALSE,"S237354047"
"533","blkski","Black Skimmer","Rynchops niger","L674658","Cape Hatteras NS--Ramp 26-32","2025-05-13 07:54",1,35.4473081,-75.4834425,TRUE,FALSE,FALSE,"S237593618"
"534","blkski","Black Skimmer","Rynchops niger","L453872","Prime Hook NWR--Headquarters area","2025-05-13 07:50",1,38.830594,-75.2480918,TRUE,FALSE,FALSE,"S237711020"
"535","blkski","Black Skimmer","Rynchops niger","L1065844","Lea-Hutaff Island","2025-05-13 07:41",4,34.3223857,-77.6872444,TRUE,FALSE,FALSE,"S237396506"
"536","blkski","Black Skimmer","Rynchops niger","L35872722","Siesta Key Beach Access 3B","2025-05-13 07:30",7,27.2754534,-82.5692819,TRUE,FALSE,TRUE,"S237306011"
"537","blkski","Black Skimmer","Rynchops niger","L2116701","Waties Island","2025-05-13 07:21",30,33.8488889,-78.5747222,TRUE,FALSE,FALSE,"S237364404"
"538","blkski","Black Skimmer","Rynchops niger","L2234368","Nathan Benderson Park","2025-05-13 07:15",1,27.3632302,-82.4475861,TRUE,FALSE,FALSE,"S237318172"
"539","blkski","Black Skimmer","Rynchops niger","L8603442","Bruce Beach","2025-05-13 07:00",2,30.4048612,-87.2230008,TRUE,FALSE,FALSE,"S237376877"
"540","blkski","Black Skimmer","Rynchops niger","L1286700","ACBS Surveys ONLY--Pelican Island","2025-05-13 06:50",3,30.243386,-88.1247389,TRUE,FALSE,FALSE,"S240322083"
"541","blkski","Black Skimmer","Rynchops niger","L753597","Navarre Beach Park","2025-05-13 06:40",2,30.3836119,-86.8492413,TRUE,FALSE,FALSE,"S237624376"
"542","blkski","Black Skimmer","Rynchops niger","L6101062","Safety Harbor Waterfront Park","2025-05-13 05:55",1,27.9913611,-82.6845217,TRUE,FALSE,FALSE,"S237256259"
"543","blkski","Black Skimmer","Rynchops niger","L865177","Bennetts Pier Road","2025-05-13 05:45",3,39.0269854,-75.3614473,TRUE,FALSE,FALSE,"S237250622"
"544","blkski","Black Skimmer","Rynchops niger","L1824473","Slaughter Beach--South","2025-05-12 20:17",8,38.9042714,-75.2948226,TRUE,FALSE,FALSE,"S237156173"
"545","blkski","Black Skimmer","Rynchops niger","L8577818","Star of the Sea","2025-05-12 19:55",2,38.7137679,-75.0759024,TRUE,FALSE,TRUE,"S237140471"
"546","blkski","Black Skimmer","Rynchops niger","L44463280","4960 Gulf of Mexico Drive, Longboat Key, Florida, US (27.404, -82.65) Windward Bay","2025-05-12 19:30",2,27.404147,-82.6499402,TRUE,FALSE,TRUE,"S237118751"
"547","blkski","Black Skimmer","Rynchops niger","L632770","Wantagh Park","2025-05-12 19:18",1,40.6430664,-73.5151809,TRUE,FALSE,FALSE,"S237132567"
"548","blkski","Black Skimmer","Rynchops niger","L999181","28th Street wetlands","2025-05-12 19:13",2,27.8720862,-82.6715183,TRUE,FALSE,FALSE,"S237119159"
"549","blkski","Black Skimmer","Rynchops niger","L1395137","Wrightsville Beach--Station 2","2025-05-12 17:35",1,34.2296334,-77.7808486,TRUE,FALSE,FALSE,"S237084381"
"550","blkski","Black Skimmer","Rynchops niger","L559318","Marshes of Glynn Park","2025-05-12 16:26",3,31.153654,-81.4779782,TRUE,FALSE,FALSE,"S238542458"
"551","blkski","Black Skimmer","Rynchops niger","L225431","Hayward Regional Shoreline","2025-05-12 16:15",1,37.6419316,-122.1517012,TRUE,FALSE,FALSE,"S237487535"
"552","blkski","Black Skimmer","Rynchops niger","L792647","Pea Island NWR--Salt Flats","2025-05-12 15:53",2,35.7423325,-75.5069733,TRUE,FALSE,FALSE,"S237045518"
"553","blkski","Black Skimmer","Rynchops niger","L673436","Sonny Bono Salton Sea NWR--Union Tract / Visitor Center","2025-05-12 15:53",1,33.1774666,-115.6150961,TRUE,FALSE,FALSE,"S237148720"
"554","blkski","Black Skimmer","Rynchops niger","L8586297","Gadsdenville Boat Landing","2025-05-12 15:44",2,32.875129,-79.739461,TRUE,FALSE,FALSE,"S237038393"
"555","blkski","Black Skimmer","Rynchops niger","L12862403","2 mile stretch of gulf side 5275-6399 llongboat key","2025-05-12 15:05",3,27.4242864,-82.6748376,TRUE,FALSE,TRUE,"S237014411"
"556","blkski","Black Skimmer","Rynchops niger","L338888","Rockport Beach Park","2025-05-12 15:00",80,28.0308958,-97.0371276,TRUE,FALSE,FALSE,"S237113330"
"557","blkski","Black Skimmer","Rynchops niger","L2981246","Seabrook Island--Beach Access #8","2025-05-12 14:45",14,32.5609205,-80.1786304,TRUE,FALSE,FALSE,"S237041054"
"558","blkski","Black Skimmer","Rynchops niger","L44845459","Miracle Strip Parkway Southeast, Destin, Florida, US (30.395, -86.569)","2025-05-12 14:18",12,30.3948137,-86.5694038,TRUE,FALSE,TRUE,"S237019092"
"559","blkski","Black Skimmer","Rynchops niger","L931387","Island Beach SP--Great Sedge Island","2025-05-12 13:15",1,39.782685,-74.1065598,TRUE,FALSE,FALSE,"S237136915"
"560","blkski","Black Skimmer","Rynchops niger","L1107662","MacDill AFB (restricted access)","2025-05-12 11:28",1,27.841171,-82.4837726,TRUE,FALSE,FALSE,"S236947504"
"561","blkski","Black Skimmer","Rynchops niger","L1340108","Bolivar Flats Shorebird Sanctuary--17th Str. Jetty","2025-05-12 11:13",9,29.3681375,-94.7474419,TRUE,FALSE,FALSE,"S236963105"
"562","blkski","Black Skimmer","Rynchops niger","L44826998","Auto selected 28.75829, -95.65689","2025-05-12 10:45",11,28.758294,-95.656894,TRUE,FALSE,TRUE,"S236920293"
"563","blkski","Black Skimmer","Rynchops niger","L41018908","Bailey Tract Trail, Sanibel US-FL 26.42842, -82.08113","2025-05-12 10:11",1,26.428419,-82.081127,TRUE,FALSE,TRUE,"S236890769"
"564","blkski","Black Skimmer","Rynchops niger","L44954687","Maurice River, Port Norris US-NJ 39.23011, -75.03415","2025-05-12 09:00",39,39.230108,-75.034151,TRUE,FALSE,TRUE,"S237672476"
"565","blkski","Black Skimmer","Rynchops niger","L23223239","Lavaca Bay Spoil","2025-05-12 08:22",250,28.5987993,-96.561155,TRUE,FALSE,TRUE,"S237145608"
"566","blkski","Black Skimmer","Rynchops niger","L44812648","Amaryllis/Tuscany Pond","2025-05-12 08:08",1,27.0906935,-82.4050693,TRUE,FALSE,TRUE,"S236833532"
"567","blkski","Black Skimmer","Rynchops niger","L35964900","Wallops Island (restricted access)","2025-05-12 08:03",3,37.867665,-75.441333,TRUE,FALSE,FALSE,"S236960067"
"568","blkski","Black Skimmer","Rynchops niger","L44813397","70037, Belle Chasse US-LA 29.55180, -89.97240","2025-05-12 08:00",25,29.551802,-89.972401,TRUE,FALSE,TRUE,"S236838871"
"569","blkski","Black Skimmer","Rynchops niger","L12742110","Palo Alto Baylands--Boardwalk","2025-05-12 08:00",5,37.459984,-122.106112,TRUE,FALSE,FALSE,"S236988668"
"570","blkski","Black Skimmer","Rynchops niger","L30982852","7529 18th Street NE, St. Pete","2025-05-12 07:26",4,27.8418792,-82.6110845,TRUE,FALSE,TRUE,"S239461203"
"571","blkski","Black Skimmer","Rynchops niger","L1571602","DuPont Nature Center--Back Beach (Kent Co.)","2025-05-12 07:24",7,38.9507369,-75.3139224,TRUE,FALSE,FALSE,"S238434914"
"572","blkski","Black Skimmer","Rynchops niger","L2177068","Beach at Cape May","2025-05-12 07:22",6,38.930504,-74.9155569,TRUE,FALSE,TRUE,"S236806258"
"573","blkski","Black Skimmer","Rynchops niger","L30058782","San Joaquin Marsh and Wildlife Sanctuary, Irvine US-CA 33.66060, -117.84304","2025-05-12 07:05",35,33.660598,-117.843043,TRUE,FALSE,TRUE,"S236936584"
"574","blkski","Black Skimmer","Rynchops niger","L10496132","ACBS Surveys Only - Horn Island West","2025-05-12 06:58",4,30.242961,-88.762317,TRUE,FALSE,FALSE,"S237023668"
"575","blkski","Black Skimmer","Rynchops niger","L500489","Huntington Beach Pier","2025-05-12 06:15",8,33.653959,-118.0050087,TRUE,FALSE,FALSE,"S236913684"
"576","blkski","Black Skimmer","Rynchops niger","L740881","Upper Newport Bay--Back Bay Dr.","2025-05-12 05:21",3,33.6235893,-117.886734,TRUE,FALSE,FALSE,"S236885629"
"577","blkski","Black Skimmer","Rynchops niger","L7452516","Bald Point SP--Tucker Lake Day Use Area","2025-05-11 19:54",3,29.9351514,-84.3748498,TRUE,FALSE,FALSE,"S236675453"
"578","blkski","Black Skimmer","Rynchops niger","L44782347","Celery Fields Regional Stormwater Facility, Sarasota US-FL 27.32039, -82.43788","2025-05-11 19:31",4,27.32039,-82.43788,TRUE,FALSE,TRUE,"S236657540"
"579","blkski","Black Skimmer","Rynchops niger","L44789518","Shaggy's, Gulf Port","2025-05-11 19:30",25,30.3691286,-89.08317,TRUE,FALSE,TRUE,"S236701420"
"580","blkski","Black Skimmer","Rynchops niger","L1078491","Northshore Park","2025-05-11 19:25",1,27.7841316,-82.6243929,TRUE,FALSE,FALSE,"S236661289"
"581","blkski","Black Skimmer","Rynchops niger","L44783665","Stuart Historic Downtown Roundabout","2025-05-11 19:20",5,27.197508,-80.252063,TRUE,FALSE,TRUE,"S236665481"
"582","blkski","Black Skimmer","Rynchops niger","L1269935","Cape Island--South Cape May beach (CMPSP & SCMM)","2025-05-11 19:13",1,38.9317636,-74.9461985,TRUE,FALSE,FALSE,"S236679705"
"583","blkski","Black Skimmer","Rynchops niger","L44860411","Entrance Channel, Newport Beach US-CA (33.5955,-117.8803)","2025-05-11 19:09",4,33.595504,-117.880324,TRUE,FALSE,TRUE,"S237107457"
"584","blkski","Black Skimmer","Rynchops niger","L388414","Holly Beach","2025-05-11 19:05",8,29.7672272,-93.5097778,TRUE,FALSE,FALSE,"S236677469"
"585","blkski","Black Skimmer","Rynchops niger","L44787021","16701–16839 Dauphin Island Pkwy, Coden US-AL 30.34346, -88.12527","2025-05-11 19:00",2,30.343461,-88.125274,TRUE,FALSE,TRUE,"S236686880"
"586","blkski","Black Skimmer","Rynchops niger","L468473","Newport Pier","2025-05-11 18:54",NA,33.6059343,-117.9312801,TRUE,FALSE,FALSE,"S238491519"
"587","blkski","Black Skimmer","Rynchops niger","L933572","Bird Island","2025-05-11 18:39",2,29.9296285,-90.1245618,TRUE,FALSE,FALSE,"S236669450"
"588","blkski","Black Skimmer","Rynchops niger","L44786221","Celery Fields Regional Stormwater Facility, Sarasota US-FL 27.32544, -82.43345","2025-05-11 18:28",2,27.32544,-82.433447,TRUE,FALSE,TRUE,"S236681935"
"589","blkski","Black Skimmer","Rynchops niger","L44778537","Johns Island, Johns Island US-SC (32.5671,-80.1566)","2025-05-11 18:07",67,32.567068,-80.15664,TRUE,FALSE,TRUE,"S236634827"
"590","blkski","Black Skimmer","Rynchops niger","L250250","John S. Taylor Park","2025-05-11 17:15",1,27.9023224,-82.8054893,TRUE,FALSE,FALSE,"S237299524"
"591","blkski","Black Skimmer","Rynchops niger","L44775069","Navigation Blvd, Freeport US-TX 28.91900, -95.33954","2025-05-11 17:12",10,28.918995,-95.339536,TRUE,FALSE,TRUE,"S236616121"
"592","blkski","Black Skimmer","Rynchops niger","L44809134","North Carolina, US (33.973, -77.949)","2025-05-11 16:26",7,33.9729222,-77.948592,TRUE,FALSE,TRUE,"S236808789"
"593","blkski","Black Skimmer","Rynchops niger","L14493341","Dolphin Head Recreation Area (restricted access)","2025-05-11 16:25",1,32.267485,-80.7214558,TRUE,FALSE,FALSE,"S236597751"
"594","blkski","Black Skimmer","Rynchops niger","L248017","Bolivar Flats Shorebird Sanctuary","2025-05-11 15:46",16,29.3711371,-94.7287083,TRUE,FALSE,FALSE,"S236687382"
