"","speciesCode","comName","sciName","locId","locName","obsDt","howMany","lat","lng","obsValid","obsReviewed","locationPrivate","subId"
"1","whcpig2","White-crowned Pigeon","Patagioenas leucocephala","L473101","Key West","2025-05-13 17:01",6,24.5558671,-81.7915821,TRUE,FALSE,FALSE,"S237511130"
"2","whcpig2","White-crowned Pigeon","Patagioenas leucocephala","L44924355","Auto selected 24.52312, -81.88195","2025-05-13 15:52",1,24.523124,-81.881947,TRUE,FALSE,TRUE,"S237485783"
"3","whcpig2","White-crowned Pigeon","Patagioenas leucocephala","L9149175","Old State Road 4a (Sugarloaf Key)","2025-05-13 11:16",6,24.6163579,-81.5429195,TRUE,FALSE,FALSE,"S237422552"
"4","whcpig2","White-crowned Pigeon","Patagioenas leucocephala","L44892393","281 Front St, Key West US-FL (24.5582,-81.8068)","2025-05-13 08:39",6,24.558168,-81.806777,TRUE,FALSE,TRUE,"S237305984"
"5","whcpig2","White-crowned Pigeon","Patagioenas leucocephala","L580882","Sugarloaf Key--CR 9336B (MM 20)","2025-05-13 08:33",4,24.6521268,-81.5158081,TRUE,FALSE,FALSE,"S237358775"
"6","whcpig2","White-crowned Pigeon","Patagioenas leucocephala","L44886940","5463–5559 Overseas Hwy, Key West US-FL 24.57399, -81.73970","2025-05-13 07:54",1,24.573994,-81.739702,TRUE,FALSE,TRUE,"S237265983"
"7","whcpig2","White-crowned Pigeon","Patagioenas leucocephala","L44888276","Grizz Baker Wetland and Wildlife Preserve, Summerland Key FL","2025-05-12 18:23",6,24.662143,-81.446646,TRUE,FALSE,TRUE,"S237093518"
"8","whcpig2","White-crowned Pigeon","Patagioenas leucocephala","L847405","National Key Deer NWR--Headquarters Area","2025-05-12 16:11",2,24.6911636,-81.3805389,TRUE,FALSE,FALSE,"S237044689"
"9","whcpig2","White-crowned Pigeon","Patagioenas leucocephala","L44836118","3852 N Roosevelt Blvd, Key West FL","2025-05-12 13:20",1,24.569371,-81.752536,TRUE,FALSE,TRUE,"S236969113"
"10","whcpig2","White-crowned Pigeon","Patagioenas leucocephala","L458792","Kendall Indian Hammocks Park","2025-05-12 11:59",3,25.6953,-80.3734,TRUE,FALSE,FALSE,"S236925530"
"11","whcpig2","White-crowned Pigeon","Patagioenas leucocephala","L20916247","Kathy's, Big Pine Key US-FL (24.6686,-81.3636)","2025-05-12 09:57",1,24.668649,-81.363601,TRUE,FALSE,TRUE,"S237057904"
"12","whcpig2","White-crowned Pigeon","Patagioenas leucocephala","L3228316","Cudjoe Key","2025-05-12 07:30",7,24.6694823,-81.4917755,TRUE,FALSE,FALSE,"S236831328"
"13","whcpig2","White-crowned Pigeon","Patagioenas leucocephala","L31868693","Key Largo","2025-05-11 14:41",NA,25.0811437,-80.4479951,TRUE,FALSE,TRUE,"S236499239"
"14","whcpig2","White-crowned Pigeon","Patagioenas leucocephala","L37901480","Peterson keys. Egnp","2025-05-11 14:29",4,24.908343,-80.738157,TRUE,FALSE,TRUE,"S236490125"
"15","whcpig2","White-crowned Pigeon","Patagioenas leucocephala","L14522326","Little Hamaca City Park","2025-05-11 07:39",1,24.5581641,-81.7632764,TRUE,FALSE,FALSE,"S236191771"
"16","whcpig2","White-crowned Pigeon","Patagioenas leucocephala","L127423","Bill Baggs Cape Florida SP","2025-05-10 19:30",2,25.6733,-80.1582,TRUE,FALSE,FALSE,"S235957776"
"17","whcpig2","White-crowned Pigeon","Patagioenas leucocephala","L505745","Mallory Square, Key West","2025-05-10 19:23",2,24.5599656,-81.8077183,TRUE,FALSE,FALSE,"S235942652"
"18","whcpig2","White-crowned Pigeon","Patagioenas leucocephala","L44644900","Basilica of St. Mary Star of the Sea","2025-05-10 19:00",2,24.553213,-81.795827,TRUE,FALSE,TRUE,"S235925064"
"19","whcpig2","White-crowned Pigeon","Patagioenas leucocephala","L288917","Everglades NP--Paurotis Pond","2025-05-10 18:59",1,25.2813046,-80.8001782,TRUE,FALSE,FALSE,"S235948255"
"20","whcpig2","White-crowned Pigeon","Patagioenas leucocephala","L127438","Everglades NP--Flamingo","2025-05-10 18:19",2,25.1416,-80.9255,TRUE,FALSE,FALSE,"S235989715"
"21","whcpig2","White-crowned Pigeon","Patagioenas leucocephala","L29401570","Truman Waterfront Park","2025-05-10 17:38",1,24.5521295,-81.8066883,TRUE,FALSE,FALSE,"S235865378"
"22","whcpig2","White-crowned Pigeon","Patagioenas leucocephala","L127446","Key West Tropical Forest & Botanical Gardens","2025-05-10 10:19",3,24.5734,-81.7496,TRUE,FALSE,FALSE,"S235573492"
"23","whcpig2","White-crowned Pigeon","Patagioenas leucocephala","L3499263","Everglades NP (Please consider using more specific locations)","2025-05-10 09:42",6,25.2867611,-80.8986318,TRUE,FALSE,FALSE,"S236055459"
"24","whcpig2","White-crowned Pigeon","Patagioenas leucocephala","L127449","Fort Zachary Taylor Historic SP","2025-05-10 09:19",1,24.5463,-81.8106,TRUE,FALSE,FALSE,"S235494810"
"25","whcpig2","White-crowned Pigeon","Patagioenas leucocephala","L127425","Matheson Hammock Park","2025-05-10 07:48",1,25.6806539,-80.2726364,TRUE,FALSE,FALSE,"S236901153"
"26","whcpig2","White-crowned Pigeon","Patagioenas leucocephala","L44541332","Ocean Reef Club (NO PUBLIC ACCESS)","2025-05-10 06:37",20,25.322181,-80.276242,TRUE,FALSE,TRUE,"S235413416"
"27","whcpig2","White-crowned Pigeon","Patagioenas leucocephala","L3311851","Ocean Reef Club","2025-05-10 05:53",15,25.3286274,-80.2704048,TRUE,FALSE,TRUE,"S235427251"
"28","whcpig2","White-crowned Pigeon","Patagioenas leucocephala","L388542","Marathon Airport","2025-05-09 19:28",1,24.7248284,-81.0523868,TRUE,FALSE,FALSE,"S235239846"
"29","whcpig2","White-crowned Pigeon","Patagioenas leucocephala","L636248","Everglades NP--Nine Mile Pond","2025-05-09 19:11",9,25.2538952,-80.7978237,TRUE,FALSE,FALSE,"S236900905"
"30","whcpig2","White-crowned Pigeon","Patagioenas leucocephala","L44492438","3852 N Roosevelt Blvd, Key West US-FL 24.56799, -81.75200","2025-05-09 15:55",1,24.567991,-81.751996,TRUE,FALSE,TRUE,"S235162141"
"31","whcpig2","White-crowned Pigeon","Patagioenas leucocephala","L1449547","Clarence S. Higgs Memorial Beach","2025-05-09 15:29",3,24.546979,-81.78753,TRUE,FALSE,FALSE,"S235522854"
"32","whcpig2","White-crowned Pigeon","Patagioenas leucocephala","L44483037","Key West, Florida, US (24.552, -81.798)","2025-05-09 13:28",NA,24.5518213,-81.7979243,TRUE,FALSE,TRUE,"S235116423"
"33","whcpig2","White-crowned Pigeon","Patagioenas leucocephala","L44483062","1007 Simonton Street, Key West, Florida, US (24.552, -81.798)","2025-05-09 12:47",1,24.5519853,-81.7978716,TRUE,FALSE,TRUE,"S235116553"
"34","whcpig2","White-crowned Pigeon","Patagioenas leucocephala","L267986","Florida Keys WEA--Sugarloaf Key","2025-05-09 09:51",1,24.61967,-81.53504,TRUE,FALSE,FALSE,"S235044675"
"35","whcpig2","White-crowned Pigeon","Patagioenas leucocephala","L578782","Grassy Key","2025-05-09 08:02",5,24.7580603,-80.9612507,TRUE,FALSE,FALSE,"S234974665"
"36","whcpig2","White-crowned Pigeon","Patagioenas leucocephala","L7269870","Florida Keys WEA--Sammy Creek Landing","2025-05-09 07:54",1,24.6034609,-81.5706199,TRUE,FALSE,FALSE,"S234998372"
"37","whcpig2","White-crowned Pigeon","Patagioenas leucocephala","L5706120","Southernmost Point","2025-05-08 19:04",2,24.5467328,-81.7975152,TRUE,FALSE,FALSE,"S236186234"
"38","whcpig2","White-crowned Pigeon","Patagioenas leucocephala","L2042080","No Name Key--Watson Rd outlook","2025-05-08 17:30",2,24.69767,-81.318021,TRUE,FALSE,FALSE,"S234787524"
"39","whcpig2","White-crowned Pigeon","Patagioenas leucocephala","L580972","No Name Key","2025-05-08 17:12",4,24.697714,-81.3310146,TRUE,FALSE,FALSE,"S234786810"
"40","whcpig2","White-crowned Pigeon","Patagioenas leucocephala","L127422","Crandon Park","2025-05-08 16:47",7,25.7089712,-80.1536322,TRUE,FALSE,FALSE,"S234780454"
"41","whcpig2","White-crowned Pigeon","Patagioenas leucocephala","L122388","Big Pine Key--Blue Hole","2025-05-08 16:35",3,24.705893,-81.380295,TRUE,FALSE,FALSE,"S234785683"
"42","whcpig2","White-crowned Pigeon","Patagioenas leucocephala","L4138043","Mangrove Preserve - C-103","2025-05-08 14:00",4,25.470583,-80.346734,TRUE,FALSE,FALSE,"S234750328"
"43","whcpig2","White-crowned Pigeon","Patagioenas leucocephala","L4791773","Grassy Key - Tropical Avenue","2025-05-08 13:00",2,24.7587836,-80.9592312,TRUE,FALSE,FALSE,"S236246659"
"44","whcpig2","White-crowned Pigeon","Patagioenas leucocephala","L44425729","1026 Whitehead St, Key West US-FL 24.54970, -81.79986","2025-05-08 09:35",1,24.549699,-81.799858,TRUE,FALSE,TRUE,"S234794209"
"45","whcpig2","White-crowned Pigeon","Patagioenas leucocephala","L200830","A. D. Barnes Park","2025-05-08 08:45",1,25.7340827,-80.3108552,TRUE,FALSE,FALSE,"S234620803"
"46","whcpig2","White-crowned Pigeon","Patagioenas leucocephala","L44377494","1239 Chokoloskee Dr, Chokoloskee US-FL 25.81216, -81.35997","2025-05-08 07:19",2,25.812157,-81.359974,TRUE,FALSE,TRUE,"S234589650"
"47","whcpig2","White-crowned Pigeon","Patagioenas leucocephala","L44408391","68200 Overseas Hwy, Layton US-FL (24.8239,-80.8169)","2025-05-08 07:10",5,24.823933,-80.816911,TRUE,FALSE,TRUE,"S234695238"
"48","whcpig2","White-crowned Pigeon","Patagioenas leucocephala","L44356374","235 Front St, Key West US-FL 24.55756, -81.80680","2025-05-07 19:53",10,24.557563,-81.806796,TRUE,FALSE,TRUE,"S234402039"
"49","whcpig2","White-crowned Pigeon","Patagioenas leucocephala","L21466527","Key West Veterans Memorial Garden","2025-05-07 18:45",2,24.5577082,-81.7882143,TRUE,FALSE,FALSE,"S234376910"
"50","whcpig2","White-crowned Pigeon","Patagioenas leucocephala","L44239630","1791 Bogie Dr, Big Pine Key US-FL 24.69755, -81.34853","2025-05-07 18:40",3,24.697548,-81.348531,TRUE,FALSE,TRUE,"S235189448"
"51","whcpig2","White-crowned Pigeon","Patagioenas leucocephala","L44375666","Fairfield Inn, Key West FL","2025-05-07 18:34",2,24.56257,-81.775814,TRUE,FALSE,TRUE,"S234508812"
"52","whcpig2","White-crowned Pigeon","Patagioenas leucocephala","L44340080","Auto selected 24.65760, -81.28921","2025-05-07 08:12",6,24.657598,-81.289215,TRUE,FALSE,TRUE,"S234302985"
"53","whcpig2","White-crowned Pigeon","Patagioenas leucocephala","L127445","Bahia Honda SP","2025-05-07 08:05",2,24.6602308,-81.2735188,TRUE,FALSE,FALSE,"S234374640"
"54","whcpig2","White-crowned Pigeon","Patagioenas leucocephala","L44282653","Dry Tortugas Ferry last return leg to land 24.64480, -81.90487","2025-05-06 16:59",4,24.644801,-81.904872,TRUE,FALSE,TRUE,"S233970355"
"55","whcpig2","White-crowned Pigeon","Patagioenas leucocephala","L582127","Crane Point Museums & Nature Center","2025-05-06 13:55",2,24.7168565,-81.0751104,TRUE,FALSE,FALSE,"S233962730"
"56","whcpig2","White-crowned Pigeon","Patagioenas leucocephala","L38749912","Black Creek Trail","2025-05-06 10:26",1,25.5422276,-80.330548,TRUE,FALSE,FALSE,"S233945945"
"57","whcpig2","White-crowned Pigeon","Patagioenas leucocephala","L44240551","1313–1399 Fifth St, Key West US-FL 24.55874, -81.77716","2025-05-06 06:47",1,24.558744,-81.777163,TRUE,FALSE,TRUE,"S233723847"
"58","whcpig2","White-crowned Pigeon","Patagioenas leucocephala","L11895979","Fran Ford White Crown Pigeon Preserve","2025-05-05 18:55",2,24.5572879,-81.7691677,TRUE,FALSE,FALSE,"S233639587"
"59","whcpig2","White-crowned Pigeon","Patagioenas leucocephala","L2086427","Islamorada, 79971 Overseas Highway","2025-05-05 18:42",2,24.89974,-80.65512,TRUE,FALSE,TRUE,"S233618891"
"60","whcpig2","White-crowned Pigeon","Patagioenas leucocephala","L44227045","1890 North Roosevelt Boulevard, Key West, Florida, US (24.56, -81.784)","2025-05-05 18:20",1,24.559654,-81.7838471,TRUE,FALSE,TRUE,"S233656065"
"61","whcpig2","White-crowned Pigeon","Patagioenas leucocephala","L44184408","5533 Sunset Marina Road, Key West, Florida, US (24.578, -81.75)","2025-05-05 09:15",1,24.5779889,-81.749881,TRUE,FALSE,TRUE,"S233418160"
"62","whcpig2","White-crowned Pigeon","Patagioenas leucocephala","L44226982","Dry Tortugas Ferry near Key West","2025-05-05 08:02",1,24.5635843,-81.8057837,TRUE,FALSE,TRUE,"S233655718"
"63","whcpig2","White-crowned Pigeon","Patagioenas leucocephala","L44226901","Walk To Dry Tortugas Ferry","2025-05-05 06:35",2,24.5614782,-81.7985188,TRUE,FALSE,TRUE,"S233655249"
"64","whcpig2","White-crowned Pigeon","Patagioenas leucocephala","L406487","Marathon Government Center","2025-05-04 19:00",1,24.711388,-81.09767,TRUE,FALSE,FALSE,"S233233481"
"65","whcpig2","White-crowned Pigeon","Patagioenas leucocephala","L44154740","3009 Flagler Avenue, Key West, Florida, US (24.561, -81.768)","2025-05-04 18:50",1,24.5605013,-81.7681213,TRUE,FALSE,TRUE,"S233262395"
"66","whcpig2","White-crowned Pigeon","Patagioenas leucocephala","L7476221","Islamorada--Bayside Marina","2025-05-04 17:55",40,24.914903,-80.639573,TRUE,FALSE,FALSE,"S233218601"
"67","whcpig2","White-crowned Pigeon","Patagioenas leucocephala","L3113960","Teatable Key Channel","2025-05-04 17:53",2,24.8975701,-80.6602478,TRUE,FALSE,FALSE,"S233218141"
"68","whcpig2","White-crowned Pigeon","Patagioenas leucocephala","L10537185","Ramrod Key","2025-05-04 16:32",1,24.6590898,-81.4142505,TRUE,FALSE,FALSE,"S233214043"
"69","whcpig2","White-crowned Pigeon","Patagioenas leucocephala","L44137762","1445 South Roosevelt Boulevard, Key West, Florida, US (24.567, -81.751)","2025-05-04 14:30",1,24.5668343,-81.7511055,TRUE,FALSE,TRUE,"S233166194"
"70","whcpig2","White-crowned Pigeon","Patagioenas leucocephala","L11139652","Key West NWR (restricted access)--unnamed Key","2025-05-04 11:00",1,24.56595,-81.917773,TRUE,FALSE,FALSE,"S233163011"
"71","whcpig2","White-crowned Pigeon","Patagioenas leucocephala","L10102650","Fountainebleau Trail and surrounding areas","2025-05-04 10:45",4,25.7714125,-80.3489392,TRUE,FALSE,FALSE,"S233048880"
"72","whcpig2","White-crowned Pigeon","Patagioenas leucocephala","L301855","Saddlebunch Keys","2025-05-04 08:17",6,24.5977,-81.58338,TRUE,FALSE,FALSE,"S233848623"
"73","whcpig2","White-crowned Pigeon","Patagioenas leucocephala","L36718212","Otter Mound Preserve","2025-05-04 07:44",2,25.9116723,-81.698485,TRUE,FALSE,TRUE,"S232899407"
"74","whcpig2","White-crowned Pigeon","Patagioenas leucocephala","L9161054","100 Grinnell Street, Key West, Florida, US (24.563, -81.799)","2025-05-04 06:37",2,24.5629833,-81.7989719,TRUE,FALSE,TRUE,"S232844917"
