"","speciesCode","comName","sciName","locId","locName","obsDt","howMany","lat","lng","obsValid","obsReviewed","locationPrivate","subId"
"1","chwwid","Chuck-will's-widow","Antrostomus carolinensis","L35164167","Horse","2025-05-29 10:37",1,32.38674,-80.490235,TRUE,FALSE,TRUE,"S244177262"
"2","chwwid","Chuck-will's-widow","Antrostomus carolinensis","L130800","Pea Island NWR--North Pond","2025-05-29 09:10",1,35.7175756,-75.4985794,TRUE,FALSE,FALSE,"S244171228"
"3","chwwid","Chuck-will's-widow","Antrostomus carolinensis","L2123281","Lakeview Dr. Pond","2025-05-29 08:10",1,33.9509818,-83.2770954,TRUE,FALSE,FALSE,"S244124293"
"4","chwwid","Chuck-will's-widow","Antrostomus carolinensis","L1317521","Fort Macon SP--Beach","2025-05-29 06:53",1,34.6937795,-76.6793346,TRUE,FALSE,FALSE,"S244113902"
"5","chwwid","Chuck-will's-widow","Antrostomus carolinensis","L124353","Huntington Beach SP","2025-05-29 06:28",1,33.5083,-79.0659,TRUE,FALSE,FALSE,"S244158305"
"6","chwwid","Chuck-will's-widow","Antrostomus carolinensis","L802970","Fort Cavazos--Four Corners area (Limited access)","2025-05-29 06:17",3,31.198119,-97.8528214,TRUE,FALSE,FALSE,"S244132125"
"7","chwwid","Chuck-will's-widow","Antrostomus carolinensis","L199461","Lake Woodruff NWR","2025-05-29 06:00",2,29.1092685,-81.3752445,TRUE,FALSE,FALSE,"S244170950"
"8","chwwid","Chuck-will's-widow","Antrostomus carolinensis","L17635948","Main house","2025-05-29 05:58",1,34.397927,-97.552678,TRUE,FALSE,TRUE,"S244101794"
"9","chwwid","Chuck-will's-widow","Antrostomus carolinensis","L34910226","Cabin","2025-05-29 05:56",1,32.806531,-95.18831,TRUE,FALSE,TRUE,"S244110478"
"10","chwwid","Chuck-will's-widow","Antrostomus carolinensis","L36150499","RESTRICTED ACCESS, Artillery Road, Hopkins, South Carolina, US (34.019, -80.793)","2025-05-29 05:51",1,34.0190549,-80.7929158,TRUE,FALSE,TRUE,"S244095985"
"11","chwwid","Chuck-will's-widow","Antrostomus carolinensis","L17455148","346 Goshen Swainton Rd, Cape May Court House US-NJ 39.13274, -74.83037","2025-05-29 05:41",1,39.132741,-74.830374,TRUE,FALSE,TRUE,"S244232803"
"12","chwwid","Chuck-will's-widow","Antrostomus carolinensis","L44828945","Kellum SE - 28546, Jacksonville US-NC (34.7811,-77.3018)","2025-05-29 05:35",1,34.781119,-77.301835,TRUE,FALSE,TRUE,"S244259633"
"13","chwwid","Chuck-will's-widow","Antrostomus carolinensis","L46299682","Holly Ridge CE, 385–499 Old Landing Rd, Hampstead US-NC 34.45074, -77.54675","2025-05-29 05:32",2,34.450743,-77.546751,TRUE,FALSE,TRUE,"S244238447"
"14","chwwid","Chuck-will's-widow","Antrostomus carolinensis","L46239770","Hilton Vacation Club Mystic Dunes Orlando","2025-05-29 05:30",1,28.316904,-81.603929,TRUE,FALSE,TRUE,"S244255522"
"15","chwwid","Chuck-will's-widow","Antrostomus carolinensis","L44829402","Kellum SE - 28546, Jacksonville US-NC (34.7783,-77.2977)","2025-05-29 05:23",2,34.778279,-77.297705,TRUE,FALSE,TRUE,"S244258710"
"16","chwwid","Chuck-will's-widow","Antrostomus carolinensis","L45946611","Pecan Rd.","2025-05-29 05:18",2,30.4434529,-88.4237464,TRUE,FALSE,FALSE,"S244117647"
"17","chwwid","Chuck-will's-widow","Antrostomus carolinensis","L35877012","Marion Road","2025-05-29 05:17",6,33.0938497,-80.4659272,TRUE,FALSE,TRUE,"S244088017"
"18","chwwid","Chuck-will's-widow","Antrostomus carolinensis","L7385364","605 Jay Hutchings Rd, Sparta US-TN (35.9582,-85.6644)","2025-05-29 05:12",1,35.958227,-85.664364,TRUE,FALSE,TRUE,"S244095580"
"19","chwwid","Chuck-will's-widow","Antrostomus carolinensis","L29055650","Baker Home","2025-05-29 05:11",1,35.1822166,-86.1897659,TRUE,FALSE,TRUE,"S244082449"
"20","chwwid","Chuck-will's-widow","Antrostomus carolinensis","L713009","Chickamauga and Chattanooga NMP","2025-05-29 05:04",3,34.922534,-85.2530479,TRUE,FALSE,FALSE,"S244096677"
"21","chwwid","Chuck-will's-widow","Antrostomus carolinensis","L38561256","170 Flatwoods Loop, Davenport US-FL 28.21252, -81.65168","2025-05-29 05:04",1,28.212516,-81.65168,TRUE,FALSE,TRUE,"S244081640"
"22","chwwid","Chuck-will's-widow","Antrostomus carolinensis","L41119475","1757 Walker Trail, Pigeon Forge, Tennessee, US (35.79, -83.512)","2025-05-29 05:00",1,35.7903388,-83.5121242,TRUE,FALSE,TRUE,"S244084193"
"23","chwwid","Chuck-will's-widow","Antrostomus carolinensis","L46268480","11582 Skyline Dr, Marion US-IL 37.76263, -88.98126","2025-05-29 04:53",1,37.762635,-88.981259,TRUE,FALSE,TRUE,"S244088200"
"24","chwwid","Chuck-will's-widow","Antrostomus carolinensis","L46256943","405 Plantation Road, Gulf Shores, Alabama, US (30.233, -87.887)","2025-05-28 23:40",1,30.2327344,-87.8871432,TRUE,FALSE,TRUE,"S244037105"
"25","chwwid","Chuck-will's-widow","Antrostomus carolinensis","L4524477","Saugalock Forest Reserve  (Private Property - limited access by written permit only)","2025-05-28 23:29",1,32.6363392,-85.5903947,TRUE,FALSE,FALSE,"S244039281"
"26","chwwid","Chuck-will's-widow","Antrostomus carolinensis","L127435","Everglades NP--Coe Visitor Center (Miami-Dade)","2025-05-28 23:10",2,25.3944,-80.5843,TRUE,FALSE,FALSE,"S244340753"
"27","chwwid","Chuck-will's-widow","Antrostomus carolinensis","L43228847","Pine Crest View Dr, Moncks Corner US-SC 33.13368, -80.11435","2025-05-28 22:29",1,33.133677,-80.114349,TRUE,FALSE,TRUE,"S244024392"
"28","chwwid","Chuck-will's-widow","Antrostomus carolinensis","L46254299","1525 West, Dugger, Indiana, US (38.996, -87.23)","2025-05-28 21:45",2,38.9960395,-87.2298116,TRUE,FALSE,TRUE,"S244024170"
"29","chwwid","Chuck-will's-widow","Antrostomus carolinensis","L862053","Greene-Sullivan SF (Greene Co.)","2025-05-28 21:44",2,39.003949,-87.2293896,TRUE,FALSE,FALSE,"S244238939"
"30","chwwid","Chuck-will's-widow","Antrostomus carolinensis","L9146711","HOME in Auburn, AL 36832","2025-05-28 21:43",1,32.5263439,-85.5318616,TRUE,FALSE,TRUE,"S244033118"
"31","chwwid","Chuck-will's-widow","Antrostomus carolinensis","L46105721","684 Garvin Rd, Summerville US-GA 34.44887, -85.44819","2025-05-28 21:42",1,34.448868,-85.44819,TRUE,FALSE,TRUE,"S244018662"
"32","chwwid","Chuck-will's-widow","Antrostomus carolinensis","L8185614","1589 Klugh Road, Abbeville, South Carolina, US (34.238, -82.283)","2025-05-28 21:39",1,34.238316,-82.283087,TRUE,FALSE,TRUE,"S244018871"
"33","chwwid","Chuck-will's-widow","Antrostomus carolinensis","L9154267","FM 674, Pinon Ranch Gate","2025-05-28 21:24",2,29.6059954,-100.4202707,TRUE,FALSE,TRUE,"S244024591"
"34","chwwid","Chuck-will's-widow","Antrostomus carolinensis","L43357583","South Tibwin Trail, McClellanville US-SC 33.06799, -79.51753","2025-05-28 21:08",1,33.067986,-79.517534,TRUE,FALSE,TRUE,"S244012860"
"35","chwwid","Chuck-will's-widow","Antrostomus carolinensis","L46280665","8623 Fortune Bend Road, Graford, Texas, US (32.828, -98.399)","2025-05-28 21:07",2,32.8284537,-98.3991604,TRUE,FALSE,TRUE,"S244150973"
"36","chwwid","Chuck-will's-widow","Antrostomus carolinensis","L46312046","867–923 W 600 N, Lake Village US-IN (41.0864,-87.4166)","2025-05-28 21:07",1,41.086383,-87.416595,TRUE,TRUE,TRUE,"S244295200"
"37","chwwid","Chuck-will's-widow","Antrostomus carolinensis","L46251867","512 Sandbucket Arch, Corolla US-NC 36.29400, -75.80090","2025-05-28 21:06",NA,36.294,-75.800895,TRUE,FALSE,TRUE,"S244012225"
"38","chwwid","Chuck-will's-widow","Antrostomus carolinensis","L46077779","Campsoundside","2025-05-28 21:02",1,34.5728151,-77.2702696,TRUE,FALSE,TRUE,"S244012085"
"39","chwwid","Chuck-will's-widow","Antrostomus carolinensis","L40278538","159 Mt Shadow Ln, Benton US-TN 35.16934, -84.61414","2025-05-28 20:59",2,35.16934,-84.614138,TRUE,FALSE,TRUE,"S244010556"
"40","chwwid","Chuck-will's-widow","Antrostomus carolinensis","L12445104","home","2025-05-28 20:56",2,34.6996803,-83.4722977,TRUE,FALSE,TRUE,"S244010933"
"41","chwwid","Chuck-will's-widow","Antrostomus carolinensis","L5966119","Kiawah Island--Marsh Island Park","2025-05-28 20:51",2,32.6213762,-80.065012,TRUE,FALSE,FALSE,"S244010676"
"42","chwwid","Chuck-will's-widow","Antrostomus carolinensis","L7131777","Lakewood Ranch Blvd N","2025-05-28 20:51",2,27.3733819,-82.4319863,TRUE,FALSE,TRUE,"S244013223"
"43","chwwid","Chuck-will's-widow","Antrostomus carolinensis","L45028959","home","2025-05-28 20:48",NA,30.2914352,-95.5556016,TRUE,FALSE,TRUE,"S244019395"
"44","chwwid","Chuck-will's-widow","Antrostomus carolinensis","L5946246","Sullivan's Island Nature Trail","2025-05-28 20:45",6,32.7572884,-79.8519874,TRUE,FALSE,FALSE,"S244020523"
"45","chwwid","Chuck-will's-widow","Antrostomus carolinensis","L7839150","Penny's Place (Private Property)","2025-05-28 20:39",1,33.5349883,-80.2953838,TRUE,FALSE,TRUE,"S244006274"
"46","chwwid","Chuck-will's-widow","Antrostomus carolinensis","L46250465","Main Park Rd, Homestead US-FL 25.22547, -80.83461","2025-05-28 20:34",1,25.225471,-80.834613,TRUE,FALSE,TRUE,"S244005357"
"47","chwwid","Chuck-will's-widow","Antrostomus carolinensis","L36265497","Cooks Pond Rd, Windsor US-SC 33.41202, -81.58429","2025-05-28 20:33",2,33.412017,-81.584294,TRUE,FALSE,TRUE,"S244015942"
"48","chwwid","Chuck-will's-widow","Antrostomus carolinensis","L1777889","Cape Hatteras--WWII British Sailor Cemetery","2025-05-28 20:32",3,35.248076,-75.532764,TRUE,FALSE,TRUE,"S244013791"
"49","chwwid","Chuck-will's-widow","Antrostomus carolinensis","L11545940","721 Ghost Hollow, Dadeville, Alabama, US (32.697, -85.906)","2025-05-28 20:10",1,32.6971554,-85.9056209,TRUE,FALSE,TRUE,"S244012646"
"50","chwwid","Chuck-will's-widow","Antrostomus carolinensis","L24478182","Compass Pointe","2025-05-28 20:10",2,34.283578,-78.10525,TRUE,FALSE,TRUE,"S244011206"
"51","chwwid","Chuck-will's-widow","Antrostomus carolinensis","L11599454","Union Camp","2025-05-28 19:43",1,30.4961044,-87.8117944,TRUE,FALSE,TRUE,"S244009160"
"52","chwwid","Chuck-will's-widow","Antrostomus carolinensis","L677310","Robinson Preserve","2025-05-28 19:07",1,27.5167212,-82.6700163,TRUE,FALSE,FALSE,"S244006327"
"53","chwwid","Chuck-will's-widow","Antrostomus carolinensis","L4490191","Samantha Circle","2025-05-28 08:07",1,35.256123,-91.773761,TRUE,FALSE,TRUE,"S243850272"
"54","chwwid","Chuck-will's-widow","Antrostomus carolinensis","L8632323","Second Kolomoki Road","2025-05-28 08:00",1,31.4528388,-84.9111684,TRUE,FALSE,TRUE,"S243798335"
"55","chwwid","Chuck-will's-widow","Antrostomus carolinensis","L11374335","Fort Cavazos--South Lake Shore off Nolan Creek rd. (Restricted Access)","2025-05-28 08:00",6,31.1539967,-97.5784969,TRUE,FALSE,FALSE,"S243948298"
"56","chwwid","Chuck-will's-widow","Antrostomus carolinensis","L2504623","Mason Co.--James Crossing (of Llano R.)","2025-05-28 06:52",1,30.6495426,-99.2494583,TRUE,FALSE,FALSE,"S243761164"
"57","chwwid","Chuck-will's-widow","Antrostomus carolinensis","L130786","Dinosaur Valley SP (PPW-W 055)","2025-05-28 06:44",2,32.2561684,-97.8172989,TRUE,FALSE,FALSE,"S243816576"
"58","chwwid","Chuck-will's-widow","Antrostomus carolinensis","L46204403","Trail 13, Lecanto, Florida, US (28.716, -82.418)","2025-05-28 06:15",1,28.7160394,-82.4183185,TRUE,FALSE,TRUE,"S243776971"
"59","chwwid","Chuck-will's-widow","Antrostomus carolinensis","L298002","Archbold Biological Station","2025-05-28 06:15",2,27.1830202,-81.3511848,TRUE,FALSE,FALSE,"S244075568"
"60","chwwid","Chuck-will's-widow","Antrostomus carolinensis","L34472700","Highlands at Tapatio","2025-05-28 06:13",2,29.790406,-98.805914,TRUE,FALSE,TRUE,"S243743960"
"61","chwwid","Chuck-will's-widow","Antrostomus carolinensis","L382873","Cedar Hill SP (PPW-W 090)","2025-05-28 06:03",1,32.6227136,-96.9800091,TRUE,FALSE,FALSE,"S243942811"
"62","chwwid","Chuck-will's-widow","Antrostomus carolinensis","L3389644","Leon Co- Home (Private)","2025-05-28 06:00",1,31.2831538,-96.0226268,TRUE,FALSE,TRUE,"S243954879"
"63","chwwid","Chuck-will's-widow","Antrostomus carolinensis","L718439","False Cape State Park","2025-05-28 05:58",1,36.6207,-75.894,TRUE,FALSE,FALSE,"S243911971"
"64","chwwid","Chuck-will's-widow","Antrostomus carolinensis","L890054","Three Lakes WMA--main unit","2025-05-28 05:54",1,27.9648401,-81.0294056,TRUE,FALSE,FALSE,"S244018861"
"65","chwwid","Chuck-will's-widow","Antrostomus carolinensis","L46211645","Wagram SE Old Maxton Rd, Red Springs US-NC 34.88562, -79.27676","2025-05-28 05:52",1,34.885624,-79.276763,TRUE,FALSE,TRUE,"S243814845"
"66","chwwid","Chuck-will's-widow","Antrostomus carolinensis","L973556","Francis Marion NF--Tibwin Plantation (fall and winter restricted access)","2025-05-28 05:50",1,33.070218,-79.5199871,TRUE,FALSE,FALSE,"S243771349"
"67","chwwid","Chuck-will's-widow","Antrostomus carolinensis","L24834899","100 Dove Plum Rd, Indian River Shores US-FL (27.7066,-80.3886)","2025-05-28 05:48",1,27.706645,-80.388633,TRUE,FALSE,TRUE,"S243724624"
"68","chwwid","Chuck-will's-widow","Antrostomus carolinensis","L1433887","Fort Sill MR--Ketch Lake (restricted access)","2025-05-28 05:42",1,34.7054771,-98.5937903,TRUE,FALSE,FALSE,"S243971461"
"69","chwwid","Chuck-will's-widow","Antrostomus carolinensis","L46211411","Wagram SE Old Maxton Rd, Red Springs US-NC 34.88979, -79.27406","2025-05-28 05:34",1,34.889791,-79.274063,TRUE,FALSE,TRUE,"S243813745"
"70","chwwid","Chuck-will's-widow","Antrostomus carolinensis","L46196106","Banding circuit 32653, Alachua US-FL (29.7772,-82.4177)","2025-05-28 05:30",1,29.777231,-82.41769,TRUE,FALSE,TRUE,"S243730351"
"71","chwwid","Chuck-will's-widow","Antrostomus carolinensis","L13483740","FTJK_CW2_6/12_EABL","2025-05-28 05:29",1,34.016188,-80.746095,TRUE,FALSE,TRUE,"S243722011"
"72","chwwid","Chuck-will's-widow","Antrostomus carolinensis","L46193969","1281–1499 Mazie's Ln, Pinnacle US-NC 36.37435, -80.39229","2025-05-28 05:23",1,36.374354,-80.39229,TRUE,FALSE,TRUE,"S243720997"
"73","chwwid","Chuck-will's-widow","Antrostomus carolinensis","L342579","Drury-Mincy CA","2025-05-28 05:19",1,36.572475,-93.0576667,TRUE,FALSE,FALSE,"S243730490"
"74","chwwid","Chuck-will's-widow","Antrostomus carolinensis","L46202920","Riley County WIHA","2025-05-28 05:15",5,39.2139153,-96.7002382,TRUE,FALSE,TRUE,"S243770545"
"75","chwwid","Chuck-will's-widow","Antrostomus carolinensis","L43277045","Wagram SE Old Maxton Rd, Red Springs US-NC 34.89940, -79.26941","2025-05-28 05:09",1,34.899403,-79.269414,TRUE,FALSE,TRUE,"S243811137"
"76","chwwid","Chuck-will's-widow","Antrostomus carolinensis","L46185875","1532 West Pleasant Run Road, DeSoto, Texas, US (32.604, -96.898)","2025-05-27 22:19",1,32.6038059,-96.8981282,TRUE,FALSE,TRUE,"S243683231"
"77","chwwid","Chuck-will's-widow","Antrostomus carolinensis","L38219822","Home LBP","2025-05-27 22:16",1,39.067255,-74.847358,TRUE,FALSE,TRUE,"S243682958"
"78","chwwid","Chuck-will's-widow","Antrostomus carolinensis","L20170233","V. Of H. L. Community","2025-05-27 21:47",3,29.3502214,-82.3574674,TRUE,FALSE,TRUE,"S243674810"
"79","chwwid","Chuck-will's-widow","Antrostomus carolinensis","L40909080","Coast Cottage","2025-05-27 21:26",1,30.462615,-89.058372,TRUE,FALSE,TRUE,"S243676635"
"80","chwwid","Chuck-will's-widow","Antrostomus carolinensis","L3365171","Home","2025-05-27 21:25",1,38.6947675,-75.300183,TRUE,FALSE,TRUE,"S243932291"
"81","chwwid","Chuck-will's-widow","Antrostomus carolinensis","L46185596","Culver’s parking lot","2025-05-27 21:22",1,33.70944,-96.593157,TRUE,FALSE,TRUE,"S243681869"
"82","chwwid","Chuck-will's-widow","Antrostomus carolinensis","L4995305","*Little Biscuit Mini Farm","2025-05-27 21:22",1,36.2688088,-82.3749518,TRUE,FALSE,TRUE,"S243666277"
"83","chwwid","Chuck-will's-widow","Antrostomus carolinensis","L870427","Indian Cave SP","2025-05-27 21:10",1,40.2669523,-95.5783081,TRUE,TRUE,FALSE,"S243734667"
"84","chwwid","Chuck-will's-widow","Antrostomus carolinensis","L46181947","Middleburg High School","2025-05-27 21:07",1,30.088902,-81.849665,TRUE,FALSE,TRUE,"S243663533"
"85","chwwid","Chuck-will's-widow","Antrostomus carolinensis","L46190914","Kankakee Sands Project Lot (CWWI spot)","2025-05-27 21:03",1,41.086616,-87.416769,TRUE,TRUE,TRUE,"S243708520"
"86","chwwid","Chuck-will's-widow","Antrostomus carolinensis","L30852956","Honeydew Ridge, San Antonio US-TX 29.47988, -98.75098","2025-05-27 21:00",1,29.47988,-98.750981,TRUE,FALSE,TRUE,"S243827733"
"87","chwwid","Chuck-will's-widow","Antrostomus carolinensis","L46181420","1004 E Arctic Ave","2025-05-27 20:54",1,32.6617858,-79.9207495,TRUE,FALSE,TRUE,"S243660919"
"88","chwwid","Chuck-will's-widow","Antrostomus carolinensis","L46183720","New Hope","2025-05-27 20:53",1,33.20956,-96.556807,TRUE,FALSE,TRUE,"S243672866"
"89","chwwid","Chuck-will's-widow","Antrostomus carolinensis","L333673","Hargrave Farm","2025-05-27 20:53",2,29.8178614,-82.3579656,TRUE,FALSE,TRUE,"S243660424"
"90","chwwid","Chuck-will's-widow","Antrostomus carolinensis","L2186063","Polk County Government Services Center","2025-05-27 20:45",1,28.0114902,-81.8087161,TRUE,FALSE,FALSE,"S243658909"
"91","chwwid","Chuck-will's-widow","Antrostomus carolinensis","L11486499","Communications Parkway","2025-05-27 20:39",3,27.3704963,-82.4300971,TRUE,FALSE,TRUE,"S243666180"
"92","chwwid","Chuck-will's-widow","Antrostomus carolinensis","L109136","Cape Island--South Cape May Meadows (SCMM)","2025-05-27 20:35",1,38.9359287,-74.9434519,TRUE,FALSE,FALSE,"S243660898"
"93","chwwid","Chuck-will's-widow","Antrostomus carolinensis","L15151668","114 North Brig Drive, Hampstead, North Carolina, US (34.446, -77.58)","2025-05-27 20:32",NA,34.4461805,-77.5796127,TRUE,FALSE,TRUE,"S243654907"
"94","chwwid","Chuck-will's-widow","Antrostomus carolinensis","L17694591","Sunset Strip","2025-05-27 20:28",1,35.236486,-75.6265512,TRUE,FALSE,TRUE,"S243668746"
"95","chwwid","Chuck-will's-widow","Antrostomus carolinensis","L4417082","Pioneer Ridge Nature Area","2025-05-27 20:24",1,40.9012525,-92.3955345,TRUE,TRUE,FALSE,"S243687144"
"96","chwwid","Chuck-will's-widow","Antrostomus carolinensis","L25069614","Preston Rd, Denison, TX","2025-05-27 20:24",2,33.702674,-96.622705,TRUE,FALSE,TRUE,"S243683544"
"97","chwwid","Chuck-will's-widow","Antrostomus carolinensis","L33933632","My Neighborhood","2025-05-27 20:14",1,30.256,-97.893476,TRUE,FALSE,TRUE,"S243667444"
"98","chwwid","Chuck-will's-widow","Antrostomus carolinensis","L11550819","Woodland (Home)","2025-05-27 20:09",1,35.083048,-88.531778,TRUE,FALSE,TRUE,"S243663600"
"99","chwwid","Chuck-will's-widow","Antrostomus carolinensis","L148719","Mississippi Sandhill Crane NWR--Gautier Unit","2025-05-27 20:08",1,30.4509674,-88.6558056,TRUE,FALSE,FALSE,"S243674415"
"100","chwwid","Chuck-will's-widow","Antrostomus carolinensis","L365397","Cape Hatteras NS--Buxton Woods Trail","2025-05-27 20:07",4,35.252658,-75.533991,TRUE,FALSE,FALSE,"S243654438"
"101","chwwid","Chuck-will's-widow","Antrostomus carolinensis","L481406","Nauset Light Beach, Eastham","2025-05-27 19:50",1,41.8586304,-69.9517322,TRUE,TRUE,FALSE,"S243672266"
"102","chwwid","Chuck-will's-widow","Antrostomus carolinensis","L1144745","Fort Supply Reservoir","2025-05-27 19:32",1,36.5388811,-99.5780182,TRUE,FALSE,FALSE,"S243676493"
"103","chwwid","Chuck-will's-widow","Antrostomus carolinensis","L33345197","15582 SH-63, Hodgen US-OK 34.64384, -94.54534","2025-05-27 18:36",2,34.643843,-94.545335,TRUE,FALSE,TRUE,"S243793975"
"104","chwwid","Chuck-will's-widow","Antrostomus carolinensis","L17054844","Club Med Sandpiper Bay","2025-05-27 17:45",1,27.2442997,-80.3119469,TRUE,FALSE,FALSE,"S243669824"
"105","chwwid","Chuck-will's-widow","Antrostomus carolinensis","L963352","Box Tree Marsh","2025-05-27 16:30",1,37.3947863,-75.8701873,TRUE,FALSE,FALSE,"S243655341"
"106","chwwid","Chuck-will's-widow","Antrostomus carolinensis","L127263","St. George Island SP","2025-05-27 14:28",1,29.7155,-84.7535,TRUE,FALSE,FALSE,"S243558173"
"107","chwwid","Chuck-will's-widow","Antrostomus carolinensis","L37522533","180 Shoreline Cir, Newnan US-GA 33.46352, -84.77124","2025-05-27 10:07",NA,33.463523,-84.77124,TRUE,FALSE,TRUE,"S243457732"
"108","chwwid","Chuck-will's-widow","Antrostomus carolinensis","L189812","Boca Ciega Millennium Park","2025-05-27 09:08",4,27.835564,-82.8115,TRUE,FALSE,FALSE,"S243661661"
"109","chwwid","Chuck-will's-widow","Antrostomus carolinensis","L127332","Fort De Soto Park","2025-05-27 07:07",2,27.6327266,-82.718157,TRUE,FALSE,FALSE,"S243411485"
"110","chwwid","Chuck-will's-widow","Antrostomus carolinensis","L11057909","560 Judson Church Road, Fayetteville, North Carolina, US (35.011, -78.816)","2025-05-27 07:00",NA,35.0106539,-78.8162482,TRUE,FALSE,TRUE,"S243674132"
"111","chwwid","Chuck-will's-widow","Antrostomus carolinensis","L631019","246 Forest Drive N","2025-05-27 06:03",1,30.6838353,-84.4567966,TRUE,FALSE,TRUE,"S243381844"
"112","chwwid","Chuck-will's-widow","Antrostomus carolinensis","L4959205","Bob's Yard","2025-05-27 05:50",1,31.351389,-84.923889,TRUE,FALSE,TRUE,"S243371306"
"113","chwwid","Chuck-will's-widow","Antrostomus carolinensis","L1891826","Barquero Ct","2025-05-27 05:50",1,29.9304806,-81.3371194,TRUE,FALSE,TRUE,"S244083126"
"114","chwwid","Chuck-will's-widow","Antrostomus carolinensis","L142170","Park Place","2025-05-27 05:50",2,29.8576916,-98.7555456,TRUE,FALSE,TRUE,"S243559642"
"115","chwwid","Chuck-will's-widow","Antrostomus carolinensis","L4633391","Swede Creek","2025-05-27 05:45",2,29.8743472,-98.5808802,TRUE,FALSE,TRUE,"S243577076"
"116","chwwid","Chuck-will's-widow","Antrostomus carolinensis","L43929035","Goldston SE 35.50248, -79.28218","2025-05-27 05:29",2,35.502485,-79.282182,TRUE,FALSE,TRUE,"S243643696"
"117","chwwid","Chuck-will's-widow","Antrostomus carolinensis","L46142245","Williams SE- 107–387 White Flash Rd, Mount Olive US-NC 35.13573, -77.92969","2025-05-27 05:22",1,35.135732,-77.929689,TRUE,FALSE,TRUE,"S243472159"
"118","chwwid","Chuck-will's-widow","Antrostomus carolinensis","L46151358","Gibson SE Elmore Rd, Laurinburg US-NC 34.78562, -79.52099","2025-05-27 05:22",1,34.785621,-79.520989,TRUE,FALSE,TRUE,"S243514009"
"119","chwwid","Chuck-will's-widow","Antrostomus carolinensis","L18257906","Liz and Jonathan","2025-05-27 05:17",1,32.77573,-97.50079,TRUE,FALSE,TRUE,"S243375934"
"120","chwwid","Chuck-will's-widow","Antrostomus carolinensis","L130765","Meridian SP (PPW-W 044)","2025-05-27 05:14",1,31.8922065,-97.6999569,TRUE,FALSE,FALSE,"S243375915"
"121","chwwid","Chuck-will's-widow","Antrostomus carolinensis","L2575543","Chase Trails","2025-05-27 05:10",1,35.1915922,-77.6598501,TRUE,FALSE,TRUE,"S243368797"
"122","chwwid","Chuck-will's-widow","Antrostomus carolinensis","L46165613","Mount Olive SE, 260–298 Pettifoot Rd, Mount Olive US-NC 35.13801, -78.01387","2025-05-27 05:10",1,35.138008,-78.01387,TRUE,FALSE,TRUE,"S243577645"
"123","chwwid","Chuck-will's-widow","Antrostomus carolinensis","L19785842","Collinwood BBS starting point","2025-05-27 05:08",1,35.160533,-87.685173,TRUE,FALSE,TRUE,"S243555436"
"124","chwwid","Chuck-will's-widow","Antrostomus carolinensis","L43153270","Gibson SE Elmore Rd, Laurinburg US-NC 34.78697, -79.51917","2025-05-27 05:04",1,34.786965,-79.519171,TRUE,FALSE,TRUE,"S243512929"
"125","chwwid","Chuck-will's-widow","Antrostomus carolinensis","L576431","CALH Travis and Karen's Place","2025-05-27 04:52",4,30.3990486,-85.1283574,TRUE,FALSE,TRUE,"S243505612"
"126","chwwid","Chuck-will's-widow","Antrostomus carolinensis","L275261","Stevens Street-yard","2025-05-26 23:08",1,38.9417118,-74.9477327,TRUE,FALSE,TRUE,"S243330248"
"127","chwwid","Chuck-will's-widow","Antrostomus carolinensis","L26745867","14 N Cove Estates Dr, Greenback US-TN 35.65465, -84.22457","2025-05-26 21:23",1,35.654652,-84.22457,TRUE,FALSE,TRUE,"S243308803"
"128","chwwid","Chuck-will's-widow","Antrostomus carolinensis","L38075078","(Home) 610 Green Meadows Lane, Ovilla, Texas, US (32.543, -96.9)","2025-05-26 21:05",1,32.5432546,-96.8997802,TRUE,FALSE,TRUE,"S243316844"
"129","chwwid","Chuck-will's-widow","Antrostomus carolinensis","L1141152","Deep Creek","2025-05-26 21:00",1,37.7699175,-75.7485797,TRUE,FALSE,FALSE,"S243305552"
"130","chwwid","Chuck-will's-widow","Antrostomus carolinensis","L14725386","3526 Monroe Cir, Gainesville US-GA 34.31167, -83.92843","2025-05-26 20:54",1,34.311674,-83.92843,TRUE,FALSE,TRUE,"S243301990"
"131","chwwid","Chuck-will's-widow","Antrostomus carolinensis","L127216","Cossatot River SP-Natural Area","2025-05-26 20:51",NA,34.3439,-94.2478,TRUE,FALSE,FALSE,"S243314430"
"132","chwwid","Chuck-will's-widow","Antrostomus carolinensis","L40560281","Piney Woods Church Road","2025-05-26 20:49",1,33.536,-84.735822,TRUE,TRUE,TRUE,"S243311086"
"133","chwwid","Chuck-will's-widow","Antrostomus carolinensis","L10308665","Big Branch Marsh NWR--boat/kayak launch","2025-05-26 20:45",2,30.2743814,-89.9128239,TRUE,FALSE,FALSE,"S243320345"
"134","chwwid","Chuck-will's-widow","Antrostomus carolinensis","L3889690","Sendero","2025-05-26 20:41",1,29.6708159,-98.4437936,TRUE,FALSE,TRUE,"S243312328"
"135","chwwid","Chuck-will's-widow","Antrostomus carolinensis","L16312333","Conley Residence","2025-05-26 20:37",NA,33.5372468,-81.5718727,TRUE,FALSE,TRUE,"S243296827"
"136","chwwid","Chuck-will's-widow","Antrostomus carolinensis","L1434657","Cape Henlopen SP-- Fishing Pier","2025-05-26 20:33",2,38.7887649,-75.1028513,TRUE,FALSE,FALSE,"S243781062"
"137","chwwid","Chuck-will's-widow","Antrostomus carolinensis","L4242258","Home","2025-05-26 20:19",1,31.2505616,-89.4091737,TRUE,FALSE,TRUE,"S243308863"
"138","chwwid","Chuck-will's-widow","Antrostomus carolinensis","L6605567","Napeague SP--Promised Land","2025-05-26 20:15",1,41.0020549,-72.0773506,TRUE,FALSE,FALSE,"S243312145"
"139","chwwid","Chuck-will's-widow","Antrostomus carolinensis","L14242835","Treasure Oaks Rd, Gulf Shores","2025-05-26 20:00",1,30.3031597,-87.7127629,TRUE,FALSE,TRUE,"S243314468"
"140","chwwid","Chuck-will's-widow","Antrostomus carolinensis","L795114","Grand Bay NWR/NERR--Coastal Resources Center","2025-05-26 19:45",1,30.4295677,-88.4276783,TRUE,FALSE,FALSE,"S243302181"
"141","chwwid","Chuck-will's-widow","Antrostomus carolinensis","L46109295","Auto selected 38.19087, -75.15926","2025-05-26 19:44",4,38.190867,-75.159263,TRUE,FALSE,TRUE,"S243302578"
"142","chwwid","Chuck-will's-widow","Antrostomus carolinensis","L12752918","Firecreek Stables","2025-05-26 19:05",1,30.1597099,-95.8230438,TRUE,FALSE,TRUE,"S243326068"
"143","chwwid","Chuck-will's-widow","Antrostomus carolinensis","L34624186","102 Five Oaks Lane","2025-05-26 17:10",2,33.4046811,-88.9299505,TRUE,FALSE,TRUE,"S243518346"
"144","chwwid","Chuck-will's-widow","Antrostomus carolinensis","L46089842","8660 Blue Ridge Dr, Blue Ridge US-GA 34.88709, -84.34204","2025-05-26 16:30",1,34.887088,-84.342039,TRUE,FALSE,TRUE,"S243201041"
"145","chwwid","Chuck-will's-widow","Antrostomus carolinensis","L46090248","Mercier Orchards","2025-05-26 16:24",1,34.8869816,-84.3420486,TRUE,FALSE,TRUE,"S243202957"
"146","chwwid","Chuck-will's-widow","Antrostomus carolinensis","L9724054","Boykin Mill Pond (limited access)","2025-05-26 13:52",1,34.1336919,-80.5766569,TRUE,FALSE,FALSE,"S243485342"
"147","chwwid","Chuck-will's-widow","Antrostomus carolinensis","L19382519","The Forest House","2025-05-26 12:02",1,34.1211919,-80.8415379,TRUE,FALSE,TRUE,"S243202873"
"148","chwwid","Chuck-will's-widow","Antrostomus carolinensis","L36658936","Seminole State Park","2025-05-26 09:22",1,30.802001,-84.872011,TRUE,FALSE,TRUE,"S242948402"
"149","chwwid","Chuck-will's-widow","Antrostomus carolinensis","L1265319","Cape Henlopen SP--The Point","2025-05-26 09:18",1,38.8000272,-75.092376,TRUE,FALSE,FALSE,"S243121148"
"150","chwwid","Chuck-will's-widow","Antrostomus carolinensis","L504106","Assateague I. NS--Life of the Forest","2025-05-26 09:04",1,38.1979474,-75.1578355,TRUE,FALSE,FALSE,"S242995096"
"151","chwwid","Chuck-will's-widow","Antrostomus carolinensis","L34243357","Real swing location","2025-05-26 08:36",1,34.032522,-85.230761,TRUE,FALSE,TRUE,"S242933469"
"152","chwwid","Chuck-will's-widow","Antrostomus carolinensis","L11399677","82 Connecticut Way, Cameron, North Carolina, US (35.269, -79.081)","2025-05-26 07:35",1,35.2686487,-79.0814657,TRUE,FALSE,TRUE,"S243303135"
"153","chwwid","Chuck-will's-widow","Antrostomus carolinensis","L9266367","Cape Island - Foster Home","2025-05-26 07:30",1,38.9639402,-74.9329309,TRUE,FALSE,TRUE,"S243304103"
"154","chwwid","Chuck-will's-widow","Antrostomus carolinensis","L10964471","560 Moss Rock Circle, Warrior, Alabama, US (33.906, -86.823)","2025-05-26 07:14",1,33.9064793,-86.8228137,TRUE,FALSE,TRUE,"S243043412"
"155","chwwid","Chuck-will's-widow","Antrostomus carolinensis","L12482423","5517 Silverbell Court, Pensacola, Florida, US (30.523, -87.352)","2025-05-26 06:45",1,30.5230787,-87.3521875,TRUE,FALSE,TRUE,"S242906465"
"156","chwwid","Chuck-will's-widow","Antrostomus carolinensis","L1433885","Fort Sill MR--Camp Eagle (restricted access)","2025-05-26 06:12",4,34.6681778,-98.6241044,TRUE,FALSE,FALSE,"S243303963"
"157","chwwid","Chuck-will's-widow","Antrostomus carolinensis","L2828146","Triple N Ranch WMA","2025-05-26 06:11",2,28.1307024,-81.0206187,TRUE,FALSE,FALSE,"S243289810"
"158","chwwid","Chuck-will's-widow","Antrostomus carolinensis","L21680516","Chinquapin House","2025-05-26 06:10",1,29.580652,-98.709173,TRUE,FALSE,TRUE,"S242871142"
"159","chwwid","Chuck-will's-widow","Antrostomus carolinensis","L22578669","Dunkleburg","2025-05-26 06:06",1,34.8276363,-83.0292546,TRUE,FALSE,TRUE,"S242855215"
"160","chwwid","Chuck-will's-widow","Antrostomus carolinensis","L21805240","Redman Rd. Yard","2025-05-26 06:01",2,35.3752815,-84.8771825,TRUE,FALSE,TRUE,"S242852931"
"161","chwwid","Chuck-will's-widow","Antrostomus carolinensis","L21347686","Private property. Exact location not given.","2025-05-26 06:00",1,29.7961485,-82.8668627,TRUE,FALSE,TRUE,"S243296568"
"162","chwwid","Chuck-will's-widow","Antrostomus carolinensis","L46050721","Peachtree Rock Road","2025-05-26 06:00",1,33.8432848,-81.2005308,TRUE,FALSE,TRUE,"S243030246"
"163","chwwid","Chuck-will's-widow","Antrostomus carolinensis","L2970530","Pinhoti Trail--Pocket Recreation Area","2025-05-26 06:00",1,34.585171,-85.0844765,TRUE,FALSE,FALSE,"S243037952"
"164","chwwid","Chuck-will's-widow","Antrostomus carolinensis","L2347930","Leakey Hacienda - Private residence","2025-05-26 05:59",1,29.719161,-99.781596,TRUE,FALSE,TRUE,"S243320531"
"165","chwwid","Chuck-will's-widow","Antrostomus carolinensis","L11075574","1501 E Wedgewood Ln, Hernando US-FL 28.92714, -82.40979","2025-05-26 05:55",1,28.927141,-82.409785,TRUE,FALSE,TRUE,"S242849917"
"166","chwwid","Chuck-will's-widow","Antrostomus carolinensis","L46101038","3563–3599 George Parrot Rd, McRae Helena US-GA (32.1747,-82.9530)","2025-05-26 05:54",5,32.17466,-82.953029,TRUE,FALSE,TRUE,"S243256876"
"167","chwwid","Chuck-will's-widow","Antrostomus carolinensis","L23849774","126 Ridgeway Rd, Winnfield US-LA 31.91570, -92.68233","2025-05-26 05:52",1,31.915701,-92.682331,TRUE,FALSE,TRUE,"S242866064"
"168","chwwid","Chuck-will's-widow","Antrostomus carolinensis","L26912155","Tram Road Lake Wales Ridge SF","2025-05-26 05:49",12,27.6534966,-81.3965061,TRUE,FALSE,TRUE,"S242955175"
"169","chwwid","Chuck-will's-widow","Antrostomus carolinensis","L2683108","Lynches River County Park","2025-05-26 05:48",2,34.0413849,-79.787693,TRUE,FALSE,FALSE,"S242853796"
"170","chwwid","Chuck-will's-widow","Antrostomus carolinensis","L1305502","Smith Beach Morgantown","2025-05-26 05:47",2,30.232671,-87.9191208,TRUE,FALSE,TRUE,"S243635000"
"171","chwwid","Chuck-will's-widow","Antrostomus carolinensis","L5623149","Richloam Clay Sink Road","2025-05-26 05:44",5,28.4949954,-82.1073532,TRUE,FALSE,FALSE,"S242913942"
"172","chwwid","Chuck-will's-widow","Antrostomus carolinensis","L21848223","South Moon Under Murphy Residence","2025-05-26 05:42",3,29.907178,-84.357822,TRUE,FALSE,TRUE,"S242847463"
"173","chwwid","Chuck-will's-widow","Antrostomus carolinensis","L13608902","OK Corral and Spa","2025-05-26 05:38",3,26.994512,-81.888328,TRUE,FALSE,TRUE,"S242847108"
"174","chwwid","Chuck-will's-widow","Antrostomus carolinensis","L6177456","Home, FM","2025-05-26 05:30",2,38.1525068,-90.4023263,TRUE,FALSE,TRUE,"S243316277"
"175","chwwid","Chuck-will's-widow","Antrostomus carolinensis","L26337480","Ridge Avenue (PRIVATE)  Egg Harbor Township, New Jersey, US","2025-05-26 05:00",2,39.3916815,-74.5791339,TRUE,FALSE,TRUE,"S243308381"
"176","chwwid","Chuck-will's-widow","Antrostomus carolinensis","L197353","Sandy Hook","2025-05-26 04:45",1,40.4392518,-73.9869263,TRUE,FALSE,FALSE,"S242976729"
"177","chwwid","Chuck-will's-widow","Antrostomus carolinensis","L549641","Cape May Airport","2025-05-26 04:28",2,39.0047433,-74.908432,TRUE,FALSE,FALSE,"S242836167"
"178","chwwid","Chuck-will's-widow","Antrostomus carolinensis","L14528310","Home","2025-05-26 04:00",1,27.351753,-82.42545,TRUE,FALSE,TRUE,"S242832037"
"179","chwwid","Chuck-will's-widow","Antrostomus carolinensis","L42828541","874 Carnes Crossing Blvd, Goose Creek US-SC 33.05730, -80.11167","2025-05-26 03:57",2,33.057303,-80.111666,TRUE,FALSE,TRUE,"S242831589"
"180","chwwid","Chuck-will's-widow","Antrostomus carolinensis","L46099119","600 N","2025-05-26 02:20",1,41.0864526,-87.4228807,TRUE,TRUE,TRUE,"S243248335"
"181","chwwid","Chuck-will's-widow","Antrostomus carolinensis","L1448233","Cape Hatteras NS--Cape Point Campground","2025-05-25 23:22",2,35.235561,-75.5388383,TRUE,FALSE,FALSE,"S242800363"
"182","chwwid","Chuck-will's-widow","Antrostomus carolinensis","L46006019","Florida Lanai","2025-05-25 22:38",1,26.312222,-81.822625,TRUE,FALSE,TRUE,"S242794452"
"183","chwwid","Chuck-will's-widow","Antrostomus carolinensis","L46005008","490 Daisy Ln, Barnwell US-SC 33.21032, -81.43456","2025-05-25 22:11",1,33.21032,-81.434562,TRUE,FALSE,TRUE,"S242789740"
"184","chwwid","Chuck-will's-widow","Antrostomus carolinensis","L46007337","2115 Hamilton Rd, Lynx US-OH (38.7631,-83.3879)","2025-05-25 21:30",1,38.763067,-83.387852,TRUE,FALSE,TRUE,"S242800584"
"185","chwwid","Chuck-will's-widow","Antrostomus carolinensis","L42969690","1589 Klugh Road, Abbeville, South Carolina, US (34.239, -82.283)","2025-05-25 21:01",1,34.2387369,-82.2825753,TRUE,FALSE,TRUE,"S242777426"
"186","chwwid","Chuck-will's-widow","Antrostomus carolinensis","L3725277","Green Mountain Road","2025-05-25 21:01",1,34.604449,-86.5213148,TRUE,FALSE,TRUE,"S242789520"
"187","chwwid","Chuck-will's-widow","Antrostomus carolinensis","L3914364","Cabin Pt. Creek (pvt)","2025-05-25 21:00",2,38.1426699,-76.6696143,TRUE,FALSE,TRUE,"S242776115"
"188","chwwid","Chuck-will's-widow","Antrostomus carolinensis","L10987728","335 Little Choestoea Road","2025-05-25 21:00",1,34.5678188,-83.0654234,TRUE,FALSE,TRUE,"S242788963"
"189","chwwid","Chuck-will's-widow","Antrostomus carolinensis","L19483779","Lofers East","2025-05-25 20:58",1,31.892365,-97.349738,TRUE,FALSE,TRUE,"S242787266"
"190","chwwid","Chuck-will's-widow","Antrostomus carolinensis","L27001926","105 Amherst Dr, Harbinger US-NC 36.10403, -75.81987","2025-05-25 20:58",1,36.104031,-75.819872,TRUE,FALSE,TRUE,"S242773646"
"191","chwwid","Chuck-will's-widow","Antrostomus carolinensis","L45170076","362 Tegner Creek Rd, Hunt US-TX 30.04917, -99.32847","2025-05-25 20:57",1,30.049169,-99.328471,TRUE,FALSE,TRUE,"S242787195"
"192","chwwid","Chuck-will's-widow","Antrostomus carolinensis","L12545725","Cabin","2025-05-25 20:53",2,29.942864,-97.373274,TRUE,FALSE,TRUE,"S242787098"
"193","chwwid","Chuck-will's-widow","Antrostomus carolinensis","L46001192","Mom and Dads","2025-05-25 20:52",1,33.8135452,-85.1708832,TRUE,FALSE,TRUE,"S242772077"
"194","chwwid","Chuck-will's-widow","Antrostomus carolinensis","L46001257","700–734 Dial Creek Rd, Elgin US-SC (34.1223,-80.8438)","2025-05-25 20:51",1,34.122323,-80.843846,TRUE,FALSE,TRUE,"S242771466"
"195","chwwid","Chuck-will's-widow","Antrostomus carolinensis","L23468990","Backyard","2025-05-25 20:50",1,30.404924,-86.862737,TRUE,FALSE,TRUE,"S242785794"
"196","chwwid","Chuck-will's-widow","Antrostomus carolinensis","L18140723","Bluebird Lane","2025-05-25 20:50",1,37.1632177,-78.4398158,TRUE,FALSE,TRUE,"S242770955"
"197","chwwid","Chuck-will's-widow","Antrostomus carolinensis","L342604","Rocky Fork Lakes CA","2025-05-25 20:49",4,39.0781778,-92.3066944,TRUE,FALSE,FALSE,"S242792828"
"198","chwwid","Chuck-will's-widow","Antrostomus carolinensis","L12466844","157 Northwest Pompano Court, Lake City, Florida, US (30.247, -82.723)","2025-05-25 20:41",1,30.2467528,-82.7234785,TRUE,FALSE,TRUE,"S242768244"
"199","chwwid","Chuck-will's-widow","Antrostomus carolinensis","L45796404","2526 Whitehouse Parkway, Warm Springs, Georgia, US (32.872, -84.676)","2025-05-25 20:39",1,32.8715187,-84.6762752,TRUE,FALSE,TRUE,"S242771642"
"200","chwwid","Chuck-will's-widow","Antrostomus carolinensis","L682915","Edge of Appalachia Preserve--Portman Trail and Rieveschl Overlook","2025-05-25 20:37",2,38.748396,-83.4636,TRUE,FALSE,FALSE,"S243487862"
"201","chwwid","Chuck-will's-widow","Antrostomus carolinensis","L36160513","Brightwater- Palisades","2025-05-25 20:36",1,35.0793859,-81.0244844,TRUE,FALSE,TRUE,"S242766888"
"202","chwwid","Chuck-will's-widow","Antrostomus carolinensis","L903314","Laura S. Walker SP","2025-05-25 20:35",1,31.1412764,-82.2145557,TRUE,FALSE,FALSE,"S242782588"
"203","chwwid","Chuck-will's-widow","Antrostomus carolinensis","L17196211","133 Sunshine Drive, Sparta, Georgia, US (33.216, -83.247)","2025-05-25 20:34",1,33.2163832,-83.2470747,TRUE,FALSE,TRUE,"S242766201"
"204","chwwid","Chuck-will's-widow","Antrostomus carolinensis","L6512910","299 Duck Rd","2025-05-25 20:31",1,36.1402228,-75.7376286,TRUE,FALSE,FALSE,"S242764474"
"205","chwwid","Chuck-will's-widow","Antrostomus carolinensis","L35058708","Palma Sola Botanical Park","2025-05-25 20:30",1,27.5140411,-82.6605677,TRUE,FALSE,FALSE,"S242766065"
"206","chwwid","Chuck-will's-widow","Antrostomus carolinensis","L19623055","Hunting Island SP--Campground Road/Campground","2025-05-25 20:30",2,32.3858647,-80.4337262,TRUE,FALSE,FALSE,"S242764789"
"207","chwwid","Chuck-will's-widow","Antrostomus carolinensis","L985868","Milford Neck Wildlife Area--Big Stone Beach Rd.","2025-05-25 20:29",2,38.9970942,-75.3590012,TRUE,FALSE,FALSE,"S242877547"
"208","chwwid","Chuck-will's-widow","Antrostomus carolinensis","L860027","Pine Island Audubon Sanctuary and Center","2025-05-25 20:26",1,36.2615078,-75.7911479,TRUE,FALSE,FALSE,"S242762952"
"209","chwwid","Chuck-will's-widow","Antrostomus carolinensis","L159289","Chincoteague NWR--Swan Cove","2025-05-25 20:24",1,37.8941,-75.3485,TRUE,FALSE,FALSE,"S242784613"
"210","chwwid","Chuck-will's-widow","Antrostomus carolinensis","L504111","Assateague I. NS--Life of the Dunes","2025-05-25 20:14",2,38.1906284,-75.1593912,TRUE,FALSE,FALSE,"S242772023"
"211","chwwid","Chuck-will's-widow","Antrostomus carolinensis","L1232681","Cape Hatteras NS--Frisco Campground","2025-05-25 20:11",1,35.2369266,-75.6036186,TRUE,FALSE,FALSE,"S243072558"
"212","chwwid","Chuck-will's-widow","Antrostomus carolinensis","L280834","Walsingham Park","2025-05-25 19:55",5,27.8763584,-82.8090332,TRUE,FALSE,FALSE,"S242770995"
"213","chwwid","Chuck-will's-widow","Antrostomus carolinensis","L1048236","Pinehurst Lake","2025-05-25 19:40",2,35.1678306,-79.4902468,TRUE,FALSE,FALSE,"S243281235"
"214","chwwid","Chuck-will's-widow","Antrostomus carolinensis","L16910114","Professional Drive","2025-05-25 19:32",1,27.3831831,-82.43606,TRUE,FALSE,TRUE,"S242770227"
"215","chwwid","Chuck-will's-widow","Antrostomus carolinensis","L34461331","Michaux SF--Piney Mtn./Bendersville Rd. Area","2025-05-25 19:21",1,40.0183499,-77.2956033,TRUE,TRUE,FALSE,"S242773279"
"216","chwwid","Chuck-will's-widow","Antrostomus carolinensis","L271730","Coden Belt Road","2025-05-25 19:16",1,30.3708242,-88.2249057,TRUE,FALSE,FALSE,"S242759605"
"217","chwwid","Chuck-will's-widow","Antrostomus carolinensis","L4510385","Croatan NF--National Forest Rd from Perrytown Rd to County Line Rd","2025-05-25 19:05",1,35.0460895,-77.0675468,TRUE,FALSE,FALSE,"S242781092"
"218","chwwid","Chuck-will's-widow","Antrostomus carolinensis","L46040739","7569 EW 148 Rd, Allen US-OK 34.86882, -96.32283","2025-05-25 19:03",1,34.868821,-96.322827,TRUE,FALSE,TRUE,"S242978374"
"219","chwwid","Chuck-will's-widow","Antrostomus carolinensis","L520408","Lynch Farm","2025-05-25 19:01",1,36.1967027,-77.8811789,TRUE,FALSE,TRUE,"S242766708"
"220","chwwid","Chuck-will's-widow","Antrostomus carolinensis","L4010294","Cary SF--Monticello Tract","2025-05-25 18:50",6,30.4031736,-81.8512813,TRUE,FALSE,FALSE,"S242800859"
"221","chwwid","Chuck-will's-widow","Antrostomus carolinensis","L22976489","Wichita Mtns Wildlife Refuge--Boulder Cabin","2025-05-25 18:36",1,34.7017241,-98.6754959,TRUE,FALSE,FALSE,"S242768978"
"222","chwwid","Chuck-will's-widow","Antrostomus carolinensis","L34348560","325 Japonica Dr, Midway US-GA 31.70376, -81.28239","2025-05-25 17:27",1,31.703758,-81.282387,TRUE,FALSE,TRUE,"S242710927"
"223","chwwid","Chuck-will's-widow","Antrostomus carolinensis","L109133","Edwin B. Forsythe NWR (formerly Brig)","2025-05-25 16:26",3,39.465,-74.4477778,TRUE,FALSE,FALSE,"S242864005"
"224","chwwid","Chuck-will's-widow","Antrostomus carolinensis","L33658834","Christy Property 8005 E 139th St, Grandview US-MO 38.87066, -94.50141","2025-05-25 09:30",1,38.870659,-94.501413,TRUE,FALSE,TRUE,"S242455929"
"225","chwwid","Chuck-will's-widow","Antrostomus carolinensis","L45916580","4473 Kent Creek Rd, Leakey US-TX 29.88032, -99.81370","2025-05-25 08:00",1,29.880325,-99.813696,TRUE,FALSE,TRUE,"S242393335"
"226","chwwid","Chuck-will's-widow","Antrostomus carolinensis","L27892046","Chumuckla Springs Boat Ramp Road","2025-05-25 07:45",1,30.829531,-87.2978058,TRUE,FALSE,FALSE,"S242806037"
"227","chwwid","Chuck-will's-widow","Antrostomus carolinensis","L3242960","Withers 3","2025-05-25 06:24",1,30.9550209,-82.8836417,TRUE,FALSE,TRUE,"S243046518"
"228","chwwid","Chuck-will's-widow","Antrostomus carolinensis","L46085744","31525, Brunswick US-GA 31.25882, -81.29973","2025-05-25 06:21",1,31.258821,-81.299731,TRUE,FALSE,TRUE,"S243182034"
"229","chwwid","Chuck-will's-widow","Antrostomus carolinensis","L45902419","58 Watson Creek Rd, Andrews US-NC 35.22907, -83.71580","2025-05-25 06:19",1,35.22907,-83.715797,TRUE,FALSE,TRUE,"S242318423"
"230","chwwid","Chuck-will's-widow","Antrostomus carolinensis","L29872422","401 South Mount Juliet Road, Providence Marketplace Area. Juliet, Tennessee, US (36.164, -86.509)","2025-05-25 06:13",1,36.163963,-86.5090591,TRUE,FALSE,TRUE,"S242878372"
"231","chwwid","Chuck-will's-widow","Antrostomus carolinensis","L18942989","Auto selected 38.20878, -75.16491","2025-05-25 06:10",1,38.208782,-75.164906,TRUE,FALSE,TRUE,"S242347642"
"232","chwwid","Chuck-will's-widow","Antrostomus carolinensis","L45901175","668 Pacolet Street, Saluda, North Carolina, US (35.219, -82.355)","2025-05-25 06:03",1,35.2193749,-82.3546023,TRUE,FALSE,TRUE,"S242313432"
"233","chwwid","Chuck-will's-widow","Antrostomus carolinensis","L1439093","Hal Scott Regional Preserve and Park","2025-05-25 06:03",3,28.486186,-81.1079327,TRUE,FALSE,FALSE,"S242474865"
"234","chwwid","Chuck-will's-widow","Antrostomus carolinensis","L30216583","451 School Bus Road, Frostproof, Florida, US (27.697, -81.434)","2025-05-25 06:02",4,27.6969931,-81.4338832,TRUE,FALSE,TRUE,"S242381681"
"235","chwwid","Chuck-will's-widow","Antrostomus carolinensis","L8646914","Travelers Rest Circle","2025-05-25 06:00",1,38.7514734,-76.1316719,TRUE,FALSE,TRUE,"S243067615"
"236","chwwid","Chuck-will's-widow","Antrostomus carolinensis","L41929089","Colon SE (35.5133,-79.1540)","2025-05-25 05:59",1,35.513343,-79.153999,TRUE,FALSE,TRUE,"S242774911"
"237","chwwid","Chuck-will's-widow","Antrostomus carolinensis","L737123","BBS 25-061 01","2025-05-25 05:57",2,30.5192333,-83.2153333,TRUE,FALSE,TRUE,"S242622479"
"238","chwwid","Chuck-will's-widow","Antrostomus carolinensis","L7484220","Callahan County - Cottonwood BBS Start","2025-05-25 05:55",2,32.219513,-99.272914,TRUE,FALSE,TRUE,"S243219207"
"239","chwwid","Chuck-will's-widow","Antrostomus carolinensis","L717998","Balcones Canyonlands NWR--Doeskin Ranch","2025-05-25 05:54",2,30.6190048,-98.0728912,TRUE,FALSE,FALSE,"S242341158"
"240","chwwid","Chuck-will's-widow","Antrostomus carolinensis","L45914445","South Llano River State Park, Junction US-TX (30.4326,-99.7904)","2025-05-25 05:52",1,30.432645,-99.790437,TRUE,FALSE,TRUE,"S242381329"
"241","chwwid","Chuck-will's-widow","Antrostomus carolinensis","L4321791","Grace Bible Church","2025-05-25 05:48",1,27.0210991,-82.1423346,TRUE,FALSE,TRUE,"S242311670"
"242","chwwid","Chuck-will's-widow","Antrostomus carolinensis","L5960335","Phroso BBS Route Stops 1-10 (BBS Route: 67-129)","2025-05-25 05:44",8,36.1875659,-98.9105313,TRUE,FALSE,TRUE,"S242650772"
"243","chwwid","Chuck-will's-widow","Antrostomus carolinensis","L925095","Beaver Dunes SP","2025-05-25 05:35",1,36.8380382,-100.5143452,TRUE,FALSE,FALSE,"S242414440"
"244","chwwid","Chuck-will's-widow","Antrostomus carolinensis","L2812473","Allen's Creek Rd.","2025-05-25 05:27",2,39.0297436,-86.4364815,TRUE,FALSE,TRUE,"S242739860"
"245","chwwid","Chuck-will's-widow","Antrostomus carolinensis","L6195889","Gulf Park Estates Neighborhood","2025-05-25 05:20",2,30.3666078,-88.7624073,TRUE,FALSE,TRUE,"S242420764"
"246","chwwid","Chuck-will's-widow","Antrostomus carolinensis","L480138","Janes Island State Park","2025-05-25 05:17",4,38.0128338,-75.8459616,TRUE,FALSE,FALSE,"S242768419"
"247","chwwid","Chuck-will's-widow","Antrostomus carolinensis","L1030273","James River NWR (restricted access)","2025-05-25 05:14",1,37.281702,-77.1177578,TRUE,FALSE,FALSE,"S242754013"
"248","chwwid","Chuck-will's-widow","Antrostomus carolinensis","L7488928","BBS-Calebee Route 02-065 STOP 03","2025-05-25 05:13",1,32.4222222,-85.8683333,TRUE,FALSE,TRUE,"S242579751"
"249","chwwid","Chuck-will's-widow","Antrostomus carolinensis","L600803","Trinity River Audubon Center","2025-05-25 05:12",1,32.7036507,-96.7053106,TRUE,FALSE,FALSE,"S242324402"
"250","chwwid","Chuck-will's-widow","Antrostomus carolinensis","L7488927","BBS-Calebee Route 02-065 STOP 02","2025-05-25 05:08",1,32.4283333,-85.8683333,TRUE,FALSE,TRUE,"S242579750"
"251","chwwid","Chuck-will's-widow","Antrostomus carolinensis","L25005078","Maryland Point Rd, Nanjemoy","2025-05-25 04:57",1,38.4070442,-77.2004619,TRUE,FALSE,TRUE,"S242407398"
"252","chwwid","Chuck-will's-widow","Antrostomus carolinensis","L31990189","12240 Mason Ferry Road, Wilmer, Alabama, US (30.921, -88.333)","2025-05-25 04:56",6,30.9206908,-88.3330793,TRUE,FALSE,TRUE,"S242323319"
"253","chwwid","Chuck-will's-widow","Antrostomus carolinensis","L3577681","Burrs Mill Road","2025-05-25 04:51",1,39.9067735,-74.6623135,TRUE,TRUE,FALSE,"S242387806"
"254","chwwid","Chuck-will's-widow","Antrostomus carolinensis","L46010154","Beasley Fork Rd, West Union US-OH 38.73920, -83.47069","2025-05-25 04:02",1,38.739199,-83.470693,TRUE,FALSE,TRUE,"S242814702"
"255","chwwid","Chuck-will's-widow","Antrostomus carolinensis","L45971841","26204 Monitor Lane, Salvo, North Carolina, US (35.553, -75.469)","2025-05-25 03:43",1,35.5527936,-75.4687682,TRUE,FALSE,TRUE,"S242637091"
"256","chwwid","Chuck-will's-widow","Antrostomus carolinensis","L6344524","Backyard Carolina","2025-05-25 01:00",2,34.2701048,-78.0954919,TRUE,FALSE,TRUE,"S242856985"
"257","chwwid","Chuck-will's-widow","Antrostomus carolinensis","L45889858","Dragon Run State Forest (37.70825, -76.80814)","2025-05-25 00:30",1,37.70825,-76.80814,TRUE,FALSE,TRUE,"S242267111"
"258","chwwid","Chuck-will's-widow","Antrostomus carolinensis","L1804056","Red Bank Road & Boat Ramp","2025-05-25 00:15",2,37.4457835,-75.839889,TRUE,FALSE,FALSE,"S242757633"
"259","chwwid","Chuck-will's-widow","Antrostomus carolinensis","L714074","Dividing Creek--Maple Ave.","2025-05-25 00:04",1,39.2640317,-75.1109591,TRUE,FALSE,FALSE,"S242262771"
"260","chwwid","Chuck-will's-widow","Antrostomus carolinensis","L3707317","Mistletoe SP","2025-05-24 23:24",7,33.6429691,-82.3850933,TRUE,FALSE,FALSE,"S242270363"
"261","chwwid","Chuck-will's-widow","Antrostomus carolinensis","L3926886","Ray Roberts Lake SP--Johnson Branch Unit","2025-05-24 23:14",2,33.426912,-97.055694,TRUE,FALSE,FALSE,"S242263453"
"262","chwwid","Chuck-will's-widow","Antrostomus carolinensis","L45889728","Union Hope Road","2025-05-24 23:00",4,37.74919,-76.7918,TRUE,FALSE,TRUE,"S242266760"
"263","chwwid","Chuck-will's-widow","Antrostomus carolinensis","L45887357","7200–7864 E Allens Creek Rd, Bloomington US-IN (39.0343,-86.4096)","2025-05-24 22:53",1,39.034344,-86.409637,TRUE,FALSE,TRUE,"S242255420"
"264","chwwid","Chuck-will's-widow","Antrostomus carolinensis","L6047576","Cliffs Vista Parkway","2025-05-24 22:47",2,34.870362,-82.8615475,TRUE,FALSE,TRUE,"S242254932"
"265","chwwid","Chuck-will's-widow","Antrostomus carolinensis","L4249835","US-GA-Forsyth-31029 - Hallscreekfarm","2025-05-24 22:27",1,32.993332,-83.921566,TRUE,FALSE,TRUE,"S242250092"
"266","chwwid","Chuck-will's-widow","Antrostomus carolinensis","L628828","Home","2025-05-24 22:23",1,34.9335611,-82.3222109,TRUE,FALSE,TRUE,"S242250027"
"267","chwwid","Chuck-will's-widow","Antrostomus carolinensis","L10886321","Wildway Rd, Gladstone US-VA 37.48742, -78.81054","2025-05-24 21:28",1,37.487416,-78.810535,TRUE,FALSE,TRUE,"S242239437"
"268","chwwid","Chuck-will's-widow","Antrostomus carolinensis","L45886038","1651 West Sherman Drive, Aubrey, Texas, US (33.3, -97.007)","2025-05-24 21:24",1,33.2996722,-97.0073632,TRUE,FALSE,TRUE,"S242249632"
"269","chwwid","Chuck-will's-widow","Antrostomus carolinensis","L3295019","Payton Rd. - yard","2025-05-24 21:20",1,30.400011,-84.0093827,TRUE,FALSE,TRUE,"S242245186"
"270","chwwid","Chuck-will's-widow","Antrostomus carolinensis","L698436","Chesapeake Forest--Puckum Road","2025-05-24 21:18",1,38.6122514,-75.797083,TRUE,FALSE,FALSE,"S242239324"
"271","chwwid","Chuck-will's-widow","Antrostomus carolinensis","L1550830","Bracken Cave Preserve","2025-05-24 21:18",1,29.6851727,-98.3504623,TRUE,FALSE,FALSE,"S242249823"
"272","chwwid","Chuck-will's-widow","Antrostomus carolinensis","L45885760","Dara Ranch","2025-05-24 21:16",4,32.333132,-98.152135,TRUE,FALSE,TRUE,"S242248521"
"273","chwwid","Chuck-will's-widow","Antrostomus carolinensis","L45885953","Auto selected 36.81203, -99.14170","2025-05-24 21:15",1,36.812031,-99.141698,TRUE,FALSE,TRUE,"S242249274"
"274","chwwid","Chuck-will's-widow","Antrostomus carolinensis","L4653374","Buncombe - Lakewood Manor","2025-05-24 21:09",3,33.883928,-96.780318,TRUE,FALSE,TRUE,"S242250553"
"275","chwwid","Chuck-will's-widow","Antrostomus carolinensis","L31220761","Chicken Creek Arch Park","2025-05-24 21:09",1,38.8520912,-95.3439581,TRUE,FALSE,FALSE,"S242250620"
"276","chwwid","Chuck-will's-widow","Antrostomus carolinensis","L34985865","Dara Ranch","2025-05-24 21:06",3,32.33325,-98.151956,TRUE,FALSE,TRUE,"S242246580"
"277","chwwid","Chuck-will's-widow","Antrostomus carolinensis","L45976894","Camp house","2025-05-24 21:00",1,31.600766,-95.293306,TRUE,FALSE,TRUE,"S242657706"
"278","chwwid","Chuck-will's-widow","Antrostomus carolinensis","L760369","Morales Yard,  Loretta Dr., Mandeville La","2025-05-24 20:59",1,30.3874991,-90.0007296,TRUE,FALSE,TRUE,"S242246366"
"279","chwwid","Chuck-will's-widow","Antrostomus carolinensis","L13834026","8475 Boykin Bridge Road, Clinton, North Carolina, US (34.91, -78.41)","2025-05-24 20:58",1,34.9096186,-78.4100874,TRUE,FALSE,TRUE,"S242231196"
"280","chwwid","Chuck-will's-widow","Antrostomus carolinensis","L19773294","Sea Oats Trail, Southern Shores","2025-05-24 20:57",1,36.139401,-75.740668,TRUE,FALSE,TRUE,"S242230594"
"281","chwwid","Chuck-will's-widow","Antrostomus carolinensis","L335811","Assateague Island","2025-05-24 20:54",1,37.8872945,-75.3440039,TRUE,FALSE,FALSE,"S242230374"
"282","chwwid","Chuck-will's-widow","Antrostomus carolinensis","L46079072","Edwards Sandy Ranch","2025-05-24 20:53",2,30.3517117,-96.7134662,TRUE,FALSE,TRUE,"S243157281"
"283","chwwid","Chuck-will's-widow","Antrostomus carolinensis","L45886350","7823 Mt Olive Church Rd, Snow Hill US-MD (38.2681,-75.4707)","2025-05-24 20:49",1,38.268126,-75.470656,TRUE,FALSE,TRUE,"S242251012"
"284","chwwid","Chuck-will's-widow","Antrostomus carolinensis","L45884626","Private Road 8335, Woodville, Texas, US (30.802, -94.303)","2025-05-24 20:49",1,30.8022076,-94.3025203,TRUE,FALSE,TRUE,"S242243507"
"285","chwwid","Chuck-will's-widow","Antrostomus carolinensis","L11169362","5 Shadow Creek Ln, Stillwater US-OK 36.09731, -97.12436","2025-05-24 20:49",1,36.097312,-97.124364,TRUE,FALSE,TRUE,"S242243922"
"286","chwwid","Chuck-will's-widow","Antrostomus carolinensis","L15381080","Grahn","2025-05-24 20:45",1,38.28368,-83.07519,TRUE,FALSE,TRUE,"S243577085"
"287","chwwid","Chuck-will's-widow","Antrostomus carolinensis","L490924","Nassawango Creek--Mt. Olive Church (TNC)","2025-05-24 20:44",1,38.2621086,-75.4619122,TRUE,FALSE,FALSE,"S242250569"
"288","chwwid","Chuck-will's-widow","Antrostomus carolinensis","L45880947","50 Pine Shadow Pkwy, Jacksonville US-FL 30.10543, -81.43879","2025-05-24 20:44",2,30.10543,-81.438794,TRUE,FALSE,TRUE,"S242226878"
"289","chwwid","Chuck-will's-widow","Antrostomus carolinensis","L45888821","Rockcrest and Tarvin New Hope US-TX (33.2096,-96.5566)","2025-05-24 20:44",1,33.209626,-96.556628,TRUE,FALSE,TRUE,"S242262022"
"290","chwwid","Chuck-will's-widow","Antrostomus carolinensis","L45880769","542 New England Rd, Cape May US-NJ 38.95949, -74.95243","2025-05-24 20:41",3,38.959487,-74.952428,TRUE,FALSE,TRUE,"S242225928"
"291","chwwid","Chuck-will's-widow","Antrostomus carolinensis","L5722127","US-TN-Knoxville-5907 Burnett Creek Rd - 35.9376x-83.8490","2025-05-24 20:40",1,35.937563,-83.848999,TRUE,FALSE,TRUE,"S242245408"
"292","chwwid","Chuck-will's-widow","Antrostomus carolinensis","L8826647","Cypress Cove (restricted access)","2025-05-24 20:40",1,26.5044414,-81.9173873,TRUE,FALSE,TRUE,"S242250809"
"293","chwwid","Chuck-will's-widow","Antrostomus carolinensis","L23853039","Home","2025-05-24 20:39",1,38.301787,-76.580721,TRUE,FALSE,TRUE,"S242224620"
"294","chwwid","Chuck-will's-widow","Antrostomus carolinensis","L24205066","190 Sunrise Ct","2025-05-24 20:34",3,37.977053,-76.497085,TRUE,FALSE,TRUE,"S242223321"
"295","chwwid","Chuck-will's-widow","Antrostomus carolinensis","L726478","Leavenworth Barrens (TNC)","2025-05-24 20:34",2,38.2106864,-86.3294131,TRUE,FALSE,FALSE,"S242239084"
"296","chwwid","Chuck-will's-widow","Antrostomus carolinensis","L45880221","15 Fiddlers Pt, Saint Helena Island US-SC 32.33404, -80.47279","2025-05-24 20:34",1,32.334042,-80.472785,TRUE,FALSE,TRUE,"S242223253"
"297","chwwid","Chuck-will's-widow","Antrostomus carolinensis","L45881278","5901–5999 Thomas Ct, Columbia US-SC 34.01205, -80.91912","2025-05-24 20:33",1,34.012051,-80.919124,TRUE,FALSE,TRUE,"S242228692"
"298","chwwid","Chuck-will's-widow","Antrostomus carolinensis","L14496893","785 Tart Town Road, Dunn, North Carolina, US (35.275, -78.43)","2025-05-24 20:30",1,35.2745472,-78.4302254,TRUE,FALSE,TRUE,"S242229195"
"299","chwwid","Chuck-will's-widow","Antrostomus carolinensis","L12172632","S Yew Terrace","2025-05-24 20:30",1,28.7420283,-82.3018471,TRUE,FALSE,TRUE,"S243796558"
"300","chwwid","Chuck-will's-widow","Antrostomus carolinensis","L3136558","Silver Bluff Audubon-Kathwood Ponds","2025-05-24 20:27",2,33.3388465,-81.8434668,TRUE,FALSE,FALSE,"S242292384"
"301","chwwid","Chuck-will's-widow","Antrostomus carolinensis","L45881688","The Reserve Golf Club, Murrells Inlet US-SC 33.49561, -79.10072","2025-05-24 20:20",6,33.495612,-79.100715,TRUE,FALSE,TRUE,"S242230671"
"302","chwwid","Chuck-will's-widow","Antrostomus carolinensis","L1435277","Lake Stanley Draper","2025-05-24 20:15",1,35.33663,-97.3513003,TRUE,FALSE,FALSE,"S243316044"
"303","chwwid","Chuck-will's-widow","Antrostomus carolinensis","L11371534","Daniel Boone Home NHS","2025-05-24 20:14",3,38.652528,-90.853186,TRUE,FALSE,FALSE,"S242245605"
"304","chwwid","Chuck-will's-widow","Antrostomus carolinensis","L30964472","Jordan Game Land--Transis Camp Power Line & Trails ONLY","2025-05-24 20:10",2,35.859583,-78.985623,TRUE,FALSE,FALSE,"S242230930"
"305","chwwid","Chuck-will's-widow","Antrostomus carolinensis","L3918708","River","2025-05-24 20:09",1,33.667354,-86.1757064,TRUE,FALSE,TRUE,"S243668612"
"306","chwwid","Chuck-will's-widow","Antrostomus carolinensis","L1164172","Jordan Game Land--Transis Camp Rd (general area)","2025-05-24 19:22",2,35.8607105,-78.9901479,TRUE,FALSE,FALSE,"S242227352"
"307","chwwid","Chuck-will's-widow","Antrostomus carolinensis","L20425963","230 Hidden Valley Rd, Salisbury US-NC 35.73354, -80.50617","2025-05-24 19:19",1,35.733536,-80.506174,TRUE,FALSE,TRUE,"S242226132"
"308","chwwid","Chuck-will's-widow","Antrostomus carolinensis","L19608731","Big Ridge SP--Big Ridge Lake","2025-05-24 19:18",2,36.2459759,-83.9305041,TRUE,FALSE,FALSE,"S242253903"
"309","chwwid","Chuck-will's-widow","Antrostomus carolinensis","L29406413","1061–Neighbors property1091 CR-202, Abbeville US-MS (34.4978,-89.3532)","2025-05-24 19:11",2,34.497792,-89.353187,TRUE,FALSE,TRUE,"S242234062"
"310","chwwid","Chuck-will's-widow","Antrostomus carolinensis","L2073467","Salt Plains NWR--Eagle Roost Nature Trail","2025-05-24 19:04",1,36.783717,-98.18573,TRUE,FALSE,FALSE,"S242237965"
"311","chwwid","Chuck-will's-widow","Antrostomus carolinensis","L39806092","762 Marlin Spike Drive, Pensacola, Florida, US (30.339, -87.352)","2025-05-24 17:53",1,30.3390165,-87.3518712,TRUE,FALSE,TRUE,"S242187450"
"312","chwwid","Chuck-will's-widow","Antrostomus carolinensis","L41906059","Backyard","2025-05-24 11:09",1,31.229708,-81.451586,TRUE,FALSE,TRUE,"S241968950"
"313","chwwid","Chuck-will's-widow","Antrostomus carolinensis","L26272540","Oak Hills Golf Club","2025-05-24 10:28",1,34.109314,-81.038358,TRUE,FALSE,TRUE,"S242063184"
"314","chwwid","Chuck-will's-widow","Antrostomus carolinensis","L3709285","Lakeshore Park--Gupton Wetland","2025-05-24 09:18",1,35.9254092,-84.5149461,TRUE,FALSE,FALSE,"S242019592"
"315","chwwid","Chuck-will's-widow","Antrostomus carolinensis","L8631104","Prairie Crossroads","2025-05-24 08:00",1,36.3923748,-96.1448765,TRUE,FALSE,TRUE,"S242254523"
"316","chwwid","Chuck-will's-widow","Antrostomus carolinensis","L6515666","Hershey Ranch (private)","2025-05-24 07:30",NA,30.201001,-98.6408329,TRUE,FALSE,FALSE,"S242601526"
"317","chwwid","Chuck-will's-widow","Antrostomus carolinensis","L27731494","Back deck","2025-05-24 07:30",1,34.693005,-76.869175,TRUE,FALSE,TRUE,"S241865784"
"318","chwwid","Chuck-will's-widow","Antrostomus carolinensis","L31673968","Blok Yard (2021-present)","2025-05-24 07:25",1,30.2506432,-97.8245606,TRUE,FALSE,TRUE,"S241867548"
"319","chwwid","Chuck-will's-widow","Antrostomus carolinensis","L45823102","Susan Hamilton’s friends (Mark and Jane property)","2025-05-24 07:19",3,33.759505,-80.768127,TRUE,FALSE,TRUE,"S241984500"
"320","chwwid","Chuck-will's-widow","Antrostomus carolinensis","L45804605","Little Trout Creek","2025-05-24 06:40",1,30.464147,-86.398762,TRUE,FALSE,TRUE,"S241899504"
"321","chwwid","Chuck-will's-widow","Antrostomus carolinensis","L10698732","Fort Cavazos--Central Live Fire (Limited Access)","2025-05-24 06:18",1,31.2649368,-97.7212442,TRUE,FALSE,FALSE,"S242412694"
"322","chwwid","Chuck-will's-widow","Antrostomus carolinensis","L45795593","321 Linton Bellevue Rd, Benton US-LA 32.68525, -93.57588","2025-05-24 06:17",1,32.685251,-93.575876,TRUE,FALSE,TRUE,"S241852818"
"323","chwwid","Chuck-will's-widow","Antrostomus carolinensis","L39781749","322 Airport Rd, Slocomb US-AL 31.11225, -85.61551","2025-05-24 06:08",2,31.112252,-85.615506,TRUE,FALSE,TRUE,"S241865904"
"324","chwwid","Chuck-will's-widow","Antrostomus carolinensis","L45802946","Frostproof, Florida, US (27.687, -81.436). Lake Godwin Road To Lake Arbuckle Camp Site, Along The Lake, To McClean Cabin, And Back To Lake.","2025-05-24 06:07",5,27.6874564,-81.4358184,TRUE,FALSE,TRUE,"S241891298"
"325","chwwid","Chuck-will's-widow","Antrostomus carolinensis","L45887664","Lost Maples Campground","2025-05-24 06:06",1,29.810653,-99.573587,TRUE,FALSE,TRUE,"S242256666"
"326","chwwid","Chuck-will's-widow","Antrostomus carolinensis","L43414907","Tom’s place","2025-05-24 06:03",1,31.774639,-98.245593,TRUE,FALSE,TRUE,"S241834894"
"327","chwwid","Chuck-will's-widow","Antrostomus carolinensis","L5465139","felkel and vicinity","2025-05-24 06:00",3,30.5982299,-84.1173303,TRUE,FALSE,TRUE,"S243670959"
"328","chwwid","Chuck-will's-widow","Antrostomus carolinensis","L922739","Tazewell BBS route - first 10 stops","2025-05-24 06:00",1,32.3152724,-84.5635593,TRUE,FALSE,TRUE,"S243455869"
"329","chwwid","Chuck-will's-widow","Antrostomus carolinensis","L45827102","Lake Robinson Rd.- Chesterfield","2025-05-24 06:00",2,34.482516,-80.134076,TRUE,FALSE,TRUE,"S242000726"
"330","chwwid","Chuck-will's-widow","Antrostomus carolinensis","L20938493","107 Overlook Dr, Pickens US-SC 34.92679, -82.65198","2025-05-24 05:59",1,34.926787,-82.651982,TRUE,FALSE,TRUE,"S241813026"
"331","chwwid","Chuck-will's-widow","Antrostomus carolinensis","L1023805","North River Farms (permission required)","2025-05-24 05:55",1,34.7672108,-76.5368986,TRUE,FALSE,FALSE,"S241953696"
"332","chwwid","Chuck-will's-widow","Antrostomus carolinensis","L291307","Newport Park","2025-05-24 05:51",3,30.1991014,-84.1762075,TRUE,FALSE,FALSE,"S242442665"
"333","chwwid","Chuck-will's-widow","Antrostomus carolinensis","L45829229","West End SE - 3187–3521 Roseland Rd, (35.1384,-79.5338)","2025-05-24 05:49",3,35.138409,-79.533753,TRUE,FALSE,TRUE,"S242009535"
"334","chwwid","Chuck-will's-widow","Antrostomus carolinensis","L17980431","Dalton Rd, Mill Spring (private road)","2025-05-24 05:40",1,35.3164263,-82.1437048,TRUE,FALSE,TRUE,"S241817527"
"335","chwwid","Chuck-will's-widow","Antrostomus carolinensis","L45755897","County Road 4315","2025-05-24 05:31",3,33.362282,-94.699282,TRUE,FALSE,TRUE,"S241820600"
"336","chwwid","Chuck-will's-widow","Antrostomus carolinensis","L45799036","Thunder Rd, Jackson Springs US-NC 35.08581, -79.57173","2025-05-24 05:31",1,35.085811,-79.571729,TRUE,FALSE,TRUE,"S241873998"
"337","chwwid","Chuck-will's-widow","Antrostomus carolinensis","L799384","Big Branch Marsh NWR--Boy Scout Rd.","2025-05-24 05:30",3,30.2819728,-89.9234819,TRUE,FALSE,FALSE,"S241912812"
"338","chwwid","Chuck-will's-widow","Antrostomus carolinensis","L165792","Fort Morgan State Historic Site","2025-05-24 05:30",1,30.2294449,-88.0180432,TRUE,FALSE,FALSE,"S242015187"
"339","chwwid","Chuck-will's-widow","Antrostomus carolinensis","L28894434","Private: Windy Ridge, Foxfire US-NC","2025-05-24 05:29",1,35.181817,-79.574135,TRUE,FALSE,TRUE,"S242217066"
"340","chwwid","Chuck-will's-widow","Antrostomus carolinensis","L5000389","001 Alford's Calico Livestock, Saint James, MO","2025-05-24 05:27",1,37.8793248,-91.5885115,TRUE,FALSE,TRUE,"S242036141"
"341","chwwid","Chuck-will's-widow","Antrostomus carolinensis","L1865408","IP Wetlands (no public access)","2025-05-24 05:20",7,30.4622915,-87.3852814,TRUE,FALSE,TRUE,"S242061439"
"342","chwwid","Chuck-will's-widow","Antrostomus carolinensis","L45788637","361–679 CR-65, Roanoke US-AL 33.14820, -85.45780","2025-05-24 05:11",3,33.148196,-85.457797,TRUE,FALSE,TRUE,"S241818351"
"343","chwwid","Chuck-will's-widow","Antrostomus carolinensis","L45787984","8428 CR-158, Roanoke US-AL 33.07802, -85.44715","2025-05-24 05:00",2,33.078024,-85.447154,TRUE,FALSE,TRUE,"S241815599"
"344","chwwid","Chuck-will's-widow","Antrostomus carolinensis","L45784056","2 Morris Ave, Egg Harbor Township US-NJ 39.31675, -74.64841","2025-05-24 04:55",2,39.316752,-74.64841,TRUE,FALSE,TRUE,"S241801159"
"345","chwwid","Chuck-will's-widow","Antrostomus carolinensis","L14937584","Bay Minette, Alabama, US (30.779, -87.616)","2025-05-24 04:54",11,30.778566,-87.616209,TRUE,FALSE,TRUE,"S241851727"
"346","chwwid","Chuck-will's-widow","Antrostomus carolinensis","L45775967","1266 River Hill Rd, Ellijay US-GA 34.66052, -84.35717","2025-05-24 00:37",1,34.660522,-84.357165,TRUE,FALSE,TRUE,"S241767522"
"347","chwwid","Chuck-will's-widow","Antrostomus carolinensis","L45776745","Canadian River, Norman US-OK 35.17480, -97.45946","2025-05-24 00:17",1,35.174799,-97.459463,TRUE,FALSE,TRUE,"S241771153"
"348","chwwid","Chuck-will's-widow","Antrostomus carolinensis","L36324379","Cliffside Trail","2025-05-23 21:47",1,34.8965021,-82.8296533,TRUE,FALSE,TRUE,"S241749082"
"349","chwwid","Chuck-will's-widow","Antrostomus carolinensis","L45774636","486–514 County Road 411, Goldthwaite US-TX 31.34839, -98.58286","2025-05-23 21:32",1,31.348394,-98.582864,TRUE,FALSE,TRUE,"S241761677"
"350","chwwid","Chuck-will's-widow","Antrostomus carolinensis","L46029215","7087 KY-70, Yosemite US-KY 37.34947, -84.82877","2025-05-23 21:22",1,37.349466,-84.828775,TRUE,FALSE,TRUE,"S242909721"
"351","chwwid","Chuck-will's-widow","Antrostomus carolinensis","L38930734","Fairway","2025-05-23 21:18",1,34.3305919,-82.9606481,TRUE,FALSE,TRUE,"S241743286"
"352","chwwid","Chuck-will's-widow","Antrostomus carolinensis","L566357","Yard - Northwest Hills","2025-05-23 21:09",1,30.3592119,-97.7832556,TRUE,FALSE,TRUE,"S241758510"
"353","chwwid","Chuck-will's-widow","Antrostomus carolinensis","L45770611","291 Old Lowell Mill Rd, Carrollton US-GA 33.45583, -85.07087","2025-05-23 21:09",1,33.455827,-85.07087,TRUE,FALSE,TRUE,"S241744119"
"354","chwwid","Chuck-will's-widow","Antrostomus carolinensis","L45772393","County Road 411, Goldthwaite US-TX 31.37315, -98.55997","2025-05-23 21:09",3,31.373153,-98.55997,TRUE,FALSE,TRUE,"S241752361"
"355","chwwid","Chuck-will's-widow","Antrostomus carolinensis","L45772153","168–178 County Road 411, Goldthwaite US-TX 31.38638, -98.56040","2025-05-23 21:05",2,31.386383,-98.560404,TRUE,FALSE,TRUE,"S241751248"
"356","chwwid","Chuck-will's-widow","Antrostomus carolinensis","L38706379","1355–1387 White Oak River Rd, Maysville with yellow gate at gravel road","2025-05-23 21:04",3,34.887719,-77.256775,TRUE,FALSE,TRUE,"S241741147"
"357","chwwid","Chuck-will's-widow","Antrostomus carolinensis","L36488242","Professional Parkway West, Sarasota, Florida, US (27.371, -82.435)","2025-05-23 21:01",3,27.3714648,-82.4348482,TRUE,FALSE,TRUE,"S241749148"
"358","chwwid","Chuck-will's-widow","Antrostomus carolinensis","L10306946","Goose Creek State Park--Dinah's Landing","2025-05-23 21:00",1,35.479855,-76.931468,TRUE,FALSE,FALSE,"S241738700"
"359","chwwid","Chuck-will's-widow","Antrostomus carolinensis","L44542085","Home Golden Bear Trace, Moseley US-VA (37.3952,-77.7410)","2025-05-23 20:58",2,37.395152,-77.740973,TRUE,TRUE,TRUE,"S241740260"
"360","chwwid","Chuck-will's-widow","Antrostomus carolinensis","L38706606","White Oak River Rd at creek crossing","2025-05-23 20:57",2,34.88866,-77.258569,TRUE,FALSE,TRUE,"S241739039"
"361","chwwid","Chuck-will's-widow","Antrostomus carolinensis","L10759454","Palmetto Bluff--Moreland Village","2025-05-23 20:57",NA,32.17581,-80.89532,TRUE,FALSE,FALSE,"S241738407"
"362","chwwid","Chuck-will's-widow","Antrostomus carolinensis","L40348161","7259 Sanctuary Dr, Wilmington US-NC 34.29335, -77.82402","2025-05-23 20:54",1,34.293354,-77.824023,TRUE,FALSE,TRUE,"S241737229"
"363","chwwid","Chuck-will's-widow","Antrostomus carolinensis","L45769626","(Daffy Duck) 126 Bayberry Drive, Duck, North Carolina","2025-05-23 20:53",1,36.1704553,-75.7494634,TRUE,FALSE,TRUE,"S241739021"
"364","chwwid","Chuck-will's-widow","Antrostomus carolinensis","L5826617","US-North Carolina-Clinton-8475 Boykin Bridge Road - 34.91x-78.41","2025-05-23 20:51",1,34.909713,-78.410148,TRUE,FALSE,TRUE,"S241737262"
"365","chwwid","Chuck-will's-widow","Antrostomus carolinensis","L1151887","Wichita Mtns Wildlife Refuge--Osage Lake Trail","2025-05-23 20:51",1,34.7164296,-98.6543941,TRUE,FALSE,FALSE,"S241995757"
"366","chwwid","Chuck-will's-widow","Antrostomus carolinensis","L25455712","1434–1480 White Oak River Rd, Maysville US-NC 34.89345, -77.26179","2025-05-23 20:48",2,34.893454,-77.261787,TRUE,FALSE,TRUE,"S241737414"
"367","chwwid","Chuck-will's-widow","Antrostomus carolinensis","L45771479","Auto selected 34.68645, -93.37237","2025-05-23 20:46",2,34.686447,-93.372372,TRUE,FALSE,TRUE,"S241748176"
"368","chwwid","Chuck-will's-widow","Antrostomus carolinensis","L16473910","Private property Goose’s","2025-05-23 20:41",1,34.397676,-97.55311,TRUE,FALSE,TRUE,"S241749075"
"369","chwwid","Chuck-will's-widow","Antrostomus carolinensis","L13612586","Greatwood Estates/Private Home","2025-05-23 20:41",1,30.5992965,-97.9072402,TRUE,FALSE,TRUE,"S242456868"
"370","chwwid","Chuck-will's-widow","Antrostomus carolinensis","L16798480","Home 31067","2025-05-23 20:40",1,32.8301995,-82.9409638,TRUE,FALSE,TRUE,"S241749596"
"371","chwwid","Chuck-will's-widow","Antrostomus carolinensis","L19297965","Lake House On Timmerman Lake","2025-05-23 20:38",1,36.064982,-78.344447,TRUE,FALSE,TRUE,"S241735857"
"372","chwwid","Chuck-will's-widow","Antrostomus carolinensis","L45814324","geodome sopchoppy","2025-05-23 20:38",1,29.919854,-84.481067,TRUE,FALSE,TRUE,"S241945313"
"373","chwwid","Chuck-will's-widow","Antrostomus carolinensis","L29010321","Lakewood Ranch Park","2025-05-23 20:38",1,27.4472292,-82.4365568,TRUE,FALSE,FALSE,"S241733102"
"374","chwwid","Chuck-will's-widow","Antrostomus carolinensis","L24721443","Lake House","2025-05-23 20:32",1,36.573833,-88.061984,TRUE,FALSE,TRUE,"S241745969"
"375","chwwid","Chuck-will's-widow","Antrostomus carolinensis","L45768099","Bennetts Point Rd, Green Pond US-SC 32.73720, -80.57460","2025-05-23 20:32",1,32.737195,-80.574603,TRUE,FALSE,TRUE,"S241731680"
"376","chwwid","Chuck-will's-widow","Antrostomus carolinensis","L17723112","My yard","2025-05-23 20:30",1,30.8958244,-88.0373422,TRUE,FALSE,TRUE,"S241745249"
"377","chwwid","Chuck-will's-widow","Antrostomus carolinensis","L22624712","Golden Pond","2025-05-23 20:27",1,30.075873,-81.6556,TRUE,FALSE,TRUE,"S241730272"
"378","chwwid","Chuck-will's-widow","Antrostomus carolinensis","L8623699","Conjada Mountain (Private Residence)","2025-05-23 20:21",3,35.8964455,-95.749027,TRUE,FALSE,TRUE,"S241752858"
"379","chwwid","Chuck-will's-widow","Antrostomus carolinensis","L1251668","Weatherly","2025-05-23 20:20",1,33.2480105,-86.7922175,TRUE,FALSE,TRUE,"S241748719"
"380","chwwid","Chuck-will's-widow","Antrostomus carolinensis","L36401783","Near Beaver Dam Road","2025-05-23 20:20",1,34.8734909,-86.6691042,TRUE,FALSE,TRUE,"S241742992"
"381","chwwid","Chuck-will's-widow","Antrostomus carolinensis","L791425","Chincoteague NWR--Entrance/Beach Access Road","2025-05-23 20:12",4,37.91462,-75.3496577,TRUE,FALSE,FALSE,"S241733579"
"382","chwwid","Chuck-will's-widow","Antrostomus carolinensis","L730653","Couchville Cedar Glade SNA","2025-05-23 20:08",2,36.1024111,-86.5320539,TRUE,FALSE,FALSE,"S241741584"
"383","chwwid","Chuck-will's-widow","Antrostomus carolinensis","L20257399","133–195 Trout Branch Dr, Freeport US-FL 30.48491, -86.28306","2025-05-23 20:08",2,30.484906,-86.283058,TRUE,FALSE,TRUE,"S241746335"
"384","chwwid","Chuck-will's-widow","Antrostomus carolinensis","L127331","Boyd Hill Nature Park & Lake Maggiore","2025-05-23 20:00",2,27.7248069,-82.6501069,TRUE,FALSE,FALSE,"S242337896"
"385","chwwid","Chuck-will's-widow","Antrostomus carolinensis","L159292","Chincoteague NWR--Woodland Trail","2025-05-23 19:58",1,37.8955146,-75.3607863,TRUE,FALSE,FALSE,"S241734180"
"386","chwwid","Chuck-will's-widow","Antrostomus carolinensis","L23584607","163 Poplar Grove Ct, Evington US-VA 37.21717, -79.23382","2025-05-23 19:51",1,37.217167,-79.23382,TRUE,FALSE,TRUE,"S241726955"
"387","chwwid","Chuck-will's-widow","Antrostomus carolinensis","L31880421","Anderson Snow Park","2025-05-23 19:50",1,28.4559969,-82.4850579,TRUE,FALSE,FALSE,"S242099661"
"388","chwwid","Chuck-will's-widow","Antrostomus carolinensis","L45775207","43 Old Lighthouse Road, Oriental, North Carolina, US (35.069, -76.618)","2025-05-23 19:30",12,35.069175,-76.6179134,TRUE,FALSE,TRUE,"S241764151"
"389","chwwid","Chuck-will's-widow","Antrostomus carolinensis","L928659","Lee Bucks Rd.","2025-05-23 19:29",4,34.1238844,-78.0358028,TRUE,FALSE,FALSE,"S241735520"
"390","chwwid","Chuck-will's-widow","Antrostomus carolinensis","L45764332","Surf City, North Carolina, US (34.445, -77.564)","2025-05-23 19:23",5,34.4452995,-77.5638998,TRUE,FALSE,TRUE,"S241713933"
"391","chwwid","Chuck-will's-widow","Antrostomus carolinensis","L45771913","7501–7749 E Lyons Creek Rd, Junction City US-KS 38.96095, -96.83884","2025-05-23 19:07",2,38.960947,-96.838841,TRUE,FALSE,TRUE,"S241750178"
"392","chwwid","Chuck-will's-widow","Antrostomus carolinensis","L1308655","Wewoka Woods Camp (restricted access)","2025-05-23 19:04",2,35.1358249,-96.5600395,TRUE,FALSE,FALSE,"S241753043"
"393","chwwid","Chuck-will's-widow","Antrostomus carolinensis","L30904242","Sheldon woods","2025-05-23 19:00",1,28.4574286,-81.074602,TRUE,FALSE,TRUE,"S242074758"
"394","chwwid","Chuck-will's-widow","Antrostomus carolinensis","L45769999","Private","2025-05-23 18:10",2,35.8583293,-83.3939219,TRUE,FALSE,TRUE,"S241740904"
"395","chwwid","Chuck-will's-widow","Antrostomus carolinensis","L130756","Weymouth Woods Sandhills Nature Preserve","2025-05-23 17:46",2,35.1471875,-79.3689895,TRUE,FALSE,FALSE,"S241739618"
"396","chwwid","Chuck-will's-widow","Antrostomus carolinensis","L38099969","Trails Behind Carolyn Lewis","2025-05-23 17:44",1,33.06786,-80.111933,TRUE,FALSE,TRUE,"S241727887"
"397","chwwid","Chuck-will's-widow","Antrostomus carolinensis","L11396469","Bio-Way Farm (private)","2025-05-23 17:36",1,34.471083,-82.257794,TRUE,FALSE,FALSE,"S241683751"
"398","chwwid","Chuck-will's-widow","Antrostomus carolinensis","L16481069","Lake Beshear, KY","2025-05-23 17:15",1,37.1398168,-87.6833659,TRUE,FALSE,TRUE,"S241993040"
"399","chwwid","Chuck-will's-widow","Antrostomus carolinensis","L1955166","Private Residence ~ Paradise, Texas","2025-05-23 11:08",1,33.0568746,-97.7941132,TRUE,FALSE,TRUE,"S241881214"
"400","chwwid","Chuck-will's-widow","Antrostomus carolinensis","L43721108","Pinebluff SE 28376, Raeford US-NC 35.04013, -79.38657","2025-05-23 10:08",1,35.040125,-79.386574,TRUE,FALSE,TRUE,"S241840413"
"401","chwwid","Chuck-will's-widow","Antrostomus carolinensis","L1599007","Eagle Lake (3)","2025-05-23 08:05",1,37.90014,-91.7095,TRUE,FALSE,TRUE,"S241564286"
"402","chwwid","Chuck-will's-widow","Antrostomus carolinensis","L45439686","4463 River Rd, Williamson US-GA 33.18410, -84.48610","2025-05-23 07:34",2,33.184099,-84.486102,TRUE,FALSE,TRUE,"S241488713"
"403","chwwid","Chuck-will's-widow","Antrostomus carolinensis","L1493595","Avon Park Air Force Range (Highlands Co.)","2025-05-23 07:07",1,27.608256,-81.2639125,TRUE,FALSE,FALSE,"S241585914"
"404","chwwid","Chuck-will's-widow","Antrostomus carolinensis","L1885863","North Captiva","2025-05-23 07:00",3,26.5857877,-82.2149725,TRUE,FALSE,FALSE,"S242741340"
"405","chwwid","Chuck-will's-widow","Antrostomus carolinensis","L45714265","6489 Lawrence 2220, Pierce City, Missouri, US (36.955, -93.946)","2025-05-23 06:50",1,36.9550895,-93.9463186,TRUE,FALSE,TRUE,"S241476933"
"406","chwwid","Chuck-will's-widow","Antrostomus carolinensis","L24352575","985 Sayers Road, Elgin, Texas, US (30.275, -97.365)","2025-05-23 06:48",1,30.2750866,-97.3650066,TRUE,FALSE,TRUE,"S241475754"
"407","chwwid","Chuck-will's-widow","Antrostomus carolinensis","L45709026","Hell Hole Rd, Huger US-SC 33.17857, -79.76516","2025-05-23 06:23",2,33.178571,-79.765157,TRUE,FALSE,TRUE,"S241448048"
"408","chwwid","Chuck-will's-widow","Antrostomus carolinensis","L45708844","11639 Buckhead Trail, Bryceville US-FL 30.44069, -81.86461","2025-05-23 06:17",2,30.440688,-81.864613,TRUE,FALSE,TRUE,"S241446816"
"409","chwwid","Chuck-will's-widow","Antrostomus carolinensis","L7013744","Crooked Lake Wildlife and Environmental Area","2025-05-23 06:07",1,27.7355667,-81.6211036,TRUE,FALSE,FALSE,"S241527742"
"410","chwwid","Chuck-will's-widow","Antrostomus carolinensis","L44239264","14605 Pine Cone Trail, Clermont US-FL (28.5340,-81.7132)","2025-05-23 06:03",1,28.534027,-81.713237,TRUE,FALSE,TRUE,"S241444081"
"411","chwwid","Chuck-will's-widow","Antrostomus carolinensis","L2161997","Fort Sill MR--Indiahoma Rd.","2025-05-23 06:00",1,34.6563077,-98.755605,TRUE,FALSE,FALSE,"S241745485"
"412","chwwid","Chuck-will's-widow","Antrostomus carolinensis","L4001753","BAE 15-19 Windham Blvd - 33.6554x-81.6844","2025-05-23 05:59",2,33.65541,-81.684366,TRUE,FALSE,TRUE,"S241459352"
"413","chwwid","Chuck-will's-widow","Antrostomus carolinensis","L1292731","Aiken Gopher Tortoise HP","2025-05-23 05:58",3,33.4886724,-81.439569,TRUE,FALSE,FALSE,"S241470908"
"414","chwwid","Chuck-will's-widow","Antrostomus carolinensis","L2808713","Fants Grove Wildlife Management Area","2025-05-23 05:58",3,34.6129554,-82.8241454,TRUE,FALSE,FALSE,"S241444161"
"415","chwwid","Chuck-will's-widow","Antrostomus carolinensis","L3585241","Dawson Forest--Sweetwater Church Rd.","2025-05-23 05:54",2,34.4193366,-84.1895628,TRUE,FALSE,FALSE,"S241569473"
"416","chwwid","Chuck-will's-widow","Antrostomus carolinensis","L45751307","Pinebluff SE Aberdeen US-NC 35.01671, -79.40530","2025-05-23 05:53",1,35.016713,-79.405298,TRUE,FALSE,TRUE,"S241655047"
"417","chwwid","Chuck-will's-widow","Antrostomus carolinensis","L18354354","School Bus Road, Frostproof, Florida, US (27.68, -81.416)","2025-05-23 05:52",10,27.680065,-81.4163903,TRUE,FALSE,TRUE,"S241482400"
"418","chwwid","Chuck-will's-widow","Antrostomus carolinensis","L1090714","Shaffer Bend Recr. Area (LCRA)","2025-05-23 05:50",1,30.5413431,-98.1792784,TRUE,FALSE,FALSE,"S241521407"
"419","chwwid","Chuck-will's-widow","Antrostomus carolinensis","L319376","Wichita Mtns Wildlife Refuge--Headquarters","2025-05-23 05:47",2,34.7329472,-98.712981,TRUE,FALSE,FALSE,"S241456355"
"420","chwwid","Chuck-will's-widow","Antrostomus carolinensis","L45750876","Pinebluff SE Aberdeen US-NC 35.01916, -79.40492","2025-05-23 05:46",1,35.019156,-79.40492,TRUE,FALSE,TRUE,"S241653294"
"421","chwwid","Chuck-will's-widow","Antrostomus carolinensis","L45731589","Potters Hill SE- 1170 Haw Branch Rd, Beulaville US-NC (34.8903,-77.6428)","2025-05-23 05:40",1,34.890266,-77.64282,TRUE,FALSE,TRUE,"S241567881"
"422","chwwid","Chuck-will's-widow","Antrostomus carolinensis","L43717655","Pinebluff SE 811 N McFarland Blue Rd, Aberdeen US-NC 35.02195, -79.40378","2025-05-23 05:38",1,35.02195,-79.403778,TRUE,FALSE,TRUE,"S241650163"
"423","chwwid","Chuck-will's-widow","Antrostomus carolinensis","L43273466","Private—Costin SE—Page Rd, Burgaw US-NC (34.5271,-78.0514)","2025-05-23 05:38",1,34.527096,-78.051449,TRUE,FALSE,TRUE,"S241537885"
"424","chwwid","Chuck-will's-widow","Antrostomus carolinensis","L1217352","Sturges Rd. (area) (Worcester County)","2025-05-23 05:31",2,38.2707344,-75.4558182,TRUE,FALSE,FALSE,"S241446583"
"425","chwwid","Chuck-will's-widow","Antrostomus carolinensis","L9227738","Saint George Island; Sea Fern Way","2025-05-23 05:30",1,29.6217112,-84.9428685,TRUE,FALSE,TRUE,"S241705142"
"426","chwwid","Chuck-will's-widow","Antrostomus carolinensis","L602507","John Bunker Sands Wetlands Ctr","2025-05-23 05:30",1,32.6137185,-96.5008752,TRUE,FALSE,FALSE,"S241452716"
"427","chwwid","Chuck-will's-widow","Antrostomus carolinensis","L45749871","Pinebluff SE Raeford US-NC 35.02296, -79.40345","2025-05-23 05:28",1,35.022961,-79.403446,TRUE,FALSE,TRUE,"S241648881"
"428","chwwid","Chuck-will's-widow","Antrostomus carolinensis","L45739709","BBS 2","2025-05-23 05:27",1,33.275725,-88.0095683,TRUE,FALSE,TRUE,"S241603874"
"429","chwwid","Chuck-will's-widow","Antrostomus carolinensis","L9535135","C B  Cv, Freeport US-FL (30.4796,-86.2834)","2025-05-23 05:26",1,30.4796,-86.283409,TRUE,FALSE,TRUE,"S241492495"
"430","chwwid","Chuck-will's-widow","Antrostomus carolinensis","L1410016","Dividing Creek--Hansey Creek Rd.","2025-05-23 05:15",1,39.2446295,-75.085676,TRUE,FALSE,FALSE,"S243088178"
"431","chwwid","Chuck-will's-widow","Antrostomus carolinensis","L45711529","McIntyre Creek Road, Olsburg, Kansas, US (39.313, -96.592)","2025-05-23 05:13",6,39.3132217,-96.5915633,TRUE,FALSE,TRUE,"S241460038"
"432","chwwid","Chuck-will's-widow","Antrostomus carolinensis","L6290381","Cape Hatteras NS--Ocracoke Campground","2025-05-23 05:09",1,35.1265427,-75.919261,TRUE,FALSE,FALSE,"S241435854"
"433","chwwid","Chuck-will's-widow","Antrostomus carolinensis","L24419463","Uwharries NF Backcountry Campsite","2025-05-23 05:00",1,35.410787,-80.024186,TRUE,FALSE,TRUE,"S243564143"
"434","chwwid","Chuck-will's-widow","Antrostomus carolinensis","L45752310","Pink Hill SE - 28574, Richlands US-NC 35.01906, -77.66055","2025-05-23 04:51",1,35.019061,-77.660553,TRUE,FALSE,TRUE,"S241659390"
"435","chwwid","Chuck-will's-widow","Antrostomus carolinensis","L21171869","Oxnard--Farris Home","2025-05-23 04:32",1,35.679686,-97.401999,TRUE,FALSE,TRUE,"S241439097"
"436","chwwid","Chuck-will's-widow","Antrostomus carolinensis","L45707293","2801–3199 E County Road 1100 N, Chrisney US-IN (38.0459,-86.9861)","2025-05-23 04:29",1,38.045896,-86.986121,TRUE,FALSE,TRUE,"S241440232"
"437","chwwid","Chuck-will's-widow","Antrostomus carolinensis","L9196318","Private Residence, Saint Petersburg US-FL (27.8508,-82.6268)","2025-05-23 03:06",1,27.850809,-82.626767,TRUE,FALSE,TRUE,"S241421752"
"438","chwwid","Chuck-will's-widow","Antrostomus carolinensis","L21823214","Es yard","2025-05-23 00:41",1,32.262733,-95.29341,TRUE,FALSE,TRUE,"S241412572"
"439","chwwid","Chuck-will's-widow","Antrostomus carolinensis","L38823736","Brookland Drive","2025-05-23",1,33.9544229,-80.5156599,TRUE,FALSE,TRUE,"S242245043"
"440","chwwid","Chuck-will's-widow","Antrostomus carolinensis","L43653587","Fort Eisenhower - CNCOA HQ","2025-05-22 23:01",1,33.4182404,-82.1558333,TRUE,FALSE,TRUE,"S241399016"
"441","chwwid","Chuck-will's-widow","Antrostomus carolinensis","L255988","Lake Wilson","2025-05-22 21:59",1,36.0003528,-94.136076,TRUE,FALSE,FALSE,"S241401180"
"442","chwwid","Chuck-will's-widow","Antrostomus carolinensis","L45696570","Nanjemoy--Smith Point Rd","2025-05-22 21:56",1,38.40041,-77.221027,TRUE,FALSE,TRUE,"S241391931"
"443","chwwid","Chuck-will's-widow","Antrostomus carolinensis","L44617263","Betsy Hole Road, Bonneau, South Carolina, US (33.311, -79.899)","2025-05-22 21:30",NA,33.3109315,-79.8987313,TRUE,FALSE,TRUE,"S241391318"
"444","chwwid","Chuck-will's-widow","Antrostomus carolinensis","L17337215","Joyce House","2025-05-22 21:30",1,34.146152,-84.35222,TRUE,TRUE,TRUE,"S241387296"
"445","chwwid","Chuck-will's-widow","Antrostomus carolinensis","L41284036","Home Place","2025-05-22 21:27",3,30.770549,-88.625074,TRUE,FALSE,TRUE,"S241397531"
"446","chwwid","Chuck-will's-widow","Antrostomus carolinensis","L26028398","4870 Laurel Mountain Rd, Hiawassee US-GA 34.94477, -83.67027","2025-05-22 21:26",1,34.944765,-83.670274,TRUE,FALSE,TRUE,"S241386515"
"447","chwwid","Chuck-will's-widow","Antrostomus carolinensis","L40928355","610 Black Dirt Road, Whitesburg, Georgia, US (33.498, -84.879)","2025-05-22 21:24",2,33.4984973,-84.8792225,TRUE,FALSE,TRUE,"S241387442"
"448","chwwid","Chuck-will's-widow","Antrostomus carolinensis","L197609","Cape Henlopen SP--Gordon's Pond","2025-05-22 21:12",1,38.7522693,-75.0893841,TRUE,FALSE,FALSE,"S242819375"
"449","chwwid","Chuck-will's-widow","Antrostomus carolinensis","L10539530","Redus Ranch, 78838, Concan US-TX (29.4906,-99.7221)","2025-05-22 21:09",1,29.490584,-99.722117,TRUE,FALSE,TRUE,"S241393298"
"450","chwwid","Chuck-will's-widow","Antrostomus carolinensis","L26822366","354 Goodhope Ln, Decatur US-TN 35.42830, -84.94484","2025-05-22 21:07",1,35.4283,-84.944837,TRUE,FALSE,TRUE,"S241383035"
"451","chwwid","Chuck-will's-widow","Antrostomus carolinensis","L31704396","Ryan's house","2025-05-22 21:07",1,35.3735039,-93.1429012,TRUE,FALSE,TRUE,"S241392739"
"452","chwwid","Chuck-will's-widow","Antrostomus carolinensis","L45697196","Tablerville Road, Eagletown, Oklahoma, US (34.072, -94.591)","2025-05-22 21:06",5,34.0715277,-94.5913531,TRUE,FALSE,TRUE,"S241394881"
"453","chwwid","Chuck-will's-widow","Antrostomus carolinensis","L44792572","107 Overlook Dr, Pickens US-SC 34.92678, -82.65192","2025-05-22 21:04",1,34.926782,-82.651924,TRUE,FALSE,TRUE,"S241382587"
"454","chwwid","Chuck-will's-widow","Antrostomus carolinensis","L455931","Black Kettle Recreation Are--Dead Warrior Lake","2025-05-22 21:04",1,35.7481841,-99.7177505,TRUE,TRUE,FALSE,"S241393759"
"455","chwwid","Chuck-will's-widow","Antrostomus carolinensis","L45699023","2216–2290 19th St, Stillwater US-OK (36.1006,-97.2041)","2025-05-22 21:03",1,36.100571,-97.204114,TRUE,FALSE,TRUE,"S241403145"
"456","chwwid","Chuck-will's-widow","Antrostomus carolinensis","L1965980","Home","2025-05-22 21:00",1,36.0710248,-97.0154572,TRUE,FALSE,TRUE,"S241391803"
"457","chwwid","Chuck-will's-widow","Antrostomus carolinensis","L30856292","4111–4469 Bartley Holleman Rd, Holly Springs US-NC 35.60035, -78.94278","2025-05-22 20:58",2,35.600351,-78.942783,TRUE,FALSE,TRUE,"S241382983"
"458","chwwid","Chuck-will's-widow","Antrostomus carolinensis","L43864151","934 Goat Neck Road, Columbia, North Carolina, US (35.971, -76.077)","2025-05-22 20:56",1,35.9709483,-76.0766437,TRUE,FALSE,TRUE,"S241380978"
"459","chwwid","Chuck-will's-widow","Antrostomus carolinensis","L7018631","Home Capps Rd, Fair Play, SC","2025-05-22 20:56",1,34.499544,-83.019676,TRUE,FALSE,TRUE,"S241383307"
"460","chwwid","Chuck-will's-widow","Antrostomus carolinensis","L9582558","PBAJ-Private","2025-05-22 20:54",1,29.780655,-99.286079,TRUE,FALSE,TRUE,"S241391433"
"461","chwwid","Chuck-will's-widow","Antrostomus carolinensis","L13206167","112 Mountain Ridge South, Cresson, Texas, US (32.565, -97.597)","2025-05-22 20:53",1,32.5653214,-97.5970772,TRUE,FALSE,TRUE,"S241390866"
"462","chwwid","Chuck-will's-widow","Antrostomus carolinensis","L28746915","5379 Arkansas 164, Hartman, Arkansas, US (35.509, -93.658)","2025-05-22 20:53",1,35.508754,-93.6576728,TRUE,FALSE,TRUE,"S241391031"
"463","chwwid","Chuck-will's-widow","Antrostomus carolinensis","L15433089","*Lexington Farms house","2025-05-22 20:50",1,29.603015,-82.44933,TRUE,FALSE,TRUE,"S241382818"
"464","chwwid","Chuck-will's-widow","Antrostomus carolinensis","L12690770","1785 Middle Gulf Dr, Sanibel US-FL 26.42840, -82.05940","2025-05-22 20:49",1,26.4284,-82.059405,TRUE,FALSE,TRUE,"S241379497"
"465","chwwid","Chuck-will's-widow","Antrostomus carolinensis","L22675939","My Property","2025-05-22 20:46",1,37.564025,-89.204052,TRUE,FALSE,TRUE,"S241390258"
"466","chwwid","Chuck-will's-widow","Antrostomus carolinensis","L42163443","Mcclellanville","2025-05-22 20:46",1,33.084993,-79.474566,TRUE,FALSE,TRUE,"S241378719"
"467","chwwid","Chuck-will's-widow","Antrostomus carolinensis","L357287","Raven Rock SP","2025-05-22 20:45",3,35.46067,-78.9065552,TRUE,FALSE,FALSE,"S243549197"
"468","chwwid","Chuck-will's-widow","Antrostomus carolinensis","L452359","Big Spring Park","2025-05-22 20:44",2,36.2648116,-92.542615,TRUE,FALSE,FALSE,"S241390636"
"469","chwwid","Chuck-will's-widow","Antrostomus carolinensis","L24038941","300 Watson Road, Norlina, North Carolina, US (36.389, -78.278)","2025-05-22 20:40",1,36.3885835,-78.2778907,TRUE,FALSE,TRUE,"S241378384"
"470","chwwid","Chuck-will's-widow","Antrostomus carolinensis","L8578369","Crawford Lane","2025-05-22 20:36",1,32.9505704,-98.1782736,TRUE,FALSE,TRUE,"S241390454"
"471","chwwid","Chuck-will's-widow","Antrostomus carolinensis","L45693648","22429–22437 Raccoon Ditch Rd, Georgetown US-DE 38.68395, -75.43231","2025-05-22 20:35",1,38.68395,-75.432314,TRUE,FALSE,TRUE,"S241377160"
"472","chwwid","Chuck-will's-widow","Antrostomus carolinensis","L42358178","3226 Walnut Valley Road, Dover, Arkansas, US (35.465, -93.185)","2025-05-22 20:35",1,35.4653317,-93.185492,TRUE,FALSE,TRUE,"S241388998"
"473","chwwid","Chuck-will's-widow","Antrostomus carolinensis","L45696493","Table Rock State Park Campground #2","2025-05-22 20:32",NA,36.5778934,-93.3005808,TRUE,FALSE,TRUE,"S241391564"
"474","chwwid","Chuck-will's-widow","Antrostomus carolinensis","L39949515","Home - Private Property","2025-05-22 20:30",1,34.738175,-97.032756,TRUE,FALSE,TRUE,"S241388024"
"475","chwwid","Chuck-will's-widow","Antrostomus carolinensis","L34837669","Arenz Ln, Whip-poor-will Spot","2025-05-22 20:24",1,39.989129,-90.378225,TRUE,TRUE,TRUE,"S241388943"
"476","chwwid","Chuck-will's-widow","Antrostomus carolinensis","L31198710","John Sutton Rd","2025-05-22 20:24",1,34.506687,-86.27315,TRUE,FALSE,TRUE,"S241386141"
"477","chwwid","Chuck-will's-widow","Antrostomus carolinensis","L45695370","4407 South Mount Juliet Road, Rural Hill, Tennessee, US (36.111, -86.527)","2025-05-22 20:22",1,36.1113669,-86.5273181,TRUE,FALSE,TRUE,"S241385803"
"478","chwwid","Chuck-will's-widow","Antrostomus carolinensis","L45695924","Greensboro, AL (private property)","2025-05-22 20:10",1,32.84639,-87.611133,TRUE,FALSE,TRUE,"S241388621"
"479","chwwid","Chuck-will's-widow","Antrostomus carolinensis","L45310640","Private Property - Kirk Farm","2025-05-22 20:08",1,33.8528547,-80.831367,TRUE,FALSE,TRUE,"S241380647"
"480","chwwid","Chuck-will's-widow","Antrostomus carolinensis","L568670","Fickle Fen Rd, Mathews VA","2025-05-22 20:04",2,37.4484922,-76.3673401,TRUE,FALSE,TRUE,"S241377022"
"481","chwwid","Chuck-will's-widow","Antrostomus carolinensis","L21905213","16 Skipperling Ct, Beaufort US-SC 32.34868, -80.90832","2025-05-22 19:50",1,32.348681,-80.908321,TRUE,FALSE,TRUE,"S241476851"
"482","chwwid","Chuck-will's-widow","Antrostomus carolinensis","L28493991","912 Shake Rag Access Rd, Waynesboro US-TN 35.31287, -87.78642","2025-05-22 19:50",1,35.312872,-87.786423,TRUE,FALSE,TRUE,"S241386049"
"483","chwwid","Chuck-will's-widow","Antrostomus carolinensis","L14003905","3720 Duckett Mill Rd, Gainesville US-GA 34.30669, -83.93259","2025-05-22 19:48",1,34.306686,-83.932588,TRUE,FALSE,TRUE,"S241379550"
"484","chwwid","Chuck-will's-widow","Antrostomus carolinensis","L10850694","Caloosa West Palm Beach US-FL (26.8927,-80.2327)","2025-05-22 19:45",1,26.892734,-80.232702,TRUE,FALSE,TRUE,"S241385233"
"485","chwwid","Chuck-will's-widow","Antrostomus carolinensis","L486383","Commons Ford Ranch Metro Park","2025-05-22 19:37",3,30.3373826,-97.8930759,TRUE,FALSE,FALSE,"S241744603"
"486","chwwid","Chuck-will's-widow","Antrostomus carolinensis","L724290","Cedars of Lebanon SF--Vesta Cedar Glade SNA","2025-05-22 19:30",4,36.0770072,-86.3986864,TRUE,FALSE,FALSE,"S241600682"
"487","chwwid","Chuck-will's-widow","Antrostomus carolinensis","L16368659","9651 Unionville Road, Easton, Maryland, US (38.816, -76.138)","2025-05-22 18:34",NA,38.8161585,-76.1384655,TRUE,FALSE,TRUE,"S241392000"
"488","chwwid","Chuck-will's-widow","Antrostomus carolinensis","L1521088","Mammoth Cave NP--Prairie/Barrens Restoration (Barren Co.)","2025-05-22 18:16",2,37.1128336,-86.061226,TRUE,FALSE,FALSE,"S241386936"
"489","chwwid","Chuck-will's-widow","Antrostomus carolinensis","L24513927","19630 Pine Tree Road, Odessa, Florida, US (28.168, -82.564)","2025-05-22 17:34",2,28.1679064,-82.5637536,TRUE,FALSE,TRUE,"S241339654"
"490","chwwid","Chuck-will's-widow","Antrostomus carolinensis","L29647306","1011 Timber Ridge Rd, Harrah US-OK 35.54032, -97.17602","2025-05-22 16:55",NA,35.540316,-97.176017,TRUE,FALSE,TRUE,"S241399701"
"491","chwwid","Chuck-will's-widow","Antrostomus carolinensis","L9582123","Fort Cavazos--East Range North (Bell Co.)(Restricted Access)","2025-05-22 11:23",1,31.1890797,-97.5681102,TRUE,FALSE,FALSE,"S242443899"
"492","chwwid","Chuck-will's-widow","Antrostomus carolinensis","L45653426","Point 3","2025-05-22 08:39",1,30.676141,-84.111121,TRUE,FALSE,TRUE,"S241183778"
"493","chwwid","Chuck-will's-widow","Antrostomus carolinensis","L759708","Harris, TX, Riverview Place","2025-05-22 08:13",1,29.7555106,-95.574317,TRUE,FALSE,TRUE,"S241196314"
"494","chwwid","Chuck-will's-widow","Antrostomus carolinensis","L3862038","James Hill Park and Boardwalk","2025-05-22 07:46",1,30.4079004,-89.0154241,TRUE,FALSE,FALSE,"S241228054"
"495","chwwid","Chuck-will's-widow","Antrostomus carolinensis","L7988249","Sansavilla WMA","2025-05-22 06:58",1,31.4348862,-81.6787359,TRUE,FALSE,FALSE,"S241352669"
"496","chwwid","Chuck-will's-widow","Antrostomus carolinensis","L122362","Village Creek Drying Beds (PPW-W 083)","2025-05-22 06:39",1,32.7842795,-97.1266181,TRUE,FALSE,FALSE,"S241487038"
"497","chwwid","Chuck-will's-widow","Antrostomus carolinensis","L45672439","Ivanhoe, North Carolina, US (34.499, -78.253)","2025-05-22 06:37",1,34.4992929,-78.2532261,TRUE,FALSE,TRUE,"S241275243"
"498","chwwid","Chuck-will's-widow","Antrostomus carolinensis","L1673223","Benbrook Lake--North Holiday Park (day use area)","2025-05-22 06:25",1,32.6510088,-97.4747562,TRUE,FALSE,FALSE,"S241256533"
"499","chwwid","Chuck-will's-widow","Antrostomus carolinensis","L1071148","Fort Sill MR--East Sherman Draw (restricted access)","2025-05-22 06:23",5,34.6909567,-98.5645294,TRUE,FALSE,FALSE,"S241323513"
"500","chwwid","Chuck-will's-widow","Antrostomus carolinensis","L9786691","Welsh Trl","2025-05-22 06:19",1,32.735513,-83.740821,TRUE,FALSE,TRUE,"S241138636"
"501","chwwid","Chuck-will's-widow","Antrostomus carolinensis","L33475367","30557, Martin US-GA 34.52335, -83.15674","2025-05-22 06:06",1,34.523349,-83.156735,TRUE,FALSE,TRUE,"S241136891"
"502","chwwid","Chuck-will's-widow","Antrostomus carolinensis","L5386247","byard - 32.622x-85.473","2025-05-22 06:05",1,32.6221013,-85.4725029,TRUE,FALSE,TRUE,"S241366799"
"503","chwwid","Chuck-will's-widow","Antrostomus carolinensis","L386731","Krause Springs","2025-05-22 06:05",1,30.4816691,-98.1410408,TRUE,FALSE,FALSE,"S241190749"
"504","chwwid","Chuck-will's-widow","Antrostomus carolinensis","L7550676","Flamingo BBS (Monroe County)","2025-05-22 06:00",2,25.138978,-80.9336185,TRUE,FALSE,TRUE,"S241200735"
"505","chwwid","Chuck-will's-widow","Antrostomus carolinensis","L45644676","County Road 600 South, Dugger, Indiana, US (38.995, -87.241)","2025-05-22 05:47",1,38.9945687,-87.2407377,TRUE,FALSE,TRUE,"S241134238"
"506","chwwid","Chuck-will's-widow","Antrostomus carolinensis","L45644406","County Road 600, Dugger, Indiana, US (38.995, -87.244)","2025-05-22 05:41",1,38.9953188,-87.2442894,TRUE,FALSE,TRUE,"S241133218"
"507","chwwid","Chuck-will's-widow","Antrostomus carolinensis","L45668486","Arkalon/Cimarron Valley (private, no access)","2025-05-22 05:40",1,37.1097396,-100.7410207,TRUE,TRUE,TRUE,"S241260097"
"508","chwwid","Chuck-will's-widow","Antrostomus carolinensis","L468288","Fitch NHR","2025-05-22 05:40",1,39.0398196,-95.2008247,TRUE,FALSE,FALSE,"S241362178"
"509","chwwid","Chuck-will's-widow","Antrostomus carolinensis","L45726469","Point Caswell SE—Heading Bluff Rd, Currie US-NC (34.40806, -78.12912)","2025-05-22 05:35",2,34.408059,-78.129125,TRUE,FALSE,TRUE,"S241543660"
"510","chwwid","Chuck-will's-widow","Antrostomus carolinensis","L45690885","Ouachita NF BBS 1-5","2025-05-22 05:34",5,34.762671,-94.6225371,TRUE,FALSE,TRUE,"S241362917"
"511","chwwid","Chuck-will's-widow","Antrostomus carolinensis","L30877246","22572, Warsaw US-VA 38.06878, -76.90211","2025-05-22 05:32",3,38.068781,-76.902107,TRUE,FALSE,TRUE,"S241327429"
"512","chwwid","Chuck-will's-widow","Antrostomus carolinensis","L45745783","291","2025-05-22 05:30",1,34.6944983,-87.9059753,TRUE,FALSE,TRUE,"S241631797"
"513","chwwid","Chuck-will's-widow","Antrostomus carolinensis","L19579470","Cokesbury BBS -Harnett Co stops","2025-05-22 05:28",1,35.5316345,-78.8618925,TRUE,FALSE,TRUE,"S241482634"
"514","chwwid","Chuck-will's-widow","Antrostomus carolinensis","L45677470","Seven Springs SE- 3900–3976 Liddell Rd, Seven Springs US-NC 35.15312, -77.76970","2025-05-22 05:25",1,35.153125,-77.769704,TRUE,FALSE,TRUE,"S241298796"
"515","chwwid","Chuck-will's-widow","Antrostomus carolinensis","L45726375","Point Caswell SE—Heading Bluff Rd, Currie US-NC (34.4120,-78.1307)","2025-05-22 05:25",2,34.411989,-78.130672,TRUE,FALSE,TRUE,"S241543199"
"516","chwwid","Chuck-will's-widow","Antrostomus carolinensis","L45676093","Stag Park SE, 179–995 Lillington Ln, Rocky Point US-NC 34.50305, -77.80994","2025-05-22 05:25",1,34.503051,-77.809941,TRUE,FALSE,TRUE,"S241292485"
"517","chwwid","Chuck-will's-widow","Antrostomus carolinensis","L1365314","Everglades NP--Pinelands","2025-05-22 05:22",1,25.424641,-80.6803166,TRUE,FALSE,FALSE,"S241131188"
"518","chwwid","Chuck-will's-widow","Antrostomus carolinensis","L45747483","breeding bird survey stop 2","2025-05-22 05:22",1,31.2194937,-86.1087867,TRUE,FALSE,TRUE,"S241639115"
"519","chwwid","Chuck-will's-widow","Antrostomus carolinensis","L43268907","Wagram SE Grits McBryde Rd, Raeford US-NC 34.91202, -79.30795","2025-05-22 05:21",1,34.912018,-79.307954,TRUE,FALSE,TRUE,"S241240886"
"520","chwwid","Chuck-will's-widow","Antrostomus carolinensis","L45677387","Seven Springs SE- 3740–3898 Liddell Rd, Deep Run US-NC 35.14724, -77.75999","2025-05-22 05:20",2,35.147244,-77.759993,TRUE,FALSE,TRUE,"S241298450"
"521","chwwid","Chuck-will's-widow","Antrostomus carolinensis","L45643760","Parkland Dr Chatham Construction Site","2025-05-22 05:19",1,35.735785,-79.144202,TRUE,FALSE,TRUE,"S241130796"
"522","chwwid","Chuck-will's-widow","Antrostomus carolinensis","L37775741","Point Caswell SE—Heading Bluff Rd, Currie US-NC (34.4154,-78.1325)","2025-05-22 05:17",1,34.415355,-78.132506,TRUE,FALSE,TRUE,"S241542816"
"523","chwwid","Chuck-will's-widow","Antrostomus carolinensis","L9140194","Oklahoma State University Kiamichi Forestry Research Station","2025-05-22 05:14",2,33.8948382,-94.7515333,TRUE,FALSE,FALSE,"S241149189"
"524","chwwid","Chuck-will's-widow","Antrostomus carolinensis","L45934931","Freedom Hills WMA -- Templeton-Calhoun Ridge","2025-05-22 05:09",1,34.7199154,-88.051294,TRUE,FALSE,TRUE,"S242485094"
"525","chwwid","Chuck-will's-widow","Antrostomus carolinensis","L6032860","BREEDING BIRD SURVEY, (WHITE HALL ROUTE  No. 02050) STOP 1","2025-05-22 05:08",1,32.32788,-86.71186,TRUE,FALSE,TRUE,"S241313884"
"526","chwwid","Chuck-will's-widow","Antrostomus carolinensis","L45673389","Comfort SE - 28585, Trenton US-NC 35.02030, -77.50316","2025-05-22 05:04",1,35.020304,-77.50316,TRUE,FALSE,TRUE,"S241279991"
"527","chwwid","Chuck-will's-widow","Antrostomus carolinensis","L45664554","Wagram SE Ryan McBryde Rd, Raeford US-NC (34.9136,-79.3107)","2025-05-22 05:03",1,34.913631,-79.310709,TRUE,FALSE,TRUE,"S241239050"
"528","chwwid","Chuck-will's-widow","Antrostomus carolinensis","L31755461","8475 Boykin Bridge Road, Clinton, North Carolina, US (34.91, -78.411)","2025-05-22 04:56",1,34.9099097,-78.4106022,TRUE,FALSE,TRUE,"S241128431"
"529","chwwid","Chuck-will's-widow","Antrostomus carolinensis","L45673264","Comfort SE - 28585, Trenton US-NC 35.02156, -77.51128","2025-05-22 04:47",1,35.02156,-77.511283,TRUE,FALSE,TRUE,"S241279249"
"530","chwwid","Chuck-will's-widow","Antrostomus carolinensis","L4340442","Stone Prairie WMA","2025-05-22 04:35",2,34.9680547,-92.3239322,TRUE,FALSE,FALSE,"S241132964"
"531","chwwid","Chuck-will's-widow","Antrostomus carolinensis","L45673171","Comfort SE - 28585, Trenton US-NC 35.03319, -77.50688","2025-05-22 04:29",1,35.033194,-77.50688,TRUE,FALSE,TRUE,"S241278896"
"532","chwwid","Chuck-will's-widow","Antrostomus carolinensis","L45673139","Comfort SE - 28585, Trenton US-NC 35.04105, -77.50832","2025-05-22 04:21",2,35.041051,-77.508316,TRUE,FALSE,TRUE,"S241278720"
"533","chwwid","Chuck-will's-widow","Antrostomus carolinensis","L2014944","Mays Home","2025-05-22 03:10",1,35.2615886,-97.6521412,TRUE,FALSE,TRUE,"S241124540"
"534","chwwid","Chuck-will's-widow","Antrostomus carolinensis","L45632160","2053 Bill Flagle Way, Sevierville US-TN 35.93240, -83.47924","2025-05-21 23:37",2,35.932397,-83.479242,TRUE,FALSE,TRUE,"S241099980"
"535","chwwid","Chuck-will's-widow","Antrostomus carolinensis","L15611487","Home (Wells Creek)","2025-05-21 23:25",1,30.1237902,-81.4856215,TRUE,FALSE,TRUE,"S241098719"
"536","chwwid","Chuck-will's-widow","Antrostomus carolinensis","L43341924","2003 Longhorn Ln, Ridgeville US-SC 32.94258, -80.27849","2025-05-21 22:43",3,32.94258,-80.278488,TRUE,FALSE,TRUE,"S241094637"
"537","chwwid","Chuck-will's-widow","Antrostomus carolinensis","L45624929","1080 Lighthouse Dr, Corolla US-NC 36.36737, -75.82259","2025-05-21 21:43",1,36.367374,-75.822586,TRUE,FALSE,TRUE,"S241087026"
