"","speciesCode","comName","sciName","locId","locName","obsDt","howMany","lat","lng","obsValid","obsReviewed","locationPrivate","subId"
"1","redpol1","Redpoll","Acanthis flammea","L5001877","Chugach NF--Williwaw Campground","2025-06-21 15:06",1,60.78724,-148.8781971,TRUE,FALSE,FALSE,"S252900547"
"2","redpol1","Redpoll","Acanthis flammea","L33669740","Nunavak Rd","2025-06-21 14:28",1,71.256808,-156.856969,TRUE,FALSE,TRUE,"S252905078"
"3","redpol1","Redpoll","Acanthis flammea","L4606931","Palmer Hay Flats SGR--Wasilla Creek Boardwalk","2025-06-21 13:33",10,61.5504655,-149.2958629,TRUE,FALSE,FALSE,"S252885842"
"4","redpol1","Redpoll","Acanthis flammea","L4479046","Creamer's Field MWR--Seasonal Wetland Trail","2025-06-21 13:28",5,64.866383,-147.7409676,TRUE,FALSE,FALSE,"S252897429"
"5","redpol1","Redpoll","Acanthis flammea","L48183986","Hemlock Knob Trail, Anchorage US-AK 61.11678, -149.69056","2025-06-21 12:07",2,61.116782,-149.690564,TRUE,FALSE,TRUE,"S252879858"
"6","redpol1","Redpoll","Acanthis flammea","L28789992","Wolf Track Rd","2025-06-21 11:45",8,62.270912,-150.09464,TRUE,FALSE,TRUE,"S252888746"
"7","redpol1","Redpoll","Acanthis flammea","L46083990","Cemetery Hill to Vor Lake, Kotzebue","2025-06-21 11:16",6,66.889018,-162.55149,TRUE,FALSE,TRUE,"S252844650"
"8","redpol1","Redpoll","Acanthis flammea","L1067145","Kasilof--Kasilof River Mouth","2025-06-21 11:12",1,60.3859137,-151.302166,TRUE,FALSE,FALSE,"S252845020"
"9","redpol1","Redpoll","Acanthis flammea","L7615669","Utqiaġvik--Airport Bluffs","2025-06-21 10:34",1,71.285293,-156.8092219,TRUE,FALSE,FALSE,"S252848639"
"10","redpol1","Redpoll","Acanthis flammea","L19195167","Headwaters of the McArthur River","2025-06-21 09:52",2,61.0675085,-152.0510176,TRUE,FALSE,TRUE,"S252856338"
"11","redpol1","Redpoll","Acanthis flammea","L48001234","Seventeenmile Lake, Sutton US-AK (61.7148,-148.9769)","2025-06-21 09:47",11,61.714825,-148.976899,TRUE,FALSE,TRUE,"S252823682"
"12","redpol1","Redpoll","Acanthis flammea","L128537","Creamer's Field MWR","2025-06-21 09:23",1,64.86305,-147.7381727,TRUE,FALSE,FALSE,"S252809059"
"13","redpol1","Redpoll","Acanthis flammea","L585126","Palmer Hay Flats SGR--Reflections Lake","2025-06-21 09:20",4,61.4860865,-149.2568207,TRUE,FALSE,FALSE,"S252829316"
"14","redpol1","Redpoll","Acanthis flammea","L593153","Denali NP&P--Savage River Camp","2025-06-21 09:10",1,63.7141505,-149.2544174,TRUE,FALSE,FALSE,"S252895187"
"15","redpol1","Redpoll","Acanthis flammea","L2897911","Chugach SP--Wolverine Bowl Trail","2025-06-21 09:10",5,61.1401528,-149.6926582,TRUE,FALSE,FALSE,"S252846401"
"16","redpol1","Redpoll","Acanthis flammea","L13279908","3680 Hardluck Dr, Fairbanks US-AK 64.92922, -148.02347","2025-06-21 08:41",2,64.929215,-148.023468,TRUE,FALSE,TRUE,"S252775714"
"17","redpol1","Redpoll","Acanthis flammea","L491769","Unalaska Is.--Dutch Harbor","2025-06-21 08:30",1,53.8891656,-166.5398598,TRUE,FALSE,FALSE,"S252854281"
"18","redpol1","Redpoll","Acanthis flammea","L48169062","Cape Newenham (58.656, -162.08)","2025-06-21 08:12",1,58.6562714,-162.0803004,TRUE,FALSE,TRUE,"S252823820"
"19","redpol1","Redpoll","Acanthis flammea","L16651473","Bethel--Lion's Club River Walk","2025-06-21 08:07",15,60.7885012,-161.7720547,TRUE,FALSE,FALSE,"S252787636"
"20","redpol1","Redpoll","Acanthis flammea","L3535322","Dalton Hwy.--Galbraith Lake Campground","2025-06-21 08:06",1,68.4562124,-149.4808334,TRUE,FALSE,FALSE,"S252769906"
"21","redpol1","Redpoll","Acanthis flammea","L48169100","Cape Newenham (58.656, -162.075)","2025-06-21 07:56",1,58.6560279,-162.0747784,TRUE,FALSE,TRUE,"S252824002"
"22","redpol1","Redpoll","Acanthis flammea","L711323","Otto Lake","2025-06-21 07:42",1,63.8463098,-149.0364718,TRUE,FALSE,FALSE,"S252845956"
"23","redpol1","Redpoll","Acanthis flammea","L131039","Fairbanks International Airport--ponds","2025-06-21 07:40",5,64.8213599,-147.8650492,TRUE,FALSE,FALSE,"S252787242"
"24","redpol1","Redpoll","Acanthis flammea","L4854673","Talbot House","2025-06-21 07:30",1,61.1638058,-149.702872,TRUE,FALSE,TRUE,"S252753432"
"25","redpol1","Redpoll","Acanthis flammea","L25824809","1129 Eos Aerie, Fairbanks US-AK 64.91497, -147.53425","2025-06-21 07:30",2,64.914966,-147.534249,TRUE,FALSE,TRUE,"S252770440"
"26","redpol1","Redpoll","Acanthis flammea","L15082055","Mile 2 to 3 Denali Highway","2025-06-21 07:18",1,63.3746873,-148.8308557,TRUE,FALSE,TRUE,"S252834024"
"27","redpol1","Redpoll","Acanthis flammea","L523648","Palmer Hay Flats SGR--Cottonwood Creek access","2025-06-21 07:07",1,61.5110125,-149.5566702,TRUE,FALSE,FALSE,"S252755752"
"28","redpol1","Redpoll","Acanthis flammea","L24458212","Britchenstrap Dr","2025-06-21 06:54",2,61.65481,-149.15576,TRUE,FALSE,TRUE,"S252746490"
"29","redpol1","Redpoll","Acanthis flammea","L788324","Point Barrow--Base of the Point","2025-06-21 06:30",1,71.3434786,-156.6175384,TRUE,FALSE,FALSE,"S252771744"
"30","redpol1","Redpoll","Acanthis flammea","L526888","Tanana Lakes Recreation Area","2025-06-21 06:10",2,64.7966492,-147.7180481,TRUE,FALSE,FALSE,"S252891638"
"31","redpol1","Redpoll","Acanthis flammea","L9600622","Toolik Lake Public Access","2025-06-21 05:38",15,68.6319721,-149.585038,TRUE,FALSE,FALSE,"S252778801"
"32","redpol1","Redpoll","Acanthis flammea","L7754725","Drashner Lake","2025-06-21 05:21",1,63.3717401,-148.8392033,TRUE,FALSE,TRUE,"S252835043"
"33","redpol1","Redpoll","Acanthis flammea","L2222756","Utqiaġvik--South Salt Lagoons","2025-06-21 00:16",2,71.3121267,-156.7134476,TRUE,FALSE,FALSE,"S252604580"
"34","redpol1","Redpoll","Acanthis flammea","L927270","Nome-Council Rd.--Solomon","2025-06-20 23:15",4,64.5585058,-164.4438634,TRUE,FALSE,FALSE,"S252739198"
"35","redpol1","Redpoll","Acanthis flammea","L2897580","Utqiaġvik--Nunavaaq Rd.","2025-06-20 23:12",4,71.2757153,-156.8049967,TRUE,FALSE,FALSE,"S252605217"
"36","redpol1","Redpoll","Acanthis flammea","L48146842","Nome-Council Rd, Nome US-AK 64.44171, -164.89817","2025-06-20 22:38",3,64.441706,-164.898175,TRUE,FALSE,TRUE,"S252738923"
"37","redpol1","Redpoll","Acanthis flammea","L48156893","Beam Rd, Nome US-AK 64.73413, -165.24526","2025-06-20 21:39",2,64.734128,-165.245257,TRUE,FALSE,TRUE,"S252776690"
"38","redpol1","Redpoll","Acanthis flammea","L1128812","Homer--Alaska Islands & Oceans Visitor Center & Trails","2025-06-20 21:13",4,59.641132,-151.5389299,TRUE,FALSE,FALSE,"S252560576"
"39","redpol1","Redpoll","Acanthis flammea","L47823198","Karluk-Ahmaogak St. Field","2025-06-20 21:05",1,71.30475,-156.738073,TRUE,FALSE,TRUE,"S252574093"
"40","redpol1","Redpoll","Acanthis flammea","L48109566","Yukon Wildlife Refuge Office","2025-06-20 21:05",3,60.789365,-161.779645,TRUE,FALSE,TRUE,"S252564018"
"41","redpol1","Redpoll","Acanthis flammea","L1300999","Cheney Lake Park","2025-06-20 21:00",2,61.2002484,-149.7619794,TRUE,FALSE,FALSE,"S252702596"
"42","redpol1","Redpoll","Acanthis flammea","L48156833","Beam Rd, Nome US-AK 64.58925, -165.28421","2025-06-20 20:55",4,64.589247,-165.284205,TRUE,FALSE,TRUE,"S252776461"
"43","redpol1","Redpoll","Acanthis flammea","L48156680","Beam Rd, Nome US-AK 64.48910, -165.33230","2025-06-20 20:30",1,64.4891,-165.332296,TRUE,FALSE,TRUE,"S252775893"
"44","redpol1","Redpoll","Acanthis flammea","L48108060","6900–7226 Karluk St, Utqiagvik US-AK (71.3049,-156.7377)","2025-06-20 19:23",2,71.304862,-156.737669,TRUE,FALSE,TRUE,"S252555903"
"45","redpol1","Redpoll","Acanthis flammea","L525854","Old Matanuska Townsite","2025-06-20 18:52",5,61.548467,-149.229269,TRUE,FALSE,FALSE,"S252548958"
"46","redpol1","Redpoll","Acanthis flammea","L27318045","Kincaid Park--Sisson Loop","2025-06-20 18:40",2,61.1705301,-150.0531137,TRUE,FALSE,FALSE,"S252571262"
"47","redpol1","Redpoll","Acanthis flammea","L937659","Kenai--Tarbox Wildlife Viewing Platform","2025-06-20 18:02",2,60.5420341,-151.2194681,TRUE,FALSE,FALSE,"S252540493"
"48","redpol1","Redpoll","Acanthis flammea","L961319","Beluga--North Bog","2025-06-20 18:01",4,61.2094437,-151.0248041,TRUE,FALSE,FALSE,"S252565406"
"49","redpol1","Redpoll","Acanthis flammea","L763879","Potter Marsh Boardwalk","2025-06-20 17:54",2,61.0775802,-149.8262,TRUE,FALSE,FALSE,"S252541705"
"50","redpol1","Redpoll","Acanthis flammea","L698314","Pt. Woronzof","2025-06-20 17:52",1,61.2021951,-150.0204243,TRUE,FALSE,FALSE,"S252538616"
"51","redpol1","Redpoll","Acanthis flammea","L1244284","Kenai NWR--Skyline Trailhead","2025-06-20 16:47",8,60.5189897,-150.1887327,TRUE,FALSE,FALSE,"S252719897"
"52","redpol1","Redpoll","Acanthis flammea","L464475","Lake Clark NP--Silver Salmon Creek Lodge","2025-06-20 16:11",1,59.9887167,-152.6581333,TRUE,FALSE,FALSE,"S252516267"
"53","redpol1","Redpoll","Acanthis flammea","L9600626","Arctic NWR--Atigun Gorge","2025-06-20 15:42",1,68.4588295,-149.3329938,TRUE,FALSE,FALSE,"S252555340"
"54","redpol1","Redpoll","Acanthis flammea","L48096678","5000 Jewel Lake Rd, Anchorage US-AK 61.17582, -149.94418","2025-06-20 15:42",2,61.175819,-149.944179,TRUE,FALSE,TRUE,"S252508777"
"55","redpol1","Redpoll","Acanthis flammea","L14460586","Nome--Swanberg Dredge","2025-06-20 15:37",4,64.4923534,-165.3662109,TRUE,FALSE,FALSE,"S252580443"
"56","redpol1","Redpoll","Acanthis flammea","L11608141","Bethel--Small Boat Harbor","2025-06-20 15:31",1,60.7931625,-161.7369959,TRUE,FALSE,FALSE,"S252528128"
"57","redpol1","Redpoll","Acanthis flammea","L47815833","99723, Barrow US-AK 69.18599, -160.58453","2025-06-20 15:16",17,69.18599,-160.584531,TRUE,FALSE,TRUE,"S252502599"
"58","redpol1","Redpoll","Acanthis flammea","L48111135","Brushkana Creek Trail, Talkeetna US-AK 63.28982, -148.06573","2025-06-20 14:55",1,63.289823,-148.065734,TRUE,FALSE,TRUE,"S252572440"
"59","redpol1","Redpoll","Acanthis flammea","L912900","Hatcher Pass--Gold Mint Trail","2025-06-20 14:45",3,61.7787853,-149.1961384,TRUE,FALSE,FALSE,"S252496329"
"60","redpol1","Redpoll","Acanthis flammea","L48024414","Cape Newenham (58.659, -162.07)","2025-06-20 14:27",1,58.6589865,-162.0700259,TRUE,FALSE,TRUE,"S252538133"
"61","redpol1","Redpoll","Acanthis flammea","L48184876","Summit Creek alpine","2025-06-20 14:18",2,60.626363,-149.584045,TRUE,FALSE,TRUE,"S252883460"
"62","redpol1","Redpoll","Acanthis flammea","L7983234","Unalakleet (town)","2025-06-20 13:57",3,63.880643,-160.791146,TRUE,FALSE,FALSE,"S252750368"
"63","redpol1","Redpoll","Acanthis flammea","L4004485","Nome (town)","2025-06-20 13:56",2,64.5010632,-165.4081392,TRUE,FALSE,FALSE,"S252489781"
"64","redpol1","Redpoll","Acanthis flammea","L129129","Westchester Lagoon","2025-06-20 13:34",2,61.2070462,-149.9198785,TRUE,FALSE,FALSE,"S252504991"
"65","redpol1","Redpoll","Acanthis flammea","L48108092","Dalton Hwy, Barrow US-AK 68.05031, -149.62381","2025-06-20 13:24",1,68.050309,-149.623814,TRUE,FALSE,TRUE,"S252556085"
"66","redpol1","Redpoll","Acanthis flammea","L48086808","825 Balsam Dr, Fairbanks US-AK 64.89602, -147.51876","2025-06-20 12:45",1,64.896019,-147.518763,TRUE,FALSE,TRUE,"S252467726"
"67","redpol1","Redpoll","Acanthis flammea","L15301210","Chugach NF--Summit Creek Trailhead","2025-06-20 12:38",3,60.6172496,-149.5302987,TRUE,FALSE,FALSE,"S252883110"
"68","redpol1","Redpoll","Acanthis flammea","L7954887","Chugach SP--Williwaw Lakes Trail","2025-06-20 12:21",1,61.110309,-149.566389,TRUE,FALSE,FALSE,"S252538344"
"69","redpol1","Redpoll","Acanthis flammea","L9451403","Bethel--Pinky's Park","2025-06-20 11:48",4,60.7976592,-161.7851598,TRUE,FALSE,FALSE,"S252528407"
"70","redpol1","Redpoll","Acanthis flammea","L755300","Kougarok Rd.--Nome River","2025-06-20 11:30",12,64.6469307,-165.2924824,TRUE,FALSE,FALSE,"S252884699"
"71","redpol1","Redpoll","Acanthis flammea","L48103737","Ballpark Trail, Anchorage US-AK 61.10643, -149.60086","2025-06-20 11:15",1,61.106433,-149.600862,TRUE,FALSE,TRUE,"S252538406"
"72","redpol1","Redpoll","Acanthis flammea","L450388","Lake Hood & Lake Spenard","2025-06-20 11:09",2,61.1787982,-149.9607182,TRUE,FALSE,FALSE,"S252454386"
"73","redpol1","Redpoll","Acanthis flammea","L48088243","Seventeenmile Lake","2025-06-20 11:01",1,61.71484,-148.972995,TRUE,FALSE,TRUE,"S252473516"
"74","redpol1","Redpoll","Acanthis flammea","L48087722","7545A Transit St, Utqiagvik US-AK 71.30067, -156.73144","2025-06-20 10:48",2,71.300671,-156.731441,TRUE,FALSE,TRUE,"S252471925"
"75","redpol1","Redpoll","Acanthis flammea","L48084843","Tony Knowles Coastal Trail, Anchorage US-AK 61.20573, -149.93689","2025-06-20 10:37",2,61.205733,-149.936889,TRUE,FALSE,TRUE,"S252459495"
"76","redpol1","Redpoll","Acanthis flammea","L25321593","Rendezvous Peak Ridge","2025-06-20 10:32",1,61.2501342,-149.5065022,TRUE,FALSE,TRUE,"S252445145"
"77","redpol1","Redpoll","Acanthis flammea","L48103762","Little O'Malley Peak Trail, Anchorage US-AK 61.10597, -149.64074","2025-06-20 10:31",2,61.105973,-149.640735,TRUE,FALSE,TRUE,"S252538473"
"78","redpol1","Redpoll","Acanthis flammea","L48102950","Kodiak Is.--Salone Cr. Trail (57.662, -152.586)","2025-06-20 10:28",1,57.6622255,-152.5862497,TRUE,FALSE,TRUE,"S252535107"
"79","redpol1","Redpoll","Acanthis flammea","L626092","Eagle River Nature Center","2025-06-20 10:16",2,61.2342515,-149.2712295,TRUE,FALSE,FALSE,"S252443772"
"80","redpol1","Redpoll","Acanthis flammea","L1163308","Hatcher Pass--Independence Mine","2025-06-20 10:11",2,61.7827423,-149.2800808,TRUE,FALSE,FALSE,"S252462401"
"81","redpol1","Redpoll","Acanthis flammea","L48076408","Middle Fork Loop Trail, Anchorage US-AK 61.10441, -149.65746","2025-06-20 09:52",2,61.104413,-149.65746,TRUE,FALSE,TRUE,"S252426096"
"82","redpol1","Redpoll","Acanthis flammea","L48024193","Cape Newenham (58.653, -162.07)","2025-06-20 09:51",1,58.6529152,-162.0699437,TRUE,FALSE,TRUE,"S252446701"
"83","redpol1","Redpoll","Acanthis flammea","L48102906","Kodiak Is.--Salone Cr. Trail (57.673, -152.576)","2025-06-20 09:37",1,57.6728552,-152.5762444,TRUE,FALSE,TRUE,"S252534946"
"84","redpol1","Redpoll","Acanthis flammea","L47265237","17306 Charity Lane, Anchorage, Alaska, US (61.333, -149.559)","2025-06-20 09:35",1,61.3328077,-149.5592607,TRUE,FALSE,TRUE,"S252411154"
"85","redpol1","Redpoll","Acanthis flammea","L20238931","Utqiaġvik--Sakeagak St. & Kaleak St.","2025-06-20 09:21",1,71.2971448,-156.7028405,TRUE,FALSE,FALSE,"S252445233"
"86","redpol1","Redpoll","Acanthis flammea","L9672482","Denali SP--Little Coal Creek Trailhead","2025-06-20 09:21",4,62.8923106,-149.745827,TRUE,FALSE,FALSE,"S252482945"
"87","redpol1","Redpoll","Acanthis flammea","L48110453","38–62 Denali Hwy, Healy US-AK 63.38549, -148.46536","2025-06-20 09:17",2,63.385491,-148.465355,TRUE,FALSE,TRUE,"S252569532"
"88","redpol1","Redpoll","Acanthis flammea","L737323","Eklutna Tailrace","2025-06-20 09:05",2,61.4758628,-149.1500232,TRUE,FALSE,FALSE,"S252401117"
"89","redpol1","Redpoll","Acanthis flammea","L48110394","38–62 Denali Hwy, Nenana US-AK 63.39036, -148.60420","2025-06-20 08:54",2,63.390356,-148.604197,TRUE,FALSE,TRUE,"S252568333"
"90","redpol1","Redpoll","Acanthis flammea","L48028565","255–355 Whispering Meadows Ave, Homer US-AK 59.66139, -151.54900","2025-06-20 08:53",1,59.661386,-151.549005,TRUE,FALSE,TRUE,"S252434062"
"91","redpol1","Redpoll","Acanthis flammea","L47458036","Goose Bay Airport, Knik US-AK","2025-06-20 08:47",4,61.395363,-149.844601,TRUE,FALSE,TRUE,"S252856410"
"92","redpol1","Redpoll","Acanthis flammea","L16074971","3680 Hardluck Dr, Fairbanks US-AK 64.92923, -148.02354","2025-06-20 08:25",2,64.929231,-148.023535,TRUE,FALSE,TRUE,"S252389441"
"93","redpol1","Redpoll","Acanthis flammea","L4012902","Denali NP&P--Denali NP Rd. (Highway Pass)","2025-06-20 08:00",1,63.4813359,-150.138824,TRUE,FALSE,FALSE,"S252514746"
"94","redpol1","Redpoll","Acanthis flammea","L21453036","Forest Heights","2025-06-20 07:57",1,64.784206,-148.030877,TRUE,FALSE,TRUE,"S252400393"
"95","redpol1","Redpoll","Acanthis flammea","L4818997","Talkeetna River Mouth","2025-06-20 07:52",2,62.3257305,-150.1173055,TRUE,FALSE,FALSE,"S252414677"
"96","redpol1","Redpoll","Acanthis flammea","L47955430","21877 S H St, Talkeetna US-AK 62.32695, -150.09869","2025-06-20 07:32",1,62.326946,-150.098692,TRUE,FALSE,TRUE,"S252376748"
"97","redpol1","Redpoll","Acanthis flammea","L48182233","Nome-Council Rd, Nome US-AK 64.44249, -164.88140","2025-06-20 07:31",10,64.442495,-164.881404,TRUE,FALSE,TRUE,"S252873177"
"98","redpol1","Redpoll","Acanthis flammea","L724714","Chena Lake RA","2025-06-20 07:30",1,64.7706866,-147.2272682,TRUE,FALSE,FALSE,"S252478379"
"99","redpol1","Redpoll","Acanthis flammea","L573008","Denali Hwy.--Cantwell to MP 112 (Denali Borough)","2025-06-20 07:30",6,63.374877,-148.7613983,TRUE,FALSE,FALSE,"S252557541"
"100","redpol1","Redpoll","Acanthis flammea","L929964","Beluga--South Bog","2025-06-20 07:30",8,61.1223093,-151.1026955,TRUE,FALSE,FALSE,"S252565749"
"101","redpol1","Redpoll","Acanthis flammea","L12601609","Tyre Home","2025-06-20 07:26",5,61.1549447,-149.9931648,TRUE,FALSE,TRUE,"S252486144"
"102","redpol1","Redpoll","Acanthis flammea","L26295944","inlaws","2025-06-20 07:18",3,61.1514435,-150.0017853,TRUE,FALSE,TRUE,"S252534261"
"103","redpol1","Redpoll","Acanthis flammea","L2354046","Talkeetna--Talkeetna Lakes","2025-06-20 07:03",3,62.3001372,-150.06217,TRUE,FALSE,FALSE,"S252418570"
"104","redpol1","Redpoll","Acanthis flammea","L33919913","Mp 47.8, Taylor Hwy, Tok US-AK 63.87180, -142.22942","2025-06-20 06:58",1,63.871802,-142.229423,TRUE,FALSE,TRUE,"S252444933"
"105","redpol1","Redpoll","Acanthis flammea","L1206739","Nome-Council Rd.--Safety Sound Bridge","2025-06-20 06:57",20,64.4720541,-164.746685,TRUE,FALSE,FALSE,"S252488307"
"106","redpol1","Redpoll","Acanthis flammea","L593040","University Lake Dog Park","2025-06-20 06:51",1,61.1867933,-149.8023176,TRUE,FALSE,FALSE,"S252376763"
"107","redpol1","Redpoll","Acanthis flammea","L33919882","Mp 47.3, Taylor Hwy, Tok US-AK 63.86296, -142.23078","2025-06-20 06:51",3,63.862959,-142.230781,TRUE,FALSE,TRUE,"S252444662"
"108","redpol1","Redpoll","Acanthis flammea","L589773","Resurrection River Trail (Seward)","2025-06-20 06:51",1,60.1956438,-149.5879555,TRUE,FALSE,FALSE,"S252407870"
"109","redpol1","Redpoll","Acanthis flammea","L33919869","Mp 46.8, Taylor Hwy, Tok US-AK 63.85638, -142.22870","2025-06-20 06:45",1,63.856379,-142.2287,TRUE,FALSE,TRUE,"S252444383"
"110","redpol1","Redpoll","Acanthis flammea","L33919843","Mp 46.3, Taylor Hwy, Tok US-AK 63.84967, -142.22232","2025-06-20 06:40",1,63.849674,-142.222322,TRUE,FALSE,TRUE,"S252443872"
"111","redpol1","Redpoll","Acanthis flammea","L21928688","Unalakleet weir- nearby swamp","2025-06-20 06:30",2,63.89015,-160.48032,TRUE,FALSE,TRUE,"S252530927"
"112","redpol1","Redpoll","Acanthis flammea","L33919432","Mp 44.3, Taylor Hwy, Tok US-AK 63.82015, -142.21194","2025-06-20 06:07",1,63.820149,-142.211939,TRUE,FALSE,TRUE,"S252441823"
"113","redpol1","Redpoll","Acanthis flammea","L6559344","260","2025-06-20 05:40",3,61.5818825,-149.0052161,TRUE,FALSE,TRUE,"S252330179"
"114","redpol1","Redpoll","Acanthis flammea","L33919357","Mp 42, Taylor Hwy, Tok US-AK 63.79209, -142.21929","2025-06-20 05:40",2,63.792093,-142.219291,TRUE,FALSE,TRUE,"S252440335"
"115","redpol1","Redpoll","Acanthis flammea","L33919338","Mp 41.5, Taylor Hwy, Delta Junction US-AK 63.78507, -142.22681","2025-06-20 05:34",1,63.785071,-142.226814,TRUE,FALSE,TRUE,"S252440068"
"116","redpol1","Redpoll","Acanthis flammea","L48052771","3450 Aviation Ave, Anchorage US-AK (61.1750,-149.9472)","2025-06-20 05:18",4,61.175017,-149.947166,TRUE,FALSE,TRUE,"S252325564"
"117","redpol1","Redpoll","Acanthis flammea","L1217734","Toolik Field Station","2025-06-20 05:05",6,68.627808,-149.593389,TRUE,FALSE,FALSE,"S252363812"
"118","redpol1","Redpoll","Acanthis flammea","L33919262","Mp 39.3, Taylor Hwy, Tok US-AK 63.75853, -142.24902","2025-06-20 05:02",1,63.758529,-142.249016,TRUE,FALSE,TRUE,"S252436413"
"119","redpol1","Redpoll","Acanthis flammea","L33919231","Mp 38.5, Taylor Hwy, Delta Junction US-AK 63.75421, -142.25341","2025-06-20 04:57",1,63.754214,-142.25341,TRUE,FALSE,TRUE,"S252436137"
"120","redpol1","Redpoll","Acanthis flammea","L33919079","Mp 36.2, Taylor Hwy, Tok US-AK 63.72063, -142.28215","2025-06-20 04:27",2,63.720632,-142.282155,TRUE,FALSE,TRUE,"S252434190"
"121","redpol1","Redpoll","Acanthis flammea","L33917946","Mp 34, Taylor Hwy, Tok US-AK 63.69619, -142.25937","2025-06-20 04:05",1,63.696192,-142.259367,TRUE,FALSE,TRUE,"S252432967"
"122","redpol1","Redpoll","Acanthis flammea","L33917857","Mp 32.5, Taylor Hwy, Tok US-AK 63.67431, -142.26315","2025-06-20 03:49",1,63.674311,-142.263147,TRUE,FALSE,TRUE,"S252432025"
"123","redpol1","Redpoll","Acanthis flammea","L33917753","Mp 31.5, Taylor Hwy, Tok US-AK 63.66451, -142.27857","2025-06-20 03:37",1,63.664513,-142.278569,TRUE,FALSE,TRUE,"S252431310"
"124","redpol1","Redpoll","Acanthis flammea","L33917709","Mp 30.5, Taylor Hwy, Tok US-AK 63.65454, -142.29340","2025-06-20 03:26",1,63.654544,-142.293403,TRUE,FALSE,TRUE,"S252430646"
"125","redpol1","Redpoll","Acanthis flammea","L33917508","Mp 28, Taylor Hwy, Tok US-AK 63.62749, -142.32064","2025-06-20 02:57",1,63.627493,-142.320642,TRUE,FALSE,TRUE,"S252424204"
"126","redpol1","Redpoll","Acanthis flammea","L19181197","Utqiaġvik--East Browerville","2025-06-19 23:45",2,71.3013457,-156.7221229,TRUE,FALSE,FALSE,"S252251407"
"127","redpol1","Redpoll","Acanthis flammea","L246497","Gambell (general area)","2025-06-19 23:30",1,63.7793007,-171.7214584,TRUE,FALSE,FALSE,"S252256991"
"128","redpol1","Redpoll","Acanthis flammea","L3674065","Nome--Dry Creek Wetlands","2025-06-19 21:53",5,64.502299,-165.4165833,TRUE,FALSE,FALSE,"S252280735"
"129","redpol1","Redpoll","Acanthis flammea","L21180963","Utqiaġvik--Egasak St. Bird Feeder House","2025-06-19 21:44",3,71.290681,-156.795235,TRUE,FALSE,FALSE,"S252258409"
"130","redpol1","Redpoll","Acanthis flammea","L46848149","Utqiaġvik--Tahak-Stevenson St. Seawatch","2025-06-19 21:32",4,71.299897,-156.770387,TRUE,FALSE,TRUE,"S252233387"
"131","redpol1","Redpoll","Acanthis flammea","L24063188","Wolverine Lake , Palmer, Alaska, US (61.667, -148.961)","2025-06-19 21:11",1,61.6672063,-148.9608449,TRUE,FALSE,TRUE,"S252413703"
"132","redpol1","Redpoll","Acanthis flammea","L48108367","Dalton Hwy, Nenana US-AK (66.3055,-150.4003)","2025-06-19 21:05",1,66.305454,-150.400268,TRUE,FALSE,TRUE,"S252557444"
"133","redpol1","Redpoll","Acanthis flammea","L48031438","99645, Palmer US-AK 61.58312, -148.97739","2025-06-19 21:01",5,61.58312,-148.977389,TRUE,FALSE,TRUE,"S252222327"
"134","redpol1","Redpoll","Acanthis flammea","L48031876","Denali Highway, McLaren Summit To MP 32 Alaska, US (63.089, -146.406)","2025-06-19 20:51",2,63.089059,-146.4064162,TRUE,FALSE,TRUE,"S252224495"
"135","redpol1","Redpoll","Acanthis flammea","L551465","Kenai NWR--Headquarters","2025-06-19 20:30",3,60.4647289,-151.0733414,TRUE,FALSE,FALSE,"S252223253"
"136","redpol1","Redpoll","Acanthis flammea","L18999932","Kenai - Eagle Rock Boat Launch Kenai River Special Management Area Alaska State Parks","2025-06-19 20:10",2,60.5486548,-151.1100099,TRUE,FALSE,TRUE,"S252465144"
"137","redpol1","Redpoll","Acanthis flammea","L1339539","Kenai Flats--Sea Catch Dr. & Cannery Rd.","2025-06-19 19:35",1,60.5351637,-151.2629414,TRUE,FALSE,FALSE,"S252222045"
"138","redpol1","Redpoll","Acanthis flammea","L159271","Kincaid Park","2025-06-19 19:16",2,61.1530512,-150.0387812,TRUE,FALSE,FALSE,"S252390457"
"139","redpol1","Redpoll","Acanthis flammea","L8946215","Chugach SP--McHugh Peak","2025-06-19 18:45",2,61.0420963,-149.6670426,TRUE,FALSE,FALSE,"S252218811"
"140","redpol1","Redpoll","Acanthis flammea","L48031604","Denali Highway, Crazy Notch, Alaska, US (63.101, -146.609)","2025-06-19 18:12",8,63.1005647,-146.6088515,TRUE,FALSE,TRUE,"S252223110"
"141","redpol1","Redpoll","Acanthis flammea","L2742874","Dalton Hwy.--Hess Creek","2025-06-19 17:50",1,65.6653137,-149.0970898,TRUE,FALSE,FALSE,"S252558296"
"142","redpol1","Redpoll","Acanthis flammea","L941892","Denali Hwy.--Maclaren River Bridge","2025-06-19 17:13",2,63.1197993,-146.5311384,TRUE,FALSE,FALSE,"S252222836"
"143","redpol1","Redpoll","Acanthis flammea","L21937529","East Fork Chulitna Wayside","2025-06-19 17:02",7,63.1506534,-149.409771,TRUE,FALSE,FALSE,"S252215877"
"144","redpol1","Redpoll","Acanthis flammea","L15327438","Emmonak (town)","2025-06-19 16:02",1,62.7770795,-164.5321043,TRUE,FALSE,FALSE,"S252550705"
"145","redpol1","Redpoll","Acanthis flammea","L7337031","Chugach SP--Rabbit Creek","2025-06-19 15:49",6,61.079682,-149.678082,TRUE,FALSE,FALSE,"S252221046"
"146","redpol1","Redpoll","Acanthis flammea","L47477776","Red Dog Mine - CC Camp","2025-06-19 15:34",5,68.029401,-162.91972,TRUE,FALSE,TRUE,"S252235290"
"147","redpol1","Redpoll","Acanthis flammea","L1239142","Diamond Creek Gulch","2025-06-19 14:41",4,59.6738502,-151.6924262,TRUE,FALSE,FALSE,"S252186602"
"148","redpol1","Redpoll","Acanthis flammea","L48037877","Runners Avenue - Soldotna, AK (60.504, -151.189)","2025-06-19 14:13",4,60.5041679,-151.189387,TRUE,FALSE,TRUE,"S252253493"
"149","redpol1","Redpoll","Acanthis flammea","L1553488","Chugach SP--Beluga Pt.","2025-06-19 13:41",1,61.0069526,-149.6945632,TRUE,FALSE,FALSE,"S252225049"
"150","redpol1","Redpoll","Acanthis flammea","L47175209","4905 W Hill Rd, Homer US-AK 59.66219, -151.57264","2025-06-19 13:35",1,59.662189,-151.572642,TRUE,FALSE,TRUE,"S252163892"
"151","redpol1","Redpoll","Acanthis flammea","L610486","Utqiaġvik--Funakoshi Memorial","2025-06-19 13:31",1,71.287852,-156.8019176,TRUE,FALSE,FALSE,"S252191848"
"152","redpol1","Redpoll","Acanthis flammea","L48032090","Carrie McLain Memorial Museum - Nome","2025-06-19 11:50",6,64.5027561,-165.3984404,TRUE,FALSE,TRUE,"S252226076"
"153","redpol1","Redpoll","Acanthis flammea","L48008781","Bird Point Spur Trail, Anchorage, Alaska, US (60.929, -149.346)","2025-06-19 11:44",1,60.9289025,-149.346321,TRUE,FALSE,TRUE,"S252175896"
"154","redpol1","Redpoll","Acanthis flammea","L10680702","Kenai NWR--Skilak Lake Rd. (east)","2025-06-19 11:42",3,60.475779,-150.1345627,TRUE,FALSE,FALSE,"S252130824"
"155","redpol1","Redpoll","Acanthis flammea","L1261257","Chugach SP--Bird Pt.","2025-06-19 11:28",1,60.9290469,-149.3465524,TRUE,FALSE,FALSE,"S252115882"
"156","redpol1","Redpoll","Acanthis flammea","L47931100","74294 Anchor Point Rd, Anchor Point US-AK 59.77201, -151.86756","2025-06-19 11:28",2,59.772007,-151.867557,TRUE,FALSE,TRUE,"S252108397"
"157","redpol1","Redpoll","Acanthis flammea","L2222767","Utqiaġvik--Middle Salt Lagoon (S end)","2025-06-19 11:18",1,71.3051952,-156.6897583,TRUE,FALSE,FALSE,"S252191985"
"158","redpol1","Redpoll","Acanthis flammea","L2725332","Beluga--Threemile Creek Mouth","2025-06-19 11:18",2,61.1428624,-151.0732877,TRUE,FALSE,FALSE,"S252147220"
"159","redpol1","Redpoll","Acanthis flammea","L1229357","Denali NP&P--Savage Alpine Trail","2025-06-19 11:09",2,63.7426387,-149.2688322,TRUE,FALSE,FALSE,"S252167170"
"160","redpol1","Redpoll","Acanthis flammea","L47956175","Dewline Road, Utqiagvik, Alaska, US (71.333, -156.648)","2025-06-19 10:59",2,71.3333541,-156.6477359,TRUE,FALSE,TRUE,"S252130382"
"161","redpol1","Redpoll","Acanthis flammea","L790945","Point Barrow","2025-06-19 10:26",1,71.3870157,-156.4774776,TRUE,FALSE,FALSE,"S252257239"
"162","redpol1","Redpoll","Acanthis flammea","L25147707","Carl E. Wynn Nature Center Visitor Center “Gateway to the Ridge”","2025-06-19 10:08",NA,59.682097,-151.477969,TRUE,FALSE,TRUE,"S252091721"
"163","redpol1","Redpoll","Acanthis flammea","L2217402","Kotzebue lagoon and east hills","2025-06-19 09:58",4,66.8867023,-162.5568008,TRUE,FALSE,TRUE,"S252161966"
"164","redpol1","Redpoll","Acanthis flammea","L7599866","Kougarok Rd.--Mile 64 Lake","2025-06-19 09:45",2,65.1727249,-164.8244584,TRUE,FALSE,FALSE,"S252202598"
"165","redpol1","Redpoll","Acanthis flammea","L47537437","USFWS Eider Project Survey Area","2025-06-19 09:34",1,71.275283,-156.685523,TRUE,FALSE,TRUE,"S252163769"
"166","redpol1","Redpoll","Acanthis flammea","L5993100","Mt. McKinley Princess Wilderness Lodge","2025-06-19 09:33",2,62.5584721,-150.2295613,TRUE,FALSE,FALSE,"S252107790"
"167","redpol1","Redpoll","Acanthis flammea","L47997098","4822 Give-A-Way Street, North Pole, Alaska, US (64.71, -147.142)","2025-06-19 09:24",1,64.7100478,-147.1415121,TRUE,FALSE,TRUE,"S252075475"
"168","redpol1","Redpoll","Acanthis flammea","L1214940","Utqiaġvik (town; please use a more specific location)","2025-06-19 09:15",2,71.2906914,-156.7885494,TRUE,FALSE,FALSE,"S252371191"
"169","redpol1","Redpoll","Acanthis flammea","L1563949","Denali SP--Denali Viewpoint South","2025-06-19 09:12",4,62.5929776,-150.2405289,TRUE,FALSE,FALSE,"S252075631"
"170","redpol1","Redpoll","Acanthis flammea","L48028373","Restricted Area, North Slope","2025-06-19 09:00",12,70.301232,-151.1378029,TRUE,FALSE,TRUE,"S252209595"
"171","redpol1","Redpoll","Acanthis flammea","L17555294","Powers Creek","2025-06-19 08:45",4,63.93626,-160.82941,TRUE,FALSE,TRUE,"S252530854"
"172","redpol1","Redpoll","Acanthis flammea","L48016401","East Of Tangle Lakes,  Alaska, US (63.058, -145.955)","2025-06-19 08:36",3,63.0580018,-145.9548551,TRUE,FALSE,TRUE,"S252154014"
"173","redpol1","Redpoll","Acanthis flammea","L48003373","Dalton Highway, Anchorage, Alaska, US (69.006, -148.816)","2025-06-19 08:18",2,69.0056826,-148.8161479,TRUE,FALSE,TRUE,"S252100430"
"174","redpol1","Redpoll","Acanthis flammea","L1128506","Homer--Crittenden Dr.","2025-06-19 08:15",5,59.6403702,-151.555506,TRUE,FALSE,FALSE,"S252132236"
"175","redpol1","Redpoll","Acanthis flammea","L20696459","Kiana Park","2025-06-19 08:12",4,64.8321481,-147.789077,TRUE,FALSE,TRUE,"S252051807"
"176","redpol1","Redpoll","Acanthis flammea","L9482456","Steese Hwy.--mm 26 vicinity","2025-06-19 08:08",2,65.1016367,-147.446695,TRUE,FALSE,FALSE,"S252090134"
"177","redpol1","Redpoll","Acanthis flammea","L13508121","3680 Hardluck Dr, Fairbanks US-AK 64.92934, -148.02342","2025-06-19 07:45",2,64.92934,-148.023422,TRUE,FALSE,TRUE,"S252042885"
"178","redpol1","Redpoll","Acanthis flammea","L21925562","Unalakleet, north of town","2025-06-19 07:34",3,63.9131,-160.81681,TRUE,FALSE,TRUE,"S252530756"
"179","redpol1","Redpoll","Acanthis flammea","L47511168","7636 N Showers St, Palmer US-AK 61.66822, -149.18305","2025-06-19 07:31",2,61.66822,-149.183047,TRUE,FALSE,TRUE,"S252034638"
"180","redpol1","Redpoll","Acanthis flammea","L47953917","Denali Hwy, Talkeetna US-AK 63.04457, -147.00280","2025-06-19 07:28",1,63.044566,-147.002795,TRUE,FALSE,TRUE,"S252370338"
"181","redpol1","Redpoll","Acanthis flammea","L21925584","Unalakleet, north of town","2025-06-19 07:22",4,63.91175,-160.80706,TRUE,FALSE,TRUE,"S252530662"
"182","redpol1","Redpoll","Acanthis flammea","L7563703","Ballaine Rd.--Goldstream Creek","2025-06-19 07:05",3,64.9118079,-147.8315934,TRUE,FALSE,FALSE,"S252047908"
"183","redpol1","Redpoll","Acanthis flammea","L11710802","Wasilla Lake","2025-06-19 07:02",1,61.5848326,-149.4023107,TRUE,FALSE,FALSE,"S252025660"
"184","redpol1","Redpoll","Acanthis flammea","L48101716","N River Rd, Unalakleet US-AK 63.90351, -160.79570","2025-06-19 06:49",5,63.90351,-160.795705,TRUE,FALSE,TRUE,"S252530289"
"185","redpol1","Redpoll","Acanthis flammea","L279360","Nome River Mouth","2025-06-19 06:21",8,64.4831392,-165.3024186,TRUE,FALSE,FALSE,"S252869337"
"186","redpol1","Redpoll","Acanthis flammea","L794784","Chugach NF--Johnson Lake","2025-06-19 06:18",NA,60.6031074,-149.2527008,TRUE,FALSE,FALSE,"S252193207"
"187","redpol1","Redpoll","Acanthis flammea","L30941857","Vista Gold Neighborhood","2025-06-19 06:07",2,64.9536325,-147.8487843,TRUE,FALSE,TRUE,"S252009192"
"188","redpol1","Redpoll","Acanthis flammea","L21161705","Utqiaġvik--Whale Bone Arch","2025-06-19 00:00",3,71.298579,-156.773667,TRUE,FALSE,FALSE,"S251925870"
"189","redpol1","Redpoll","Acanthis flammea","L5928803","Nome-Council Rd.--Nome River to Cape Nome","2025-06-18 22:41",3,64.4477456,-165.0624213,TRUE,FALSE,FALSE,"S251929693"
"190","redpol1","Redpoll","Acanthis flammea","L9297170","Second Bridge--lagoon & wetlands","2025-06-18 22:35",2,66.8949965,-162.566362,TRUE,FALSE,FALSE,"S252161708"
"191","redpol1","Redpoll","Acanthis flammea","L629416","Nome-Council Rd.--Nome to Nome River","2025-06-18 20:56",4,64.490727,-165.3564262,TRUE,FALSE,FALSE,"S251929477"
"192","redpol1","Redpoll","Acanthis flammea","L47957466","481 N Parks Hwy, Talkeetna US-AK 62.55826, -150.22954","2025-06-18 20:39",2,62.558259,-150.229537,TRUE,FALSE,TRUE,"S251896498"
"193","redpol1","Redpoll","Acanthis flammea","L47956349","Bethel --7th avenue","2025-06-18 19:47",14,60.79805,-161.774067,TRUE,FALSE,TRUE,"S251890495"
"194","redpol1","Redpoll","Acanthis flammea","L737445","Palmer Hay Flats SGR--Rabbit Slough Access Rd.","2025-06-18 19:45",1,61.5368722,-149.2616701,TRUE,FALSE,FALSE,"S251889296"
"195","redpol1","Redpoll","Acanthis flammea","L1564824","Teller Road--Knob Hill","2025-06-18 19:36",10,64.5918007,-165.5538889,TRUE,FALSE,TRUE,"S251923728"
"196","redpol1","Redpoll","Acanthis flammea","L10248168","Chugach SP--Powerline Trail","2025-06-18 19:31",2,61.09988,-149.664341,TRUE,FALSE,FALSE,"S251907021"
"197","redpol1","Redpoll","Acanthis flammea","L2084913","Utqiaġvik--Old Landfill","2025-06-18 18:43",2,71.3148079,-156.721344,TRUE,FALSE,FALSE,"S251889286"
"198","redpol1","Redpoll","Acanthis flammea","L18017515","Chevak (town)","2025-06-18 18:18",2,61.5275414,-165.5900811,TRUE,FALSE,FALSE,"S252550764"
"199","redpol1","Redpoll","Acanthis flammea","L1164838","My Yard - 5900 Our Rd, Butte area","2025-06-18 18:06",1,61.5142019,-149.0548825,TRUE,FALSE,TRUE,"S251883304"
"200","redpol1","Redpoll","Acanthis flammea","L3678931","Taku Lake","2025-06-18 17:45",1,61.1507424,-149.8810351,TRUE,FALSE,FALSE,"S251879645"
"201","redpol1","Redpoll","Acanthis flammea","L1766252","Homer--Baycrest Trails","2025-06-18 17:33",3,59.6591348,-151.626666,TRUE,FALSE,FALSE,"S251892575"
"202","redpol1","Redpoll","Acanthis flammea","L4816742","Big Lake North SRS","2025-06-18 17:26",1,61.547092,-149.8542184,TRUE,FALSE,FALSE,"S251873273"
"203","redpol1","Redpoll","Acanthis flammea","L47952074","32750 Eagle River Road, Anchorage, Alaska, US (61.234, -149.271)","2025-06-18 17:19",1,61.2342754,-149.2710937,TRUE,FALSE,TRUE,"S251871099"
"204","redpol1","Redpoll","Acanthis flammea","L736019","Utqiaġvik--Naval Arctic Research Lab","2025-06-18 16:48",2,71.326271,-156.6744804,TRUE,FALSE,FALSE,"S252077231"
"205","redpol1","Redpoll","Acanthis flammea","L2999574","Denali Park Village","2025-06-18 16:11",1,63.655667,-148.833078,TRUE,FALSE,FALSE,"S251856646"
"206","redpol1","Redpoll","Acanthis flammea","L685834","Alaska Maritime NWR--Buldir Island","2025-06-18 15:39",2,52.3504409,175.9172058,TRUE,FALSE,FALSE,"S251927681"
"207","redpol1","Redpoll","Acanthis flammea","L7230560","Kodiak Is.--Pyramid Mountain","2025-06-18 15:30",1,57.8060839,-152.5947526,TRUE,FALSE,FALSE,"S251903271"
"208","redpol1","Redpoll","Acanthis flammea","L48103794","Rabbit Lake Trail, Anchorage US-AK 61.05841, -149.63350","2025-06-18 15:18",2,61.058413,-149.6335,TRUE,FALSE,TRUE,"S252538597"
"209","redpol1","Redpoll","Acanthis flammea","L950264","Homer--Wynn Nature Center","2025-06-18 14:52",4,59.6847928,-151.4733553,TRUE,FALSE,FALSE,"S251892634"
"210","redpol1","Redpoll","Acanthis flammea","L3034707","Kincaid Park--Little Campbell Lake","2025-06-18 14:50",4,61.1616013,-150.0241041,TRUE,FALSE,FALSE,"S251851967"
"211","redpol1","Redpoll","Acanthis flammea","L48103805","Rabbit Lake Trail, Anchorage US-AK 61.06864, -149.65961","2025-06-18 14:50",3,61.068637,-149.659611,TRUE,FALSE,TRUE,"S252538643"
"212","redpol1","Redpoll","Acanthis flammea","L22666134","Denali Hwy.--mm 126.5 Lake","2025-06-18 14:50",2,63.3946929,-148.6707815,TRUE,FALSE,FALSE,"S251899153"
"213","redpol1","Redpoll","Acanthis flammea","L48103835","Rabbit Lake Trail, Anchorage US-AK 61.07939, -149.67771","2025-06-18 14:28",1,61.079394,-149.677714,TRUE,FALSE,TRUE,"S252538737"
"214","redpol1","Redpoll","Acanthis flammea","L11458258","Nome-Teller Hwy.--37 Mile Ridge","2025-06-18 14:07",2,64.8468224,-166.0983662,TRUE,FALSE,FALSE,"S252000589"
"215","redpol1","Redpoll","Acanthis flammea","L19624711","Denali Hwy.--Swede Mountain Trail","2025-06-18 14:07",1,63.049119,-145.966696,TRUE,FALSE,FALSE,"S251882657"
"216","redpol1","Redpoll","Acanthis flammea","L2864133","Goose Bay SGR","2025-06-18 13:25",1,61.3914177,-149.8669052,TRUE,FALSE,FALSE,"S251898474"
"217","redpol1","Redpoll","Acanthis flammea","L998890","Bethel--Hangar Lake","2025-06-18 13:20",2,60.8037385,-161.7179775,TRUE,FALSE,FALSE,"S251827988"
"218","redpol1","Redpoll","Acanthis flammea","L8682934","Chugach SP--Glen Alps Trailhead","2025-06-18 11:56",2,61.103076,-149.6836299,TRUE,FALSE,FALSE,"S252527838"
"219","redpol1","Redpoll","Acanthis flammea","L7486041","Utqiaġvik--Nunavaaq Rd. Gravel Pit","2025-06-18 11:55",2,71.280187,-156.818218,TRUE,FALSE,FALSE,"S251812451"
"220","redpol1","Redpoll","Acanthis flammea","L47940096","Indian House Trail","2025-06-18 11:53",1,60.983549,-149.540377,TRUE,FALSE,TRUE,"S251813764"
"221","redpol1","Redpoll","Acanthis flammea","L47956535","Beam Rd, Nome US-AK 64.78298, -165.21195","2025-06-18 11:38",2,64.78298,-165.211947,TRUE,FALSE,TRUE,"S251891379"
"222","redpol1","Redpoll","Acanthis flammea","L8318147","Upper O'Malley Trailhead, Chugach State Park","2025-06-18 10:59",5,61.1193972,-149.714427,TRUE,FALSE,FALSE,"S252527780"
"223","redpol1","Redpoll","Acanthis flammea","L47956507","Beam Rd, Nome US-AK 64.60399, -165.29655","2025-06-18 10:51",1,64.603985,-165.296551,TRUE,FALSE,TRUE,"S251891220"
"224","redpol1","Redpoll","Acanthis flammea","L48016006","Baird Canyon NVE Camp, Copper River (60.8, -144.5)","2025-06-18 10:36",4,60.7999463,-144.5000952,TRUE,FALSE,TRUE,"S252153081"
"225","redpol1","Redpoll","Acanthis flammea","L47956473","Auto selected 64.56180, -165.34437","2025-06-18 10:34",2,64.561805,-165.344371,TRUE,FALSE,TRUE,"S251891074"
"226","redpol1","Redpoll","Acanthis flammea","L9476899","Eielson AFB--Cathers Lake (restricted access)","2025-06-18 10:32",2,64.7130465,-147.1217588,TRUE,FALSE,FALSE,"S251867588"
"227","redpol1","Redpoll","Acanthis flammea","L9574329","Utqiaġvik--Nunavaaq Bay","2025-06-18 10:26",2,71.2510564,-156.8600337,TRUE,FALSE,FALSE,"S251813341"
"228","redpol1","Redpoll","Acanthis flammea","L47954567","Swampbuggy Lake, Talkeetna US-AK 63.05485, -147.41632","2025-06-18 10:25",1,63.054846,-147.416323,TRUE,FALSE,TRUE,"S251882308"
"229","redpol1","Redpoll","Acanthis flammea","L47978465","Bob Blodgett Hwy, Nome US-AK 64.60092, -165.68046","2025-06-18 10:13",8,64.600918,-165.680463,TRUE,FALSE,TRUE,"S252000423"
"230","redpol1","Redpoll","Acanthis flammea","L42899138","Lalen Lake","2025-06-18 10:00",7,61.6046584,-149.6893687,TRUE,FALSE,FALSE,"S251769813"
"231","redpol1","Redpoll","Acanthis flammea","L1212588","Utqiaġvik--Fresh Water Lake Rd.","2025-06-18 09:49",1,71.2612449,-156.7718339,TRUE,FALSE,FALSE,"S251862295"
"232","redpol1","Redpoll","Acanthis flammea","L48016029","Denali Highway, North Of Swede Mtn Trail, Alaska, US (63.049, -145.967)","2025-06-18 09:47",7,63.0492125,-145.9667408,TRUE,FALSE,TRUE,"S252152386"
"233","redpol1","Redpoll","Acanthis flammea","L809157","Matanuska Lakes SRA-Long Lake Loop","2025-06-18 09:33",2,61.5605275,-149.1962242,TRUE,FALSE,FALSE,"S251869376"
"234","redpol1","Redpoll","Acanthis flammea","L572398","Hillside Park","2025-06-18 09:31",8,61.1380476,-149.7532385,TRUE,FALSE,FALSE,"S252527748"
"235","redpol1","Redpoll","Acanthis flammea","L2898401","Nome-Teller Hwy.--Snake River","2025-06-18 09:25",8,64.5643458,-165.5115759,TRUE,FALSE,FALSE,"S252000297"
"236","redpol1","Redpoll","Acanthis flammea","L33511474","Nome Airport","2025-06-18 09:05",1,64.507399,-165.441657,TRUE,FALSE,FALSE,"S251760993"
"237","redpol1","Redpoll","Acanthis flammea","L11841327","Denali Hwy.--Canyon Creek Bridge (MP P95)","2025-06-18 08:56",5,63.2454384,-147.8043908,TRUE,FALSE,FALSE,"S251881892"
"238","redpol1","Redpoll","Acanthis flammea","L25178508","Aufeis area W of Galbraith","2025-06-18 08:52",2,68.4727158,-149.5291766,TRUE,FALSE,TRUE,"S251782180"
"239","redpol1","Redpoll","Acanthis flammea","L159269","Earthquake Park","2025-06-18 08:49",8,61.196908,-149.9752557,TRUE,FALSE,FALSE,"S251886442"
"240","redpol1","Redpoll","Acanthis flammea","L33712380","Sandy River Lodge","2025-06-18 08:42",7,56.231547,-160.067524,TRUE,FALSE,TRUE,"S251902633"
"241","redpol1","Redpoll","Acanthis flammea","L294958","Nome--Correctional Facility (Willows)","2025-06-18 08:39",8,64.5405389,-165.4149333,TRUE,FALSE,FALSE,"S251999897"
"242","redpol1","Redpoll","Acanthis flammea","L47956617","Richardson Hwy, Gakona US-AK 61.11855, -145.68474","2025-06-18 08:38",3,61.118546,-145.684735,TRUE,FALSE,TRUE,"S251891836"
"243","redpol1","Redpoll","Acanthis flammea","L20933174","Swan Lake Boardwalk","2025-06-18 08:37",3,61.5488195,-149.3290021,TRUE,FALSE,FALSE,"S251756855"
"244","redpol1","Redpoll","Acanthis flammea","L1579238","Utqiaġvik--Cakeeater Rd.","2025-06-18 08:30",2,71.2879072,-156.6631195,TRUE,FALSE,FALSE,"S252049324"
"245","redpol1","Redpoll","Acanthis flammea","L14067806","3680 Hardluck Dr, Fairbanks US-AK 64.92924, -148.02347","2025-06-18 08:27",2,64.929235,-148.02347,TRUE,FALSE,TRUE,"S251743212"
"246","redpol1","Redpoll","Acanthis flammea","L47921182","Sand Point Airport","2025-06-18 08:07",5,55.3181605,-160.5223205,TRUE,FALSE,TRUE,"S251733182"
"247","redpol1","Redpoll","Acanthis flammea","L33937493","The Berm","2025-06-18 08:05",2,61.611793,-149.211351,TRUE,FALSE,TRUE,"S251749038"
"248","redpol1","Redpoll","Acanthis flammea","L30944419","Honey Bear Lane, Anchorage US-AK (61.0734,-149.7073)","2025-06-18 07:55",2,61.073399,-149.70727,TRUE,FALSE,TRUE,"S251730762"
"249","redpol1","Redpoll","Acanthis flammea","L33958791","Saltery Cove Road, Kodiak, Alaska, US (57.636, -152.526)","2025-06-18 07:49",1,57.6358644,-152.5261911,TRUE,FALSE,TRUE,"S251893045"
"250","redpol1","Redpoll","Acanthis flammea","L33776581","Chugach SP--Grandview Trail","2025-06-18 07:16",2,61.072423,-149.688116,TRUE,FALSE,FALSE,"S252236281"
"251","redpol1","Redpoll","Acanthis flammea","L11126479","Spenard--Romig Pl./W 23rd/Culver Pl./Hillcrest Dr.","2025-06-18 06:37",1,61.1999682,-149.9100536,TRUE,FALSE,TRUE,"S251723803"
"252","redpol1","Redpoll","Acanthis flammea","L2915999","Paxson Lake Campground","2025-06-18 06:34",8,62.8843508,-145.5230023,TRUE,FALSE,FALSE,"S252151778"
"253","redpol1","Redpoll","Acanthis flammea","L47888272","Taylor Hwy, Delta Junction US-AK 64.05188, -142.04628","2025-06-18 06:20",3,64.051884,-142.046278,TRUE,FALSE,TRUE,"S251731169"
"254","redpol1","Redpoll","Acanthis flammea","L47889256","771 Eton Boulevard, Fairbanks, Alaska, US (64.892, -147.789)","2025-06-18 05:09",1,64.8921945,-147.7885295,TRUE,FALSE,TRUE,"S251734061"
"255","redpol1","Redpoll","Acanthis flammea","L47641131","Nome-Council Rd--(64.47636, -165.24757)","2025-06-17 22:27",1,64.476365,-165.24757,TRUE,FALSE,TRUE,"S251591484"
"256","redpol1","Redpoll","Acanthis flammea","L44514160","99652, Big Lake US-AK 61.81799, -150.36179","2025-06-17 21:42",1,61.817992,-150.361789,TRUE,FALSE,TRUE,"S251595571"
"257","redpol1","Redpoll","Acanthis flammea","L46634136","Taku Lake Park, Anchorage US-AK (61.1517,-149.8808)","2025-06-17 20:17",8,61.151734,-149.880798,TRUE,FALSE,TRUE,"S251576169"
"258","redpol1","Redpoll","Acanthis flammea","L4830353","Denali Hwy.--Seventeen Mile Lake","2025-06-17 19:23",24,63.0417855,-145.8861981,TRUE,FALSE,FALSE,"S252151938"
"259","redpol1","Redpoll","Acanthis flammea","L21120246","Bethel- Blueberry Subdivision","2025-06-17 18:54",6,60.7895133,-161.8075488,TRUE,FALSE,TRUE,"S251560478"
"260","redpol1","Redpoll","Acanthis flammea","L159273","Tony Knowles Coastal Trail--Chester Creek to Ship Creek","2025-06-17 18:28",1,61.2155506,-149.9119878,TRUE,FALSE,FALSE,"S251560011"
"261","redpol1","Redpoll","Acanthis flammea","L47888956","Nome-Council Rd, Nome US-AK (64.6554,-164.3184)","2025-06-17 18:27",1,64.655376,-164.318415,TRUE,FALSE,TRUE,"S251566545"
"262","redpol1","Redpoll","Acanthis flammea","L1295822","Utqiaġvik--Cemetery","2025-06-17 18:19",4,71.2899205,-156.7743874,TRUE,FALSE,FALSE,"S251605395"
"263","redpol1","Redpoll","Acanthis flammea","L47885505","Airport Access Rd. (66.892, -162.601)","2025-06-17 17:38",2,66.8921544,-162.6010823,TRUE,FALSE,TRUE,"S251552041"
"264","redpol1","Redpoll","Acanthis flammea","L47891198","Nome-Council Rd, Nome US-AK (64.7294,-163.9636)","2025-06-17 17:11",4,64.729373,-163.963567,TRUE,FALSE,TRUE,"S251578428"
"265","redpol1","Redpoll","Acanthis flammea","L17670807","Bethel--Sand Pits","2025-06-17 17:04",4,60.7888168,-161.8550263,TRUE,FALSE,FALSE,"S251545068"
"266","redpol1","Redpoll","Acanthis flammea","L47888764","Nome-Council Rd, Nome US-AK 64.69720, -164.17851","2025-06-17 16:47",2,64.697196,-164.17851,TRUE,FALSE,TRUE,"S251565697"
"267","redpol1","Redpoll","Acanthis flammea","L1160359","Campbell Tract--Campbell Creek Science Center","2025-06-17 16:34",2,61.164522,-149.7774482,TRUE,FALSE,FALSE,"S251537227"
"268","redpol1","Redpoll","Acanthis flammea","L47882943","Ted Stevens Way (66.888, -162.547)","2025-06-17 16:07",2,66.8882111,-162.5469679,TRUE,FALSE,TRUE,"S251539734"
"269","redpol1","Redpoll","Acanthis flammea","L988745","Kenai Fjords NP--Kenai Fjords Glacier Lodge","2025-06-17 15:52",1,59.8842862,-149.7302628,TRUE,FALSE,FALSE,"S252198838"
"270","redpol1","Redpoll","Acanthis flammea","L2898838","Nome-Council Rd.--East Fork Solomon River","2025-06-17 15:46",4,64.6923069,-164.2767835,TRUE,FALSE,FALSE,"S251565672"
"271","redpol1","Redpoll","Acanthis flammea","L33055606","Nome-Council Rd.--Last Train to Nowhere","2025-06-17 15:04",14,64.545843,-164.436344,TRUE,FALSE,FALSE,"S251565617"
"272","redpol1","Redpoll","Acanthis flammea","L3717427","Nome-Council Rd.--Safety Sound Bridge to Last Train to Nowhere","2025-06-17 14:53",3,64.5153332,-164.5622527,TRUE,FALSE,FALSE,"S251565569"
"273","redpol1","Redpoll","Acanthis flammea","L9141390","Abbott Loop Community Park","2025-06-17 14:31",1,61.1483486,-149.8005495,TRUE,FALSE,FALSE,"S251519458"
"274","redpol1","Redpoll","Acanthis flammea","L47885753","Aleknagik Rd, Aleknagik US-AK 59.24635, -158.64458","2025-06-17 13:50",4,59.246355,-158.644581,TRUE,FALSE,TRUE,"S251553129"
"275","redpol1","Redpoll","Acanthis flammea","L12365415","Newman's Park, Willow US-AK 61.75757, -150.08995","2025-06-17 13:50",2,61.757566,-150.089948,TRUE,FALSE,TRUE,"S251513048"
"276","redpol1","Redpoll","Acanthis flammea","L15412239","Richardson Hwy.--Isabel Pass","2025-06-17 13:06",1,63.1683168,-145.5330468,TRUE,FALSE,FALSE,"S251555748"
"277","redpol1","Redpoll","Acanthis flammea","L22747057","Banner Creek","2025-06-17 12:55",25,64.6410029,-165.3001999,TRUE,FALSE,TRUE,"S251503344"
"278","redpol1","Redpoll","Acanthis flammea","L48086904","F Street","2025-06-17 12:30",1,61.2160597,-149.8935963,TRUE,FALSE,TRUE,"S252468448"
"279","redpol1","Redpoll","Acanthis flammea","L47870736","574 Seward St, Dillingham US-AK 59.04282, -158.46271","2025-06-17 12:24",3,59.042818,-158.462705,TRUE,FALSE,TRUE,"S251483349"
"280","redpol1","Redpoll","Acanthis flammea","L47877621","Beach Lake Park, Anchorage US-AK 61.37551, -149.54061","2025-06-17 11:32",1,61.375505,-149.540607,TRUE,FALSE,TRUE,"S251514136"
"281","redpol1","Redpoll","Acanthis flammea","L850357","Northwood Park","2025-06-17 10:50",1,61.1783948,-149.9294758,TRUE,FALSE,FALSE,"S251462149"
"282","redpol1","Redpoll","Acanthis flammea","L2655926","Banner Creek home","2025-06-17 10:30",15,64.6384396,-165.2850151,TRUE,FALSE,TRUE,"S251559235"
"283","redpol1","Redpoll","Acanthis flammea","L1783363","Alaska Wildlife Conservation Center","2025-06-17 10:20",2,60.8215092,-148.9844546,TRUE,FALSE,FALSE,"S251833242"
"284","redpol1","Redpoll","Acanthis flammea","L159272","Spenard Crossing","2025-06-17 10:14",1,61.2040178,-149.905293,TRUE,FALSE,FALSE,"S251477663"
"285","redpol1","Redpoll","Acanthis flammea","L1664751","Nome-Council Rd.--Cape Nome to Safety Sound Bridge","2025-06-17 09:36",20,64.4408338,-164.8940364,TRUE,FALSE,FALSE,"S251495842"
"286","redpol1","Redpoll","Acanthis flammea","L47816783","Air Force Rd. (66.846, -162.608)","2025-06-17 09:29",2,66.8457306,-162.607826,TRUE,FALSE,TRUE,"S251460607"
"287","redpol1","Redpoll","Acanthis flammea","L47864849","MS-2 Red Dog Mine Road upland tundra","2025-06-17 09:26",18,67.592952,-163.979482,TRUE,FALSE,TRUE,"S251458647"
"288","redpol1","Redpoll","Acanthis flammea","L464529","Cape Nome","2025-06-17 09:16",4,64.4353696,-165.0103838,TRUE,FALSE,FALSE,"S251494731"
"289","redpol1","Redpoll","Acanthis flammea","L26666955","Taylor Hwy.--West Fork Campground","2025-06-17 09:12",1,63.8876929,-142.2372232,TRUE,FALSE,FALSE,"S252596587"
"290","redpol1","Redpoll","Acanthis flammea","L47866770","Kincaid Park, Anchorage US-AK 61.15618, -150.05125","2025-06-17 09:00",2,61.156182,-150.051254,TRUE,FALSE,TRUE,"S251466746"
"291","redpol1","Redpoll","Acanthis flammea","L47873206","Nome-Council Rd, Nome US-AK 64.47219, -165.18329","2025-06-17 08:50",1,64.472192,-165.183291,TRUE,FALSE,TRUE,"S251494586"
"292","redpol1","Redpoll","Acanthis flammea","L47865659","Sadie Creek Overlook","2025-06-17 08:43",2,66.8174354,-162.5110769,TRUE,FALSE,TRUE,"S251461952"
"293","redpol1","Redpoll","Acanthis flammea","L25136171","Coast Inn At Lake Hood","2025-06-17 08:41",2,61.1751963,-149.9476602,TRUE,FALSE,TRUE,"S251423179"
"294","redpol1","Redpoll","Acanthis flammea","L33424445","Jean Lake, Willow, AK","2025-06-17 08:21",1,61.7272938,-150.0625087,TRUE,FALSE,TRUE,"S251414654"
"295","redpol1","Redpoll","Acanthis flammea","L14466929","Nome-Council Rd. & Fort Davis High Rd. Junction","2025-06-17 08:20",2,64.4794496,-165.278224,TRUE,FALSE,FALSE,"S251494145"
"296","redpol1","Redpoll","Acanthis flammea","L14509581","3680 Hardluck Dr, Fairbanks US-AK 64.92928, -148.02355","2025-06-17 08:03",2,64.929285,-148.023553,TRUE,FALSE,TRUE,"S251408958"
"297","redpol1","Redpoll","Acanthis flammea","L324052","Nome Dump","2025-06-17 08:00",1,64.5238417,-165.2812528,TRUE,FALSE,FALSE,"S251493708"
"298","redpol1","Redpoll","Acanthis flammea","L47865222","Kotzebue to Cape Blossom Rd. Shrub Patch (66.827, -162.52)","2025-06-17 07:52",8,66.8267881,-162.5198708,TRUE,FALSE,TRUE,"S251460122"
"299","redpol1","Redpoll","Acanthis flammea","L12051711","Pipeline Access Rd","2025-06-17 07:39",2,64.855629,-147.445747,TRUE,FALSE,TRUE,"S251466126"
"300","redpol1","Redpoll","Acanthis flammea","L31915327","White Mountains National Recreation Area, Fairbanks US-AK","2025-06-17 07:15",2,65.393447,-146.596287,TRUE,FALSE,TRUE,"S251921965"
"301","redpol1","Redpoll","Acanthis flammea","L47865013","Kotzebue to Cape Blossom Rd. (66.832, -162.542)","2025-06-17 07:08",1,66.8321313,-162.5419992,TRUE,FALSE,TRUE,"S251459235"
"302","redpol1","Redpoll","Acanthis flammea","L47864967","Kotzebue to Cape Blossom Rd. (66.841, -162.553)","2025-06-17 07:01",2,66.8411197,-162.5528932,TRUE,FALSE,TRUE,"S251459074"
"303","redpol1","Redpoll","Acanthis flammea","L47864878","Kotzebue to Cape Blossom Rd. (66.841, -162.566)","2025-06-17 06:57",2,66.8410597,-162.565529,TRUE,FALSE,TRUE,"S251458738"
"304","redpol1","Redpoll","Acanthis flammea","L47815159","Beach Rd. (66.842, -162.587)","2025-06-17 06:49",1,66.8421955,-162.5872855,TRUE,FALSE,TRUE,"S251458638"
"305","redpol1","Redpoll","Acanthis flammea","L33301189","PLACER RIVER-US-AK (60.8185,-148.9889)","2025-06-17 06:32",12,60.818496,-148.988939,TRUE,FALSE,TRUE,"S251410487"
"306","redpol1","Redpoll","Acanthis flammea","L47814198","Air Force Rd. (66.865, -162.619)","2025-06-17 06:06",3,66.8651383,-162.6188805,TRUE,FALSE,TRUE,"S251458299"
"307","redpol1","Redpoll","Acanthis flammea","L47816339","Air Force Rd. (66.87, -162.617)","2025-06-17 06:00",11,66.870009,-162.6169323,TRUE,FALSE,TRUE,"S251458145"
"308","redpol1","Redpoll","Acanthis flammea","L47864692","Air Force Rd. (66.882, -162.61)","2025-06-17 05:52",1,66.8820376,-162.6100238,TRUE,FALSE,TRUE,"S251458056"
"309","redpol1","Redpoll","Acanthis flammea","L1667663","Nome--East End Park","2025-06-17 05:46",3,64.493702,-165.3742526,TRUE,FALSE,FALSE,"S251375573"
"310","redpol1","Redpoll","Acanthis flammea","L47864657","Air Force Rd. (66.885, -162.607)","2025-06-17 05:46",1,66.8848278,-162.6073717,TRUE,FALSE,TRUE,"S251457921"
"311","redpol1","Redpoll","Acanthis flammea","L7655708","Dalton Hwy, just S of Toolik","2025-06-17 05:44",1,68.6222599,-149.5564556,TRUE,FALSE,TRUE,"S251452722"
"312","redpol1","Redpoll","Acanthis flammea","L5810161","Kotzebue (town)","2025-06-17 05:37",1,66.8983909,-162.5873995,TRUE,FALSE,FALSE,"S251457774"
"313","redpol1","Redpoll","Acanthis flammea","L47864588","Devil's Lake Rd. (66.885, -162.528)","2025-06-17 05:23",2,66.8850591,-162.5281736,TRUE,FALSE,TRUE,"S251457645"
"314","redpol1","Redpoll","Acanthis flammea","L47816675","Devil's Lake","2025-06-17 05:07",3,66.8796042,-162.5039141,TRUE,FALSE,TRUE,"S251457483"
"315","redpol1","Redpoll","Acanthis flammea","L47864449","Ted Stevens Way (66.889, -162.549)","2025-06-17 04:48",4,66.8890082,-162.5491441,TRUE,FALSE,TRUE,"S251456924"
"316","redpol1","Redpoll","Acanthis flammea","L45764992","P loop","2025-06-16 21:02",13,68.6339752,-149.5869,TRUE,FALSE,TRUE,"S251278737"
"317","redpol1","Redpoll","Acanthis flammea","L15378702","Oil Spill Road","2025-06-16 20:56",13,60.787498,-161.879031,TRUE,FALSE,TRUE,"S251270555"
"318","redpol1","Redpoll","Acanthis flammea","L292324","Homer Spit","2025-06-16 20:54",1,59.6130805,-151.4467049,TRUE,FALSE,FALSE,"S251259086"
"319","redpol1","Redpoll","Acanthis flammea","L27505839","Red Dog Port Site (restricted access)","2025-06-16 19:56",3,67.576528,-164.0608204,TRUE,FALSE,FALSE,"S251279533"
"320","redpol1","Redpoll","Acanthis flammea","L47821972","Spenard Roadhouse","2025-06-16 19:42",1,61.19534,-149.903374,TRUE,FALSE,TRUE,"S251259962"
"321","redpol1","Redpoll","Acanthis flammea","L159270","Elderberry Park","2025-06-16 19:41",2,61.217772,-149.9060869,TRUE,FALSE,FALSE,"S251252434"
"322","redpol1","Redpoll","Acanthis flammea","L47764439","Petersville Rd AirBnB, Big Lake US-AK 62.31713, -150.32421","2025-06-16 18:34",2,62.317127,-150.324209,TRUE,FALSE,TRUE,"S251500690"
"323","redpol1","Redpoll","Acanthis flammea","L16720268","Kincaid Park, Anchorage US-AK 61.16119, -150.05311","2025-06-16 17:59",1,61.161189,-150.053105,TRUE,FALSE,TRUE,"S251251721"
"324","redpol1","Redpoll","Acanthis flammea","L47865060","MS-6 Red Dog Mine Old Reclaimed Quarry","2025-06-16 16:26",22,67.73883,-163.55236,TRUE,FALSE,TRUE,"S251459404"
"325","redpol1","Redpoll","Acanthis flammea","L43869517","Connors Road - Soldotna, Alaska, US (60.517, -151.057)","2025-06-16 16:13",6,60.5173029,-151.0566732,TRUE,FALSE,TRUE,"S251255193"
"326","redpol1","Redpoll","Acanthis flammea","L1667673","Kougarok Rd.--Salmon Lake Campground","2025-06-16 16:05",5,64.9169757,-164.9601459,TRUE,FALSE,FALSE,"S252148647"
"327","redpol1","Redpoll","Acanthis flammea","L25926052","Brendon and Krista's","2025-06-16 15:51",NA,61.3859444,-149.4864044,TRUE,FALSE,TRUE,"S251515108"
"328","redpol1","Redpoll","Acanthis flammea","L47812010","Center Ridge Trail, Moose Pass US-AK 60.78220, -149.21491","2025-06-16 15:32",2,60.782203,-149.214908,TRUE,FALSE,TRUE,"S251212918"
"329","redpol1","Redpoll","Acanthis flammea","L47823054","Northway Rd, Northway Junction US-AK 63.00695, -141.80642","2025-06-16 14:37",1,63.006949,-141.806416,TRUE,FALSE,TRUE,"S251268139"
"330","redpol1","Redpoll","Acanthis flammea","L716993","Chester Creek & Fish Creek Mouths (Audubon Bench & Fish Creek Bench)","2025-06-16 14:09",1,61.2075708,-149.9289732,TRUE,FALSE,FALSE,"S251204603"
"331","redpol1","Redpoll","Acanthis flammea","L47816766","Ted Stevens Way (66.859, -162.606)","2025-06-16 13:20",2,66.8585925,-162.6058316,TRUE,FALSE,TRUE,"S251235752"
"332","redpol1","Redpoll","Acanthis flammea","L11725232","Nicholai Slough fishcamp","2025-06-16 13:19",5,60.722001,-161.699383,TRUE,FALSE,TRUE,"S251183457"
"333","redpol1","Redpoll","Acanthis flammea","L47816747","Ted Stevens Way (66.858, -162.579)","2025-06-16 13:14",1,66.8578856,-162.5790862,TRUE,FALSE,TRUE,"S251235682"
"334","redpol1","Redpoll","Acanthis flammea","L47816738","Ted Stevens Way (66.862, -162.558)","2025-06-16 13:07",2,66.861669,-162.5576942,TRUE,FALSE,TRUE,"S251235633"
"335","redpol1","Redpoll","Acanthis flammea","L47816723","Ted Stevens Way (66.869, -162.538)","2025-06-16 13:01",2,66.8693934,-162.5376449,TRUE,FALSE,TRUE,"S251235561"
"336","redpol1","Redpoll","Acanthis flammea","L47816708","Ted Stevens Way (66.874, -162.537)","2025-06-16 12:55",4,66.8742682,-162.5368213,TRUE,FALSE,TRUE,"S251235489"
"337","redpol1","Redpoll","Acanthis flammea","L47816689","Ted Stevens Way (66.88, -162.54)","2025-06-16 12:49",4,66.8800062,-162.5403547,TRUE,FALSE,TRUE,"S251235379"
"338","redpol1","Redpoll","Acanthis flammea","L47806696","Nome Airport, Nome US-AK (64.5066,-165.4238)","2025-06-16 12:49",2,64.506629,-165.423846,TRUE,FALSE,TRUE,"S251186824"
"339","redpol1","Redpoll","Acanthis flammea","L11341499","Creamer's Field MWR--Danby St. parking","2025-06-16 12:45",2,64.8604158,-147.7377086,TRUE,FALSE,FALSE,"S251371331"
"340","redpol1","Redpoll","Acanthis flammea","L47816148","Alaskan Native Heritage Center","2025-06-16 12:45",3,61.23408,-149.714421,TRUE,FALSE,TRUE,"S251232841"
"341","redpol1","Redpoll","Acanthis flammea","L9781944","Yukon Delta National Wildlife Refuge, Napakiak US-AK (60.7078,-161.7527)","2025-06-16 12:39",7,60.707812,-161.752658,TRUE,FALSE,TRUE,"S251170839"
"342","redpol1","Redpoll","Acanthis flammea","L24721366","Road to Devil's Lake","2025-06-16 12:21",2,66.8830692,-162.5191688,TRUE,FALSE,FALSE,"S251235144"
"343","redpol1","Redpoll","Acanthis flammea","L47816582","Ted Stevens Way (66.89, -162.554)","2025-06-16 12:01",2,66.8901632,-162.5541627,TRUE,FALSE,TRUE,"S251234831"
"344","redpol1","Redpoll","Acanthis flammea","L1187160","Kougarok Rd.--Coffee Dome (mm 72)","2025-06-16 11:36",6,65.2765291,-164.7896854,TRUE,FALSE,FALSE,"S251273843"
"345","redpol1","Redpoll","Acanthis flammea","L44494072","DNR","2025-06-16 11:27",1,64.838225,-147.814908,TRUE,FALSE,TRUE,"S251152532"
"346","redpol1","Redpoll","Acanthis flammea","L7650379","Denali SP--Curry Ridge Trail","2025-06-16 11:23",4,62.5923986,-150.2231048,TRUE,FALSE,FALSE,"S251213840"
"347","redpol1","Redpoll","Acanthis flammea","L1187149","Kougarok Rd.--Pilgrim River","2025-06-16 10:55",2,65.1268798,-164.7307205,TRUE,FALSE,FALSE,"S251266371"
"348","redpol1","Redpoll","Acanthis flammea","L2386178","Campbell Creek Estuary Natural Area","2025-06-16 10:53",2,61.1332266,-149.9665131,TRUE,FALSE,FALSE,"S251162030"
"349","redpol1","Redpoll","Acanthis flammea","L47816355","Air Force Rd. (66.874, -162.615)","2025-06-16 10:50",5,66.8740611,-162.6147168,TRUE,FALSE,TRUE,"S251233755"
"350","redpol1","Redpoll","Acanthis flammea","L47822701","Beam Rd, Nome US-AK 64.95294, -164.81501","2025-06-16 10:20",2,64.952943,-164.815006,TRUE,FALSE,TRUE,"S251266119"
"351","redpol1","Redpoll","Acanthis flammea","L9187205","My Haven","2025-06-16 10:11",2,59.72982,-151.763797,TRUE,FALSE,TRUE,"S251126470"
"352","redpol1","Redpoll","Acanthis flammea","L47821982","21307–21499 N Chum St, Big Lake US-AK 61.83920, -150.11544","2025-06-16 10:07",3,61.839197,-150.115441,TRUE,FALSE,TRUE,"S251260002"
"353","redpol1","Redpoll","Acanthis flammea","L47866055","Mile 27-Red Dog Mine Rd US-AK","2025-06-16 10:07",3,67.793326,-163.463322,TRUE,FALSE,TRUE,"S251463628"
"354","redpol1","Redpoll","Acanthis flammea","L19649403","BBike upper walk","2025-06-16 10:04",1,64.924584,-147.862939,TRUE,FALSE,TRUE,"S251124256"
"355","redpol1","Redpoll","Acanthis flammea","L209518","Safety Sound general area","2025-06-16 10:00",60,64.4792511,-164.7624136,TRUE,TRUE,FALSE,"S251261577"
"356","redpol1","Redpoll","Acanthis flammea","L47957039","Dalton Hwy - Mile 229 east ridges","2025-06-16 09:38",1,67.98983,-149.761202,TRUE,FALSE,TRUE,"S251894037"
"357","redpol1","Redpoll","Acanthis flammea","L48092461","Arctic National Wildlife Refuge, Barrow US-AK (69.1184,-144.6112)","2025-06-16 09:37",2,69.11844,-144.611235,TRUE,FALSE,TRUE,"S252490352"
"358","redpol1","Redpoll","Acanthis flammea","L47816043","Beach Rd. (66.847, -162.614)","2025-06-16 09:33",3,66.8472095,-162.6135976,TRUE,FALSE,TRUE,"S251232396"
"359","redpol1","Redpoll","Acanthis flammea","L47816007","Beach Rd. (66.845, -162.61)","2025-06-16 09:27",2,66.8449158,-162.6098714,TRUE,FALSE,TRUE,"S251232250"
"360","redpol1","Redpoll","Acanthis flammea","L47815938","Beach Rd. (66.842, -162.606)","2025-06-16 09:20",2,66.8420252,-162.6056667,TRUE,FALSE,TRUE,"S251231838"
"361","redpol1","Redpoll","Acanthis flammea","L47815127","Beach Rd. (66.841, -162.593)","2025-06-16 09:12",1,66.8405931,-162.5931646,TRUE,FALSE,TRUE,"S251462230"
"362","redpol1","Redpoll","Acanthis flammea","L47815855","Kotzebue (66.839, -162.599)","2025-06-16 09:06",1,66.8391709,-162.5992116,TRUE,FALSE,TRUE,"S251231500"
"363","redpol1","Redpoll","Acanthis flammea","L9904679","Matanuska Glacier SRS","2025-06-16 09:02",2,61.7990155,-147.8134281,TRUE,FALSE,FALSE,"S251415301"
"364","redpol1","Redpoll","Acanthis flammea","L47819770","Beam Rd, Nome US-AK 64.89581, -165.14833","2025-06-16 08:55",4,64.895813,-165.148328,TRUE,FALSE,TRUE,"S251249854"
"365","redpol1","Redpoll","Acanthis flammea","L32757180","17587 Old Seward Highway, Anchorage, Alaska, US (61.063, -149.798)","2025-06-16 08:33",2,61.0628299,-149.7981633,TRUE,FALSE,TRUE,"S251122243"
"366","redpol1","Redpoll","Acanthis flammea","L1526714","Knik River PUA--Jim Lake","2025-06-16 08:31",1,61.556399,-148.925173,TRUE,FALSE,FALSE,"S251101902"
"367","redpol1","Redpoll","Acanthis flammea","L47815809","Kotzebue (66.842, -162.6)","2025-06-16 08:19",1,66.8415044,-162.5999023,TRUE,FALSE,TRUE,"S251231318"
"368","redpol1","Redpoll","Acanthis flammea","L47819539","Beam Rd, Nome US-AK 64.60534, -165.29813","2025-06-16 08:03",3,64.605337,-165.298135,TRUE,FALSE,TRUE,"S251248789"
"369","redpol1","Redpoll","Acanthis flammea","L2096098","Potter Marsh (general area)","2025-06-16 07:58",1,61.0715323,-149.8160934,TRUE,FALSE,FALSE,"S251107338"
"370","redpol1","Redpoll","Acanthis flammea","L47593411","Birch Cir, Dillingham US-AK (59.0488,-158.5642)","2025-06-16 07:50",NA,59.048784,-158.564201,TRUE,FALSE,TRUE,"S251071098"
"371","redpol1","Redpoll","Acanthis flammea","L13495621","3680 Hardluck Dr, Fairbanks US-AK 64.92923, -148.02339","2025-06-16 07:50",3,64.929225,-148.023387,TRUE,FALSE,TRUE,"S251079859"
"372","redpol1","Redpoll","Acanthis flammea","L10939364","Homer--Beluga Slough Trail","2025-06-16 07:46",2,59.637732,-151.5404749,TRUE,FALSE,FALSE,"S251103111"
"373","redpol1","Redpoll","Acanthis flammea","L47815741","Kotzebue (66.846, -162.601)","2025-06-16 07:43",3,66.8461164,-162.600951,TRUE,FALSE,TRUE,"S251231009"
"374","redpol1","Redpoll","Acanthis flammea","L32827732","Bol Home","2025-06-16 07:32",5,61.654674,-149.230065,TRUE,FALSE,TRUE,"S251065415"
"375","redpol1","Redpoll","Acanthis flammea","L18382735","1129 Eos Aerie, Fairbanks US-AK 64.91499, -147.53412","2025-06-16 07:25",2,64.914988,-147.534122,TRUE,FALSE,TRUE,"S251083086"
"376","redpol1","Redpoll","Acanthis flammea","L47815623","Kotzebue (66.853, -162.598)","2025-06-16 06:53",1,66.8534137,-162.5980489,TRUE,FALSE,TRUE,"S251230473"
"377","redpol1","Redpoll","Acanthis flammea","L33394624","Historic North Pole Park","2025-06-16 06:33",2,64.7507387,-147.3442045,TRUE,FALSE,TRUE,"S251044681"
"378","redpol1","Redpoll","Acanthis flammea","L47822999","Airs Hill Trail, Alcan US-AK 62.62128, -141.01263","2025-06-16 06:22",12,62.621276,-141.012633,TRUE,FALSE,TRUE,"S251267833"
"379","redpol1","Redpoll","Acanthis flammea","L47775041","2181 Kachemak Drive, Homer, Alaska, US (59.639, -151.483)","2025-06-16 06:13",1,59.6388604,-151.4826757,TRUE,FALSE,TRUE,"S251044859"
"380","redpol1","Redpoll","Acanthis flammea","L47815571","Kotzebue (66.851, -162.586)","2025-06-16 06:12",3,66.8510818,-162.5859719,TRUE,FALSE,TRUE,"S251230242"
"381","redpol1","Redpoll","Acanthis flammea","L17544780","Boardwalk","2025-06-16 06:00",10,63.88689,-160.76216,TRUE,FALSE,TRUE,"S251101135"
"382","redpol1","Redpoll","Acanthis flammea","L47815442","Kotzebue (66.849, -162.585)","2025-06-16 05:47",1,66.8491397,-162.5851505,TRUE,FALSE,TRUE,"S251229518"
"383","redpol1","Redpoll","Acanthis flammea","L47815389","Kotzebue (66.847, -162.576)","2025-06-16 05:16",1,66.8473919,-162.575758,TRUE,FALSE,TRUE,"S251229293"
"384","redpol1","Redpoll","Acanthis flammea","L1223431","Kenai NWR - Skilak Lake Road","2025-06-16 05:15",12,60.451631,-150.243187,TRUE,FALSE,TRUE,"S251269782"
"385","redpol1","Redpoll","Acanthis flammea","L47815333","Kotzebue (66.845, -162.584)","2025-06-16 04:53",2,66.8449346,-162.5836843,TRUE,FALSE,TRUE,"S251229018"
"386","redpol1","Redpoll","Acanthis flammea","L47815211","Kotzebue (66.844, -162.59)","2025-06-16 04:32",2,66.8435098,-162.589958,TRUE,FALSE,TRUE,"S251228604"
"387","redpol1","Redpoll","Acanthis flammea","L47810067","6900–7226 Karluk St, Utqiagvik US-AK 71.30332, -156.73800","2025-06-16 03:55",1,71.303321,-156.737996,TRUE,FALSE,TRUE,"S251203003"
"388","redpol1","Redpoll","Acanthis flammea","L47815080","Air Force Rd. (66.853, -162.612)","2025-06-16 03:39",2,66.8526955,-162.6122363,TRUE,FALSE,TRUE,"S251227995"
"389","redpol1","Redpoll","Acanthis flammea","L48019554","Wulik River","2025-06-16 03:25",6,68.037521,-163.326517,TRUE,FALSE,TRUE,"S252168621"
"390","redpol1","Redpoll","Acanthis flammea","L47806911","Nome-Council Rd, Nome US-AK (64.4764,-165.2502)","2025-06-15 20:48",2,64.476356,-165.250233,TRUE,FALSE,TRUE,"S251187890"
"391","redpol1","Redpoll","Acanthis flammea","L47811856","Kotzebue to Cape Blossom Rd. (66.842, -162.582)","2025-06-15 19:18",1,66.8415179,-162.5822165,TRUE,FALSE,TRUE,"S251212041"
"392","redpol1","Redpoll","Acanthis flammea","L47815044","Air Force Rd. (66.875, -162.614)","2025-06-15 18:56",2,66.8754818,-162.6139741,TRUE,FALSE,TRUE,"S251227800"
"393","redpol1","Redpoll","Acanthis flammea","L33531254","Kouwegok Slough","2025-06-15 17:35",2,63.897638,-160.792416,TRUE,FALSE,TRUE,"S250920227"
"394","redpol1","Redpoll","Acanthis flammea","L16695932","Bethel--Mission Lake","2025-06-15 17:24",1,60.7918468,-161.764819,TRUE,FALSE,FALSE,"S250893098"
"395","redpol1","Redpoll","Acanthis flammea","L47753057","Ipiavik Barrier Island","2025-06-15 17:24",2,67.626346,-164.165176,TRUE,FALSE,TRUE,"S250934672"
"396","redpol1","Redpoll","Acanthis flammea","L33575346","Bob Blodgett Hwy, Nome US-AK 64.73911, -165.93623","2025-06-15 16:40",2,64.739109,-165.936227,TRUE,FALSE,TRUE,"S250919720"
"397","redpol1","Redpoll","Acanthis flammea","L563782","Connor's Bog","2025-06-15 16:25",3,61.1671469,-149.9345289,TRUE,FALSE,FALSE,"S250905563"
"398","redpol1","Redpoll","Acanthis flammea","L37627189","Kincaid Park, Anchorage US-AK 61.15498, -150.05262","2025-06-15 15:49",6,61.154977,-150.052619,TRUE,FALSE,TRUE,"S250888270"
"399","redpol1","Redpoll","Acanthis flammea","L47753210","Nome-Council Rd, Nome US-AK 64.70306, -164.07232","2025-06-15 15:01",2,64.703064,-164.072322,TRUE,FALSE,TRUE,"S250935397"
"400","redpol1","Redpoll","Acanthis flammea","L598552","Kenai NWR","2025-06-15 14:59",2,60.4922432,-150.4649322,TRUE,FALSE,FALSE,"S250881904"
"401","redpol1","Redpoll","Acanthis flammea","L3733225","Kodiak Is.--Heitman Mountain Trail","2025-06-15 14:58",1,57.6874669,-152.5182697,TRUE,FALSE,FALSE,"S250904877"
"402","redpol1","Redpoll","Acanthis flammea","L959596","Nome-Council Rd.--Hastings Creek","2025-06-15 14:46",7,64.4557741,-165.1001358,TRUE,FALSE,FALSE,"S250881265"
"403","redpol1","Redpoll","Acanthis flammea","L47734495","23094 S Talkeetna Spur, Talkeetna US-AK 62.31421, -150.10700","2025-06-15 14:44",3,62.314208,-150.107002,TRUE,FALSE,TRUE,"S250845254"
"404","redpol1","Redpoll","Acanthis flammea","L47753159","Omikviorok River US-AK","2025-06-15 14:41",2,67.650987,-164.151601,TRUE,FALSE,TRUE,"S250935191"
"405","redpol1","Redpoll","Acanthis flammea","L47753188","Nome-Council Rd, Nome US-AK 64.69708, -164.18014","2025-06-15 14:34",3,64.697081,-164.180137,TRUE,FALSE,TRUE,"S250935320"
"406","redpol1","Redpoll","Acanthis flammea","L2942287","Nome-Teller Hwy.--34 Mile Ridge","2025-06-15 14:31",1,64.8219296,-166.0375786,TRUE,FALSE,FALSE,"S250927774"
"407","redpol1","Redpoll","Acanthis flammea","L47734606","Stormy LAKE, Nikiski, Alaska, US (60.782, -151.057)","2025-06-15 14:29",2,60.7818857,-151.0574278,TRUE,FALSE,TRUE,"S250845825"
"408","redpol1","Redpoll","Acanthis flammea","L3678872","South Potter Marsh","2025-06-15 14:16",5,61.0554068,-149.7984847,TRUE,FALSE,FALSE,"S250841971"
"409","redpol1","Redpoll","Acanthis flammea","L1177833","Far North Bicentennial Park","2025-06-15 13:46",1,61.1564467,-149.7546387,TRUE,FALSE,FALSE,"S250850004"
"410","redpol1","Redpoll","Acanthis flammea","L251458","Homer Spit--Mud Bay","2025-06-15 13:42",4,59.635823,-151.4965296,TRUE,FALSE,FALSE,"S250925624"
"411","redpol1","Redpoll","Acanthis flammea","L42215493","Summit Lake Rest Area","2025-06-15 13:41",1,63.1012458,-145.4914697,TRUE,FALSE,FALSE,"S250836269"
"412","redpol1","Redpoll","Acanthis flammea","L4646807","Nome-Council Rd.--Nome River Bridge","2025-06-15 13:23",8,64.4856626,-165.2910662,TRUE,FALSE,FALSE,"S250881160"
"413","redpol1","Redpoll","Acanthis flammea","L47638194","Beam Road, Nome, Alaska, US (64.935, -164.863)","2025-06-15 12:55",6,64.9348486,-164.8625763,TRUE,FALSE,TRUE,"S250823243"
"414","redpol1","Redpoll","Acanthis flammea","L20539324","Home","2025-06-15 12:46",1,61.1467817,-149.8289779,TRUE,FALSE,TRUE,"S250807993"
"415","redpol1","Redpoll","Acanthis flammea","L1899028","Kougarok Rd.--Kuzitrin River","2025-06-15 12:38",1,65.2168114,-164.8284817,TRUE,FALSE,FALSE,"S250927486"
"416","redpol1","Redpoll","Acanthis flammea","L4907452","Campbell Tract--Campbell Airstrip Trailhead","2025-06-15 12:30",1,61.1657203,-149.7664404,TRUE,FALSE,FALSE,"S250832544"
"417","redpol1","Redpoll","Acanthis flammea","L1808343","Nome-Teller Hwy.--Sinuk River","2025-06-15 12:07",2,64.7183857,-165.9225655,TRUE,FALSE,FALSE,"S250927412"
"418","redpol1","Redpoll","Acanthis flammea","L489659","Goose Lake, Anchorage","2025-06-15 11:45",1,61.1954667,-149.8177472,TRUE,FALSE,TRUE,"S250831722"
"419","redpol1","Redpoll","Acanthis flammea","L18726567","Beaver US-AK","2025-06-15 11:35",1,62.33912,-150.063335,TRUE,FALSE,TRUE,"S250921509"
"420","redpol1","Redpoll","Acanthis flammea","L47750253","Bob Blodgett Hwy, Nome US-AK 64.66414, -165.73548","2025-06-15 11:27",1,64.664142,-165.735477,TRUE,FALSE,TRUE,"S250927255"
"421","redpol1","Redpoll","Acanthis flammea","L47753112","Ipiavik Lagoon North","2025-06-15 11:12",4,67.644227,-164.210003,TRUE,FALSE,TRUE,"S250934953"
"422","redpol1","Redpoll","Acanthis flammea","L47750541","Bob Blodgett Hwy, Nome US-AK 64.64045, -165.72217","2025-06-15 11:06",2,64.640448,-165.72217,TRUE,FALSE,TRUE,"S250921089"
"423","redpol1","Redpoll","Acanthis flammea","L2968948","Nome-Teller Hwy.--House Rock","2025-06-15 10:49",2,64.62636,-165.69707,TRUE,FALSE,FALSE,"S250920888"
"424","redpol1","Redpoll","Acanthis flammea","L2898413","Nome-Teller Hwy.--Penny River","2025-06-15 10:36",2,64.5855733,-165.6668141,TRUE,FALSE,FALSE,"S250920816"
"425","redpol1","Redpoll","Acanthis flammea","L47751395","Beam Rd, Nome US-AK 64.91710, -164.99817","2025-06-15 10:30",6,64.917096,-164.998172,TRUE,FALSE,TRUE,"S250925851"
"426","redpol1","Redpoll","Acanthis flammea","L6035187","Dalton Hwy.--Pump Station No. 3","2025-06-15 10:24",3,68.8427642,-148.8249636,TRUE,FALSE,FALSE,"S251891043"
"427","redpol1","Redpoll","Acanthis flammea","L5993045","Utqiaġvik--South Salt Lagoons (south beach) & Nathaniel Olemaun Jr. Blvd. (NE end)","2025-06-15 10:11",2,71.3053603,-156.728797,TRUE,FALSE,FALSE,"S250910630"
"428","redpol1","Redpoll","Acanthis flammea","L47742160","Beam Rd, Nome US-AK 64.88803, -165.24083","2025-06-15 10:05",1,64.88803,-165.240826,TRUE,FALSE,TRUE,"S250882228"
"429","redpol1","Redpoll","Acanthis flammea","L47751443","Beam Rd, Nome US-AK 64.89497, -165.15344","2025-06-15 10:04",2,64.894966,-165.153442,TRUE,FALSE,TRUE,"S250927465"
"430","redpol1","Redpoll","Acanthis flammea","L47746947","MP 38 Elliott Highway","2025-06-15 09:57",1,65.288037,-148.157987,TRUE,FALSE,TRUE,"S250903711"
"431","redpol1","Redpoll","Acanthis flammea","L11618137","Denali SP--Veterans Memorial","2025-06-15 09:57",4,62.7467184,-150.1288897,TRUE,FALSE,FALSE,"S250742629"
"432","redpol1","Redpoll","Acanthis flammea","L28042738","Kincaid Park, Anchorage US-AK (61.1578,-150.0626)","2025-06-15 09:50",26,61.157837,-150.062562,TRUE,FALSE,TRUE,"S250747073"
"433","redpol1","Redpoll","Acanthis flammea","L47645697","229 Pisokak St, Utqiagvik US-AK (71.2870,-156.7978)","2025-06-15 09:37",2,71.287029,-156.797818,TRUE,FALSE,TRUE,"S252332101"
"434","redpol1","Redpoll","Acanthis flammea","L47750463","Bob Blodgett Hwy, Nome US-AK (64.5664,-165.5395)","2025-06-15 09:35",6,64.566377,-165.539459,TRUE,FALSE,TRUE,"S250920751"
"435","redpol1","Redpoll","Acanthis flammea","L48092490","Arctic National Wildlife Refuge, Barrow US-AK 69.05014, -144.58800","2025-06-15 09:09",5,69.050144,-144.588004,TRUE,FALSE,TRUE,"S252490441"
"436","redpol1","Redpoll","Acanthis flammea","L33575186","Bob Blodgett Hwy, Nome US-AK (64.5592,-165.4728)","2025-06-15 08:52",5,64.559199,-165.472803,TRUE,FALSE,TRUE,"S250920595"
"437","redpol1","Redpoll","Acanthis flammea","L47956362","Dalton Hwy - Mile 305","2025-06-15 08:45",3,68.757668,-148.890633,TRUE,FALSE,TRUE,"S251890565"
"438","redpol1","Redpoll","Acanthis flammea","L464481","Denali SP--Byers Lake","2025-06-15 08:41",5,62.7400352,-150.1222086,TRUE,FALSE,FALSE,"S250846921"
"439","redpol1","Redpoll","Acanthis flammea","L47751350","Beam Rd, Nome US-AK 64.80975, -165.21337","2025-06-15 08:27",3,64.809751,-165.213368,TRUE,FALSE,TRUE,"S250925577"
"440","redpol1","Redpoll","Acanthis flammea","L47812501","Kachemak Bay - Bay Excursions Boat Trip","2025-06-15 08:17",1,59.607246,-151.403685,TRUE,FALSE,TRUE,"S251215418"
"441","redpol1","Redpoll","Acanthis flammea","L823675","Arctic Valley Rd.","2025-06-15 08:14",2,61.2350621,-149.569931,TRUE,FALSE,FALSE,"S250772869"
"442","redpol1","Redpoll","Acanthis flammea","L16550679","1129 Eos Aerie, Fairbanks US-AK 64.91504, -147.53418","2025-06-15 08:07",3,64.915036,-147.534185,TRUE,FALSE,TRUE,"S250691479"
"443","redpol1","Redpoll","Acanthis flammea","L155141","Nome--Center Creek Rd.","2025-06-15 08:00",2,64.52735,-165.41586,TRUE,FALSE,FALSE,"S250920162"
"444","redpol1","Redpoll","Acanthis flammea","L47508037","Best Western - Homer, AK","2025-06-15 08:00",1,59.642146,-151.557248,TRUE,FALSE,TRUE,"S250680847"
"445","redpol1","Redpoll","Acanthis flammea","L1169742","Homer--Pratt Museum Trail","2025-06-15 07:41",1,59.6449845,-151.5503132,TRUE,FALSE,FALSE,"S250697759"
"446","redpol1","Redpoll","Acanthis flammea","L47692523","Chugach SP - Grey/Green Lakes at Powerline Pass","2025-06-15 07:38",NA,61.0627932,-149.5794342,TRUE,FALSE,TRUE,"S250674774"
"447","redpol1","Redpoll","Acanthis flammea","L20636681","Red Dog BBS -- stops 41-50","2025-06-15 07:33",4,67.6264128,-163.8796795,TRUE,FALSE,TRUE,"S252373753"
"448","redpol1","Redpoll","Acanthis flammea","L47745253","Wasilla","2025-06-15 07:25",1,61.5921585,-149.4247051,TRUE,FALSE,TRUE,"S250896831"
"449","redpol1","Redpoll","Acanthis flammea","L524998","West UAF Trails & Smith Lake","2025-06-15 07:21",2,64.8643458,-147.8634453,TRUE,FALSE,FALSE,"S250772635"
"450","redpol1","Redpoll","Acanthis flammea","L47751332","Beam Rd, Nome US-AK 64.56112, -165.23845","2025-06-15 07:13",2,64.561121,-165.23845,TRUE,FALSE,TRUE,"S250925482"
"451","redpol1","Redpoll","Acanthis flammea","L3348223","Kincaid Park--Jodhpur Motorcross Track","2025-06-15 06:51",30,61.1430564,-150.0222158,TRUE,FALSE,FALSE,"S250719135"
"452","redpol1","Redpoll","Acanthis flammea","L4408787","Sand Lake","2025-06-15 06:45",NA,61.152024,-149.965956,TRUE,FALSE,FALSE,"S250795418"
"453","redpol1","Redpoll","Acanthis flammea","L20636786","Red Dog BBS -- stops 31-40","2025-06-15 06:21",8,67.6647448,-163.7169695,TRUE,FALSE,TRUE,"S252372368"
"454","redpol1","Redpoll","Acanthis flammea","L20636942","Red Dog BBS -- stops 21-30","2025-06-15 05:16",4,67.7289109,-163.6294401,TRUE,FALSE,TRUE,"S252371297"
"455","redpol1","Redpoll","Acanthis flammea","L20637271","Red Dog BBS -- stops 11-20","2025-06-15 04:06",8,67.7785216,-163.5067451,TRUE,FALSE,TRUE,"S252369997"
"456","redpol1","Redpoll","Acanthis flammea","L20637334","Red Dog BBS -- stops 1-10","2025-06-15 03:05",3,67.8290818,-163.3507478,TRUE,FALSE,TRUE,"S252367928"
"457","redpol1","Redpoll","Acanthis flammea","L6035168","Dalton Hwy.--Jim River","2025-06-14 21:48",1,66.857149,-150.5643439,TRUE,FALSE,FALSE,"S251160355"
"458","redpol1","Redpoll","Acanthis flammea","L47751542","Nome-Council Rd, Nome US-AK 64.44457, -164.85384","2025-06-14 21:14",2,64.444573,-164.853837,TRUE,FALSE,TRUE,"S250927534"
"459","redpol1","Redpoll","Acanthis flammea","L45575538","Kincaid Park, Anchorage US-AK 61.15624, -150.01759","2025-06-14 19:17",2,61.156244,-150.01759,TRUE,FALSE,TRUE,"S250438336"
"460","redpol1","Redpoll","Acanthis flammea","L7480044","Kotzebue Loop road west","2025-06-14 18:08",1,66.8685688,-162.617569,TRUE,FALSE,TRUE,"S250428503"
"461","redpol1","Redpoll","Acanthis flammea","L47647999","Imik Lagoon US-AK (67.4898,-163.9287)","2025-06-14 17:59",2,67.489793,-163.928691,TRUE,FALSE,TRUE,"S250466255"
"462","redpol1","Redpoll","Acanthis flammea","L47641339","Nome-Council Rd, Nome US-AK 64.44238, -164.93040","2025-06-14 17:21",2,64.442383,-164.9304,TRUE,FALSE,TRUE,"S250432130"
"463","redpol1","Redpoll","Acanthis flammea","L47641201","Nome-Council Rd, Nome US-AK 64.47736, -165.21457","2025-06-14 16:23",2,64.47736,-165.214566,TRUE,FALSE,TRUE,"S250431532"
"464","redpol1","Redpoll","Acanthis flammea","L553860","Johns Park","2025-06-14 14:42",2,61.1058178,-149.8812819,TRUE,FALSE,FALSE,"S250384561"
"465","redpol1","Redpoll","Acanthis flammea","L1553734","Kenai NWR--Hidden Lake Campground","2025-06-14 14:00",1,60.4671889,-150.2047076,TRUE,FALSE,FALSE,"S250451323"
"466","redpol1","Redpoll","Acanthis flammea","L2222152","Denali Hwy.--Oscar Creek Lakes (mm 48 to mm 52)","2025-06-14 13:46",2,63.073173,-146.7022739,TRUE,FALSE,FALSE,"S250421851"
"467","redpol1","Redpoll","Acanthis flammea","L48090702","Granite Creek","2025-06-14 13:45",6,60.7342508,-149.2713901,TRUE,FALSE,TRUE,"S252484887"
"468","redpol1","Redpoll","Acanthis flammea","L1550406","Denali NP&P--Savage River Loop Trail","2025-06-14 13:16",4,63.7457751,-149.2919011,TRUE,FALSE,FALSE,"S250399896"
"469","redpol1","Redpoll","Acanthis flammea","L47623903","612 Inlet Street, Kenai, Alaska, US (60.552, -151.268)","2025-06-14 13:04",4,60.5516377,-151.2684556,TRUE,FALSE,TRUE,"S250358922"
"470","redpol1","Redpoll","Acanthis flammea","L47623061","Mile 10 Creek","2025-06-14 12:18",6,67.668768,-163.701854,TRUE,FALSE,TRUE,"S250355604"
"471","redpol1","Redpoll","Acanthis flammea","L47622924","Omikviarak River Quarry area","2025-06-14 11:52",3,67.727176,-163.632415,TRUE,FALSE,TRUE,"S250355115"
"472","redpol1","Redpoll","Acanthis flammea","L47645072","Kougarok Road, Alaska, US (65.263, -164.796)","2025-06-14 11:52",2,65.2629704,-164.7956669,TRUE,FALSE,TRUE,"S250450194"
"473","redpol1","Redpoll","Acanthis flammea","L12165065","Denali Hwy.--Delta Wild & Scenic River Wayside","2025-06-14 11:33",2,63.0455583,-146.0188615,TRUE,FALSE,FALSE,"S250421783"
"474","redpol1","Redpoll","Acanthis flammea","L47628683","Central, Alaska, US (65.483, -145.423)","2025-06-14 11:32",1,65.4833712,-145.4233729,TRUE,FALSE,TRUE,"S250378502"
"475","redpol1","Redpoll","Acanthis flammea","L1120073","Izembek NWR","2025-06-14 11:26",1,55.2920928,-162.6824341,TRUE,FALSE,FALSE,"S251582077"
"476","redpol1","Redpoll","Acanthis flammea","L1554771","Chugach NF--Upper Summit Lake","2025-06-14 11:18",2,60.631117,-149.5103235,TRUE,FALSE,FALSE,"S251142618"
"477","redpol1","Redpoll","Acanthis flammea","L9606774","Dalton Hwy.--Finger Mountain","2025-06-14 11:08",3,66.3577523,-150.4607677,TRUE,FALSE,FALSE,"S251888208"
"478","redpol1","Redpoll","Acanthis flammea","L47641103","Bob Blodgett Hwy, Nome US-AK 64.79001, -166.01029","2025-06-14 11:07",3,64.790008,-166.010286,TRUE,FALSE,TRUE,"S250431151"
"479","redpol1","Redpoll","Acanthis flammea","L47776126","Beam Rd, Nome US-AK 64.95497, -164.80945","2025-06-14 10:55",3,64.954968,-164.809454,TRUE,FALSE,TRUE,"S251050067"
"480","redpol1","Redpoll","Acanthis flammea","L1667253","Homer--Calvin and Coyle Nature Trail","2025-06-14 10:45",2,59.6521849,-151.4987182,TRUE,FALSE,FALSE,"S250349108"
"481","redpol1","Redpoll","Acanthis flammea","L47544529","Mile 20 wetlands-Cape Krusenstern National Monument US-AK","2025-06-14 10:44",4,67.760384,-163.600414,TRUE,FALSE,TRUE,"S250356371"
"482","redpol1","Redpoll","Acanthis flammea","L20600026","Kougarok Rd.--Grand Central River Bridge","2025-06-14 10:40",1,64.9004305,-165.1188452,TRUE,FALSE,FALSE,"S250449618"
"483","redpol1","Redpoll","Acanthis flammea","L11570030","South Van Horn fields","2025-06-14 10:30",1,64.810705,-147.8111949,TRUE,FALSE,FALSE,"S251833192"
"484","redpol1","Redpoll","Acanthis flammea","L9484036","Creamer's Field MWR--area W of Wedgewood WS","2025-06-14 10:30",1,64.8646124,-147.7214176,TRUE,FALSE,FALSE,"S250317078"
"485","redpol1","Redpoll","Acanthis flammea","L47750039","Beam Rd, Nome US-AK 64.92346, -164.91857","2025-06-14 10:17",3,64.923465,-164.918566,TRUE,FALSE,TRUE,"S250918565"
"486","redpol1","Redpoll","Acanthis flammea","L5987829","Bethel--H-Marker Lake","2025-06-14 10:15",4,60.7976747,-161.8251157,TRUE,FALSE,FALSE,"S250295604"
"487","redpol1","Redpoll","Acanthis flammea","L47644941","Beam Road, Nome, Alaska, US (64.871, -165.261)","2025-06-14 09:54",2,64.8711154,-165.2610198,TRUE,FALSE,TRUE,"S250449500"
"488","redpol1","Redpoll","Acanthis flammea","L47640590","Bob Blodgett Hwy, Nome US-AK 64.71532, -165.89876","2025-06-14 09:34",7,64.715321,-165.898759,TRUE,FALSE,TRUE,"S250429234"
"489","redpol1","Redpoll","Acanthis flammea","L47623347","Mile 25 pond-Cape Krusenstern National Monument US-AK","2025-06-14 09:30",8,67.768808,-163.538056,TRUE,FALSE,TRUE,"S250356773"
"490","redpol1","Redpoll","Acanthis flammea","L47644909","Nome-Taylor Highway, Nome, Alaska, US (64.805, -165.212)","2025-06-14 09:08",3,64.8048217,-165.2116799,TRUE,FALSE,TRUE,"S250449343"
"491","redpol1","Redpoll","Acanthis flammea","L2378626","Fish Lake","2025-06-14 09:00",7,61.7846914,-148.5625202,TRUE,FALSE,FALSE,"S251063316"
"492","redpol1","Redpoll","Acanthis flammea","L46296170","Alligator Acres","2025-06-14 08:24",1,60.7999499,-161.7606347,TRUE,FALSE,TRUE,"S250248908"
"493","redpol1","Redpoll","Acanthis flammea","L261146","St. Paul Island","2025-06-14 08:22",2,57.17012,-170.296751,TRUE,FALSE,FALSE,"S250524677"
"494","redpol1","Redpoll","Acanthis flammea","L47621474","Wales-Tin City Rd. (65.626, -168.041)","2025-06-14 08:17",8,65.6263181,-168.0407924,TRUE,FALSE,TRUE,"S250349404"
"495","redpol1","Redpoll","Acanthis flammea","L32769385","4 Mile Chena Dome Trail Ridge, Alaska, US (65.057, -146.286)","2025-06-14 08:16",1,65.0571414,-146.2858539,TRUE,FALSE,TRUE,"S250356784"
"496","redpol1","Redpoll","Acanthis flammea","L767320","Anchor Point","2025-06-14 08:00",2,59.7790573,-151.8633485,TRUE,FALSE,FALSE,"S250449545"
"497","redpol1","Redpoll","Acanthis flammea","L15873803","Anchor River SRA","2025-06-14 08:00",3,59.7739031,-151.8658974,TRUE,FALSE,FALSE,"S250349072"
"498","redpol1","Redpoll","Acanthis flammea","L9434494","Girdwood to Bird--Bike Path","2025-06-14 07:58",25,60.945048,-149.176858,TRUE,FALSE,TRUE,"S250278032"
"499","redpol1","Redpoll","Acanthis flammea","L14819899","Homer--Lighthouse Village","2025-06-14 07:53",5,59.6374736,-151.5015069,TRUE,FALSE,FALSE,"S250240971"
"500","redpol1","Redpoll","Acanthis flammea","L5829215","Fairbanks International Airport--Perimeter Rd./Tria Rd. pond","2025-06-14 07:42",1,64.7984675,-147.8698182,TRUE,FALSE,FALSE,"S250274643"
"501","redpol1","Redpoll","Acanthis flammea","L21178570","Utqiaġvik--King Eider Inn","2025-06-14 07:16",1,71.287891,-156.772456,TRUE,FALSE,FALSE,"S250453935"
"502","redpol1","Redpoll","Acanthis flammea","L47640699","Bob Blodgett Hwy, Nome US-AK 64.56388, -165.50473","2025-06-14 07:14",1,64.563884,-165.504728,TRUE,FALSE,TRUE,"S250429654"
"503","redpol1","Redpoll","Acanthis flammea","L473187","Wales (town)","2025-06-14 07:04",12,65.6101168,-168.0916226,TRUE,FALSE,FALSE,"S250349310"
"504","redpol1","Redpoll","Acanthis flammea","L820722","Homer Spit--Lands End","2025-06-14 06:56",2,59.6003137,-151.408596,TRUE,FALSE,FALSE,"S250836128"
"505","redpol1","Redpoll","Acanthis flammea","L47594812","99723, Barrow US-AK (68.5775,-149.5412)","2025-06-14 06:54",3,68.577489,-149.541219,TRUE,FALSE,TRUE,"S250248120"
"506","redpol1","Redpoll","Acanthis flammea","L32769242","Lower Angel Creek, Alaska, US (65.035, -146.22)","2025-06-14 06:54",1,65.0347614,-146.2195797,TRUE,FALSE,TRUE,"S250356647"
"507","redpol1","Redpoll","Acanthis flammea","L47621197","Wales-Tin City Rd. (65.624, -168.025)","2025-06-14 06:42",5,65.623619,-168.0251769,TRUE,FALSE,TRUE,"S250348096"
"508","redpol1","Redpoll","Acanthis flammea","L47620019","Beam Rd, Nome US-AK 64.73286, -165.24956","2025-06-14 06:33",1,64.732862,-165.249565,TRUE,FALSE,TRUE,"S250343501"
"509","redpol1","Redpoll","Acanthis flammea","L47621152","Wales-Tin City Rd. (65.621, -168.011)","2025-06-14 06:31",3,65.6211322,-168.0109455,TRUE,FALSE,TRUE,"S250347871"
"510","redpol1","Redpoll","Acanthis flammea","L47620031","Beam Rd, Nome US-AK 64.73702, -165.23997","2025-06-14 06:28",1,64.737022,-165.239968,TRUE,FALSE,TRUE,"S250343544"
"511","redpol1","Redpoll","Acanthis flammea","L9608115","Denali NP&P--Toklat River Contact Station","2025-06-14 06:26",2,63.5219321,-150.0431426,TRUE,FALSE,FALSE,"S252536887"
"512","redpol1","Redpoll","Acanthis flammea","L47621099","Wales-Tin City Rd. (65.619, -167.999)","2025-06-14 06:20",1,65.6189547,-167.9985406,TRUE,FALSE,TRUE,"S250347662"
"513","redpol1","Redpoll","Acanthis flammea","L47620066","Beam Rd, Nome US-AK 64.80307, -165.21170","2025-06-14 05:42",2,64.803066,-165.211704,TRUE,FALSE,TRUE,"S250343664"
"514","redpol1","Redpoll","Acanthis flammea","L47620914","Wales-Tin City Rd. (65.607, -167.98)","2025-06-14 05:37",1,65.6070137,-167.9797484,TRUE,FALSE,TRUE,"S250346916"
"515","redpol1","Redpoll","Acanthis flammea","L47620856","Wales-Tin City Rd. (65.606, -167.967)","2025-06-14 05:30",1,65.6059788,-167.9672064,TRUE,FALSE,TRUE,"S250346696"
"516","redpol1","Redpoll","Acanthis flammea","L47620776","Wales-Tin City Rd. (65.605, -167.96)","2025-06-14 05:11",1,65.6054727,-167.9597874,TRUE,FALSE,TRUE,"S250346432"
"517","redpol1","Redpoll","Acanthis flammea","L30107950","ALMS grid #43802","2025-06-14 04:52",7,67.9379027,-163.061379,TRUE,FALSE,TRUE,"S252167009"
"518","redpol1","Redpoll","Acanthis flammea","L47620598","Wales-Tin City Rd. (65.598, -167.941)","2025-06-14 04:49",1,65.5975561,-167.9408198,TRUE,FALSE,TRUE,"S250345824"
"519","redpol1","Redpoll","Acanthis flammea","L47571271","4249 Cranberry Rd, Fairbanks US-AK 64.83588, -147.84693","2025-06-14 04:31",1,64.835877,-147.846931,TRUE,FALSE,TRUE,"S250149940"
"520","redpol1","Redpoll","Acanthis flammea","L47285863","Tin City Rd. (65.569, -167.945)","2025-06-14 03:37",1,65.5692039,-167.9445688,TRUE,FALSE,TRUE,"S250344753"
"521","redpol1","Redpoll","Acanthis flammea","L7942543","Pike’s Waterfront Lodge","2025-06-14 03:16",1,64.8312638,-147.848462,TRUE,FALSE,FALSE,"S250125818"
"522","redpol1","Redpoll","Acanthis flammea","L19419525","Auto selected 68.60419, -149.51420","2025-06-14 03:12",2,68.604191,-149.514205,TRUE,FALSE,TRUE,"S250636679"
"523","redpol1","Redpoll","Acanthis flammea","L48103395","Denali NP--Toklat River to Wonder Lake","2025-06-14",NA,63.4285963,-150.3308268,TRUE,FALSE,TRUE,"S252537391"
"524","redpol1","Redpoll","Acanthis flammea","L47555913","Nome-Council Road, Nome, Alaska, US (64.596, -164.393)","2025-06-13 21:15",5,64.5959737,-164.3929238,TRUE,FALSE,TRUE,"S250081958"
"525","redpol1","Redpoll","Acanthis flammea","L910642","Wedgewood Wildlife Sanctuary--Wander Lake","2025-06-13 20:55",NA,64.861884,-147.7047443,TRUE,FALSE,FALSE,"S250063822"
"526","redpol1","Redpoll","Acanthis flammea","L910641","Wedgewood Wildlife Sanctuary","2025-06-13 20:29",1,64.8634883,-147.7131557,TRUE,FALSE,FALSE,"S250055046"
"527","redpol1","Redpoll","Acanthis flammea","L15395535","Bethel--Larson Ridge & Tundra Ridge vicinity","2025-06-13 19:14",1,60.8067466,-161.8394473,TRUE,FALSE,FALSE,"S250055391"
"528","redpol1","Redpoll","Acanthis flammea","L4702202","Bethel--Sewage Ponds","2025-06-13 17:57",4,60.8098089,-161.7706561,TRUE,FALSE,FALSE,"S250041045"
"529","redpol1","Redpoll","Acanthis flammea","L47550363","Salmon Lake, Nome US-AK 64.91629, -164.96130","2025-06-13 15:33",6,64.916286,-164.961301,TRUE,FALSE,TRUE,"S250053840"
"530","redpol1","Redpoll","Acanthis flammea","L47550629","Nome-Council Rd, Nome US-AK 64.69390, -164.21238","2025-06-13 15:04",3,64.693898,-164.212379,TRUE,FALSE,TRUE,"S250055166"
"531","redpol1","Redpoll","Acanthis flammea","L2132457","Nome-Council Rd.--Skookum Pass","2025-06-13 14:35",3,64.7240575,-164.0580576,TRUE,FALSE,FALSE,"S250055045"
"532","redpol1","Redpoll","Acanthis flammea","L3985587","Sockeye Burn 2015--Sockeye Ave./Landlocked Ave./Randal Dr.","2025-06-13 13:18",5,61.8430403,-150.104703,TRUE,FALSE,FALSE,"S250000936"
"533","redpol1","Redpoll","Acanthis flammea","L47548865","Teller Hwy mi 24-32","2025-06-13 12:47",1,64.72451,-165.941131,TRUE,FALSE,TRUE,"S250046698"
"534","redpol1","Redpoll","Acanthis flammea","L9476924","Eielson AFB--Coman Dr. Wetland (restricted access)","2025-06-13 12:34",1,64.6767312,-147.0656225,TRUE,FALSE,FALSE,"S249966538"
"535","redpol1","Redpoll","Acanthis flammea","L4789516","Worthington Glacier State Recreation Site","2025-06-13 11:54",1,61.1668232,-145.7136816,TRUE,FALSE,FALSE,"S250273159"
"536","redpol1","Redpoll","Acanthis flammea","L570243","Seward Highway Bike Path","2025-06-13 10:30",2,60.9397722,-149.2643738,TRUE,FALSE,TRUE,"S250005049"
"537","redpol1","Redpoll","Acanthis flammea","L2972353","Nome-Teller Hwy.--Cripple River","2025-06-13 10:30",2,64.6776565,-165.746119,TRUE,FALSE,FALSE,"S250227453"
"538","redpol1","Redpoll","Acanthis flammea","L1130115","Kodiak Is.--Anton Larsen Pass","2025-06-13 10:29",1,57.8008254,-152.6083374,TRUE,FALSE,FALSE,"S250059919"
"539","redpol1","Redpoll","Acanthis flammea","L153926","Tongass NF--Mendenhall Visitor Center & Trails","2025-06-13 10:02",1,58.4165947,-134.5469507,TRUE,FALSE,FALSE,"S249965882"
"540","redpol1","Redpoll","Acanthis flammea","L2144035","Palmer Hay Flats SGR general area","2025-06-13 09:57",1,61.5321881,-149.2884064,TRUE,FALSE,FALSE,"S249910449"
"541","redpol1","Redpoll","Acanthis flammea","L3738869","Kachemak Bay SP--Grewingk Creek/Lake","2025-06-13 09:36",2,59.6269709,-151.1631846,TRUE,FALSE,FALSE,"S250239641"
"542","redpol1","Redpoll","Acanthis flammea","L1130630","Goose Lake","2025-06-13 09:33",1,61.1950138,-149.8202562,TRUE,FALSE,FALSE,"S249902177"
"543","redpol1","Redpoll","Acanthis flammea","L8391130","Kodiak Is.--Kodiak National Wildlife Refuge Headquarters","2025-06-13 09:23",1,57.7589656,-152.4956789,TRUE,FALSE,FALSE,"S250059998"
"544","redpol1","Redpoll","Acanthis flammea","L4014770","Hatcher Pass--Archangel Rd. to Reed Lakes Trailhead","2025-06-13 09:11",6,61.7812496,-149.2118787,TRUE,FALSE,FALSE,"S249957252"
"545","redpol1","Redpoll","Acanthis flammea","L11452332","13564 Spendlove Dr, Anchorage US-AK 61.09898, -149.71292","2025-06-13 09:00",4,61.098976,-149.712918,TRUE,FALSE,TRUE,"S250909862"
"546","redpol1","Redpoll","Acanthis flammea","L11565640","Kenai - VIP Drive, Kenai, AK","2025-06-13 08:58",NA,60.5218446,-151.2504763,TRUE,FALSE,TRUE,"S249905251"
"547","redpol1","Redpoll","Acanthis flammea","L47478872","Mile 15 Wetlands","2025-06-13 08:49",3,67.708076,-163.673378,TRUE,FALSE,TRUE,"S250027463"
"548","redpol1","Redpoll","Acanthis flammea","L24388005","Calypso Farm and Ecology Center","2025-06-13 08:46",2,64.8396705,-148.1338523,TRUE,FALSE,FALSE,"S250264176"
"549","redpol1","Redpoll","Acanthis flammea","L47517687","Dalton Highway, MP284","2025-06-13 07:55",4,68.5940486,-149.5318152,TRUE,FALSE,TRUE,"S249915910"
"550","redpol1","Redpoll","Acanthis flammea","L24623022","Kincaid Park-Kincaid Bluff Trail","2025-06-13 07:47",5,61.15318,-150.054414,TRUE,FALSE,TRUE,"S249899976"
"551","redpol1","Redpoll","Acanthis flammea","L47753558","Fairbanks, Alaska","2025-06-13 06:31",1,64.837856,-147.710175,TRUE,FALSE,TRUE,"S250937208"
"552","redpol1","Redpoll","Acanthis flammea","L21420610","Cape Krusenstern NM -- plots 2.1-2.4","2025-06-13 06:10",2,67.638121,-163.7070535,TRUE,FALSE,TRUE,"S252163515"
"553","redpol1","Redpoll","Acanthis flammea","L3133123","DeLong Lake Park","2025-06-13 05:08",1,61.16263,-149.95697,TRUE,FALSE,FALSE,"S249813020"
"554","redpol1","Redpoll","Acanthis flammea","L21420625","Cape Krusenstern NM -- plots 3.1-3.6","2025-06-13 04:55",1,67.6554769,-163.7874526,TRUE,FALSE,TRUE,"S252161914"
"555","redpol1","Redpoll","Acanthis flammea","L2865176","Denali NP&P--Denali Rd. (Polychrome Pass to Eielson Visitor Center; alpine)","2025-06-13",NA,63.5140841,-149.9635077,TRUE,FALSE,FALSE,"S252536393"
"556","redpol1","Redpoll","Acanthis flammea","L2065028","Denali NP&P--Savage River Bridge","2025-06-12 21:26",1,63.7388938,-149.2941356,TRUE,FALSE,FALSE,"S249734619"
"557","redpol1","Redpoll","Acanthis flammea","L47475170","Council Rd. Pullout E of Cape","2025-06-12 18:02",2,64.441436,-164.985912,TRUE,FALSE,TRUE,"S249718812"
"558","redpol1","Redpoll","Acanthis flammea","L47473085","Fence Corner","2025-06-12 17:57",2,61.172523,-150.048316,TRUE,FALSE,TRUE,"S249708833"
"559","redpol1","Redpoll","Acanthis flammea","L2181197","Municipality of Anchorage--former Anchorage Regional Compost Facility","2025-06-12 17:23",1,61.1753158,-150.0330267,TRUE,FALSE,FALSE,"S249701276"
"560","redpol1","Redpoll","Acanthis flammea","L47726418","Rich and Belinda","2025-06-12 15:00",1,59.8930896,-151.7772401,TRUE,FALSE,TRUE,"S250811379"
"561","redpol1","Redpoll","Acanthis flammea","L47471149","Bob Blodgett Hwy, Nome US-AK 64.64727, -165.72651","2025-06-12 14:39",2,64.647272,-165.726512,TRUE,FALSE,TRUE,"S249701945"
"562","redpol1","Redpoll","Acanthis flammea","L22744993","Knik Glacier","2025-06-12 14:16",2,61.403818,-148.5877973,TRUE,FALSE,FALSE,"S249699878"
"563","redpol1","Redpoll","Acanthis flammea","L47501599","Auto selected 57.86785, -155.95957","2025-06-12 14:00",4,57.867851,-155.959568,TRUE,FALSE,TRUE,"S249849068"
"564","redpol1","Redpoll","Acanthis flammea","L5801918","Arctic Village (town)","2025-06-12 13:41",4,68.120387,-145.568291,TRUE,FALSE,FALSE,"S252490700"
"565","redpol1","Redpoll","Acanthis flammea","L15947357","Talkeetna--Talkeetna Alaskan Lodge","2025-06-12 13:05",1,62.3069308,-150.0934974,TRUE,FALSE,FALSE,"S249708128"
"566","redpol1","Redpoll","Acanthis flammea","L421396","Denali NP&P--Camp Denali","2025-06-12 11:59",4,63.5190428,-150.8984077,TRUE,FALSE,FALSE,"S249975802"
"567","redpol1","Redpoll","Acanthis flammea","L1129613","Kodiak Is.--Pasagshak Bay overlook","2025-06-12 11:57",12,57.4547875,-152.4495474,TRUE,FALSE,FALSE,"S249725911"
"568","redpol1","Redpoll","Acanthis flammea","L47454364","4874–4898 Spenard Rd, Anchorage US-AK 61.17622, -149.94355","2025-06-12 11:44",1,61.176215,-149.943547,TRUE,FALSE,TRUE,"S249615997"
"569","redpol1","Redpoll","Acanthis flammea","L33055713","Nome-Council Rd.--Derby Creek","2025-06-12 11:00",1,64.465069,-165.148939,TRUE,FALSE,FALSE,"S249718028"
"570","redpol1","Redpoll","Acanthis flammea","L47514114","Bob Blodgett Hwy, Nome US-AK 64.57128, -165.58301","2025-06-12 10:52",3,64.571276,-165.583011,TRUE,FALSE,TRUE,"S249901338"
"571","redpol1","Redpoll","Acanthis flammea","L47534551","Kejulik River US-AK (57.8537,-155.8831)","2025-06-12 10:48",4,57.853693,-155.883076,TRUE,FALSE,TRUE,"S249983586"
"572","redpol1","Redpoll","Acanthis flammea","L21420547","Cape Krusenstern NM -- plots 1.1-1.11","2025-06-12 10:32",5,67.6736537,-163.7717401,TRUE,FALSE,TRUE,"S251878405"
"573","redpol1","Redpoll","Acanthis flammea","L1061551","Kalifornsky - Yard-Buoy Avenue","2025-06-12 10:15",3,60.4946536,-151.2665227,TRUE,FALSE,TRUE,"S249739668"
"574","redpol1","Redpoll","Acanthis flammea","L47284484","Old Tin City","2025-06-12 10:07",2,65.5583822,-167.9500016,TRUE,FALSE,TRUE,"S249731009"
"575","redpol1","Redpoll","Acanthis flammea","L43946966","Willow","2025-06-12 10:00",4,70.1691677,-152.1211064,TRUE,FALSE,TRUE,"S252550198"
"576","redpol1","Redpoll","Acanthis flammea","L47474952","Heitman Lake Trailhead","2025-06-12 10:00",2,57.6968531,-152.5013948,TRUE,FALSE,TRUE,"S249718271"
"577","redpol1","Redpoll","Acanthis flammea","L294954","Kougarok Rd. (please use a more specific location)","2025-06-12 10:00",1,64.7875103,-165.2113724,TRUE,FALSE,FALSE,"S250755242"
"578","redpol1","Redpoll","Acanthis flammea","L26379773","Chugach SP--Twin Peaks Trail","2025-06-12 09:56",1,61.4115902,-149.1267014,TRUE,FALSE,FALSE,"S249715652"
"579","redpol1","Redpoll","Acanthis flammea","L47797354","Mouth of Skilak River, US-AK","2025-06-12 09:55",3,60.401078,-150.123887,TRUE,FALSE,TRUE,"S251141962"
"580","redpol1","Redpoll","Acanthis flammea","L47446696","Nome-Council Road, Nome, Alaska, US (64.476, -165.25)","2025-06-12 09:46",1,64.4763744,-165.2503266,TRUE,FALSE,TRUE,"S249583194"
"581","redpol1","Redpoll","Acanthis flammea","L47533705","Kejulik River US-AK (57.8551,-155.7585)","2025-06-12 09:28",4,57.855111,-155.758486,TRUE,FALSE,TRUE,"S249981142"
"582","redpol1","Redpoll","Acanthis flammea","L47643548","Denali Hwy, Talkeetna US-AK 63.12925, -146.48153","2025-06-12 08:52",5,63.129253,-146.481527,TRUE,FALSE,TRUE,"S250441625"
"583","redpol1","Redpoll","Acanthis flammea","L1257494","Seward--Two Lakes Park","2025-06-12 08:21",1,60.1149112,-149.4472426,TRUE,FALSE,FALSE,"S249588910"
"584","redpol1","Redpoll","Acanthis flammea","L3970327","Homer--Portlock-Fernwood walking loop","2025-06-12 08:10",2,59.6936159,-151.3953996,TRUE,FALSE,FALSE,"S249566146"
"585","redpol1","Redpoll","Acanthis flammea","L769366","Denali Hwy.--Tangle Lakes general area","2025-06-12 07:30",10,63.0507586,-145.985899,TRUE,FALSE,FALSE,"S250044904"
"586","redpol1","Redpoll","Acanthis flammea","L46607272","Great Northwest peat (formerly) via College Rd","2025-06-12 07:23",3,64.862189,-147.788161,TRUE,FALSE,TRUE,"S249582905"
"587","redpol1","Redpoll","Acanthis flammea","L6585088","Morris Thompson Cultural & Visitor's Center","2025-06-12 06:44",4,64.8459823,-147.7118039,TRUE,FALSE,FALSE,"S249527356"
"588","redpol1","Redpoll","Acanthis flammea","L1872360","Oceanview Bluff Park","2025-06-12 06:28",2,61.0993507,-149.8614823,TRUE,FALSE,FALSE,"S249539794"
"589","redpol1","Redpoll","Acanthis flammea","L43427760","Wasilla Lake Housing Area","2025-06-12 05:06",2,61.5909386,-149.3692368,TRUE,FALSE,TRUE,"S249503590"
