"","speciesCode","comName","sciName","locId","locName","obsDt","howMany","lat","lng","obsValid","obsReviewed","locationPrivate","subId"
"1","piggui","Pigeon Guillemot","Cepphus columba","L159618","Yaquina Head Outstanding Natural Area","2025-06-20 16:14",1,44.6757053,-124.0724874,TRUE,FALSE,FALSE,"S252512678"
"2","piggui","Pigeon Guillemot","Cepphus columba","L48094545","Suquamish Clearwater Casino Resort, Poulsbo US-WA 47.71120, -122.57269","2025-06-20 16:04",1,47.711199,-122.572685,TRUE,FALSE,TRUE,"S252499031"
"3","piggui","Pigeon Guillemot","Cepphus columba","L36816866","Bellingham Cruise Terminal","2025-06-20 15:49",2,48.7215295,-122.5124258,TRUE,FALSE,FALSE,"S252497683"
"4","piggui","Pigeon Guillemot","Cepphus columba","L1071411","Sutro Baths--ruins and freshwater pond","2025-06-20 15:43",6,37.7799752,-122.5133193,TRUE,FALSE,FALSE,"S252497943"
"5","piggui","Pigeon Guillemot","Cepphus columba","L26343643","University of Alaska Southeast","2025-06-20 14:59",1,58.3846051,-134.640997,TRUE,FALSE,FALSE,"S252510972"
"6","piggui","Pigeon Guillemot","Cepphus columba","L48097199","1906 Airport Beach Road, Unalaska, Alaska, US (53.886, -166.552)","2025-06-20 14:59",1,53.8856983,-166.5517517,TRUE,FALSE,TRUE,"S252510986"
"7","piggui","Pigeon Guillemot","Cepphus columba","L2158283","Ship Harbor Interpretive Preserve","2025-06-20 14:17",3,48.5035261,-122.6748633,TRUE,FALSE,FALSE,"S252480325"
"8","piggui","Pigeon Guillemot","Cepphus columba","L302743","Protection Island","2025-06-20 14:08",22,48.1275273,-122.9284031,TRUE,FALSE,FALSE,"S252473674"
"9","piggui","Pigeon Guillemot","Cepphus columba","L3401769","Oswald West SP--Short Sand Beach","2025-06-20 13:50",2,45.7615755,-123.9677675,TRUE,FALSE,FALSE,"S252501375"
"10","piggui","Pigeon Guillemot","Cepphus columba","L48088274","charleston marine life ctr","2025-06-20 13:31",6,43.3461317,-124.33016,TRUE,FALSE,TRUE,"S252473646"
"11","piggui","Pigeon Guillemot","Cepphus columba","L28421950","Tunnel Beach","2025-06-20 13:30",1,45.4638347,-123.9733679,TRUE,FALSE,FALSE,"S252499064"
"12","piggui","Pigeon Guillemot","Cepphus columba","L2637212","Oak Bay--Lagoon Trail","2025-06-20 13:27",9,48.0319314,-122.7304173,TRUE,FALSE,FALSE,"S252467652"
"13","piggui","Pigeon Guillemot","Cepphus columba","L857123","Siuslaw River--Rhododendron Dr.","2025-06-20 13:24",5,43.9886309,-124.1194153,TRUE,FALSE,FALSE,"S252474030"
"14","piggui","Pigeon Guillemot","Cepphus columba","L349636","Rosario Beach / Rosario Head","2025-06-20 13:23",4,48.4162023,-122.6644993,TRUE,FALSE,FALSE,"S252473848"
"15","piggui","Pigeon Guillemot","Cepphus columba","L3881355","Gastineau Channel","2025-06-20 13:01",NA,58.293704,-134.4118452,TRUE,FALSE,FALSE,"S252482410"
"16","piggui","Pigeon Guillemot","Cepphus columba","L2356727","Bastendorff Beach","2025-06-20 12:39",12,43.3445558,-124.3492699,TRUE,FALSE,FALSE,"S252460806"
"17","piggui","Pigeon Guillemot","Cepphus columba","L613298","Mark Hatfield Marine Science Center and Estuary Trail","2025-06-20 12:22",3,44.6231604,-124.0434766,TRUE,FALSE,FALSE,"S252457147"
"18","piggui","Pigeon Guillemot","Cepphus columba","L253857","Alcatraz Island","2025-06-20 12:17",5,37.8259411,-122.422198,TRUE,FALSE,FALSE,"S252500442"
"19","piggui","Pigeon Guillemot","Cepphus columba","L1911615","Bainbridge I.-- Winslow Waterfront Park and Trail","2025-06-20 12:13",2,47.6226965,-122.5164843,TRUE,FALSE,FALSE,"S252452145"
"20","piggui","Pigeon Guillemot","Cepphus columba","L560458","Monterey Bay Aquarium (outside only)","2025-06-20 12:11",12,36.6183407,-121.9016623,TRUE,FALSE,FALSE,"S252488863"
"21","piggui","Pigeon Guillemot","Cepphus columba","L682177","Glacier Bay NP--Tarr Inlet","2025-06-20 12:04",7,59.0008815,-136.9730759,TRUE,FALSE,FALSE,"S252460501"
"22","piggui","Pigeon Guillemot","Cepphus columba","L24749296","Jefferson Beach Estates neighborhood","2025-06-20 11:55",2,47.747074,-122.479038,TRUE,FALSE,TRUE,"S252453655"
"23","piggui","Pigeon Guillemot","Cepphus columba","L6517534","Neah Bay--town and bay only","2025-06-20 11:44",20,48.3666101,-124.6215677,TRUE,FALSE,FALSE,"S252438459"
"24","piggui","Pigeon Guillemot","Cepphus columba","L2896376","Glacier Bay NP--Johns Hopkins Inlet","2025-06-20 11:43",3,58.911383,-137.0056915,TRUE,FALSE,FALSE,"S252467131"
"25","piggui","Pigeon Guillemot","Cepphus columba","L3312987","Sunset Bay overlook","2025-06-20 11:37",7,43.3292118,-124.380797,TRUE,FALSE,FALSE,"S252468020"
"26","piggui","Pigeon Guillemot","Cepphus columba","L10303366","Otter Point State Rec Area","2025-06-20 11:26",3,42.4633954,-124.4231164,TRUE,FALSE,FALSE,"S252434795"
"27","piggui","Pigeon Guillemot","Cepphus columba","L962710","Deception Pass SP -- North Beach","2025-06-20 11:24",24,48.4042492,-122.646904,TRUE,FALSE,FALSE,"S252476104"
"28","piggui","Pigeon Guillemot","Cepphus columba","L20643239","Edmonds Marina","2025-06-20 11:23",4,47.8079405,-122.3924276,TRUE,FALSE,FALSE,"S252476580"
"29","piggui","Pigeon Guillemot","Cepphus columba","L638805","Cannon Beach","2025-06-20 11:18",NA,45.888186,-123.9646626,TRUE,FALSE,FALSE,"S252466017"
"30","piggui","Pigeon Guillemot","Cepphus columba","L1297375","Deception Pass SP-- Pass Island","2025-06-20 11:15",26,48.4073831,-122.6446295,TRUE,FALSE,FALSE,"S252475965"
"31","piggui","Pigeon Guillemot","Cepphus columba","L8343102","SE Jetty Way, Newport US-OR (44.6185,-124.0543)","2025-06-20 11:13",3,44.618472,-124.054287,TRUE,FALSE,TRUE,"S252442904"
"32","piggui","Pigeon Guillemot","Cepphus columba","L1925502","Bainbridge Island Ferry Terminal","2025-06-20 11:10",1,47.6226137,-122.5104683,TRUE,FALSE,FALSE,"S252427118"
"33","piggui","Pigeon Guillemot","Cepphus columba","L913355","Orcas Ferry Landing","2025-06-20 11:01",1,48.5970464,-122.9432774,TRUE,FALSE,FALSE,"S252501047"
"34","piggui","Pigeon Guillemot","Cepphus columba","L3589626","Sea Lion Caves","2025-06-20 11:00",20,44.1216832,-124.1275853,TRUE,FALSE,FALSE,"S252501828"
"35","piggui","Pigeon Guillemot","Cepphus columba","L509262","Point Wilson","2025-06-20 10:38",1,48.1442626,-122.7539778,TRUE,FALSE,FALSE,"S252421016"
"36","piggui","Pigeon Guillemot","Cepphus columba","L20643235","Edmonds Public Fishing Pier","2025-06-20 10:10",4,47.8110241,-122.3899493,TRUE,FALSE,FALSE,"S252401311"
"37","piggui","Pigeon Guillemot","Cepphus columba","L1018792","Boiler Bay State Wayside","2025-06-20 10:07",8,44.8288173,-124.0658998,TRUE,FALSE,FALSE,"S252407712"
"38","piggui","Pigeon Guillemot","Cepphus columba","L127964","Seward--Lowell Point","2025-06-20 09:59",3,60.0706365,-149.4349383,TRUE,FALSE,FALSE,"S252429966"
"39","piggui","Pigeon Guillemot","Cepphus columba","L766034","Fort Casey State Park","2025-06-20 09:57",20,48.1581848,-122.6776314,TRUE,FALSE,FALSE,"S252440043"
"40","piggui","Pigeon Guillemot","Cepphus columba","L713779","San Lorenzo River mouth","2025-06-20 09:43",1,36.9638097,-122.0124171,TRUE,FALSE,FALSE,"S252410130"
"41","piggui","Pigeon Guillemot","Cepphus columba","L48067526","Whale Watching","2025-06-20 09:42",22,47.822461,-122.391926,TRUE,FALSE,TRUE,"S252473005"
"42","piggui","Pigeon Guillemot","Cepphus columba","L42092229","41329 Foulweather Bluff Rd NE, Hansville US-WA 47.93902, -122.61430","2025-06-20 09:21",2,47.939018,-122.614304,TRUE,FALSE,TRUE,"S252389721"
"43","piggui","Pigeon Guillemot","Cepphus columba","L800185","Cape Flattery","2025-06-20 09:10",50,48.385884,-124.7266299,TRUE,FALSE,FALSE,"S252423479"
"44","piggui","Pigeon Guillemot","Cepphus columba","L48077061","Auto selected 57.33584, -133.12420","2025-06-20 08:59",3,57.335836,-133.124198,TRUE,FALSE,TRUE,"S252428751"
"45","piggui","Pigeon Guillemot","Cepphus columba","L1032455","Wilder Ranch SP--Old Cove Landing Trail","2025-06-20 08:43",10,36.9569044,-122.0840338,TRUE,FALSE,FALSE,"S252377997"
"46","piggui","Pigeon Guillemot","Cepphus columba","L2875552","SJCR stationary point 1 (tower)","2025-06-20 08:41",2,46.2264812,-124.0142409,TRUE,FALSE,TRUE,"S252378287"
"47","piggui","Pigeon Guillemot","Cepphus columba","L374382","Edmonds Waterfront","2025-06-20 08:40",1,47.8119268,-122.3854144,TRUE,FALSE,FALSE,"S252414565"
"48","piggui","Pigeon Guillemot","Cepphus columba","L1548579","Pt. Buchon Trail","2025-06-20 08:32",12,35.2550601,-120.8981069,TRUE,FALSE,FALSE,"S252431340"
"49","piggui","Pigeon Guillemot","Cepphus columba","L1232767","Gardiner Beach","2025-06-20 07:30",4,48.056878,-122.9152966,TRUE,FALSE,FALSE,"S252373264"
"50","piggui","Pigeon Guillemot","Cepphus columba","L128530","Discovery Park","2025-06-20 06:30",NA,47.663868,-122.4215317,TRUE,FALSE,FALSE,"S252421466"
"51","piggui","Pigeon Guillemot","Cepphus columba","L139567","Rodeo Lagoon (including beach and offshore)","2025-06-20 06:25",12,37.8304863,-122.5329514,TRUE,FALSE,FALSE,"S252440620"
"52","piggui","Pigeon Guillemot","Cepphus columba","L1627186","Titlow Park & Beach","2025-06-20 06:14",9,47.2489682,-122.5517227,TRUE,FALSE,FALSE,"S252357992"
"53","piggui","Pigeon Guillemot","Cepphus columba","L156941","Yaquina Head Outstanding Natural Area--Lighthouse","2025-06-20 06:02",35,44.6768624,-124.0788388,TRUE,FALSE,FALSE,"S252383076"
"54","piggui","Pigeon Guillemot","Cepphus columba","L35520774","Skiff Point","2025-06-20 06:00",19,47.662815,-122.5003481,TRUE,FALSE,FALSE,"S252365948"
"55","piggui","Pigeon Guillemot","Cepphus columba","L246497","Gambell (general area)","2025-06-19 23:30",1,63.7793007,-171.7214584,TRUE,FALSE,FALSE,"S252256991"
"56","piggui","Pigeon Guillemot","Cepphus columba","L7312963","Kodiak Is.--Whale Pass","2025-06-19 20:00",3,57.9231209,-152.8215172,TRUE,FALSE,FALSE,"S252221354"
"57","piggui","Pigeon Guillemot","Cepphus columba","L4935968","Elrington Passage","2025-06-19 19:38",1,60.0141358,-148.063714,TRUE,FALSE,FALSE,"S252252287"
"58","piggui","Pigeon Guillemot","Cepphus columba","L1045178","Skagway--waterfront","2025-06-19 19:29",2,59.447693,-135.3271866,TRUE,FALSE,FALSE,"S252213318"
"59","piggui","Pigeon Guillemot","Cepphus columba","L916131","Adak Island--Sweeper Cove","2025-06-19 19:20",1,51.856034,-176.6471091,TRUE,FALSE,FALSE,"S252217358"
"60","piggui","Pigeon Guillemot","Cepphus columba","L285366","Golden Gardens Park","2025-06-19 19:03",1,47.6928546,-122.4054806,TRUE,FALSE,FALSE,"S252214871"
"61","piggui","Pigeon Guillemot","Cepphus columba","L586756","Seward--Iditarod Memorial","2025-06-19 18:38",2,60.1014771,-149.4355201,TRUE,FALSE,FALSE,"S252210193"
"62","piggui","Pigeon Guillemot","Cepphus columba","L1105351","Seward--Spring Creek Campground","2025-06-19 18:34",16,60.088325,-149.3558264,TRUE,FALSE,FALSE,"S252208188"
"63","piggui","Pigeon Guillemot","Cepphus columba","L1063164","Whidbey Island--Keystone Spit Rake Station","2025-06-19 18:22",1,48.1637995,-122.6376309,TRUE,FALSE,FALSE,"S252199906"
"64","piggui","Pigeon Guillemot","Cepphus columba","L48039619","Kodiak Is.--Bruhn Point","2025-06-19 18:07",1,57.7004668,-152.5443705,TRUE,FALSE,TRUE,"S252258377"
"65","piggui","Pigeon Guillemot","Cepphus columba","L1454129","Saddlebag Island","2025-06-19 17:41",1,48.5357004,-122.5566671,TRUE,FALSE,FALSE,"S252205534"
"66","piggui","Pigeon Guillemot","Cepphus columba","L3292869","Dungeness NWR--forest trails","2025-06-19 16:40",2,48.1444053,-123.1874228,TRUE,FALSE,FALSE,"S252193299"
"67","piggui","Pigeon Guillemot","Cepphus columba","L11816707","Oregon State University - Hatfield Marine Science Center, Newport US-OR 44.62315, -124.04422","2025-06-19 16:34",1,44.623146,-124.044219,TRUE,FALSE,TRUE,"S252193102"
"68","piggui","Pigeon Guillemot","Cepphus columba","L29690471","Dungeness NWR","2025-06-19 16:32",2,48.1463111,-123.1865094,TRUE,FALSE,FALSE,"S252195606"
"69","piggui","Pigeon Guillemot","Cepphus columba","L1406877","832 Gardiner Beach Road my yard","2025-06-19 16:30",1,48.0583226,-122.9198055,TRUE,FALSE,TRUE,"S252211699"
"70","piggui","Pigeon Guillemot","Cepphus columba","L1252571","Washington Park--Green Point","2025-06-19 16:18",5,48.498746,-122.701145,TRUE,FALSE,FALSE,"S252343633"
"71","piggui","Pigeon Guillemot","Cepphus columba","L2492616","Kingston Ferry Terminal","2025-06-19 16:09",12,47.7958271,-122.496078,TRUE,FALSE,FALSE,"S252166759"
"72","piggui","Pigeon Guillemot","Cepphus columba","L3075938","San Juan Islands NWR--Eliza Rock","2025-06-19 16:03",2,48.6436159,-122.5782244,TRUE,FALSE,FALSE,"S252164304"
"73","piggui","Pigeon Guillemot","Cepphus columba","L372653","Seattle-Winslow Ferry (King Co.)","2025-06-19 16:02",1,47.6046584,-122.4168777,TRUE,FALSE,FALSE,"S252165454"
"74","piggui","Pigeon Guillemot","Cepphus columba","L331426","Saltwater SP","2025-06-19 15:51",1,47.3733968,-122.3236098,TRUE,FALSE,FALSE,"S252168338"
"75","piggui","Pigeon Guillemot","Cepphus columba","L593689","North Vashon Ferry Terminal","2025-06-19 15:38",6,47.5102442,-122.4645996,TRUE,FALSE,FALSE,"S252158631"
"76","piggui","Pigeon Guillemot","Cepphus columba","L318691","Lincoln Park, Seattle","2025-06-19 15:36",1,47.5302762,-122.3955921,TRUE,FALSE,FALSE,"S252170218"
"77","piggui","Pigeon Guillemot","Cepphus columba","L9630605","Bird Rocks","2025-06-19 15:10",7,48.4855401,-122.7617703,TRUE,FALSE,FALSE,"S252198977"
"78","piggui","Pigeon Guillemot","Cepphus columba","L3581784","Hug Point State Park","2025-06-19 15:02",1,45.8308626,-123.962667,TRUE,FALSE,FALSE,"S252160056"
"79","piggui","Pigeon Guillemot","Cepphus columba","L523108","Trinidad Harbor","2025-06-19 14:54",8,41.0564737,-124.1471274,TRUE,FALSE,FALSE,"S252215460"
"80","piggui","Pigeon Guillemot","Cepphus columba","L388045","Santa Cruz Municipal Wharf","2025-06-19 14:54",25,36.959035,-122.0182907,TRUE,FALSE,FALSE,"S252221222"
"81","piggui","Pigeon Guillemot","Cepphus columba","L109309","Pt. Pinos--seawatch only","2025-06-19 14:21",10,36.6373821,-121.9357538,TRUE,FALSE,FALSE,"S252214040"
"82","piggui","Pigeon Guillemot","Cepphus columba","L48026176","S to W off of Smith Island","2025-06-19 14:19",14,48.307934,-122.837853,TRUE,FALSE,TRUE,"S252198350"
"83","piggui","Pigeon Guillemot","Cepphus columba","L1676345","Lopez Hill","2025-06-19 14:16",4,48.483699,-122.872391,TRUE,FALSE,FALSE,"S252136036"
"84","piggui","Pigeon Guillemot","Cepphus columba","L15563678","Cave Landing","2025-06-19 14:14",14,35.175422,-120.7190609,TRUE,FALSE,FALSE,"S252226191"
"85","piggui","Pigeon Guillemot","Cepphus columba","L5408081","Hidden Cove Road end","2025-06-19 14:14",4,47.690153,-122.565746,TRUE,FALSE,FALSE,"S252135820"
"86","piggui","Pigeon Guillemot","Cepphus columba","L2335233","Arch Cape Creek","2025-06-19 14:13",1,45.8028119,-123.9681387,TRUE,FALSE,FALSE,"S252145280"
"87","piggui","Pigeon Guillemot","Cepphus columba","L491638","Pt. Reyes--Chimney Rock (DO NOT INCLUDE Fish Docks/Life Boat station area)","2025-06-19 14:04",10,37.9895338,-122.9631042,TRUE,FALSE,FALSE,"S252229593"
"88","piggui","Pigeon Guillemot","Cepphus columba","L48025664","Chenega, PWS, Alaska","2025-06-19 13:59",1,60.3399333,-148.0016567,TRUE,FALSE,TRUE,"S252196343"
"89","piggui","Pigeon Guillemot","Cepphus columba","L48015642","House to Saddleback by kayak","2025-06-19 13:58",20,48.573329,-122.533557,TRUE,FALSE,TRUE,"S252150195"
"90","piggui","Pigeon Guillemot","Cepphus columba","L2349115","Cape Disappointment SP--North Head","2025-06-19 13:57",6,46.29863,-124.0775084,TRUE,FALSE,FALSE,"S252447036"
"91","piggui","Pigeon Guillemot","Cepphus columba","L48020500","Kizhuyak Bay","2025-06-19 13:47",7,57.87141,-152.802057,TRUE,FALSE,TRUE,"S252172926"
"92","piggui","Pigeon Guillemot","Cepphus columba","L48016155","Lopez Island - Point Colville to Iceberg Point by boat","2025-06-19 13:30",29,48.422556,-122.838934,TRUE,FALSE,TRUE,"S252152924"
"93","piggui","Pigeon Guillemot","Cepphus columba","L48024414","Cape Newenham (58.659, -162.07)","2025-06-19 13:13",1,58.6589865,-162.0700259,TRUE,FALSE,TRUE,"S252191296"
"94","piggui","Pigeon Guillemot","Cepphus columba","L1335609","Camano Island SP","2025-06-19 13:06",2,48.1253264,-122.4930504,TRUE,FALSE,FALSE,"S252123725"
"95","piggui","Pigeon Guillemot","Cepphus columba","L392640","Washington Park, Anacortes","2025-06-19 13:05",1,48.495268,-122.6951408,TRUE,FALSE,FALSE,"S252213365"
"96","piggui","Pigeon Guillemot","Cepphus columba","L48008453","12969–12999 SR-20, Coupeville US-WA 48.16270, -122.66146","2025-06-19 12:57",7,48.162705,-122.661462,TRUE,FALSE,TRUE,"S252120236"
"97","piggui","Pigeon Guillemot","Cepphus columba","L4313747","Lyre Conservation Area","2025-06-19 12:57",4,48.1501769,-123.8257748,TRUE,FALSE,FALSE,"S252143925"
"98","piggui","Pigeon Guillemot","Cepphus columba","L576813","Port Orford Heads SP","2025-06-19 12:55",NA,42.736958,-124.5108461,TRUE,FALSE,FALSE,"S252151200"
"99","piggui","Pigeon Guillemot","Cepphus columba","L199245","Pt. Lobos State Reserve","2025-06-19 12:37",17,36.5194581,-121.9497013,TRUE,FALSE,FALSE,"S252198890"
"100","piggui","Pigeon Guillemot","Cepphus columba","L48079814","North Pacific Ocean, Samish TDSA US-WA 48.54250, -122.99360","2025-06-19 12:36",5,48.542496,-122.993605,TRUE,FALSE,TRUE,"S252439762"
"101","piggui","Pigeon Guillemot","Cepphus columba","L787853","Tokeland--marina","2025-06-19 12:26",1,46.7063518,-123.9671946,TRUE,FALSE,FALSE,"S252115652"
"102","piggui","Pigeon Guillemot","Cepphus columba","L48018935","Airbnb","2025-06-19 12:14",2,47.385502,-122.3840023,TRUE,FALSE,TRUE,"S252165840"
"103","piggui","Pigeon Guillemot","Cepphus columba","L598708","Islay Creek Mouth--Montana de Oro SP","2025-06-19 12:12",8,35.2754126,-120.8874173,TRUE,FALSE,FALSE,"S252444438"
"104","piggui","Pigeon Guillemot","Cepphus columba","L855468","Haines--Picture Point","2025-06-19 12:04",2,59.2439415,-135.4264927,TRUE,FALSE,FALSE,"S252124331"
"105","piggui","Pigeon Guillemot","Cepphus columba","L22323906","950 Northwest Carkeek Park Road, Seattle, Washington, US (47.711, -122.368)","2025-06-19 12:03",3,47.7108867,-122.3683583,TRUE,FALSE,TRUE,"S252400287"
"106","piggui","Pigeon Guillemot","Cepphus columba","L11966111","Cape Disappointment SP--Waikiki Beach","2025-06-19 11:57",2,46.2817492,-124.0585827,TRUE,FALSE,FALSE,"S252100016"
"107","piggui","Pigeon Guillemot","Cepphus columba","L265438","Three Crabs","2025-06-19 11:54",2,48.151945,-123.1222855,TRUE,FALSE,FALSE,"S252104863"
"108","piggui","Pigeon Guillemot","Cepphus columba","L3545559","Favorite Channel--Sentinel Island","2025-06-19 11:43",4,58.5462687,-134.9232674,TRUE,FALSE,FALSE,"S252118655"
"109","piggui","Pigeon Guillemot","Cepphus columba","L1652235","Hoonah--Cannery Rd","2025-06-19 11:37",3,58.1174631,-135.4567009,TRUE,FALSE,FALSE,"S252162329"
"110","piggui","Pigeon Guillemot","Cepphus columba","L6020236","Kachemak Bay--Hesketh Island","2025-06-19 11:25",5,59.5035802,-151.5270853,TRUE,FALSE,FALSE,"S252123563"
"111","piggui","Pigeon Guillemot","Cepphus columba","L5071674","Haines--Tanani Point","2025-06-19 11:21",3,59.2721599,-135.4407921,TRUE,FALSE,FALSE,"S252110957"
"112","piggui","Pigeon Guillemot","Cepphus columba","L48002307","Bellingham Channel, Samish TDSA US-WA 48.56885, -122.66408","2025-06-19 11:21",10,48.568847,-122.664077,TRUE,FALSE,TRUE,"S252096307"
"113","piggui","Pigeon Guillemot","Cepphus columba","L48004828","34243–34249 Glacier Hwy, Juneau US-AK 58.58906, -134.90148","2025-06-19 11:08",2,58.589063,-134.901481,TRUE,FALSE,TRUE,"S252106075"
"114","piggui","Pigeon Guillemot","Cepphus columba","L491609","Yaquina River--SW Jetty Way","2025-06-19 11:06",2,44.6158891,-124.0618658,TRUE,FALSE,FALSE,"S252086861"
"115","piggui","Pigeon Guillemot","Cepphus columba","L2326453","Cone Islands State Park","2025-06-19 11:05",30,48.5917551,-122.6754925,TRUE,FALSE,FALSE,"S252085031"
"116","piggui","Pigeon Guillemot","Cepphus columba","L548476","Haystack Rock","2025-06-19 11:04",3,45.8847357,-123.9683104,TRUE,FALSE,FALSE,"S252119845"
"117","piggui","Pigeon Guillemot","Cepphus columba","L47998684","Rosario Strait, Samish TDSA US-WA 48.62518, -122.62541","2025-06-19 10:54",6,48.625182,-122.62541,TRUE,FALSE,TRUE,"S252081896"
"118","piggui","Pigeon Guillemot","Cepphus columba","L294441","Anacortes Ferry Terminal","2025-06-19 10:52",3,48.5064005,-122.6780041,TRUE,FALSE,FALSE,"S252211839"
"119","piggui","Pigeon Guillemot","Cepphus columba","L578586","Trinidad Head","2025-06-19 10:29",10,41.0541136,-124.150486,TRUE,FALSE,FALSE,"S252199213"
"120","piggui","Pigeon Guillemot","Cepphus columba","L12018715","Keady Wayside And Beach To South,  Waldport, Oregon, US (44.424, -124.071)","2025-06-19 10:10",5,44.4237223,-124.0708441,TRUE,FALSE,TRUE,"S252082948"
"121","piggui","Pigeon Guillemot","Cepphus columba","L3023581","Glacier Bay NP--Tidal Inlet","2025-06-19 10:09",4,58.8265395,-136.3928604,TRUE,FALSE,FALSE,"S252111102"
"122","piggui","Pigeon Guillemot","Cepphus columba","L20643232","Brackett's Landing","2025-06-19 10:06",6,47.8133344,-122.3820588,TRUE,FALSE,FALSE,"S252081669"
"123","piggui","Pigeon Guillemot","Cepphus columba","L2095553","Islay Creek Campground--Montana de Oro SP","2025-06-19 10:03",30,35.2736118,-120.8838502,TRUE,FALSE,FALSE,"S252115472"
"124","piggui","Pigeon Guillemot","Cepphus columba","L286501","Tillamook Bay--Barview Jetty","2025-06-19 10:02",16,45.56952,-123.949414,TRUE,FALSE,FALSE,"S252070784"
"125","piggui","Pigeon Guillemot","Cepphus columba","L268250","Adak Island","2025-06-19 09:53",3,51.8941856,-176.6443634,TRUE,FALSE,FALSE,"S252190236"
"126","piggui","Pigeon Guillemot","Cepphus columba","L2373907","Bodega Harbor--Spud Point and marina","2025-06-19 09:51",1,38.3273494,-123.0563378,TRUE,FALSE,FALSE,"S252079644"
"127","piggui","Pigeon Guillemot","Cepphus columba","L7738253","Guemes Channel","2025-06-19 09:45",11,48.5232538,-122.6270685,TRUE,FALSE,FALSE,"S252141691"
"128","piggui","Pigeon Guillemot","Cepphus columba","L815302","Oswald West SP","2025-06-19 09:36",5,45.7623138,-123.9632893,TRUE,FALSE,FALSE,"S252078031"
"129","piggui","Pigeon Guillemot","Cepphus columba","L9847543","Kachemak Bay--Gull Island","2025-06-19 09:34",11,59.5850521,-151.3284206,TRUE,FALSE,FALSE,"S252129292"
"130","piggui","Pigeon Guillemot","Cepphus columba","L590833","La Push","2025-06-19 09:24",5,47.9082232,-124.6395031,TRUE,FALSE,FALSE,"S252225885"
"131","piggui","Pigeon Guillemot","Cepphus columba","L212336","Bluff Trail--Montana de Oro SP","2025-06-19 09:20",20,35.2711807,-120.8948396,TRUE,FALSE,FALSE,"S252177214"
"132","piggui","Pigeon Guillemot","Cepphus columba","L1560882","Waterman Pier","2025-06-19 09:17",2,47.573277,-122.5814656,TRUE,FALSE,FALSE,"S252050459"
"133","piggui","Pigeon Guillemot","Cepphus columba","L1450270","Cape Lookout SP","2025-06-19 09:10",NA,45.3387162,-124.0079559,TRUE,FALSE,FALSE,"S252196101"
"134","piggui","Pigeon Guillemot","Cepphus columba","L235914","Alaska Maritime NWR--St. Lazaria Island","2025-06-19 09:04",3,56.9873598,-135.7105632,TRUE,FALSE,FALSE,"S252229111"
"135","piggui","Pigeon Guillemot","Cepphus columba","L47996409","470 S Franklin St, Juneau US-AK 58.29596, -134.40198","2025-06-19 09:00",1,58.295956,-134.40198,TRUE,FALSE,TRUE,"S252072576"
"136","piggui","Pigeon Guillemot","Cepphus columba","L298030","Carkeek Park","2025-06-19 08:56",1,47.7126411,-122.377647,TRUE,FALSE,FALSE,"S252058616"
"137","piggui","Pigeon Guillemot","Cepphus columba","L271497","Humboldt Bay--King Salmon","2025-06-19 08:37",4,40.740336,-124.218596,TRUE,FALSE,FALSE,"S252191260"
"138","piggui","Pigeon Guillemot","Cepphus columba","L1309593","Keystone Ferry Landing","2025-06-19 08:37",20,48.1566961,-122.6702499,TRUE,FALSE,FALSE,"S252046526"
"139","piggui","Pigeon Guillemot","Cepphus columba","L159580","Kronenberg County Park--Coquille Point","2025-06-19 08:31",15,43.1147,-124.4353,TRUE,FALSE,FALSE,"S252052485"
"140","piggui","Pigeon Guillemot","Cepphus columba","L7900725","Alaska Maritime NWR--Chowiet Island","2025-06-19 08:30",1,56.032946,-156.705554,TRUE,FALSE,FALSE,"S252469623"
"141","piggui","Pigeon Guillemot","Cepphus columba","L20643227","Marina Beach Park","2025-06-19 08:25",1,47.8046691,-122.3942634,TRUE,FALSE,FALSE,"S252081472"
"142","piggui","Pigeon Guillemot","Cepphus columba","L370676","Moss Landing--marina, town & beach (south jetty southwards)","2025-06-19 08:19",4,36.8013642,-121.7879638,TRUE,FALSE,FALSE,"S252328732"
"143","piggui","Pigeon Guillemot","Cepphus columba","L34600088","Walden Rock","2025-06-19 08:08",2,55.278673,-131.605519,TRUE,FALSE,TRUE,"S252091260"
"144","piggui","Pigeon Guillemot","Cepphus columba","L19668392","Harrington Pigeon Guillemot colony - north end","2025-06-19 07:35",20,48.206438,-122.605098,TRUE,FALSE,TRUE,"S252037025"
"145","piggui","Pigeon Guillemot","Cepphus columba","L2281058","Glacier Bay NP--South Marble Island ","2025-06-19 07:27",NA,58.6452846,-136.0467911,TRUE,FALSE,FALSE,"S252082945"
"146","piggui","Pigeon Guillemot","Cepphus columba","L606176","Bodega Head - offshore species and the bluff ONLY","2025-06-19 07:22",6,38.3031875,-123.0648422,TRUE,FALSE,FALSE,"S252030044"
"147","piggui","Pigeon Guillemot","Cepphus columba","L44575104","North Jetty Newport","2025-06-19 07:16",200,44.6174514,-124.067298,TRUE,FALSE,TRUE,"S252057721"
"148","piggui","Pigeon Guillemot","Cepphus columba","L329116","Southeast Farallon Island (Farallon Islands NWR, restricted access)","2025-06-19 07:00",200,37.69852,-123.002789,TRUE,FALSE,FALSE,"S252207061"
"149","piggui","Pigeon Guillemot","Cepphus columba","L47813619","78 W Keystone Ave, Coupeville US-WA 48.16105, -122.61971","2025-06-19 06:58",1,48.161046,-122.619714,TRUE,FALSE,TRUE,"S252121656"
"150","piggui","Pigeon Guillemot","Cepphus columba","L15126607","Sunset Beach","2025-06-19 06:53",6,47.6407981,-122.8577047,TRUE,FALSE,TRUE,"S252150204"
"151","piggui","Pigeon Guillemot","Cepphus columba","L47985753","Gastineau Channel, Juneau US-AK 58.27538, -134.37752","2025-06-19 06:50",1,58.275385,-134.377516,TRUE,FALSE,TRUE,"S252031118"
"152","piggui","Pigeon Guillemot","Cepphus columba","L47991902","Auto selected 59.60414, -151.42077","2025-06-19 06:50",1,59.604142,-151.420774,TRUE,FALSE,TRUE,"S252055544"
"153","piggui","Pigeon Guillemot","Cepphus columba","L3880058","Auke Bay","2025-06-19 06:41",1,58.3725578,-134.6680498,TRUE,FALSE,FALSE,"S252026619"
"154","piggui","Pigeon Guillemot","Cepphus columba","L207315","Alki Beach","2025-06-19 06:11",3,47.5841938,-122.4005256,TRUE,FALSE,FALSE,"S252027130"
"155","piggui","Pigeon Guillemot","Cepphus columba","L2304220","Pirate Cove","2025-06-19 06:10",15,44.8197037,-124.0664041,TRUE,FALSE,FALSE,"S252085191"
"156","piggui","Pigeon Guillemot","Cepphus columba","L878727","Yachats SP","2025-06-19 05:55",27,44.3104337,-124.1074687,TRUE,FALSE,FALSE,"S252010514"
"157","piggui","Pigeon Guillemot","Cepphus columba","L4115903","Primary location","2025-06-19 05:13",1,47.4879333,-122.5194743,TRUE,FALSE,TRUE,"S252093847"
"158","piggui","Pigeon Guillemot","Cepphus columba","L486925","Crescent City Harbor--B Street pier and jetty","2025-06-18 20:06",2,41.7439081,-124.1976929,TRUE,FALSE,FALSE,"S251888280"
"159","piggui","Pigeon Guillemot","Cepphus columba","L7670841","Pier 54, Seattle","2025-06-18 19:38",1,47.6038482,-122.3388147,TRUE,FALSE,FALSE,"S251881397"
"160","piggui","Pigeon Guillemot","Cepphus columba","L4891872","Seward--Small Boat Harbor","2025-06-18 19:30",1,60.1198113,-149.4356704,TRUE,FALSE,FALSE,"S252080265"
"161","piggui","Pigeon Guillemot","Cepphus columba","L17518900","San Juan Island--Cattle Point Lighthouse","2025-06-18 19:03",6,48.45063,-122.963337,TRUE,FALSE,FALSE,"S251896074"
"162","piggui","Pigeon Guillemot","Cepphus columba","L433644","Sandy Point","2025-06-18 18:39",14,48.7871878,-122.7081871,TRUE,FALSE,FALSE,"S251906618"
"163","piggui","Pigeon Guillemot","Cepphus columba","L47953279","West Camp Road, Whittier, Alaska, US (60.778, -148.697)","2025-06-18 17:25",6,60.7779459,-148.6970591,TRUE,FALSE,TRUE,"S251876973"
"164","piggui","Pigeon Guillemot","Cepphus columba","L774789","Coquille River--South Jetty ","2025-06-18 17:11",NA,43.1222404,-124.4282663,TRUE,FALSE,FALSE,"S251856018"
"165","piggui","Pigeon Guillemot","Cepphus columba","L245894","Port Angeles City Pier","2025-06-18 16:58",NA,48.1205005,-123.4287722,TRUE,FALSE,FALSE,"S251853984"
"166","piggui","Pigeon Guillemot","Cepphus columba","L47944310","Valdez Arm US-AK (61.0132,-146.7305)","2025-06-18 16:42",1,61.013158,-146.730528,TRUE,FALSE,TRUE,"S251863857"
"167","piggui","Pigeon Guillemot","Cepphus columba","L48026171","Aleck Bay","2025-06-18 16:29",9,48.430412,-122.861123,TRUE,FALSE,TRUE,"S252198333"
"168","piggui","Pigeon Guillemot","Cepphus columba","L47948512","6049 Seaview Ave NW, Seattle US-WA 47.67337, -122.40771","2025-06-18 16:01",1,47.673365,-122.407708,TRUE,FALSE,TRUE,"S251852686"
"169","piggui","Pigeon Guillemot","Cepphus columba","L159609","Three Arch Rocks NWR (restricted access)","2025-06-18 15:57",10,45.4643993,-123.9851958,TRUE,FALSE,FALSE,"S251872383"
"170","piggui","Pigeon Guillemot","Cepphus columba","L941397","Scenic Beach SP","2025-06-18 15:55",2,47.6499949,-122.8437781,TRUE,FALSE,FALSE,"S251860395"
"171","piggui","Pigeon Guillemot","Cepphus columba","L3528174","Skagway--small boat harbor","2025-06-18 15:40",1,59.449529,-135.3205175,TRUE,FALSE,FALSE,"S251849395"
"172","piggui","Pigeon Guillemot","Cepphus columba","L7359024","Cape Disappointment SP--Lewis and Clark Interpretive Center","2025-06-18 15:39",9,46.27786,-124.0537548,TRUE,FALSE,FALSE,"S252062595"
"173","piggui","Pigeon Guillemot","Cepphus columba","L373614","Pacific Grove--Berwick Park to Harbor Seal overlook","2025-06-18 15:04",1,36.6220002,-121.9109242,TRUE,FALSE,FALSE,"S251832133"
"174","piggui","Pigeon Guillemot","Cepphus columba","L763526","Cape Meares SP--Lighthouse","2025-06-18 15:02",4,45.4864324,-123.9774492,TRUE,FALSE,FALSE,"S251871652"
"175","piggui","Pigeon Guillemot","Cepphus columba","L1571819","Pebble Beach--Stillwater Cove","2025-06-18 14:50",2,36.5662486,-121.9428965,TRUE,FALSE,FALSE,"S251847517"
"176","piggui","Pigeon Guillemot","Cepphus columba","L5070181","Gustavus--ferry dock","2025-06-18 14:37",5,58.3901089,-135.7296596,TRUE,FALSE,FALSE,"S251887084"
"177","piggui","Pigeon Guillemot","Cepphus columba","L782141","Gustavus--Forelands Preserve (Salmon River)","2025-06-18 14:35",NA,58.3996429,-135.7380581,TRUE,FALSE,FALSE,"S251891131"
"178","piggui","Pigeon Guillemot","Cepphus columba","L20100530","470 S Franklin St, Juneau US-AK (58.2963,-134.4016)","2025-06-18 14:24",10,58.296262,-134.401573,TRUE,FALSE,TRUE,"S251850853"
"179","piggui","Pigeon Guillemot","Cepphus columba","L234894","Salt Creek County Park","2025-06-18 14:17",3,48.1631912,-123.6972883,TRUE,FALSE,FALSE,"S251834419"
"180","piggui","Pigeon Guillemot","Cepphus columba","L42315393","Auto selected 48.16197, -122.75341","2025-06-18 14:16",23,48.16197,-122.753411,TRUE,FALSE,TRUE,"S251870132"
"181","piggui","Pigeon Guillemot","Cepphus columba","L868122","Fort Baker","2025-06-18 14:15",2,37.8336901,-122.4776373,TRUE,FALSE,FALSE,"S252356386"
"182","piggui","Pigeon Guillemot","Cepphus columba","L834171","Deception Pass SP -- West Beach","2025-06-18 14:10",5,48.4000277,-122.6643831,TRUE,FALSE,FALSE,"S251820882"
"183","piggui","Pigeon Guillemot","Cepphus columba","L5070478","Beardslee Islands--south","2025-06-18 14:02",9,58.5190185,-135.9059944,TRUE,FALSE,FALSE,"S252108240"
"184","piggui","Pigeon Guillemot","Cepphus columba","L276431","Olympic NP--Ruby Beach","2025-06-18 13:56",5,47.7097578,-124.4143641,TRUE,FALSE,FALSE,"S251850012"
"185","piggui","Pigeon Guillemot","Cepphus columba","L47957250","Kenai Fjords NP--Cataract Cove","2025-06-18 13:52",1,59.716323,-149.819925,TRUE,FALSE,TRUE,"S251895440"
"186","piggui","Pigeon Guillemot","Cepphus columba","L293994","Auke village recreation area","2025-06-18 13:42",5,58.3759998,-134.7181811,TRUE,FALSE,TRUE,"S251845312"
"187","piggui","Pigeon Guillemot","Cepphus columba","L48058343","Auto selected 60.50477, -147.43095","2025-06-18 13:28",1,60.504766,-147.430946,TRUE,FALSE,TRUE,"S252353846"
"188","piggui","Pigeon Guillemot","Cepphus columba","L496326","Outer Point Trail","2025-06-18 13:20",8,58.302364,-134.6786499,TRUE,FALSE,FALSE,"S251830164"
"189","piggui","Pigeon Guillemot","Cepphus columba","L285940","Cape Kiwanda SP","2025-06-18 13:00",NA,45.2174028,-123.9778006,TRUE,FALSE,FALSE,"S251831055"
"190","piggui","Pigeon Guillemot","Cepphus columba","L390083","Marlyn Nelson County Park","2025-06-18 12:57",13,48.094649,-123.045845,TRUE,FALSE,FALSE,"S251830178"
"191","piggui","Pigeon Guillemot","Cepphus columba","L15478755","Kodiak Is.--Near Is.-Dog Bay Harbor area","2025-06-18 12:46",NA,57.7768279,-152.4170815,TRUE,FALSE,FALSE,"S251811960"
"192","piggui","Pigeon Guillemot","Cepphus columba","L491602","Alsea Bay--Lower Bay","2025-06-18 12:30",6,44.4270071,-124.073925,TRUE,FALSE,FALSE,"S251811232"
"193","piggui","Pigeon Guillemot","Cepphus columba","L1325204","Olympia--KGY Point","2025-06-18 12:30",1,47.0586041,-122.9038811,TRUE,FALSE,FALSE,"S251843548"
"194","piggui","Pigeon Guillemot","Cepphus columba","L7100846","Depoe Bay pelagic (general)","2025-06-18 12:12",2,44.8368215,-124.5876646,TRUE,FALSE,FALSE,"S251823240"
"195","piggui","Pigeon Guillemot","Cepphus columba","L1254311","Kenai Fjords NP--Northwestern Fiord","2025-06-18 12:09",1,59.7803768,-150.026207,TRUE,FALSE,FALSE,"S251895374"
"196","piggui","Pigeon Guillemot","Cepphus columba","L3702102","Neahkahnie Mt. Wayfinding Point","2025-06-18 12:04",2,45.7446243,-123.9608324,TRUE,FALSE,FALSE,"S251793805"
"197","piggui","Pigeon Guillemot","Cepphus columba","L109471","Ano Nuevo SP--Visitors Center, Elephant Seals and trails","2025-06-18 11:53",3,37.1174022,-122.3188162,TRUE,FALSE,FALSE,"S251863013"
"198","piggui","Pigeon Guillemot","Cepphus columba","L781842","Kenai Fjords NP--Aialik Bay","2025-06-18 11:44",4,59.9046068,-149.6933556,TRUE,FALSE,FALSE,"S252200608"
"199","piggui","Pigeon Guillemot","Cepphus columba","L190512","Ediz Hook","2025-06-18 11:34",1,48.14035,-123.44711,TRUE,FALSE,FALSE,"S251795760"
"200","piggui","Pigeon Guillemot","Cepphus columba","L1311564","Yaquina Bay SP","2025-06-18 11:28",1,44.624892,-124.063282,TRUE,FALSE,FALSE,"S251776886"
"201","piggui","Pigeon Guillemot","Cepphus columba","L798371","Ona Beach SP","2025-06-18 11:25",5,44.5213563,-124.0740108,TRUE,FALSE,FALSE,"S251793979"
"202","piggui","Pigeon Guillemot","Cepphus columba","L47935918","Homer Boat Trip leg 4","2025-06-18 11:00",4,59.586164,-151.327068,TRUE,FALSE,TRUE,"S251795449"
"203","piggui","Pigeon Guillemot","Cepphus columba","L4936159","Favorite Channel--Aaron Island","2025-06-18 11:00",8,58.4371776,-134.8223691,TRUE,FALSE,FALSE,"S251846344"
"204","piggui","Pigeon Guillemot","Cepphus columba","L769082","Alaska Maritime NWR--Chiswell Islands","2025-06-18 10:53",4,59.6431112,-149.6138763,TRUE,FALSE,FALSE,"S251895269"
"205","piggui","Pigeon Guillemot","Cepphus columba","L791486","Fauntleroy Ferry Terminal","2025-06-18 10:45",10,47.5232362,-122.3943123,TRUE,FALSE,FALSE,"S251761150"
"206","piggui","Pigeon Guillemot","Cepphus columba","L1808469","Wilder Ranch SP--Ohlone Bluff Trail and ag fields","2025-06-18 10:37",50,36.960002,-122.1069264,TRUE,FALSE,FALSE,"S251842097"
"207","piggui","Pigeon Guillemot","Cepphus columba","L1136615","Manzanita Beach","2025-06-18 10:22",1,45.7220149,-123.9413595,TRUE,FALSE,FALSE,"S251761998"
"208","piggui","Pigeon Guillemot","Cepphus columba","L47933111","Homer Boat Trip leg 3","2025-06-18 09:59",37,59.603857,-151.188428,TRUE,FALSE,TRUE,"S251783426"
"209","piggui","Pigeon Guillemot","Cepphus columba","L809069","Dockton Park","2025-06-18 09:53",1,47.3703673,-122.4544072,TRUE,FALSE,FALSE,"S251760118"
"210","piggui","Pigeon Guillemot","Cepphus columba","L741507","Natural Bridges SB--overlook","2025-06-18 09:46",2,36.9494116,-122.0564747,TRUE,FALSE,FALSE,"S251755684"
"211","piggui","Pigeon Guillemot","Cepphus columba","L34358467","Exploratorium, Pier 15, Embarcadero","2025-06-18 09:38",1,37.802295,-122.396678,TRUE,FALSE,FALSE,"S252069716"
"212","piggui","Pigeon Guillemot","Cepphus columba","L2898064","Resurrection Bay--Cheval Narrows","2025-06-18 09:36",2,59.7779575,-149.5270157,TRUE,FALSE,FALSE,"S251894950"
"213","piggui","Pigeon Guillemot","Cepphus columba","L22187146","Resurrection Bay--Spire Cove","2025-06-18 09:23",1,59.8764992,-149.5736218,TRUE,FALSE,FALSE,"S251894024"
"214","piggui","Pigeon Guillemot","Cepphus columba","L21368796","Point Lobos State Natural Reserve, Carmel US-CA 36.52067, -121.93697","2025-06-18 09:13",NA,36.520675,-121.936974,TRUE,FALSE,TRUE,"S251845807"
"215","piggui","Pigeon Guillemot","Cepphus columba","L941863","Resurrection Bay--Callisto Head","2025-06-18 09:09",1,59.9183334,-149.4646168,TRUE,FALSE,FALSE,"S251894823"
"216","piggui","Pigeon Guillemot","Cepphus columba","L47928913","Homer Boat Trip leg 2","2025-06-18 09:00",1,59.655307,-151.185314,TRUE,FALSE,TRUE,"S251765021"
"217","piggui","Pigeon Guillemot","Cepphus columba","L129842","Resurrection Bay","2025-06-18 08:30",2,60.0497812,-149.3878636,TRUE,FALSE,FALSE,"S251865017"
"218","piggui","Pigeon Guillemot","Cepphus columba","L368308","Mendocino Coast Botanical Gardens","2025-06-18 08:13",4,39.4088845,-123.810854,TRUE,FALSE,FALSE,"S251794982"
"219","piggui","Pigeon Guillemot","Cepphus columba","L2215712","Skagway--Ore Dock ","2025-06-18 08:12",1,59.4505012,-135.3299332,TRUE,FALSE,FALSE,"S251734565"
"220","piggui","Pigeon Guillemot","Cepphus columba","L47924838","Homer Boat Trip leg 1","2025-06-18 08:01",2,59.603403,-151.422369,TRUE,FALSE,TRUE,"S251748279"
"221","piggui","Pigeon Guillemot","Cepphus columba","L840172","Whittier (town)","2025-06-18 08:00",2,60.777602,-148.7033844,TRUE,FALSE,FALSE,"S251830154"
"222","piggui","Pigeon Guillemot","Cepphus columba","L6240151","Point Wells","2025-06-18 07:53",5,47.7808376,-122.3976879,TRUE,FALSE,FALSE,"S251738482"
"223","piggui","Pigeon Guillemot","Cepphus columba","L15828676","Possession Sound Preserve","2025-06-18 07:42",22,47.9530564,-122.3509804,TRUE,FALSE,FALSE,"S251822397"
"224","piggui","Pigeon Guillemot","Cepphus columba","L4191897","Haines--Portage Cove","2025-06-18 07:36",3,59.2341411,-135.4254735,TRUE,FALSE,FALSE,"S251724363"
"225","piggui","Pigeon Guillemot","Cepphus columba","L48005997","Hutchins Bay US-AK (58.5070,-135.8526)","2025-06-18 07:34",4,58.506958,-135.852625,TRUE,FALSE,TRUE,"S252110480"
"226","piggui","Pigeon Guillemot","Cepphus columba","L1029744","Skagway (town)","2025-06-18 07:21",1,59.4616517,-135.3052139,TRUE,FALSE,FALSE,"S251731754"
"227","piggui","Pigeon Guillemot","Cepphus columba","L767707","Farallon Islands pelagic (SF Co.)","2025-06-18 07:00",200,37.7185903,-122.9534912,TRUE,FALSE,FALSE,"S251893677"
"228","piggui","Pigeon Guillemot","Cepphus columba","L295630","Devils Elbow SP (Heceta Head Lighthouse State Scenic Area)","2025-06-18 06:50",35,44.1350095,-124.1230775,TRUE,FALSE,FALSE,"S251743564"
"229","piggui","Pigeon Guillemot","Cepphus columba","L233548","Point La Jolla--seawatch","2025-06-18 06:10",1,32.8507576,-117.2735641,TRUE,TRUE,FALSE,"S251890511"
"230","piggui","Pigeon Guillemot","Cepphus columba","L1057779","Shi Shi Beach","2025-06-18 06:00",NA,48.2685691,-124.6809196,TRUE,FALSE,FALSE,"S252042911"
"231","piggui","Pigeon Guillemot","Cepphus columba","L1063167","Wrangell--Ferry Terminal","2025-06-18 05:55",2,56.4744918,-132.3898888,TRUE,FALSE,FALSE,"S251699241"
"232","piggui","Pigeon Guillemot","Cepphus columba","L8268918","Alki (including north and south beaches)","2025-06-18 05:23",6,47.5761017,-122.4190941,TRUE,FALSE,FALSE,"S251705543"
"233","piggui","Pigeon Guillemot","Cepphus columba","L682181","Sitka Sound","2025-06-18",NA,57.0317632,-135.5122375,TRUE,FALSE,FALSE,"S251906161"
"234","piggui","Pigeon Guillemot","Cepphus columba","L4128669","Skyline, Anacortes","2025-06-17 20:00",2,48.489752,-122.676051,TRUE,FALSE,FALSE,"S251565503"
"235","piggui","Pigeon Guillemot","Cepphus columba","L2091986","Jones Island State Park","2025-06-17 19:34",2,48.6146402,-123.0461884,TRUE,FALSE,FALSE,"S252412364"
"236","piggui","Pigeon Guillemot","Cepphus columba","L47888702","3327 Ruston Way, Tacoma US-WA 47.28228, -122.47956","2025-06-17 19:20",2,47.282278,-122.47956,TRUE,FALSE,TRUE,"S251565413"
"237","piggui","Pigeon Guillemot","Cepphus columba","L3150121","Sand Hill Bluff","2025-06-17 18:45",5,36.9777845,-122.1525859,TRUE,FALSE,FALSE,"S251696404"
"238","piggui","Pigeon Guillemot","Cepphus columba","L153927","Gold Creek Delta","2025-06-17 18:41",12,58.2983519,-134.4208145,TRUE,FALSE,FALSE,"S251561215"
"239","piggui","Pigeon Guillemot","Cepphus columba","L887456","Horsfall Beach","2025-06-17 18:39",4,43.4538224,-124.2776012,TRUE,FALSE,FALSE,"S251562014"
"240","piggui","Pigeon Guillemot","Cepphus columba","L1901280","Main Beach","2025-06-17 18:38",1,36.9634404,-122.0189861,TRUE,FALSE,FALSE,"S251557415"
"241","piggui","Pigeon Guillemot","Cepphus columba","L608334","Point Hudson","2025-06-17 17:59",1,48.117861,-122.7494931,TRUE,FALSE,FALSE,"S251553404"
"242","piggui","Pigeon Guillemot","Cepphus columba","L47731334","Private","2025-06-17 17:47",1,47.120958,-122.964469,TRUE,FALSE,TRUE,"S251566211"
"243","piggui","Pigeon Guillemot","Cepphus columba","L273591","Diamond Point","2025-06-17 17:41",5,48.0952891,-122.9202042,TRUE,FALSE,FALSE,"S251539160"
"244","piggui","Pigeon Guillemot","Cepphus columba","L2752419","Seward--Waterfront Park","2025-06-17 17:36",4,60.1067459,-149.4337238,TRUE,FALSE,FALSE,"S251568070"
"245","piggui","Pigeon Guillemot","Cepphus columba","L6105843","GGNRA--Land's End Trail/Hermit Rock Overlook (Historic Shipwrecks, 37.7839,-122.5096)","2025-06-17 17:20",4,37.783947,-122.509612,TRUE,FALSE,FALSE,"S251559137"
"246","piggui","Pigeon Guillemot","Cepphus columba","L47930011","Port Townsend Bay & Canal","2025-06-17 16:58",8,48.0288734,-122.7283877,TRUE,FALSE,TRUE,"S251768237"
"247","piggui","Pigeon Guillemot","Cepphus columba","L5057914","Favorite Channel--Eagle Reef","2025-06-17 16:43",6,58.4608038,-134.8241158,TRUE,FALSE,FALSE,"S251539548"
"248","piggui","Pigeon Guillemot","Cepphus columba","L447385","Ecola SP","2025-06-17 16:40",8,45.9183632,-123.9774513,TRUE,FALSE,FALSE,"S252182040"
"249","piggui","Pigeon Guillemot","Cepphus columba","L766025","Mukilteo-Clinton Ferry","2025-06-17 16:33",1,47.9590353,-122.3177703,TRUE,FALSE,FALSE,"S251532181"
"250","piggui","Pigeon Guillemot","Cepphus columba","L47884913","205 Congress Way, Skagway, Alaska, US (59.449, -135.322)","2025-06-17 16:22",2,59.4489011,-135.3218069,TRUE,FALSE,TRUE,"S251549257"
"251","piggui","Pigeon Guillemot","Cepphus columba","L7706326","Smith Island","2025-06-17 16:09",10,48.318233,-122.8410187,TRUE,FALSE,FALSE,"S251771484"
"252","piggui","Pigeon Guillemot","Cepphus columba","L3835920","Hoonah (town)","2025-06-17 16:00",3,58.1070011,-135.4426503,TRUE,FALSE,FALSE,"S251537717"
"253","piggui","Pigeon Guillemot","Cepphus columba","L887007","San Simeon Point","2025-06-17 15:58",7,35.6358068,-121.1946398,TRUE,FALSE,FALSE,"S251550632"
"254","piggui","Pigeon Guillemot","Cepphus columba","L988745","Kenai Fjords NP--Kenai Fjords Glacier Lodge","2025-06-17 15:52",2,59.8842862,-149.7302628,TRUE,FALSE,FALSE,"S252198838"
"255","piggui","Pigeon Guillemot","Cepphus columba","L502380","Heron's Head Park","2025-06-17 15:51",1,37.7381243,-122.3725462,TRUE,FALSE,FALSE,"S251565608"
"256","piggui","Pigeon Guillemot","Cepphus columba","L3335355","Seward--Afognak Beach","2025-06-17 15:48",9,60.1217033,-149.370321,TRUE,FALSE,FALSE,"S251555700"
"257","piggui","Pigeon Guillemot","Cepphus columba","L6228106","Governor Patterson Memorial State Recreation Site","2025-06-17 15:32",15,44.4142974,-124.0839028,TRUE,FALSE,FALSE,"S251541552"
"258","piggui","Pigeon Guillemot","Cepphus columba","L292851","Fort Worden SP","2025-06-17 15:10",8,48.1408906,-122.7680969,TRUE,FALSE,FALSE,"S251521895"
"259","piggui","Pigeon Guillemot","Cepphus columba","L47930527","Puget Sound/Whidbey West Coast (Island Co.)","2025-06-17 15:06",1,48.2295768,-122.7966208,TRUE,FALSE,TRUE,"S251771608"
"260","piggui","Pigeon Guillemot","Cepphus columba","L2254910","Tillamook Bay--Garibaldi Public Pier","2025-06-17 15:00",22,45.5566472,-123.921305,TRUE,FALSE,FALSE,"S251559159"
"261","piggui","Pigeon Guillemot","Cepphus columba","L3494695","Elliott Bay Trail--Terminal 91","2025-06-17 14:48",2,47.631283,-122.3778409,TRUE,FALSE,FALSE,"S251529638"
"262","piggui","Pigeon Guillemot","Cepphus columba","L2389568","Russian Gulch SP","2025-06-17 14:32",1,39.3306461,-123.8009405,TRUE,FALSE,FALSE,"S251536566"
"263","piggui","Pigeon Guillemot","Cepphus columba","L1613287","Bandon SP--Devil's Kitchen","2025-06-17 14:23",8,43.0824758,-124.4346134,TRUE,FALSE,FALSE,"S251524879"
"264","piggui","Pigeon Guillemot","Cepphus columba","L5287363","Unalaska Is.--Iliuliuk Bay","2025-06-17 14:20",3,53.9125997,-166.5040313,TRUE,FALSE,FALSE,"S251520190"
"265","piggui","Pigeon Guillemot","Cepphus columba","L33625551","Pier 62","2025-06-17 14:09",1,47.608624,-122.3450532,TRUE,FALSE,FALSE,"S251493562"
"266","piggui","Pigeon Guillemot","Cepphus columba","L2212788","Kayak Point County Park","2025-06-17 13:34",2,48.1358239,-122.3658085,TRUE,FALSE,FALSE,"S251530116"
"267","piggui","Pigeon Guillemot","Cepphus columba","L782103","Devils Punchbowl SP","2025-06-17 13:27",8,44.7473581,-124.0657926,TRUE,FALSE,FALSE,"S251490930"
"268","piggui","Pigeon Guillemot","Cepphus columba","L1742212","Picnic Point Park","2025-06-17 13:27",1,47.8809387,-122.3332976,TRUE,FALSE,FALSE,"S251509309"
"269","piggui","Pigeon Guillemot","Cepphus columba","L323868","Cape Meares SP","2025-06-17 13:20",2,45.4879509,-123.9697133,TRUE,FALSE,FALSE,"S251558210"
"270","piggui","Pigeon Guillemot","Cepphus columba","L589327","Seward--Tonsina Creek/Caines Head Trail","2025-06-17 13:17",1,60.062656,-149.4459915,TRUE,FALSE,FALSE,"S251707764"
"271","piggui","Pigeon Guillemot","Cepphus columba","L47870403","Tongue Point Rd, Port Angeles US-WA 48.16638, -123.70447","2025-06-17 12:53",4,48.166376,-123.704468,TRUE,FALSE,TRUE,"S251481967"
"272","piggui","Pigeon Guillemot","Cepphus columba","L1460642","Port Townsend-Keystone Ferry (Island Co.)","2025-06-17 12:45",18,48.1472328,-122.6790196,TRUE,FALSE,FALSE,"S251885793"
"273","piggui","Pigeon Guillemot","Cepphus columba","L28640253","Sand Dunes Rd end of the road, Florence US-OR (44.0133,-124.1333)","2025-06-17 12:38",1,44.0133,-124.13333,TRUE,FALSE,TRUE,"S251473242"
"274","piggui","Pigeon Guillemot","Cepphus columba","L47868473","North Pacific Ocean, Samish TDSA US-WA 48.44897, -122.70418","2025-06-17 12:34",18,48.448967,-122.704183,TRUE,FALSE,TRUE,"S251474179"
"275","piggui","Pigeon Guillemot","Cepphus columba","L257994","Dash Point Park & Pier","2025-06-17 12:22",1,47.3193071,-122.4272552,TRUE,FALSE,FALSE,"S251478783"
"276","piggui","Pigeon Guillemot","Cepphus columba","L927340","Sue-Meg State Park--Wedding Rock","2025-06-17 12:14",1,41.1412472,-124.1618854,TRUE,FALSE,FALSE,"S251467327"
"277","piggui","Pigeon Guillemot","Cepphus columba","L47881907","7992 Saddlebag Lane, Anacortes, Washington, US (48.528, -122.574)","2025-06-17 12:14",3,48.5279936,-122.574369,TRUE,FALSE,TRUE,"S251535137"
"278","piggui","Pigeon Guillemot","Cepphus columba","L742888","Siuslaw River--South Jetty-Crab Docks","2025-06-17 12:11",2,44.007657,-124.1322332,TRUE,FALSE,FALSE,"S251470549"
"279","piggui","Pigeon Guillemot","Cepphus columba","L1333982","Port Townsend--waterfront","2025-06-17 12:11",1,48.1117433,-122.762578,TRUE,FALSE,FALSE,"S251465896"
"280","piggui","Pigeon Guillemot","Cepphus columba","L36873173","Harding Gateway","2025-06-17 12:05",16,59.7989025,-149.4510564,TRUE,FALSE,FALSE,"S251547939"
"281","piggui","Pigeon Guillemot","Cepphus columba","L268312","Siuslaw River--North Jetty","2025-06-17 12:05",12,44.0182419,-124.136678,TRUE,FALSE,FALSE,"S251459271"
"282","piggui","Pigeon Guillemot","Cepphus columba","L866451","Colman Dock/Pier 52 Ferry Terminal","2025-06-17 12:03",3,47.6020144,-122.3398501,TRUE,FALSE,FALSE,"S251464760"
"283","piggui","Pigeon Guillemot","Cepphus columba","L48006473","Cove off sand plant beach","2025-06-17 12:00",20,36.9544041,-122.0907902,TRUE,FALSE,TRUE,"S252113203"
"284","piggui","Pigeon Guillemot","Cepphus columba","L3231075","Todd Point/Pomo Bluffs Park","2025-06-17 11:46",5,39.4241676,-123.8175488,TRUE,FALSE,FALSE,"S251525030"
"285","piggui","Pigeon Guillemot","Cepphus columba","L47889538","Auto selected 59.62347, -149.66497","2025-06-17 11:37",1,59.623472,-149.664968,TRUE,FALSE,TRUE,"S251569491"
"286","piggui","Pigeon Guillemot","Cepphus columba","L743257","Strawberry Hill","2025-06-17 11:30",4,44.2540677,-124.1119158,TRUE,FALSE,FALSE,"S251484606"
"287","piggui","Pigeon Guillemot","Cepphus columba","L47862781","1835 Watmough Head Rd, Lopez Island US-WA (48.4306,-122.8053)","2025-06-17 11:26",4,48.430639,-122.805349,TRUE,FALSE,TRUE,"S251449634"
"288","piggui","Pigeon Guillemot","Cepphus columba","L31974315","Shaw Island Ferry Terminal","2025-06-17 11:23",1,48.5840729,-122.9295245,TRUE,FALSE,FALSE,"S251875582"
"289","piggui","Pigeon Guillemot","Cepphus columba","L743278","Tokatee Klootchman SP","2025-06-17 11:06",1,44.2082653,-124.1146785,TRUE,FALSE,FALSE,"S251460147"
"290","piggui","Pigeon Guillemot","Cepphus columba","L200588","Natural Bridges SB","2025-06-17 10:30",1,36.9523782,-122.0567107,TRUE,FALSE,FALSE,"S251458402"
"291","piggui","Pigeon Guillemot","Cepphus columba","L6096763","Possession Point State Park","2025-06-17 10:26",2,47.9071948,-122.3770094,TRUE,FALSE,FALSE,"S251506621"
"292","piggui","Pigeon Guillemot","Cepphus columba","L18401717","Dungeness NWR--Dungeness Spit","2025-06-17 10:12",12,48.1476683,-123.1856696,TRUE,FALSE,FALSE,"S251431955"
"293","piggui","Pigeon Guillemot","Cepphus columba","L1452870","Kodiak Is.--City of Kodiak (includes Near Island)","2025-06-17 10:00",NA,57.7909656,-152.3988976,TRUE,FALSE,FALSE,"S251571005"
"294","piggui","Pigeon Guillemot","Cepphus columba","L3092398","Ocean Beach Picnic Area","2025-06-17 10:00",6,44.1885416,-124.1148448,TRUE,FALSE,FALSE,"S251838594"
"295","piggui","Pigeon Guillemot","Cepphus columba","L744276","Sea Lion Pt. & Overlook","2025-06-17 09:53",34,44.1255763,-124.1258445,TRUE,FALSE,FALSE,"S251459702"
"296","piggui","Pigeon Guillemot","Cepphus columba","L782392","Noyo Outer Harbor and Bay","2025-06-17 09:50",4,39.4276428,-123.8120234,TRUE,FALSE,FALSE,"S251430575"
"297","piggui","Pigeon Guillemot","Cepphus columba","L5549852","Dutch Harbor--The S-Curves","2025-06-17 09:41",5,53.8843185,-166.5572834,TRUE,FALSE,FALSE,"S251514391"
"298","piggui","Pigeon Guillemot","Cepphus columba","L21474732","Aerated Stabilization Basin","2025-06-17 09:30",2,48.7504603,-122.4928932,TRUE,FALSE,FALSE,"S251511762"
"299","piggui","Pigeon Guillemot","Cepphus columba","L47879591","Bluff trail","2025-06-17 09:30",20,35.2622965,-120.8939698,TRUE,FALSE,TRUE,"S251525233"
"300","piggui","Pigeon Guillemot","Cepphus columba","L2024109","Seward--New Headlands","2025-06-17 09:14",2,60.1151715,-149.4371939,TRUE,FALSE,FALSE,"S251556352"
"301","piggui","Pigeon Guillemot","Cepphus columba","L826920","West Cliff Dr.--eastern (aka Steamers Lane)","2025-06-17 09:11",5,36.9558706,-122.024713,TRUE,FALSE,FALSE,"S251408269"
"302","piggui","Pigeon Guillemot","Cepphus columba","L7118446","Old Town Park","2025-06-17 09:09",3,43.9661786,-124.106776,TRUE,FALSE,FALSE,"S251417064"
"303","piggui","Pigeon Guillemot","Cepphus columba","L691421","Terrace Pt. and Coastal Science Campus","2025-06-17 09:03",6,36.9508373,-122.0639798,TRUE,FALSE,FALSE,"S251430795"
"304","piggui","Pigeon Guillemot","Cepphus columba","L47954119","Alaska, US (55.569, -133.346)","2025-06-17 08:47",1,55.5693744,-133.3460205,TRUE,FALSE,TRUE,"S251880531"
"305","piggui","Pigeon Guillemot","Cepphus columba","L227755","MacKerricher SP--Glass Beach","2025-06-17 08:43",3,39.4534671,-123.8126918,TRUE,FALSE,FALSE,"S251419210"
"306","piggui","Pigeon Guillemot","Cepphus columba","L742889","Siuslaw River--North Jetty-Mudflats","2025-06-17 08:43",1,44.0151171,-124.1272044,TRUE,FALSE,FALSE,"S251405380"
"307","piggui","Pigeon Guillemot","Cepphus columba","L7045862","South Caspar Headlands ","2025-06-17 08:26",6,39.360817,-123.823637,TRUE,FALSE,FALSE,"S251412158"
"308","piggui","Pigeon Guillemot","Cepphus columba","L47853916","110 Peoples Wharf, Juneau US-AK 58.29684, -134.40253","2025-06-17 08:15",3,58.296844,-134.402528,TRUE,FALSE,TRUE,"S251413609"
"309","piggui","Pigeon Guillemot","Cepphus columba","L2834905","Deception Pass SP--Dunes Interpretive Trail at West Beach","2025-06-17 07:50",4,48.396469,-122.663768,TRUE,FALSE,FALSE,"S251426894"
"310","piggui","Pigeon Guillemot","Cepphus columba","L198202","Auke Recreation Area--Pt. Louisa","2025-06-17 07:50",2,58.3729854,-134.7267151,TRUE,FALSE,FALSE,"S251426711"
"311","piggui","Pigeon Guillemot","Cepphus columba","L985991","Silver Point","2025-06-17 07:49",2,45.8547974,-123.9647484,TRUE,FALSE,FALSE,"S251385752"
"312","piggui","Pigeon Guillemot","Cepphus columba","L12643780","Point Ruston and Waterwalk","2025-06-17 07:44",2,47.297813,-122.5017113,TRUE,FALSE,FALSE,"S251395881"
"313","piggui","Pigeon Guillemot","Cepphus columba","L491769","Unalaska Is.--Dutch Harbor","2025-06-17 07:35",1,53.8891656,-166.5398598,TRUE,FALSE,FALSE,"S252223501"
"314","piggui","Pigeon Guillemot","Cepphus columba","L1394856","Caspar Creek mouth","2025-06-17 07:31",2,39.3616942,-123.8164801,TRUE,FALSE,FALSE,"S251397938"
"315","piggui","Pigeon Guillemot","Cepphus columba","L23467989","Upper Campground beach","2025-06-17 07:04",24,48.090808,-122.7153111,TRUE,FALSE,TRUE,"S251382695"
"316","piggui","Pigeon Guillemot","Cepphus columba","L47689366","49190 Proposal Rock Loop, Neskowin, Oregon, US (45.099, -123.985)","2025-06-17 06:31",4,45.0994084,-123.9847762,TRUE,FALSE,TRUE,"S251399324"
"317","piggui","Pigeon Guillemot","Cepphus columba","L35798700","Bryce Drive house","2025-06-17 06:00",3,48.48964,-122.6636407,TRUE,FALSE,TRUE,"S251565780"
"318","piggui","Pigeon Guillemot","Cepphus columba","L3130397","Redmon Pond","2025-06-16 19:47",2,43.1197109,-124.4263673,TRUE,FALSE,FALSE,"S251249162"
"319","piggui","Pigeon Guillemot","Cepphus columba","L879916","Friday Harbor -- Harbor area","2025-06-16 19:02",4,48.5365066,-123.014828,TRUE,FALSE,FALSE,"S251240427"
"320","piggui","Pigeon Guillemot","Cepphus columba","L34503090","Yellow dock","2025-06-16 18:45",1,59.231622,-135.440255,TRUE,FALSE,TRUE,"S251245437"
"321","piggui","Pigeon Guillemot","Cepphus columba","L4057664","Monterey--Cannery Row waterfront","2025-06-16 18:30",7,36.61459,-121.8990129,TRUE,FALSE,FALSE,"S251259316"
"322","piggui","Pigeon Guillemot","Cepphus columba","L32713966","Hunters Island (restricted access)","2025-06-16 18:20",2,42.313811,-124.4249635,TRUE,FALSE,TRUE,"S251864686"
"323","piggui","Pigeon Guillemot","Cepphus columba","L1877342","Browns Point Lighthouse Park","2025-06-16 18:00",10,47.3057,-122.44382,TRUE,FALSE,FALSE,"S251240251"
"324","piggui","Pigeon Guillemot","Cepphus columba","L12014314","Aleck Bay Rd, Lopez Island","2025-06-16 17:50",14,48.4338285,-122.8555236,TRUE,FALSE,FALSE,"S251234552"
"325","piggui","Pigeon Guillemot","Cepphus columba","L47814887","Washington, US (48.525, -122.966)","2025-06-16 17:15",17,48.5250192,-122.9658182,TRUE,FALSE,TRUE,"S251226915"
"326","piggui","Pigeon Guillemot","Cepphus columba","L1503816","Cowell Beach","2025-06-16 17:09",5,36.9615154,-122.0242609,TRUE,FALSE,FALSE,"S251226548"
"327","piggui","Pigeon Guillemot","Cepphus columba","L695979","Disenchantment Bay","2025-06-16 16:51",4,59.9510513,-139.5788381,TRUE,FALSE,FALSE,"S251254371"
"328","piggui","Pigeon Guillemot","Cepphus columba","L631250","Elkhorn Slough--boat survey","2025-06-16 16:50",2,36.8146566,-121.7523389,TRUE,FALSE,FALSE,"S251218712"
"329","piggui","Pigeon Guillemot","Cepphus columba","L1284994","Me-Kwa-Mooks Park","2025-06-16 16:08",6,47.563362,-122.4064708,TRUE,FALSE,FALSE,"S251213786"
"330","piggui","Pigeon Guillemot","Cepphus columba","L685834","Alaska Maritime NWR--Buldir Island","2025-06-16 16:00",2,52.3504409,175.9172058,TRUE,FALSE,FALSE,"S251280682"
"331","piggui","Pigeon Guillemot","Cepphus columba","L1266546","Williamson Rocks","2025-06-16 15:00",5,48.4495494,-122.7059984,TRUE,FALSE,FALSE,"S251249953"
"332","piggui","Pigeon Guillemot","Cepphus columba","L47816920","Ecola State Park, Seaside US-OR 45.93133, -123.97731","2025-06-16 14:46",5,45.931329,-123.977314,TRUE,FALSE,TRUE,"S251236466"
"333","piggui","Pigeon Guillemot","Cepphus columba","L280301","Edmonds-Kingston Ferry (Snohomish Co.)","2025-06-16 14:32",1,47.8097152,-122.4237442,TRUE,FALSE,FALSE,"S251185610"
"334","piggui","Pigeon Guillemot","Cepphus columba","L276529","Westport (general)","2025-06-16 14:30",2,46.9095527,-124.1167938,TRUE,FALSE,FALSE,"S251190171"
"335","piggui","Pigeon Guillemot","Cepphus columba","L47810235","5436–5446 Water Slote St, Tacoma US-WA (47.3048,-122.5082)","2025-06-16 14:30",1,47.304825,-122.508158,TRUE,FALSE,TRUE,"S251203723"
"336","piggui","Pigeon Guillemot","Cepphus columba","L25419017","Lowell Point SRS","2025-06-16 14:17",1,60.068127,-149.442029,TRUE,FALSE,FALSE,"S251191432"
"337","piggui","Pigeon Guillemot","Cepphus columba","L1053294","Indian Island County Park","2025-06-16 14:17",2,48.0255241,-122.7212334,TRUE,FALSE,FALSE,"S251295727"
"338","piggui","Pigeon Guillemot","Cepphus columba","L886605","Burfoot Park","2025-06-16 13:57",6,47.1324324,-122.9007483,TRUE,FALSE,FALSE,"S251182986"
"339","piggui","Pigeon Guillemot","Cepphus columba","L818127","Norwegian Point","2025-06-16 13:52",3,47.9173631,-122.5458169,TRUE,FALSE,FALSE,"S251176163"
"340","piggui","Pigeon Guillemot","Cepphus columba","L9564097","Resurrection Bay--Rugged Island","2025-06-16 13:30",1,59.8667823,-149.4055922,TRUE,FALSE,FALSE,"S252227066"
"341","piggui","Pigeon Guillemot","Cepphus columba","L3954620","Oregon Islands NWR--Table Rock Overlook","2025-06-16 13:24",15,43.1161121,-124.4333861,TRUE,FALSE,FALSE,"S251165588"
"342","piggui","Pigeon Guillemot","Cepphus columba","L1799504","Kayu Kayu Ac Park","2025-06-16 13:23",1,47.7739592,-122.3925439,TRUE,FALSE,FALSE,"S251171903"
"343","piggui","Pigeon Guillemot","Cepphus columba","L1192585","Mt. Roberts Trail--Spruce/Hemlock Slope","2025-06-16 13:13",3,58.3054869,-134.4033909,TRUE,FALSE,FALSE,"S251575018"
"344","piggui","Pigeon Guillemot","Cepphus columba","L47808492","Gastineau Channel, Juneau US-AK 58.29535, -134.40213","2025-06-16 13:04",1,58.29535,-134.402133,TRUE,FALSE,TRUE,"S251195613"
"345","piggui","Pigeon Guillemot","Cepphus columba","L589493","Cape Lookout SP--Day Use Area/Campground","2025-06-16 12:49",2,45.3604533,-123.9708745,TRUE,FALSE,FALSE,"S251170188"
"346","piggui","Pigeon Guillemot","Cepphus columba","L1296241","Fogarty Creek SP","2025-06-16 12:41",3,44.8390126,-124.0502357,TRUE,FALSE,FALSE,"S251191935"
"347","piggui","Pigeon Guillemot","Cepphus columba","L592777","Capitola Beach and wharf","2025-06-16 12:21",5,36.9712382,-121.9533277,TRUE,FALSE,FALSE,"S251156950"
"348","piggui","Pigeon Guillemot","Cepphus columba","L16412047","Hood Canal Floating Bridge (Kitsap Co.)","2025-06-16 12:16",12,47.856359,-122.618212,TRUE,FALSE,FALSE,"S251140257"
"349","piggui","Pigeon Guillemot","Cepphus columba","L5966006","Freshwater Bay, Batchelor Rock48.15x-123.637","2025-06-16 12:02",9,48.1498847,-123.6370106,TRUE,FALSE,TRUE,"S251813954"
"350","piggui","Pigeon Guillemot","Cepphus columba","L1049118","Port Townsend Marine Science Center","2025-06-16 12:00",7,48.1357285,-122.7616489,TRUE,FALSE,FALSE,"S251271130"
"351","piggui","Pigeon Guillemot","Cepphus columba","L941875","Kenai Fjords NP--Aialik Bay-Holgate Head","2025-06-16 11:39",2,59.8207471,-149.756012,TRUE,FALSE,FALSE,"S251224670"
"352","piggui","Pigeon Guillemot","Cepphus columba","L5228143","Elliott Bay Trail, Seattle","2025-06-16 11:37",2,47.6154919,-122.3563221,TRUE,FALSE,FALSE,"S251131459"
"353","piggui","Pigeon Guillemot","Cepphus columba","L2665953","Otter Crest State Wayside & Cape Foulweather Visitor Center","2025-06-16 11:28",10,44.7603773,-124.066726,TRUE,FALSE,FALSE,"S251191739"
"354","piggui","Pigeon Guillemot","Cepphus columba","L2735983","Glacier Bay NP--Queen Inlet","2025-06-16 11:16",12,58.8943883,-136.5391846,TRUE,FALSE,FALSE,"S251579708"
"355","piggui","Pigeon Guillemot","Cepphus columba","L458029","Luffenholtz Park","2025-06-16 11:16",9,41.0398728,-124.1200429,TRUE,FALSE,FALSE,"S251160628"
"356","piggui","Pigeon Guillemot","Cepphus columba","L47802375","3327 Ruston Way, Tacoma US-WA (47.2826,-122.4796)","2025-06-16 11:15",3,47.282556,-122.479596,TRUE,FALSE,TRUE,"S251167424"
"357","piggui","Pigeon Guillemot","Cepphus columba","L865285","Dungeness Recreation Area","2025-06-16 11:11",8,48.1358788,-123.1915855,TRUE,FALSE,FALSE,"S251168091"
"358","piggui","Pigeon Guillemot","Cepphus columba","L7764922","Ecola SP--Indian Beach","2025-06-16 10:59",15,45.928339,-123.978472,TRUE,FALSE,FALSE,"S251121979"
"359","piggui","Pigeon Guillemot","Cepphus columba","L470545","Sequim Bay State Park","2025-06-16 10:55",3,48.0392418,-123.0294085,TRUE,FALSE,FALSE,"S251179748"
"360","piggui","Pigeon Guillemot","Cepphus columba","L9597284","Point Defiance Park--Dune Peninsula & Wilson Way","2025-06-16 10:47",2,47.3050674,-122.5095794,TRUE,FALSE,FALSE,"S251127894"
"361","piggui","Pigeon Guillemot","Cepphus columba","L2378239","Trinidad--Scenic Dr.","2025-06-16 10:35",4,41.0493131,-124.1248298,TRUE,FALSE,FALSE,"S251183153"
"362","piggui","Pigeon Guillemot","Cepphus columba","L33663290","Seattle--Elliott Bay Trail","2025-06-16 10:28",13,47.622624,-122.366431,TRUE,FALSE,FALSE,"S251115179"
"363","piggui","Pigeon Guillemot","Cepphus columba","L1029730","Skagway--Skagway River mouth","2025-06-16 10:26",6,59.4548039,-135.3271008,TRUE,FALSE,FALSE,"S251159681"
"364","piggui","Pigeon Guillemot","Cepphus columba","L453386","Pt. Reyes--Fish Docks (DO NOT INCLUDE Chimney Rock area)","2025-06-16 10:23",1,37.9956216,-122.9782104,TRUE,FALSE,FALSE,"S251103304"
"365","piggui","Pigeon Guillemot","Cepphus columba","L47814434","Auto selected 59.89257, -149.38361 hive island start","2025-06-16 10:21",1,59.892573,-149.383613,TRUE,FALSE,TRUE,"S251224714"
"366","piggui","Pigeon Guillemot","Cepphus columba","L47788963","Ziolkouski Beach Park, Reedsport US-OR 43.66122, -124.20786","2025-06-16 10:13",4,43.661219,-124.207864,TRUE,FALSE,TRUE,"S251104687"
"367","piggui","Pigeon Guillemot","Cepphus columba","L450318","Face Rock Wayside","2025-06-16 09:57",16,43.1049466,-124.4348216,TRUE,FALSE,FALSE,"S251160581"
"368","piggui","Pigeon Guillemot","Cepphus columba","L634180","Lime Kiln Pt. SP","2025-06-16 09:51",3,48.5147281,-123.149448,TRUE,FALSE,FALSE,"S251126236"
"369","piggui","Pigeon Guillemot","Cepphus columba","L22515222","Umpqua River, Gardiner US-OR 43.67606, -124.19172","2025-06-16 09:35",14,43.676059,-124.19172,TRUE,FALSE,TRUE,"S251099461"
"370","piggui","Pigeon Guillemot","Cepphus columba","L1449054","Mutiny Bay","2025-06-16 09:35",55,48.008611,-122.5717821,TRUE,FALSE,FALSE,"S251160792"
"371","piggui","Pigeon Guillemot","Cepphus columba","L571490","Discovery Park--West Point","2025-06-16 09:29",1,47.6618703,-122.4355298,TRUE,FALSE,FALSE,"S251107743"
"372","piggui","Pigeon Guillemot","Cepphus columba","L588693","Kachemak Bay (SW of Homer Spit)","2025-06-16 09:06",1,59.5962308,-151.5014648,TRUE,FALSE,FALSE,"S251260825"
"373","piggui","Pigeon Guillemot","Cepphus columba","L792036","Monterey Bay pelagic--inshore Monterey to Moss Landing (MTY Co.)","2025-06-16 08:45",6,36.7349772,-121.8297386,TRUE,FALSE,FALSE,"S251081277"
"374","piggui","Pigeon Guillemot","Cepphus columba","L2626759","Hood Canal--Dewatto Bay","2025-06-16 08:44",19,47.4534675,-123.0647492,TRUE,FALSE,FALSE,"S251068436"
"375","piggui","Pigeon Guillemot","Cepphus columba","L678273","Friday Harbor Labs","2025-06-16 08:43",2,48.546018,-123.0122423,TRUE,FALSE,FALSE,"S251452471"
"376","piggui","Pigeon Guillemot","Cepphus columba","L351481","Monterey Harbor","2025-06-16 08:41",3,36.6063012,-121.8912935,TRUE,FALSE,FALSE,"S251753798"
"377","piggui","Pigeon Guillemot","Cepphus columba","L726174","Umpqua River--Salmon Harbor Marina","2025-06-16 08:39",8,43.6839497,-124.1812992,TRUE,FALSE,FALSE,"S251081414"
"378","piggui","Pigeon Guillemot","Cepphus columba","L866444","Rich Passage","2025-06-16 08:15",2,47.5934303,-122.5521469,TRUE,FALSE,FALSE,"S251059733"
"379","piggui","Pigeon Guillemot","Cepphus columba","L957336","Muir Beach--includes beach, Redwood Creek riparian corridor, Green Gulch","2025-06-16 08:02",8,37.8612556,-122.5751372,TRUE,FALSE,FALSE,"S251163586"
"380","piggui","Pigeon Guillemot","Cepphus columba","L336663","Lighthouse Marine Park, Point Roberts","2025-06-16 08:00",4,48.9722422,-123.0836705,TRUE,FALSE,FALSE,"S251145176"
"381","piggui","Pigeon Guillemot","Cepphus columba","L4052010","Noyo Headlands Park","2025-06-16 07:58",3,39.4347231,-123.8156068,TRUE,FALSE,FALSE,"S251060240"
"382","piggui","Pigeon Guillemot","Cepphus columba","L109542","Point No Point","2025-06-16 07:57",2,47.9118696,-122.5283182,TRUE,FALSE,FALSE,"S251062578"
"383","piggui","Pigeon Guillemot","Cepphus columba","L20974455","400 Sunset Ave N, Edmonds US-WA 47.81650, -122.37744","2025-06-16 07:48",2,47.816499,-122.377436,TRUE,FALSE,TRUE,"S251058210"
"384","piggui","Pigeon Guillemot","Cepphus columba","L10699469","Russian Gulch SP-- Headlands Trail","2025-06-16 07:21",4,39.3292828,-123.8123427,TRUE,FALSE,FALSE,"S251054366"
"385","piggui","Pigeon Guillemot","Cepphus columba","L818961","Laguna Creek beach and marsh","2025-06-16 07:07",6,36.9833776,-122.1554614,TRUE,FALSE,FALSE,"S251567094"
"386","piggui","Pigeon Guillemot","Cepphus columba","L48021072","98177, Seattle US-WA (47.6963,-122.4107)","2025-06-16 07:03",3,47.696298,-122.410656,TRUE,FALSE,TRUE,"S252175523"
"387","piggui","Pigeon Guillemot","Cepphus columba","L16707421","Morse Creek Estuary","2025-06-16 07:00",3,48.116971,-123.352917,TRUE,FALSE,TRUE,"S251267886"
"388","piggui","Pigeon Guillemot","Cepphus columba","L825162","Van Damme SP- Beach","2025-06-16 06:58",20,39.2736933,-123.7911987,TRUE,FALSE,FALSE,"S251039866"
"389","piggui","Pigeon Guillemot","Cepphus columba","L3927005","Cook Inlet--Dangerous Cape to Cape Elizabeth","2025-06-16 06:40",NA,59.3758005,-152.0043125,TRUE,FALSE,FALSE,"S251232778"
"390","piggui","Pigeon Guillemot","Cepphus columba","L48021223","Puget Sound, Everett US-WA (47.7820,-122.4001)","2025-06-16 06:00",13,47.781997,-122.400064,TRUE,FALSE,TRUE,"S252176166"
"391","piggui","Pigeon Guillemot","Cepphus columba","L26158899","walking along beach","2025-06-16 06:00",10,45.0993652,-123.9846725,TRUE,FALSE,TRUE,"S251063687"
"392","piggui","Pigeon Guillemot","Cepphus columba","L47816353","Mendocino Headlands Trail, Mendocino US-CA 39.30503, -123.80973","2025-06-16 05:43",35,39.30503,-123.809732,TRUE,FALSE,TRUE,"S251233742"
"393","piggui","Pigeon Guillemot","Cepphus columba","L800627","North Spit--old Weyco Settling Pond & deflation plain","2025-06-16 05:37",22,43.4210895,-124.2850935,TRUE,FALSE,FALSE,"S251070886"
"394","piggui","Pigeon Guillemot","Cepphus columba","L47750885","301 Otter Crest Drive, Newport, Oregon, US (44.752, -124.064)","2025-06-15 22:31",2,44.7524863,-124.0636955,TRUE,FALSE,TRUE,"S250923018"
"395","piggui","Pigeon Guillemot","Cepphus columba","L47751027","Safety Cove US-AK (59.9808,-149.2243)","2025-06-15 21:36",7,59.980833,-149.224341,TRUE,FALSE,TRUE,"S250923790"
"396","piggui","Pigeon Guillemot","Cepphus columba","L1770999","Birch Bay","2025-06-15 20:06",6,48.9379414,-122.7614898,TRUE,FALSE,FALSE,"S250917049"
"397","piggui","Pigeon Guillemot","Cepphus columba","L564741","Rocky Pt.","2025-06-15 19:27",2,36.4017884,-121.9116274,TRUE,FALSE,FALSE,"S250926163"
"398","piggui","Pigeon Guillemot","Cepphus columba","L271476","Pigeon Pt.","2025-06-15 19:26",2,37.182,-122.394,TRUE,FALSE,FALSE,"S250901842"
"399","piggui","Pigeon Guillemot","Cepphus columba","L280967","Van Damme SP- Lower Campground/Visitor Center","2025-06-15 19:21",8,39.2767806,-123.7846211,TRUE,FALSE,FALSE,"S251233804"
"400","piggui","Pigeon Guillemot","Cepphus columba","L962225","San Juan Islands ferry","2025-06-15 17:36",2,48.5529782,-122.8422546,TRUE,FALSE,FALSE,"S250889167"
"401","piggui","Pigeon Guillemot","Cepphus columba","L7908055","Kodiak Is.--Roslyn Beach","2025-06-15 17:11",1,57.6215498,-152.3198393,TRUE,FALSE,FALSE,"S250925249"
"402","piggui","Pigeon Guillemot","Cepphus columba","L734546","Crescent City--Pebble Beach","2025-06-15 17:03",5,41.7669266,-124.234128,TRUE,FALSE,FALSE,"S250901009"
"403","piggui","Pigeon Guillemot","Cepphus columba","L186859","Des Moines Marina","2025-06-15 16:52",2,47.40234,-122.33128,TRUE,FALSE,FALSE,"S250877617"
"404","piggui","Pigeon Guillemot","Cepphus columba","L17608277","Amalga Harbor","2025-06-15 16:32",1,58.4932535,-134.79152,TRUE,FALSE,FALSE,"S250899825"
"405","piggui","Pigeon Guillemot","Cepphus columba","L1035815","Redondo Pier","2025-06-15 16:05",8,47.3484625,-122.3254466,TRUE,FALSE,FALSE,"S250877664"
"406","piggui","Pigeon Guillemot","Cepphus columba","L47752333","210 SW Maple St, Waldport US-OR (44.4216,-124.0742)","2025-06-15 15:36",20,44.421583,-124.074179,TRUE,FALSE,TRUE,"S250930939"
"407","piggui","Pigeon Guillemot","Cepphus columba","L3883686","Sitka Sound--Kasiana Islands","2025-06-15 15:32",1,57.0833843,-135.4092236,TRUE,FALSE,FALSE,"S250891183"
"408","piggui","Pigeon Guillemot","Cepphus columba","L10133966","Presidio - Wetlands Along West Crissy Field Bluffs","2025-06-15 15:04",20,37.8049323,-122.4693567,TRUE,FALSE,FALSE,"S250872584"
"409","piggui","Pigeon Guillemot","Cepphus columba","L36425986","Haines--Boat Harbor","2025-06-15 15:01",2,59.2341317,-135.4408575,TRUE,FALSE,FALSE,"S250851086"
"410","piggui","Pigeon Guillemot","Cepphus columba","L7245050","Auke Bay--Statter Harbor","2025-06-15 14:36",4,58.3831334,-134.6492529,TRUE,FALSE,FALSE,"S250868604"
"411","piggui","Pigeon Guillemot","Cepphus columba","L47729585","D Avenue, Anacortes","2025-06-15 14:29",4,48.512579,-122.6313672,TRUE,FALSE,TRUE,"S250824053"
"412","piggui","Pigeon Guillemot","Cepphus columba","L8270958","Empire Boat Ramp","2025-06-15 14:25",5,43.393045,-124.27993,TRUE,FALSE,FALSE,"S251065986"
"413","piggui","Pigeon Guillemot","Cepphus columba","L776824","Spencer Spit SP, Lopez Island","2025-06-15 14:24",2,48.5358175,-122.8573608,TRUE,FALSE,FALSE,"S251201550"
"414","piggui","Pigeon Guillemot","Cepphus columba","L47887215","Auto selected 59.44942, -135.32450","2025-06-15 14:05",6,59.449419,-135.324496,TRUE,FALSE,TRUE,"S251558856"
"415","piggui","Pigeon Guillemot","Cepphus columba","L1400301","Fort Miley--Mile Rock Beach seawatch","2025-06-15 13:46",3,37.7880568,-122.5059301,TRUE,FALSE,FALSE,"S250806106"
"416","piggui","Pigeon Guillemot","Cepphus columba","L2367905","Monroe Landing","2025-06-15 13:26",1,48.2397487,-122.679981,TRUE,FALSE,FALSE,"S250799860"
"417","piggui","Pigeon Guillemot","Cepphus columba","L1002782","Dash Point SP (King Co.)","2025-06-15 13:21",6,47.3205851,-122.4122429,TRUE,FALSE,FALSE,"S250838117"
"418","piggui","Pigeon Guillemot","Cepphus columba","L862963","Westport Marina","2025-06-15 13:16",2,46.9096434,-124.1138792,TRUE,FALSE,FALSE,"S250799033"
"419","piggui","Pigeon Guillemot","Cepphus columba","L561886","Julia Pfeiffer Burns SP--coastal vicinity & McWay Falls","2025-06-15 13:15",5,36.1588857,-121.6703665,TRUE,FALSE,FALSE,"S250879410"
"420","piggui","Pigeon Guillemot","Cepphus columba","L47741084","Homer Boat Harbor, Homer US-AK 59.60468, -151.42544","2025-06-15 13:08",4,59.604677,-151.425444,TRUE,FALSE,TRUE,"S250877062"
"421","piggui","Pigeon Guillemot","Cepphus columba","L47740117","Auto selected 59.74871, -149.65229","2025-06-15 13:07",8,59.748714,-149.652288,TRUE,FALSE,TRUE,"S250872179"
"422","piggui","Pigeon Guillemot","Cepphus columba","L1432605","Swantown / Bos Lake","2025-06-15 12:55",8,48.2986787,-122.7238317,TRUE,FALSE,FALSE,"S250790215"
"423","piggui","Pigeon Guillemot","Cepphus columba","L1904081","Hood Canal--Squamish Harbor","2025-06-15 12:51",8,47.86188,-122.67809,TRUE,FALSE,FALSE,"S250833767"
"424","piggui","Pigeon Guillemot","Cepphus columba","L684397","Potlatch State Park","2025-06-15 12:42",1,47.3610803,-123.1569099,TRUE,FALSE,FALSE,"S250785517"
"425","piggui","Pigeon Guillemot","Cepphus columba","L1528599","Devil's Slide Trail and Egg Rock","2025-06-15 12:32",2,37.5755522,-122.5173359,TRUE,FALSE,FALSE,"S250804614"
"426","piggui","Pigeon Guillemot","Cepphus columba","L47720776","Alaska Packer Rd, Coos Bay US-OR 43.34704, -124.32853","2025-06-15 12:23",2,43.347035,-124.328527,TRUE,FALSE,TRUE,"S250787456"
"427","piggui","Pigeon Guillemot","Cepphus columba","L1316721","Joseph Whidbey SP","2025-06-15 12:20",1,48.3083511,-122.7134208,TRUE,FALSE,FALSE,"S250785863"
"428","piggui","Pigeon Guillemot","Cepphus columba","L1840584","Westport Light SP","2025-06-15 12:19",1,46.8887211,-124.1274368,TRUE,FALSE,FALSE,"S250852059"
"429","piggui","Pigeon Guillemot","Cepphus columba","L1519076","Petersburg in City","2025-06-15 12:18",1,56.8092717,-132.953453,TRUE,FALSE,TRUE,"S251070427"
"430","piggui","Pigeon Guillemot","Cepphus columba","L2967054","Meadowdale County Park","2025-06-15 12:13",1,47.8596993,-122.3351455,TRUE,FALSE,FALSE,"S250800752"
"431","piggui","Pigeon Guillemot","Cepphus columba","L491606","Seal Rock State Wayside","2025-06-15 12:11",12,44.4969645,-124.0839458,TRUE,FALSE,FALSE,"S250774839"
"432","piggui","Pigeon Guillemot","Cepphus columba","L47720829","Bay Street - General","2025-06-15 12:09",3,44.627348,-124.055879,TRUE,FALSE,TRUE,"S250787683"
"433","piggui","Pigeon Guillemot","Cepphus columba","L23925184","Nichols Passage","2025-06-15 12:07",1,55.288407,-131.594686,TRUE,FALSE,TRUE,"S250838874"
"434","piggui","Pigeon Guillemot","Cepphus columba","L2607055","Seal Rock--Pullouts south on Hwy. 101","2025-06-15 12:06",3,44.4917808,-124.0837605,TRUE,FALSE,FALSE,"S250778311"
"435","piggui","Pigeon Guillemot","Cepphus columba","L8511528","Mendocino Headlands SP--coastal trail south","2025-06-15 12:04",8,39.3033363,-123.799852,TRUE,FALSE,FALSE,"S250787662"
"436","piggui","Pigeon Guillemot","Cepphus columba","L47717196","6000 Cabrillo Hwy, Pacifica US-CA 37.56366, -122.51202","2025-06-15 12:03",8,37.563659,-122.51202,TRUE,FALSE,TRUE,"S250773622"
"437","piggui","Pigeon Guillemot","Cepphus columba","L1611343","Haines Wharf Park","2025-06-15 11:58",1,47.8522029,-122.3348368,TRUE,FALSE,FALSE,"S250764576"
"438","piggui","Pigeon Guillemot","Cepphus columba","L26955162","Fauntleroy Ferry","2025-06-15 11:56",2,47.523297,-122.394815,TRUE,FALSE,TRUE,"S250768520"
"439","piggui","Pigeon Guillemot","Cepphus columba","L47724894","Tillamook, Oregon, US (45.486, -123.977)","2025-06-15 11:42",5,45.4859672,-123.9773453,TRUE,FALSE,TRUE,"S250804332"
"440","piggui","Pigeon Guillemot","Cepphus columba","L11489134","Haines Wharf Park, Edmonds US-WA 47.85223, -122.33446","2025-06-15 11:38",1,47.852227,-122.334455,TRUE,FALSE,TRUE,"S250764394"
"441","piggui","Pigeon Guillemot","Cepphus columba","L1105354","Seward--4th of July Beach","2025-06-15 11:37",2,60.0834989,-149.3514007,TRUE,FALSE,FALSE,"S250790362"
"442","piggui","Pigeon Guillemot","Cepphus columba","L2745234","Glacier Bay NP--Sandy Cove","2025-06-15 11:24",6,58.7146018,-135.9813538,TRUE,FALSE,FALSE,"S252183819"
"443","piggui","Pigeon Guillemot","Cepphus columba","L2094690","Gig Harbor","2025-06-15 11:20",1,47.3334713,-122.5806427,TRUE,FALSE,FALSE,"S251095670"
"444","piggui","Pigeon Guillemot","Cepphus columba","L14876308","American Camp - Mt Finlayson","2025-06-15 11:08",1,48.4581267,-122.9843149,TRUE,FALSE,FALSE,"S250800118"
"445","piggui","Pigeon Guillemot","Cepphus columba","L47738195","Aleck Bay  Lopez Island, Washington","2025-06-15 10:57",3,48.4251493,-122.8556541,TRUE,FALSE,TRUE,"S250862857"
"446","piggui","Pigeon Guillemot","Cepphus columba","L1144607","Cape Disappointment SP--Cape Disappointment Lighthouse","2025-06-15 10:42",NA,46.2756,-124.0518,TRUE,FALSE,FALSE,"S250750152"
"447","piggui","Pigeon Guillemot","Cepphus columba","L17933836","49 Pier 2, Astoria US-OR 46.18935, -123.86163","2025-06-15 10:40",3,46.189347,-123.861631,TRUE,FALSE,TRUE,"S250762236"
"448","piggui","Pigeon Guillemot","Cepphus columba","L47715634","Gastineau Channel, Juneau US-AK 58.29136, -134.40294","2025-06-15 10:39",5,58.29136,-134.402937,TRUE,FALSE,TRUE,"S250767329"
"449","piggui","Pigeon Guillemot","Cepphus columba","L22305731","Seola Beach Dr.","2025-06-15 10:32",5,47.5012403,-122.3732579,TRUE,FALSE,FALSE,"S250771086"
"450","piggui","Pigeon Guillemot","Cepphus columba","L4337834","Point Defiance Park--Owen Beach","2025-06-15 10:30",15,47.3130234,-122.5286669,TRUE,FALSE,FALSE,"S250867219"
"451","piggui","Pigeon Guillemot","Cepphus columba","L2615753","Kiket Island","2025-06-15 10:30",4,48.4195063,-122.5660515,TRUE,FALSE,FALSE,"S250878752"
"452","piggui","Pigeon Guillemot","Cepphus columba","L47706788","WA20, Anacortes","2025-06-15 10:18",10,48.4098567,-122.6472628,TRUE,FALSE,TRUE,"S250732758"
"453","piggui","Pigeon Guillemot","Cepphus columba","L1370391","Pt. Reyes--Coast Camp","2025-06-15 10:15",1,38.0181867,-122.8546784,TRUE,FALSE,FALSE,"S251033320"
"454","piggui","Pigeon Guillemot","Cepphus columba","L1894620","Edmonds-Kingston Ferry (Kitsap Co.)","2025-06-15 10:13",7,47.7905873,-122.4693278,TRUE,FALSE,FALSE,"S250724419"
"455","piggui","Pigeon Guillemot","Cepphus columba","L27571963","1100 S Pebble Beach Dr, Crescent City US-CA (41.7521,-124.2137)","2025-06-15 10:05",4,41.752146,-124.213651,TRUE,FALSE,TRUE,"S250737634"
"456","piggui","Pigeon Guillemot","Cepphus columba","L2281032","Glacier Bay NP--Tlinget Trail","2025-06-15 10:03",1,58.4553433,-135.8739281,TRUE,FALSE,FALSE,"S250816918"
"457","piggui","Pigeon Guillemot","Cepphus columba","L47720481","26 Front Street Northwest, Coupeville, Washington, US (48.223, -122.688)","2025-06-15 09:59",5,48.2226727,-122.6883127,TRUE,FALSE,TRUE,"S250786224"
"458","piggui","Pigeon Guillemot","Cepphus columba","L352261","Pebble Beach--Pt. Joe to Ocean Road shores","2025-06-15 09:53",2,36.605319,-121.9589952,TRUE,FALSE,FALSE,"S251551082"
"459","piggui","Pigeon Guillemot","Cepphus columba","L8523232","Lincoln City--NW 15th St. beach access","2025-06-15 09:51",1,44.975803,-124.017605,TRUE,FALSE,FALSE,"S250721282"
"460","piggui","Pigeon Guillemot","Cepphus columba","L349414","Wilder Ranch SP--general (please use more specific hotspot locations when possible)","2025-06-15 09:45",6,36.9582253,-122.0944977,TRUE,FALSE,FALSE,"S250818568"
"461","piggui","Pigeon Guillemot","Cepphus columba","L22287082","Terrace Point Overlook","2025-06-15 09:29",7,36.9483241,-122.0653954,TRUE,FALSE,TRUE,"S250720771"
"462","piggui","Pigeon Guillemot","Cepphus columba","L47738889","1510 Sunset Ave, Oceanside US-OR 45.46033, -123.96825","2025-06-15 09:22",2,45.460329,-123.968251,TRUE,FALSE,TRUE,"S250866317"
"463","piggui","Pigeon Guillemot","Cepphus columba","L47696181","Hood Canal Floating Bridge, Poulsbo US-WA 47.85884, -122.62273","2025-06-15 09:18",1,47.858845,-122.622726,TRUE,FALSE,TRUE,"S250689897"
"464","piggui","Pigeon Guillemot","Cepphus columba","L355346","Bullards Beach SP","2025-06-15 09:05",1,43.1497598,-124.4026532,TRUE,FALSE,FALSE,"S250851053"
"465","piggui","Pigeon Guillemot","Cepphus columba","L47812501","Kachemak Bay - Bay Excursions Boat Trip","2025-06-15 08:17",12,59.607246,-151.403685,TRUE,FALSE,TRUE,"S251215418"
"466","piggui","Pigeon Guillemot","Cepphus columba","L47850364","SF Crosstown Trail - Entire","2025-06-15 08:12",1,37.712349,-122.406294,TRUE,FALSE,TRUE,"S251398836"
"467","piggui","Pigeon Guillemot","Cepphus columba","L864689","Olympic NP--Rialto Beach","2025-06-15 08:09",5,47.9196209,-124.6385193,TRUE,FALSE,FALSE,"S251391018"
"468","piggui","Pigeon Guillemot","Cepphus columba","L389606","Fort Mason","2025-06-15 08:00",3,37.8051812,-122.4285507,TRUE,FALSE,FALSE,"S250844006"
"469","piggui","Pigeon Guillemot","Cepphus columba","L1633817","Glacier Bay NP--Glacier Bay","2025-06-15 08:00",9,58.6950873,-136.1813779,TRUE,FALSE,FALSE,"S252504561"
"470","piggui","Pigeon Guillemot","Cepphus columba","L1298816","Beach House","2025-06-15 07:57",3,45.252877,-123.966628,TRUE,FALSE,TRUE,"S250652814"
"471","piggui","Pigeon Guillemot","Cepphus columba","L391136","Pt. Reyes--Drakes Beach (DO NOT INCLUDE Horseshoe Pond or beach/estero beyond Horseshoe Pond)","2025-06-15 07:56",1,38.0271821,-122.9615507,TRUE,FALSE,FALSE,"S250867843"
"472","piggui","Pigeon Guillemot","Cepphus columba","L47691368","Inner Uyak Bay - Kodiak","2025-06-15 06:49",1,57.49615,-153.904538,TRUE,FALSE,TRUE,"S250670044"
"473","piggui","Pigeon Guillemot","Cepphus columba","L29483923","West Creek Rd.--West Creek","2025-06-15 06:46",11,59.5286595,-135.3486166,TRUE,FALSE,FALSE,"S250893365"
"474","piggui","Pigeon Guillemot","Cepphus columba","L291976","Sutro Heights--Baths / Land's End","2025-06-15 06:42",26,37.7813659,-122.5116134,TRUE,FALSE,TRUE,"S250665475"
"475","piggui","Pigeon Guillemot","Cepphus columba","L7951323","Discovery Park—birds in Kitsap County","2025-06-15 05:30",4,47.664584,-122.480686,TRUE,FALSE,TRUE,"S251872944"
"476","piggui","Pigeon Guillemot","Cepphus columba","L3200107","Halfmoon Bay","2025-06-14 21:03",1,43.6714161,-124.1948605,TRUE,FALSE,FALSE,"S250440381"
"477","piggui","Pigeon Guillemot","Cepphus columba","L3871234","Frederick Sound--W end (Chatham Strait to Keku Strait)","2025-06-14 20:56",1,57.0141957,-134.3107452,TRUE,FALSE,FALSE,"S250450076"
"478","piggui","Pigeon Guillemot","Cepphus columba","L685549","Frye Cove County Park","2025-06-14 20:27",1,47.1167813,-122.96628,TRUE,FALSE,FALSE,"S250436865"
"479","piggui","Pigeon Guillemot","Cepphus columba","L47643179","13500–13672 Lowell Point Rd, Lowell Point US-AK 60.07875, -149.44387","2025-06-14 20:19",1,60.078747,-149.44387,TRUE,FALSE,TRUE,"S250440065"
"480","piggui","Pigeon Guillemot","Cepphus columba","L839427","Santa Cruz Harbor--lower harbor and jetty","2025-06-14 20:05",3,36.9630553,-122.0021118,TRUE,FALSE,FALSE,"S250435368"
"481","piggui","Pigeon Guillemot","Cepphus columba","L8151616","Kodiak Is.--Near Island","2025-06-14 16:14",2,57.7810021,-152.4018664,TRUE,FALSE,FALSE,"S250412816"
"482","piggui","Pigeon Guillemot","Cepphus columba","L920855","Glacier Bay NP--Bartlett Cove","2025-06-14 16:10",30,58.4547386,-135.9149551,TRUE,FALSE,FALSE,"S250447849"
"483","piggui","Pigeon Guillemot","Cepphus columba","L1043649","Rockaway Beach Park (Kitsap Co.)","2025-06-14 15:54",1,47.599325,-122.4985644,TRUE,FALSE,FALSE,"S250389108"
"484","piggui","Pigeon Guillemot","Cepphus columba","L509257","Shine Tidelands","2025-06-14 15:44",2,47.869186,-122.6345873,TRUE,FALSE,FALSE,"S250460524"
"485","piggui","Pigeon Guillemot","Cepphus columba","L8171863","Boardman State Scenic Corridor--Arch Rock","2025-06-14 15:39",5,42.2051397,-124.375684,TRUE,FALSE,FALSE,"S250376573"
"486","piggui","Pigeon Guillemot","Cepphus columba","L47627553","1720 Ediz Hook Road, Port Angeles, Washington, US (48.136, -123.463)","2025-06-14 15:34",2,48.1362198,-123.4634559,TRUE,FALSE,TRUE,"S250373467"
"487","piggui","Pigeon Guillemot","Cepphus columba","L47634986","313–367 Mud Bay Rd, Haines US-AK 59.18872, -135.40851","2025-06-14 15:19",2,59.188717,-135.408509,TRUE,FALSE,TRUE,"S250406068"
"488","piggui","Pigeon Guillemot","Cepphus columba","L4843115","Monterey Bay pelagic—inshore Soquel Cove (0-2 mi offshore)","2025-06-14 15:13",7,36.9637462,-121.9334106,TRUE,FALSE,FALSE,"S250399880"
"489","piggui","Pigeon Guillemot","Cepphus columba","L1311684","Agate Beach SP","2025-06-14 15:11",15,44.6592629,-124.056716,TRUE,FALSE,FALSE,"S250381411"
"490","piggui","Pigeon Guillemot","Cepphus columba","L47638609","Lopez Island Round Trip","2025-06-14 15:03",4,48.5574693,-122.891015,TRUE,FALSE,TRUE,"S250421957"
"491","piggui","Pigeon Guillemot","Cepphus columba","L3281515","Monastery Beach","2025-06-14 14:48",1,36.522915,-121.9273639,TRUE,FALSE,FALSE,"S252215150"
"492","piggui","Pigeon Guillemot","Cepphus columba","L23541460","Grey Whale Feeding Grounds Sitka Sound, Sitka US-AK (57.0191,-135.6048)","2025-06-14 14:20",1,57.019106,-135.604776,TRUE,FALSE,TRUE,"S250435725"
"493","piggui","Pigeon Guillemot","Cepphus columba","L3658322","Holgate Glacier (Holgate Arm of Aialik Bay)","2025-06-14 14:20",4,59.8492987,-149.8532152,TRUE,FALSE,FALSE,"S250432347"
"494","piggui","Pigeon Guillemot","Cepphus columba","L1668666","Rosario Strait (San Juan Co. side)","2025-06-14 14:10",NA,48.5260634,-122.7700353,TRUE,FALSE,FALSE,"S250359765"
"495","piggui","Pigeon Guillemot","Cepphus columba","L3074319","Cape Arago SP--Simpson Reef/Shell Island Viewpoint","2025-06-14 14:09",4,43.312663,-124.3958545,TRUE,FALSE,FALSE,"S250375496"
"496","piggui","Pigeon Guillemot","Cepphus columba","L47635175","N Bridget Cove","2025-06-14 14:06",1,58.635653,-134.942778,TRUE,FALSE,TRUE,"S250406951"
"497","piggui","Pigeon Guillemot","Cepphus columba","L3021176","Viti Rocks (Skagit Co.)","2025-06-14 13:56",10,48.6212006,-122.6148891,TRUE,FALSE,FALSE,"S250448591"
"498","piggui","Pigeon Guillemot","Cepphus columba","L5554325","Stump Beach","2025-06-14 13:43",2,38.5801191,-123.3337963,TRUE,FALSE,FALSE,"S250359054"
"499","piggui","Pigeon Guillemot","Cepphus columba","L3956253","Passage Canal (Whittier)","2025-06-14 13:30",NA,60.8127808,-148.5804749,TRUE,FALSE,FALSE,"S250411804"
"500","piggui","Pigeon Guillemot","Cepphus columba","L338560","Mori Pt.","2025-06-14 13:26",2,37.6204026,-122.4934964,TRUE,FALSE,FALSE,"S250359398"
"501","piggui","Pigeon Guillemot","Cepphus columba","L506396","Eagle Harbor","2025-06-14 13:23",3,47.620744,-122.5150681,TRUE,FALSE,FALSE,"S250336679"
"502","piggui","Pigeon Guillemot","Cepphus columba","L16412360","Hood Canal Floating Bridge (Jefferson Co.)","2025-06-14 13:18",2,47.861875,-122.627992,TRUE,FALSE,FALSE,"S250334338"
"503","piggui","Pigeon Guillemot","Cepphus columba","L4875712","MacKerricher SP- Haul Rd and Bluffs Virgin Cr Beach to Laguna Point","2025-06-14 13:00",NA,39.4843028,-123.8021421,TRUE,FALSE,FALSE,"S250381354"
"504","piggui","Pigeon Guillemot","Cepphus columba","L1427931","San Francisco Fisherman's Wharf","2025-06-14 12:49",2,37.8085396,-122.4167621,TRUE,FALSE,FALSE,"S250327729"
"505","piggui","Pigeon Guillemot","Cepphus columba","L285529","West Cliff Dr.--western (Lighthouse Pt. to Swanton Blvd.)","2025-06-14 12:41",48,36.9515792,-122.0427396,TRUE,FALSE,FALSE,"S250327121"
"506","piggui","Pigeon Guillemot","Cepphus columba","L3741710","Kenai Fjords NP--Northwestern Glacier outflow","2025-06-14 12:34",1,59.8443406,-150.0673199,TRUE,FALSE,FALSE,"S250457655"
"507","piggui","Pigeon Guillemot","Cepphus columba","L130809","Pt. Reyes--Lighthouse","2025-06-14 12:32",NA,37.996,-123.022,TRUE,FALSE,FALSE,"S250329047"
"508","piggui","Pigeon Guillemot","Cepphus columba","L633128","Half Moon Bay SB--Francis Beach","2025-06-14 12:26",1,37.4688976,-122.4458456,TRUE,FALSE,FALSE,"S250345932"
"509","piggui","Pigeon Guillemot","Cepphus columba","L3915800","Tsoo-Yess River Valley & Beach","2025-06-14 12:18",NA,48.3108115,-124.6627879,TRUE,FALSE,FALSE,"S250331460"
"510","piggui","Pigeon Guillemot","Cepphus columba","L3403344","Sand Point (town)","2025-06-14 12:14",4,55.3390306,-160.4992875,TRUE,FALSE,FALSE,"S250335831"
"511","piggui","Pigeon Guillemot","Cepphus columba","L1415176","Southworth - Vashon Island Ferry","2025-06-14 12:06",2,47.5144259,-122.4848333,TRUE,FALSE,FALSE,"S250314016"
"512","piggui","Pigeon Guillemot","Cepphus columba","L4754125","Haines--Haines Birdwatching Trail","2025-06-14 11:37",1,59.2331567,-135.4552341,TRUE,FALSE,FALSE,"S250438153"
"513","piggui","Pigeon Guillemot","Cepphus columba","L47609660","Sea Harvest Deck (Moss Landing)","2025-06-14 11:35",3,36.810201,-121.785852,TRUE,FALSE,TRUE,"S250303905"
"514","piggui","Pigeon Guillemot","Cepphus columba","L8590487","Kruzof Island, Sitka US-AK (57.0104,-135.6369)","2025-06-14 11:17",2,57.010423,-135.636858,TRUE,FALSE,TRUE,"S250437127"
"515","piggui","Pigeon Guillemot","Cepphus columba","L1460636","Port Townsend-Keystone Ferry (Jefferson Co.)","2025-06-14 11:00",3,48.1260146,-122.7193579,TRUE,FALSE,FALSE,"S251247339"
"516","piggui","Pigeon Guillemot","Cepphus columba","L904267","Prince William Sound--Sheep Pt. (Sheep Bay)","2025-06-14 10:49",20,60.6163758,-146.0064983,TRUE,FALSE,FALSE,"S250363474"
"517","piggui","Pigeon Guillemot","Cepphus columba","L1153144","Vendovi Island","2025-06-14 10:46",1,48.6137039,-122.6118851,TRUE,FALSE,FALSE,"S250448696"
"518","piggui","Pigeon Guillemot","Cepphus columba","L1361473","Olympic NP--Third Beach","2025-06-14 10:40",1,47.8764516,-124.5841319,TRUE,FALSE,FALSE,"S250440484"
"519","piggui","Pigeon Guillemot","Cepphus columba","L256021","Moss Landing--Jetty Road, north jetty & State Beach","2025-06-14 10:38",2,36.8151691,-121.7900355,TRUE,FALSE,FALSE,"S250307683"
"520","piggui","Pigeon Guillemot","Cepphus columba","L26199122","Lewis and Clark National Historical Park, campground loop C -WA 46.29419, -124.07216","2025-06-14 10:34",4,46.294194,-124.072161,TRUE,FALSE,TRUE,"S250330319"
"521","piggui","Pigeon Guillemot","Cepphus columba","L3860799","Elliott Bay","2025-06-14 10:30",8,47.6028644,-122.3652935,TRUE,FALSE,FALSE,"S250366604"
"522","piggui","Pigeon Guillemot","Cepphus columba","L4033311","Belltown Cottage Park","2025-06-14 10:19",2,47.6139634,-122.3510349,TRUE,FALSE,FALSE,"S250276547"
"523","piggui","Pigeon Guillemot","Cepphus columba","L2442150","Santa Cruz Island--Scorpion Canyon Campgrounds","2025-06-14 10:19",10,34.0484615,-119.5645389,TRUE,FALSE,FALSE,"S250338410"
"524","piggui","Pigeon Guillemot","Cepphus columba","L14608407","8210 Baird Rd NE, Olympia US-WA 47.15064, -122.80145","2025-06-14 10:00",7,47.150638,-122.801447,TRUE,FALSE,TRUE,"S250286660"
"525","piggui","Pigeon Guillemot","Cepphus columba","L1773890","Bellingham--Padden Lagoon","2025-06-14 09:57",1,48.7214584,-122.5085879,TRUE,FALSE,FALSE,"S250311412"
"526","piggui","Pigeon Guillemot","Cepphus columba","L297604","Pacifica SB","2025-06-14 09:40",1,37.601498,-122.5002678,TRUE,FALSE,FALSE,"S251163319"
"527","piggui","Pigeon Guillemot","Cepphus columba","L4821923","Saginaw Channel--Pt Retreat to Strauss Rock","2025-06-14 09:11",1,58.3929223,-134.8874588,TRUE,FALSE,FALSE,"S250310148"
"528","piggui","Pigeon Guillemot","Cepphus columba","L605526","Santa Barbara Channel--east channel (VEN Co.)","2025-06-14 09:07",1,34.1544317,-119.3767548,TRUE,FALSE,FALSE,"S250338134"
"529","piggui","Pigeon Guillemot","Cepphus columba","L47644829","Burrows Bay, Anacortes US-WA 48.48893, -122.67757","2025-06-14 08:56",100,48.488927,-122.67757,TRUE,FALSE,TRUE,"S250448894"
"530","piggui","Pigeon Guillemot","Cepphus columba","L37091295","Lewis and Clark National Historical Park, Ilwaco US-WA 46.27856, -124.05298","2025-06-14 08:52",14,46.278558,-124.052983,TRUE,FALSE,TRUE,"S250253763"
"531","piggui","Pigeon Guillemot","Cepphus columba","L762068","Presidio - Fort Point NHS","2025-06-14 08:47",10,37.8106824,-122.4767876,TRUE,FALSE,FALSE,"S250260108"
"532","piggui","Pigeon Guillemot","Cepphus columba","L47668342","San Francisco, California, US (37.803, -122.537)","2025-06-14 08:41",2,37.8031748,-122.5370868,TRUE,FALSE,TRUE,"S250559587"
"533","piggui","Pigeon Guillemot","Cepphus columba","L15372417","Alaska Maritime NWR--Beehive Island","2025-06-14 08:30",1,59.6179385,-149.6131325,TRUE,FALSE,FALSE,"S250457338"
"534","piggui","Pigeon Guillemot","Cepphus columba","L15450568","8210 Baird Rd NE, Olympia US-WA 47.15096, -122.80153","2025-06-14 08:08",1,47.150963,-122.801528,TRUE,FALSE,TRUE,"S250243641"
"535","piggui","Pigeon Guillemot","Cepphus columba","L767320","Anchor Point","2025-06-14 08:00",5,59.7790573,-151.8633485,TRUE,FALSE,FALSE,"S250449545"
"536","piggui","Pigeon Guillemot","Cepphus columba","L242028","Seattle-Winslow Ferry (Kitsap Co.)","2025-06-14 08:00",1,47.6084199,-122.491293,TRUE,FALSE,FALSE,"S250222167"
"537","piggui","Pigeon Guillemot","Cepphus columba","L15873803","Anchor River SRA","2025-06-14 08:00",2,59.7739031,-151.8658974,TRUE,FALSE,FALSE,"S250349072"
"538","piggui","Pigeon Guillemot","Cepphus columba","L47592578","Juneau Cruise Pier","2025-06-14 07:59",4,58.296113,-134.401689,TRUE,FALSE,TRUE,"S250240028"
"539","piggui","Pigeon Guillemot","Cepphus columba","L47641389","Salt Point State Park, Jenner US-CA 38.56589, -123.32904","2025-06-14 07:20",25,38.565889,-123.329041,TRUE,FALSE,TRUE,"S250432340"
"540","piggui","Pigeon Guillemot","Cepphus columba","L247929","Presidio--Crissy Field","2025-06-14 07:02",15,37.8041273,-122.4642633,TRUE,FALSE,FALSE,"S250268316"
"541","piggui","Pigeon Guillemot","Cepphus columba","L39932232","Private Property near Salty Dr NW, Olympia US-WA","2025-06-14 06:58",11,47.157061,-122.925282,TRUE,FALSE,TRUE,"S250432370"
"542","piggui","Pigeon Guillemot","Cepphus columba","L26728220","Blakely island field station","2025-06-14 06:58",1,48.565734,-122.812923,TRUE,FALSE,TRUE,"S250816623"
"543","piggui","Pigeon Guillemot","Cepphus columba","L820722","Homer Spit--Lands End","2025-06-14 06:56",8,59.6003137,-151.408596,TRUE,FALSE,FALSE,"S250836128"
"544","piggui","Pigeon Guillemot","Cepphus columba","L16373854","The Golden Gate","2025-06-14 06:56",3,37.807598,-122.50561,TRUE,FALSE,FALSE,"S250558861"
"545","piggui","Pigeon Guillemot","Cepphus columba","L9427244","Chevy Chase Cabins 3710 South Discovery Road, Port Townsend, Washington, US (48.053, -122.844)","2025-06-14 06:48",8,48.0529193,-122.8441471,TRUE,FALSE,TRUE,"S250180921"
"546","piggui","Pigeon Guillemot","Cepphus columba","L1146672","Jackson Beach, San Juan Island","2025-06-14 06:11",7,48.5197028,-123.0112553,TRUE,FALSE,FALSE,"S250181052"
"547","piggui","Pigeon Guillemot","Cepphus columba","L12584839","49000 U.S. 101 South, Neskowin, Oregon, US (45.101, -123.983)","2025-06-14 05:48",11,45.1007919,-123.9828585,TRUE,FALSE,TRUE,"S250208706"
"548","piggui","Pigeon Guillemot","Cepphus columba","L781318","Gustavus--Forelands","2025-06-14 05:00",8,58.4121436,-135.724411,TRUE,FALSE,FALSE,"S250337618"
"549","piggui","Pigeon Guillemot","Cepphus columba","L1597257","Rosario Strait (Skagit Co.)","2025-06-13 21:01",3,48.5218613,-122.7014927,TRUE,FALSE,FALSE,"S252098911"
"550","piggui","Pigeon Guillemot","Cepphus columba","L47548142","33180 Cape Kiwanda Drive, Cloverdale, Oregon, US (45.215, -123.971)","2025-06-13 20:01",3,45.2152511,-123.9708004,TRUE,FALSE,TRUE,"S250043368"
"551","piggui","Pigeon Guillemot","Cepphus columba","L4944874","Olympic NP--Second Beach","2025-06-13 18:04",8,47.8903918,-124.627018,TRUE,FALSE,FALSE,"S250046760"
"552","piggui","Pigeon Guillemot","Cepphus columba","L614226","Monterey Coast Guard pier/Cannery Row seawatch","2025-06-13 16:51",1,36.6093184,-121.8940664,TRUE,FALSE,FALSE,"S250012364"
"553","piggui","Pigeon Guillemot","Cepphus columba","L47540446","Pier 1","2025-06-13 16:39",1,46.18996,-123.857664,TRUE,FALSE,TRUE,"S250010021"
"554","piggui","Pigeon Guillemot","Cepphus columba","L7854813","Kachemak Bay--Grass Island (Eldred Passage)","2025-06-13 16:26",8,59.4988463,-151.4938541,TRUE,FALSE,FALSE,"S250194227"
"555","piggui","Pigeon Guillemot","Cepphus columba","L941868","Resurrection Bay--Aialik Cape","2025-06-13 15:38",NA,59.7062094,-149.5252991,TRUE,FALSE,FALSE,"S250029020"
"556","piggui","Pigeon Guillemot","Cepphus columba","L27166357","Spieden Island","2025-06-13 15:00",1,48.6403853,-123.134207,TRUE,FALSE,FALSE,"S250128930"
"557","piggui","Pigeon Guillemot","Cepphus columba","L47536573","142 Beach Rd, Haines US-AK 59.22695, -135.43460","2025-06-13 14:41",2,59.226951,-135.434601,TRUE,FALSE,TRUE,"S249992749"
"558","piggui","Pigeon Guillemot","Cepphus columba","L291979","Calera Creek and Rockaway Beach","2025-06-13 13:49",11,37.6107,-122.496,TRUE,FALSE,FALSE,"S250006779"
"559","piggui","Pigeon Guillemot","Cepphus columba","L7497115","Myrtle Edwards Park / Centennial Park","2025-06-13 13:34",6,47.6226242,-122.3664308,TRUE,FALSE,FALSE,"S249978053"
"560","piggui","Pigeon Guillemot","Cepphus columba","L47552394","Auto selected 59.60961, -151.38583","2025-06-13 13:25",1,59.609614,-151.385833,TRUE,FALSE,TRUE,"S250064842"
"561","piggui","Pigeon Guillemot","Cepphus columba","L2898179","Glacier Bay NP--Berg Bay","2025-06-13 13:21",3,58.5274082,-136.167984,TRUE,FALSE,FALSE,"S250267006"
"562","piggui","Pigeon Guillemot","Cepphus columba","L633652","Cap Santé Park","2025-06-13 12:54",2,48.5134773,-122.6010704,TRUE,FALSE,FALSE,"S249950764"
"563","piggui","Pigeon Guillemot","Cepphus columba","L31102692","Pioneer Square Habitat Beach","2025-06-13 11:44",3,47.6012582,-122.336379,TRUE,FALSE,FALSE,"S250205361"
"564","piggui","Pigeon Guillemot","Cepphus columba","L47523980","Admiralty Inlet, Port Townsend US-WA 48.09802, -122.67082","2025-06-13 11:27",150,48.098024,-122.670817,TRUE,FALSE,TRUE,"S249941974"
"565","piggui","Pigeon Guillemot","Cepphus columba","L3374604","Sekiu","2025-06-13 10:00",NA,48.2643466,-124.300223,TRUE,FALSE,FALSE,"S250003997"
"566","piggui","Pigeon Guillemot","Cepphus columba","L4486790","Gull Rock (Lincoln Co.)","2025-06-13 09:56",6,44.75201,-124.074985,TRUE,FALSE,FALSE,"S249894601"
"567","piggui","Pigeon Guillemot","Cepphus columba","L4130976","Vandenberg SFB--Point Arguello (restricted access)","2025-06-13 09:54",56,34.5772893,-120.6492805,TRUE,FALSE,FALSE,"S250387306"
"568","piggui","Pigeon Guillemot","Cepphus columba","L9894271","407 Charles Road, Port Angeles, Washington, US (48.15, -123.557)","2025-06-13 09:37",6,48.1498407,-123.5571731,TRUE,FALSE,TRUE,"S251196179"
"569","piggui","Pigeon Guillemot","Cepphus columba","L3032327","Winchester Bay Public Dock","2025-06-13 09:20",6,43.6780529,-124.1772008,TRUE,FALSE,FALSE,"S249889475"
"570","piggui","Pigeon Guillemot","Cepphus columba","L743267","Bob Creek Wayside","2025-06-13 08:58",6,44.2442997,-124.112294,TRUE,FALSE,FALSE,"S250058464"
"571","piggui","Pigeon Guillemot","Cepphus columba","L1788797","Ocean Ave (Water St), Edmonds","2025-06-13 08:53",2,47.825776,-122.3687986,TRUE,FALSE,FALSE,"S249874825"
"572","piggui","Pigeon Guillemot","Cepphus columba","L47552241","4287 Homer Spit Rd, Homer US-AK 59.60190, -151.42245","2025-06-13 08:52",1,59.601899,-151.422453,TRUE,FALSE,TRUE,"S250063945"
"573","piggui","Pigeon Guillemot","Cepphus columba","L47509241","Auto selected 60.06087, -149.34462","2025-06-13 08:28",2,60.060874,-149.344621,TRUE,FALSE,TRUE,"S249881069"
"574","piggui","Pigeon Guillemot","Cepphus columba","L14372494","West Bluff Picnic Area, San Francisco US-CA 37.80764, -122.46938","2025-06-13 08:13",1,37.807641,-122.469379,TRUE,FALSE,TRUE,"S249858683"
"575","piggui","Pigeon Guillemot","Cepphus columba","L478845","Pt. Reyes--Tomales Point Trail","2025-06-13 08:09",1,38.211209,-122.9720306,TRUE,FALSE,FALSE,"S249900921"
"576","piggui","Pigeon Guillemot","Cepphus columba","L1328030","Nichols Passage (S of Ketchikan)","2025-06-13 08:06",1,55.2270742,-131.6400742,TRUE,FALSE,FALSE,"S249917495"
"577","piggui","Pigeon Guillemot","Cepphus columba","L22410914","Baywood Nature Trail","2025-06-13 08:00",1,48.0179423,-122.2109686,TRUE,FALSE,FALSE,"S249893567"
"578","piggui","Pigeon Guillemot","Cepphus columba","L6125771","Jamestown S'Klallam Tribe Center","2025-06-13 07:58",6,48.0252673,-122.9962617,TRUE,FALSE,FALSE,"S249851246"
"579","piggui","Pigeon Guillemot","Cepphus columba","L2834884","Deception Pass SP--Trail Cornet Bay around Goose Rock to bridge","2025-06-13 07:34",31,48.400257,-122.634225,TRUE,FALSE,FALSE,"S250681986"
"580","piggui","Pigeon Guillemot","Cepphus columba","L47507257","1200 Bay St, Florence US-OR 43.96649, -124.10935","2025-06-13 07:25",4,43.966489,-124.109346,TRUE,FALSE,TRUE,"S249873308"
"581","piggui","Pigeon Guillemot","Cepphus columba","L872401","Muir Beach Overlook","2025-06-13 07:19",4,37.8618272,-122.5861573,TRUE,FALSE,FALSE,"S252211589"
"582","piggui","Pigeon Guillemot","Cepphus columba","L864791","Harris Beach SP","2025-06-13 06:58",22,42.068482,-124.3106461,TRUE,FALSE,FALSE,"S249832000"
"583","piggui","Pigeon Guillemot","Cepphus columba","L1022599","Ocean Beach-- across from Oceanside Water Polution Plant (FOR STATIONARY SEAWATCH ONLY)","2025-06-13 06:55",22,37.7294017,-122.5069034,TRUE,FALSE,FALSE,"S250062218"
"584","piggui","Pigeon Guillemot","Cepphus columba","L5560457","Lummi Island--Village Point","2025-06-13 06:41",26,48.7179841,-122.7191761,TRUE,FALSE,FALSE,"S249877438"
"585","piggui","Pigeon Guillemot","Cepphus columba","L47404123","VRBO on Beach Loop Road, Bandon, Oregon, US (43.109, -124.434)","2025-06-13 06:27",NA,43.1090766,-124.433587,TRUE,FALSE,TRUE,"S249826080"
