"","speciesCode","comName","sciName","locId","locName","obsDt","howMany","lat","lng","obsValid","obsReviewed","locationPrivate","subId"
"1","phaino","Phainopepla","Phainopepla nitens","L165600","Peters Canyon Reg Park","2025-06-11 16:11",1,33.7780824,-117.7605691,TRUE,FALSE,FALSE,"S249354678"
"2","phaino","Phainopepla","Phainopepla nitens","L45929440","stakeout Rose-throated Becard, Harshaw Creek Rd (2025)","2025-06-11 14:23",4,31.5162598,-110.6928891,TRUE,FALSE,FALSE,"S249335752"
"3","phaino","Phainopepla","Phainopepla nitens","L993428","Ron Morriss Park","2025-06-11 14:14",3,31.6090037,-111.0424018,TRUE,FALSE,FALSE,"S249341815"
"4","phaino","Phainopepla","Phainopepla nitens","L997628","Powder Canyon Trailhead","2025-06-11 12:20",5,33.9658721,-117.9284844,TRUE,FALSE,FALSE,"S249346780"
"5","phaino","Phainopepla","Phainopepla nitens","L234314","Anza Trail--Tubac","2025-06-11 11:53",4,31.6128313,-111.040829,TRUE,FALSE,FALSE,"S249354488"
"6","phaino","Phainopepla","Phainopepla nitens","L47397885","Tierra Rejada Golf Club, Moorpark US-CA 34.27121, -118.84690","2025-06-11 10:59",2,34.271215,-118.846901,TRUE,FALSE,TRUE,"S249351218"
"7","phaino","Phainopepla","Phainopepla nitens","L247122","Paton Center for Hummingbirds (Patons' Yard)","2025-06-11 10:46",3,31.5390131,-110.7606337,TRUE,FALSE,FALSE,"S249276860"
"8","phaino","Phainopepla","Phainopepla nitens","L721572","Base and Meridian WA","2025-06-11 10:41",1,33.3791718,-112.3074389,TRUE,FALSE,FALSE,"S249280195"
"9","phaino","Phainopepla","Phainopepla nitens","L38027485","Home","2025-06-11 10:15",1,34.753658,-112.562145,TRUE,FALSE,TRUE,"S249256699"
"10","phaino","Phainopepla","Phainopepla nitens","L4421921","Serrano Creek Trail - SE Segment","2025-06-11 10:04",2,33.6540435,-117.6805043,TRUE,FALSE,FALSE,"S249296270"
"11","phaino","Phainopepla","Phainopepla nitens","L23500756","Rancho Jamul Ecological Reserve (restricted access)","2025-06-11 09:56",1,32.681549,-116.853167,TRUE,FALSE,FALSE,"S249288129"
"12","phaino","Phainopepla","Phainopepla nitens","L245447","Fort Lowell Park and Pantano Wash","2025-06-11 09:42",1,32.2605631,-110.8727628,TRUE,FALSE,FALSE,"S249242054"
"13","phaino","Phainopepla","Phainopepla nitens","L128879","Arizona-Sonora Desert Museum (please do not report captive birds)","2025-06-11 09:38",2,32.2437113,-111.168125,TRUE,FALSE,FALSE,"S249258021"
"14","phaino","Phainopepla","Phainopepla nitens","L42260866","Irvine regional park","2025-06-11 09:30",1,33.8007521,-117.7560353,TRUE,FALSE,TRUE,"S249259859"
"15","phaino","Phainopepla","Phainopepla nitens","L169112","Hassayampa River Preserve","2025-06-11 09:21",9,33.9333419,-112.6946297,TRUE,FALSE,FALSE,"S249305056"
"16","phaino","Phainopepla","Phainopepla nitens","L922804","Hill Canyon","2025-06-11 09:13",8,34.2170614,-118.9281177,TRUE,FALSE,FALSE,"S249271625"
"17","phaino","Phainopepla","Phainopepla nitens","L716316","Lake Morena","2025-06-11 09:02",1,32.6881683,-116.5258897,TRUE,FALSE,FALSE,"S249233291"
"18","phaino","Phainopepla","Phainopepla nitens","L33033706","Laborcita 2 BBS--Stop 40","2025-06-11 08:59",2,33.9609973,-106.8576723,TRUE,FALSE,TRUE,"S249262233"
"19","phaino","Phainopepla","Phainopepla nitens","L45692993","Bandy Canyon Rd, San Diego US-CA 33.07417, -116.97668","2025-06-11 08:48",11,33.074169,-116.976682,TRUE,FALSE,TRUE,"S249253633"
"20","phaino","Phainopepla","Phainopepla nitens","L907432","Cleveland NF--Pioneer Mail Trailhead","2025-06-11 08:41",2,32.9248069,-116.4820719,TRUE,FALSE,FALSE,"S249242382"
"21","phaino","Phainopepla","Phainopepla nitens","L3691883","Gila River--Kelvin Bridge","2025-06-11 08:40",1,33.102507,-110.9745955,TRUE,FALSE,FALSE,"S249292979"
"22","phaino","Phainopepla","Phainopepla nitens","L33235428","Laborcita 2 BBS--Stop 36","2025-06-11 08:36",1,33.9339435,-106.8535876,TRUE,FALSE,TRUE,"S249260439"
"23","phaino","Phainopepla","Phainopepla nitens","L391299","Upper Las Virgenes Canyon OSP","2025-06-11 08:31",1,34.1712279,-118.7033486,TRUE,FALSE,FALSE,"S249263661"
"24","phaino","Phainopepla","Phainopepla nitens","L1298829","Sabino Canyon Rec Area--Sabino Canyon Rd 1st 0.7 mile","2025-06-11 08:30",1,32.314417,-110.8184141,TRUE,FALSE,TRUE,"S249221569"
"25","phaino","Phainopepla","Phainopepla nitens","L1115897","Canoa Ranch Conservation Park","2025-06-11 08:26",5,31.7948045,-111.0156226,TRUE,FALSE,FALSE,"S249228819"
"26","phaino","Phainopepla","Phainopepla nitens","L41367549","Paicines Ranch - South Pole (Restricted Access)","2025-06-11 08:15",1,36.6813172,-121.2928782,TRUE,FALSE,TRUE,"S249268812"
"27","phaino","Phainopepla","Phainopepla nitens","L47377048","Red Hills Rd, Jamestown US-CA 37.84719, -120.46168","2025-06-11 08:10",2,37.847192,-120.461676,TRUE,FALSE,TRUE,"S249275936"
"28","phaino","Phainopepla","Phainopepla nitens","L913627","Green Valley--Desert Meadows Park","2025-06-11 08:10",1,31.8552155,-110.9860539,TRUE,FALSE,FALSE,"S249238050"
"29","phaino","Phainopepla","Phainopepla nitens","L2883481","The Ice House","2025-06-11 07:45",2,31.4920438,-110.9900558,TRUE,FALSE,TRUE,"S249207779"
"30","phaino","Phainopepla","Phainopepla nitens","L418711","Lake Skinner County Park","2025-06-11 07:35",3,33.5878645,-117.0422459,TRUE,FALSE,FALSE,"S249298461"
"31","phaino","Phainopepla","Phainopepla nitens","L12056773","Limestone Canyon Trail (restricted access)","2025-06-11 07:33",NA,33.7376656,-117.6726294,TRUE,FALSE,TRUE,"S249248051"
"32","phaino","Phainopepla","Phainopepla nitens","L47369497","Tohono Chul Park, Oro Valley US-AZ 32.33949, -110.98179","2025-06-11 07:27",1,32.339491,-110.981793,TRUE,FALSE,TRUE,"S249227141"
"33","phaino","Phainopepla","Phainopepla nitens","L128870","Agua Caliente Park","2025-06-11 07:27",9,32.2806015,-110.7303009,TRUE,FALSE,FALSE,"S249235820"
"34","phaino","Phainopepla","Phainopepla nitens","L39084002","RCE Sierra Vista AZ","2025-06-11 07:21",1,31.57065,-110.2580843,TRUE,FALSE,TRUE,"S249331734"
"35","phaino","Phainopepla","Phainopepla nitens","L47379456","Mount Lemmon Hwy (32.3101,-110.7208)","2025-06-11 07:18",1,32.310095,-110.720801,TRUE,FALSE,TRUE,"S249268220"
"36","phaino","Phainopepla","Phainopepla nitens","L6566735","Backyard 2505 Canyon Vw, Pasadena US-CA (34.1810,-118.0979)","2025-06-11 07:15",1,34.180988,-118.097881,TRUE,FALSE,TRUE,"S249248369"
"37","phaino","Phainopepla","Phainopepla nitens","L2229749","2911 E Granite Gardens Dr","2025-06-11 07:15",3,34.6049843,-112.4136581,TRUE,FALSE,TRUE,"S249196113"
"38","phaino","Phainopepla","Phainopepla nitens","L1110838","Sabino Canyon Rec Area--Creek Trail #52--Shuttle Stop 1","2025-06-11 07:04",1,32.3214523,-110.8102834,TRUE,FALSE,TRUE,"S249200905"
"39","phaino","Phainopepla","Phainopepla nitens","L420195","Big Morongo Canyon Preserve & Covington Park","2025-06-11 07:02",1,34.0497222,-116.5702639,TRUE,FALSE,FALSE,"S249296614"
"40","phaino","Phainopepla","Phainopepla nitens","L280811","The Living Desert Zoo and Gardens","2025-06-11 07:02",1,33.7003681,-116.3735819,TRUE,FALSE,FALSE,"S249293107"
"41","phaino","Phainopepla","Phainopepla nitens","L2880689","Agua Chinon (restricted access)","2025-06-11 06:49",7,33.6982095,-117.6818132,TRUE,FALSE,FALSE,"S249299242"
"42","phaino","Phainopepla","Phainopepla nitens","L875490","Hillsboro (town)","2025-06-11 06:46",1,32.9207363,-107.5675249,TRUE,FALSE,FALSE,"S249203515"
"43","phaino","Phainopepla","Phainopepla nitens","L689527","Sabino Dam and downstream riparian","2025-06-11 06:46",1,32.3131068,-110.8113941,TRUE,FALSE,FALSE,"S249221636"
"44","phaino","Phainopepla","Phainopepla nitens","L266622","Red Rock SP","2025-06-11 06:45",4,34.8117069,-111.8288603,TRUE,FALSE,FALSE,"S249236362"
"45","phaino","Phainopepla","Phainopepla nitens","L128953","Dudleyville","2025-06-11 06:42",2,32.917,-110.735,TRUE,FALSE,FALSE,"S249291324"
"46","phaino","Phainopepla","Phainopepla nitens","L1149057","Claremont Wilderness Park--Johnson's Pasture","2025-06-11 06:33",3,34.1423562,-117.7296638,TRUE,FALSE,FALSE,"S249215755"
"47","phaino","Phainopepla","Phainopepla nitens","L36540492","Home, Prescott","2025-06-11 06:30",1,34.534967,-112.4674446,TRUE,FALSE,TRUE,"S249180319"
"48","phaino","Phainopepla","Phainopepla nitens","L270303","Watson Lake and Riparian Preserve","2025-06-11 06:27",1,34.5822319,-112.4259328,TRUE,FALSE,FALSE,"S249196485"
"49","phaino","Phainopepla","Phainopepla nitens","L35513979","Placita Cresta Loma-Back","2025-06-11 06:24",1,32.3015168,-110.9840233,TRUE,FALSE,TRUE,"S249191888"
"50","phaino","Phainopepla","Phainopepla nitens","L128938","Catalina SP","2025-06-11 06:22",2,32.4244027,-110.9123905,TRUE,FALSE,FALSE,"S249237752"
"51","phaino","Phainopepla","Phainopepla nitens","L30940412","neighborhood west","2025-06-11 06:09",1,33.906292,-117.7972532,TRUE,FALSE,TRUE,"S249184946"
"52","phaino","Phainopepla","Phainopepla nitens","L38677317","Alamo Wash - Rillito to Ft Lowell Rd.","2025-06-11 06:08",3,32.2642833,-110.8883003,TRUE,FALSE,TRUE,"S249207869"
"53","phaino","Phainopepla","Phainopepla nitens","L208918","Sweetwater Wetlands","2025-06-11 06:07",3,32.2790144,-111.0216061,TRUE,FALSE,FALSE,"S249223571"
"54","phaino","Phainopepla","Phainopepla nitens","L36335363","Mariam house","2025-06-11 06:03",1,33.47239,-117.603558,TRUE,FALSE,TRUE,"S249166959"
"55","phaino","Phainopepla","Phainopepla nitens","L290333","Arthur Pack Regional Park","2025-06-11 06:00",4,32.3733753,-111.0535231,TRUE,FALSE,FALSE,"S249205312"
"56","phaino","Phainopepla","Phainopepla nitens","L28094313","Verde River Greenway, Cottonwood US-AZ (34.7535,-112.0068)","2025-06-11 06:00",7,34.753499,-112.006849,TRUE,FALSE,TRUE,"S249221048"
"57","phaino","Phainopepla","Phainopepla nitens","L2714898","The Jail Trail","2025-06-11 06:00",8,34.7496668,-112.0269971,TRUE,FALSE,FALSE,"S249221338"
"58","phaino","Phainopepla","Phainopepla nitens","L18203385","Rillito River Park Oracle to La Canada","2025-06-11 05:56",1,32.292501,-110.990597,TRUE,FALSE,TRUE,"S249192290"
"59","phaino","Phainopepla","Phainopepla nitens","L210015","Desert Botanical Garden","2025-06-11 05:52",2,33.4618165,-111.9436349,TRUE,FALSE,FALSE,"S249309218"
"60","phaino","Phainopepla","Phainopepla nitens","L2174546","San Juan Capistrano, Oso-Rancho Capistrano Trail","2025-06-11 05:47",NA,33.523365,-117.6756442,TRUE,FALSE,FALSE,"S249220250"
"61","phaino","Phainopepla","Phainopepla nitens","L4179908","Rillito River Park--Swan to Craycroft","2025-06-11 05:24",1,32.268967,-110.882987,TRUE,FALSE,FALSE,"S249204819"
"62","phaino","Phainopepla","Phainopepla nitens","L4712195","Sycamore Creek--upper Beeline Hwy","2025-06-11 05:21",3,33.9117312,-111.4825845,TRUE,FALSE,FALSE,"S249276682"
"63","phaino","Phainopepla","Phainopepla nitens","L18374697","Neighborhood","2025-06-11 05:20",2,32.299102,-110.835621,TRUE,FALSE,TRUE,"S249171500"
"64","phaino","Phainopepla","Phainopepla nitens","L2958808","Sabino Canyon Visitor Center (2710')","2025-06-11 05:16",1,32.3097446,-110.822643,TRUE,FALSE,TRUE,"S249142422"
"65","phaino","Phainopepla","Phainopepla nitens","L6641721","Sierra Vista Golf Center at Pueblo del Sol","2025-06-11 05:05",1,31.5201792,-110.2647999,TRUE,FALSE,FALSE,"S249251735"
"66","phaino","Phainopepla","Phainopepla nitens","L1416495","1. Mule Pass Yard","2025-06-11 05:00",2,31.4641892,-109.9561961,TRUE,FALSE,TRUE,"S249209663"
"67","phaino","Phainopepla","Phainopepla nitens","L1100233","Agua Caliente County Park","2025-06-11 04:59",2,32.9503072,-116.3034582,TRUE,FALSE,FALSE,"S249190653"
"68","phaino","Phainopepla","Phainopepla nitens","L560027","Jacumba--town, pond, fields","2025-06-11 04:58",3,32.6190835,-116.1874054,TRUE,FALSE,FALSE,"S249218763"
"69","phaino","Phainopepla","Phainopepla nitens","L32258596","Sabino Vista yard nr Crestwood / Larrea, Tucson","2025-06-10 19:18",2,32.27733,-110.815652,TRUE,FALSE,TRUE,"S249051937"
"70","phaino","Phainopepla","Phainopepla nitens","L12150067","Arroyo Burro Open Space","2025-06-10 18:51",1,34.4121233,-119.7416255,TRUE,FALSE,FALSE,"S249049150"
"71","phaino","Phainopepla","Phainopepla nitens","L1838049","Santa Ana River at Greenspot Rd.","2025-06-10 18:35",1,34.0985517,-117.1172389,TRUE,FALSE,FALSE,"S249061743"
"72","phaino","Phainopepla","Phainopepla nitens","L14873122","Yosemite Lakes Park Recreation Area","2025-06-10 18:25",1,37.1902447,-119.7940599,TRUE,FALSE,FALSE,"S249057754"
"73","phaino","Phainopepla","Phainopepla nitens","L491914","Nora Kuttner Trail (Robert E. Ward Nature Preserve)","2025-06-10 18:10",2,33.8994067,-117.9472929,TRUE,FALSE,FALSE,"S249051058"
"74","phaino","Phainopepla","Phainopepla nitens","L4500170","Murrieta Creek--McVicar St. to Clinton Keith Rd.","2025-06-10 17:50",1,33.589777,-117.259044,TRUE,FALSE,FALSE,"S249049165"
"75","phaino","Phainopepla","Phainopepla nitens","L384938","San Diego Zoo Safari Park","2025-06-10 17:11",2,33.0973669,-116.9981978,TRUE,FALSE,FALSE,"S249024033"
"76","phaino","Phainopepla","Phainopepla nitens","L1279279","Laguna Lake Park, Fullerton","2025-06-10 17:04",2,33.9062075,-117.9380286,TRUE,FALSE,FALSE,"S249036534"
"77","phaino","Phainopepla","Phainopepla nitens","L352346","Santa Gertrudis Lane (foot access only)","2025-06-10 16:02",2,31.5620883,-111.0473766,TRUE,FALSE,FALSE,"S249017195"
"78","phaino","Phainopepla","Phainopepla nitens","L374421","O'Neill Regional Park","2025-06-10 14:31",1,33.6509948,-117.6013874,TRUE,FALSE,FALSE,"S249011860"
"79","phaino","Phainopepla","Phainopepla nitens","L47325833","537 Westlake Blvd, Malibu US-CA 34.11154, -118.85370","2025-06-10 14:18",1,34.11154,-118.853704,TRUE,FALSE,TRUE,"S249016637"
"80","phaino","Phainopepla","Phainopepla nitens","L47318410","345 Winston Lane, Indian Springs, Nevada, US (36.568, -115.666)","2025-06-10 13:26",1,36.5677019,-115.6660832,TRUE,FALSE,TRUE,"S248980884"
"81","phaino","Phainopepla","Phainopepla nitens","L47321672","Juan Bautista de Anza National Historic Trail, Tubac US-AZ 31.61244, -111.04230","2025-06-10 13:23",2,31.612444,-111.042299,TRUE,FALSE,TRUE,"S248995474"
"82","phaino","Phainopepla","Phainopepla nitens","L128933","Carlsbad Caverns NP--Rattlesnake Springs","2025-06-10 13:10",3,32.1109359,-104.4660668,TRUE,FALSE,FALSE,"S248979489"
"83","phaino","Phainopepla","Phainopepla nitens","L47313603","46245–46265 SH-118, Alpine US-TX 30.30885, -103.61373","2025-06-10 12:25",1,30.30885,-103.613726,TRUE,FALSE,TRUE,"S248962296"
"84","phaino","Phainopepla","Phainopepla nitens","L847245","Bosque del Apache NWR--Visitor Center (do not use for whole refuge)","2025-06-10 12:09",2,33.805018,-106.8907768,TRUE,FALSE,FALSE,"S248935816"
"85","phaino","Phainopepla","Phainopepla nitens","L47313618","49001–49081 SH-118, Alpine US-TX 29.96262, -103.57796","2025-06-10 11:57",1,29.962621,-103.57796,TRUE,FALSE,TRUE,"S248962378"
"86","phaino","Phainopepla","Phainopepla nitens","L3601258","Isabella Lee Natural Preserve","2025-06-10 11:53",1,32.2426592,-110.7814242,TRUE,FALSE,FALSE,"S248974205"
"87","phaino","Phainopepla","Phainopepla nitens","L1186317","Santa Clara River Preserve--(TNC)","2025-06-10 11:48",1,34.3092708,-119.0976334,TRUE,FALSE,FALSE,"S248946285"
"88","phaino","Phainopepla","Phainopepla nitens","L455649","Glen Helen Regional Park","2025-06-10 11:45",4,34.204704,-117.4057388,TRUE,FALSE,FALSE,"S249012552"
"89","phaino","Phainopepla","Phainopepla nitens","L2109842","Keithley Preserve (Los Cielos Preserve)","2025-06-10 11:32",1,33.0740103,-117.1597696,TRUE,FALSE,FALSE,"S248952758"
"90","phaino","Phainopepla","Phainopepla nitens","L392317","Camp Pendleton--Lake O'Neill","2025-06-10 11:10",2,33.329094,-117.3227406,TRUE,FALSE,FALSE,"S248951784"
"91","phaino","Phainopepla","Phainopepla nitens","L1092125","Sedona Wetlands Preserve","2025-06-10 10:52",1,34.829,-111.8964,TRUE,FALSE,FALSE,"S249058059"
"92","phaino","Phainopepla","Phainopepla nitens","L47308355","3501 Canada Larga Rd, Ventura US-CA 34.36135, -119.24830","2025-06-10 10:37",4,34.361348,-119.248301,TRUE,FALSE,TRUE,"S248939200"
"93","phaino","Phainopepla","Phainopepla nitens","L713257","Mission Trails Regional Park--Visitor Center Area","2025-06-10 10:28",1,32.8193437,-117.0557656,TRUE,FALSE,FALSE,"S248941989"
"94","phaino","Phainopepla","Phainopepla nitens","L6175589","Market House","2025-06-10 10:11",1,31.603425,-111.046801,TRUE,FALSE,TRUE,"S249155215"
"95","phaino","Phainopepla","Phainopepla nitens","L31654195","Miner's Ravine Trail Secret Entrance","2025-06-10 10:05",1,38.7635283,-121.2243269,TRUE,FALSE,TRUE,"S248983525"
"96","phaino","Phainopepla","Phainopepla nitens","L1824943","Snowflake--Cottonwood Wash/Silver Creek confluence","2025-06-10 10:02",1,34.5228505,-110.0795562,TRUE,FALSE,FALSE,"S248925429"
"97","phaino","Phainopepla","Phainopepla nitens","L20547347","2711 Yard","2025-06-10 09:39",1,32.844101,-116.772982,TRUE,FALSE,TRUE,"S248904788"
"98","phaino","Phainopepla","Phainopepla nitens","L47305260","Hurricane, Utah, US (37.152, -113.078)","2025-06-10 09:38",1,37.1515553,-113.0780461,TRUE,FALSE,TRUE,"S248924189"
"99","phaino","Phainopepla","Phainopepla nitens","L279779","Santa Monica Mtns. NRA--Rancho Sierra Vista/Satwiwa","2025-06-10 09:32",2,34.149598,-118.9603945,TRUE,FALSE,FALSE,"S248922945"
"100","phaino","Phainopepla","Phainopepla nitens","L334455","Gila River Preserve--Gila River Farm","2025-06-10 08:53",2,33.0156539,-108.5531616,TRUE,FALSE,FALSE,"S248929391"
"101","phaino","Phainopepla","Phainopepla nitens","L934941","Sacramento River NWR--Rio Vista Unit","2025-06-10 08:50",2,39.9095387,-122.0838547,TRUE,FALSE,FALSE,"S248948370"
"102","phaino","Phainopepla","Phainopepla nitens","L47311914","Santa Rosa Valley Park, Santa Rosa Valley US-CA 34.22889, -118.93211","2025-06-10 08:34",15,34.228891,-118.932105,TRUE,FALSE,TRUE,"S248954756"
"103","phaino","Phainopepla","Phainopepla nitens","L382758","Carbon Canyon Regional Park","2025-06-10 08:33",7,33.9205466,-117.834255,TRUE,FALSE,FALSE,"S249051559"
"104","phaino","Phainopepla","Phainopepla nitens","L16765881","San Marcos Foothills Preserve--West Mesa","2025-06-10 08:23",1,34.46036,-119.76813,TRUE,FALSE,FALSE,"S248888058"
"105","phaino","Phainopepla","Phainopepla nitens","L17264691","Anza Trail--north of Desert Meadows Park","2025-06-10 08:16",1,31.8592836,-110.9851899,TRUE,FALSE,FALSE,"S248914734"
"106","phaino","Phainopepla","Phainopepla nitens","L801783","Rancho Jurupa Park","2025-06-10 07:50",5,33.9818016,-117.4175835,TRUE,FALSE,FALSE,"S248954702"
"107","phaino","Phainopepla","Phainopepla nitens","L953575","Gila River Preserve--Iron Bridge Conservation Area","2025-06-10 07:48",1,32.9400071,-108.6066073,TRUE,FALSE,FALSE,"S248929235"
"108","phaino","Phainopepla","Phainopepla nitens","L8460211","NM-211 Bridge over the Gila","2025-06-10 07:48",1,32.9690103,-108.5871804,TRUE,FALSE,FALSE,"S248929231"
"109","phaino","Phainopepla","Phainopepla nitens","L47294615","Private Residence Sedona","2025-06-10 07:45",1,34.878146,-111.766063,TRUE,FALSE,TRUE,"S248874355"
"110","phaino","Phainopepla","Phainopepla nitens","L2021876","Sullivan Virgin River Park","2025-06-10 07:43",2,37.1177239,-113.5018587,TRUE,FALSE,FALSE,"S248852514"
"111","phaino","Phainopepla","Phainopepla nitens","L39606920","HVSVRA - 105","2025-06-10 07:41",1,34.7755996,-118.8943649,TRUE,FALSE,TRUE,"S248868560"
"112","phaino","Phainopepla","Phainopepla nitens","L21351112","215-247 N. Cody Loop, Oracle Az","2025-06-10 07:40",4,32.6024655,-110.7586688,TRUE,FALSE,TRUE,"S248936207"
"113","phaino","Phainopepla","Phainopepla nitens","L129105","Sycamore Canyon (Pajarito Mountains)","2025-06-10 07:36",1,31.4290009,-111.1905975,TRUE,FALSE,FALSE,"S248964993"
"114","phaino","Phainopepla","Phainopepla nitens","L11229243","Our 'Habitat at Home'","2025-06-10 07:30",1,32.3066877,-110.9521783,TRUE,FALSE,TRUE,"S248880328"
"115","phaino","Phainopepla","Phainopepla nitens","L477859","Black Star Canyon","2025-06-10 07:28",1,33.7644721,-117.6780689,TRUE,FALSE,FALSE,"S248893626"
"116","phaino","Phainopepla","Phainopepla nitens","L37039046","Lydia's Home 80 Last Wagon Dr, Sedona US-AZ 34.86958, -111.79084","2025-06-10 07:26",1,34.869583,-111.790842,TRUE,FALSE,TRUE,"S248946590"
"117","phaino","Phainopepla","Phainopepla nitens","L47299035","Marine Corps Base Camp Pendleton, Fallbrook US-CA 33.31142, -117.27730","2025-06-10 07:21",2,33.311423,-117.277302,TRUE,FALSE,TRUE,"S248896568"
"118","phaino","Phainopepla","Phainopepla nitens","L128878","Buenos Aires NWR--Arivaca Cienega","2025-06-10 07:20",2,31.5735272,-111.3242853,TRUE,FALSE,FALSE,"S248974776"
"119","phaino","Phainopepla","Phainopepla nitens","L29206850","1825 Monroe Lane, Camp Verde, Arizona, US (34.543, -111.868)","2025-06-10 07:18",7,34.5433098,-111.8684359,TRUE,FALSE,TRUE,"S248860528"
"120","phaino","Phainopepla","Phainopepla nitens","L47294166","100–162 Water Tank Rd, Hillsboro US-NM (32.9225,-107.5739)","2025-06-10 06:45",4,32.922455,-107.573901,TRUE,FALSE,TRUE,"S248872456"
"121","phaino","Phainopepla","Phainopepla nitens","L39946074","Buckhorn Bend yard list","2025-06-10 06:41",1,35.307389,-114.048155,TRUE,FALSE,TRUE,"S248836327"
"122","phaino","Phainopepla","Phainopepla nitens","L4341482","Mt. Ord--lower (Maricopa Co.)","2025-06-10 06:37",1,33.9171171,-111.4428341,TRUE,FALSE,FALSE,"S248997695"
"123","phaino","Phainopepla","Phainopepla nitens","L5044127","Green Valley yard","2025-06-10 06:21",1,31.8196182,-111.0124657,TRUE,FALSE,TRUE,"S248914506"
"124","phaino","Phainopepla","Phainopepla nitens","L581730","Caroline Park","2025-06-10 06:20",1,34.0230803,-117.1587718,TRUE,FALSE,FALSE,"S248838496"
"125","phaino","Phainopepla","Phainopepla nitens","L12096919","Hells Canyon Tank","2025-06-10 06:18",15,35.082012,-112.405206,TRUE,FALSE,FALSE,"S248967253"
"126","phaino","Phainopepla","Phainopepla nitens","L28675464","Camp Verde property","2025-06-10 06:16",1,34.6048675,-111.8945592,TRUE,FALSE,TRUE,"S248828538"
"127","phaino","Phainopepla","Phainopepla nitens","L168656","Desert NWR--Corn Creek (Field Station)","2025-06-10 06:09",1,36.438797,-115.359566,TRUE,FALSE,FALSE,"S248888771"
"128","phaino","Phainopepla","Phainopepla nitens","L280327","Tohono Chul Park","2025-06-10 05:45",3,32.339313,-110.9812742,TRUE,FALSE,FALSE,"S248863931"
"129","phaino","Phainopepla","Phainopepla nitens","L16465694","Placita Salud","2025-06-10 05:45",2,32.3103179,-110.8849909,TRUE,FALSE,TRUE,"S248845854"
"130","phaino","Phainopepla","Phainopepla nitens","L128943","San Pedro RNCA--Charleston Bridge","2025-06-10 05:38",2,31.6257,-110.1735992,TRUE,FALSE,FALSE,"S248951932"
"131","phaino","Phainopepla","Phainopepla nitens","L28604841","PGA WEST (restricted access)","2025-06-10 05:30",1,33.643476,-116.272733,TRUE,FALSE,TRUE,"S248899828"
"132","phaino","Phainopepla","Phainopepla nitens","L9817881","Home","2025-06-10 05:15",1,33.9990074,-117.8041415,TRUE,FALSE,TRUE,"S249064984"
"133","phaino","Phainopepla","Phainopepla nitens","L3246283","Green Valley Country Club Estates (private)","2025-06-10 05:15",1,31.8852376,-110.9795026,TRUE,FALSE,FALSE,"S248885800"
"134","phaino","Phainopepla","Phainopepla nitens","L601812","Black Widow Ranch","2025-06-10",1,33.9856225,-117.3125723,TRUE,FALSE,TRUE,"S249062091"
"135","phaino","Phainopepla","Phainopepla nitens","L40105338","house","2025-06-09 19:39",1,37.224401,-121.887089,TRUE,FALSE,TRUE,"S248731778"
"136","phaino","Phainopepla","Phainopepla nitens","L840634","Irvine Regional Park","2025-06-09 19:24",2,33.7968382,-117.7532673,TRUE,FALSE,FALSE,"S248741493"
"137","phaino","Phainopepla","Phainopepla nitens","L819459","Red Bluff Rec Area","2025-06-09 19:15",2,40.1559829,-122.2035885,TRUE,FALSE,FALSE,"S248744249"
"138","phaino","Phainopepla","Phainopepla nitens","L46708228","32000 Lobo Canyon to Triunfo Rd","2025-06-09 19:14",5,34.118528,-118.817121,TRUE,FALSE,TRUE,"S248739899"
"139","phaino","Phainopepla","Phainopepla nitens","L46523977","Stetson Casita","2025-06-09 18:56",1,32.270726,-110.752451,TRUE,FALSE,TRUE,"S248731957"
"140","phaino","Phainopepla","Phainopepla nitens","L47265308","Big Tree Trail (Gila NF)","2025-06-09 18:43",1,32.85313,-108.159989,TRUE,FALSE,TRUE,"S248736460"
"141","phaino","Phainopepla","Phainopepla nitens","L198791","Hahamongna Watershed Park (formerly Oak Grove Park)","2025-06-09 18:28",3,34.1933989,-118.1758332,TRUE,FALSE,FALSE,"S248722913"
"142","phaino","Phainopepla","Phainopepla nitens","L5648026","Sweetland St","2025-06-09 18:22",1,34.101661,-117.733836,TRUE,FALSE,TRUE,"S248725581"
"143","phaino","Phainopepla","Phainopepla nitens","L47264347","25003 Mesa Estates Rd, Ramona US-CA (32.9908,-116.7874)","2025-06-09 17:51",NA,32.990827,-116.787408,TRUE,FALSE,TRUE,"S248731643"
"144","phaino","Phainopepla","Phainopepla nitens","L4003339","Mississippi Bar","2025-06-09 17:06",1,38.6495393,-121.2030065,TRUE,FALSE,FALSE,"S248718056"
"145","phaino","Phainopepla","Phainopepla nitens","L129051","Patagonia Roadside Rest Area","2025-06-09 16:46",6,31.5080086,-110.8022998,TRUE,FALSE,FALSE,"S248704606"
"146","phaino","Phainopepla","Phainopepla nitens","L596212","San Diego NWR--Sweetwater River @ Hwy 94","2025-06-09 16:29",2,32.731572,-116.9402408,TRUE,FALSE,FALSE,"S248728557"
"147","phaino","Phainopepla","Phainopepla nitens","L128950","Davis Mountains  SP (FWTX 23)","2025-06-09 15:35",1,30.5962706,-103.9347249,TRUE,FALSE,FALSE,"S248706921"
"148","phaino","Phainopepla","Phainopepla nitens","L8265676","Harding Canyon trail","2025-06-09 14:52",3,33.7166113,-117.6144308,TRUE,FALSE,FALSE,"S248732991"
"149","phaino","Phainopepla","Phainopepla nitens","L631087","Lake Piru","2025-06-09 14:28",2,34.4703904,-118.7528085,TRUE,FALSE,FALSE,"S248736254"
"150","phaino","Phainopepla","Phainopepla nitens","L2198410","Griffith Park--Old Zoo trails","2025-06-09 13:13",NA,34.1349978,-118.288132,TRUE,FALSE,FALSE,"S248671389"
"151","phaino","Phainopepla","Phainopepla nitens","L2020065","Arroyo Pescadero trail  - Feb 24, 2013, 9:56 AM","2025-06-09 12:27",1,33.969543,-118.000435,TRUE,FALSE,TRUE,"S248650841"
"152","phaino","Phainopepla","Phainopepla nitens","L374047","Cañada Larga Rd.","2025-06-09 11:54",1,34.3445699,-119.2783928,TRUE,FALSE,FALSE,"S248650058"
"153","phaino","Phainopepla","Phainopepla nitens","L15819087","Rankin yard—Wickenburg/Morristown","2025-06-09 11:28",5,33.922001,-112.680937,TRUE,FALSE,TRUE,"S248664437"
"154","phaino","Phainopepla","Phainopepla nitens","L1308894","Murphy Ranch Park","2025-06-09 11:27",2,33.9591124,-117.9812765,TRUE,FALSE,FALSE,"S248636132"
"155","phaino","Phainopepla","Phainopepla nitens","L757113","Bommer Canyon, Irvine","2025-06-09 10:35",2,33.6176928,-117.8015041,TRUE,FALSE,FALSE,"S248651141"
"156","phaino","Phainopepla","Phainopepla nitens","L516058","Hansen Dam--east basin","2025-06-09 10:35",2,34.2627496,-118.3757973,TRUE,FALSE,FALSE,"S248978027"
"157","phaino","Phainopepla","Phainopepla nitens","L26523467","Ventura V trail","2025-06-09 10:10",1,34.2863503,-119.2672563,TRUE,FALSE,FALSE,"S248614707"
"158","phaino","Phainopepla","Phainopepla nitens","L43097944","Sunrise Patio Homes","2025-06-09 10:04",1,32.2886442,-110.8741938,TRUE,FALSE,TRUE,"S248632651"
"159","phaino","Phainopepla","Phainopepla nitens","L2836155","Harding Truck Trail","2025-06-09 09:38",1,33.7144698,-117.6185346,TRUE,FALSE,FALSE,"S248612363"
"160","phaino","Phainopepla","Phainopepla nitens","L43583061","Griffith Park--Western Canyon","2025-06-09 09:30",4,34.1170282,-118.3070116,TRUE,FALSE,TRUE,"S248677387"
"161","phaino","Phainopepla","Phainopepla nitens","L21648891","RHR2 Neighborhood","2025-06-09 09:10",1,33.7835316,-117.7761723,TRUE,FALSE,TRUE,"S248651863"
"162","phaino","Phainopepla","Phainopepla nitens","L304521","Santa Cruz River--Sasco Rd","2025-06-09 09:10",4,32.544589,-111.406889,TRUE,FALSE,FALSE,"S248666859"
"163","phaino","Phainopepla","Phainopepla nitens","L266621","Page Springs Fish Hatchery--Bubbling Ponds Preserve","2025-06-09 09:09",4,34.7669646,-111.8950832,TRUE,FALSE,FALSE,"S248607566"
"164","phaino","Phainopepla","Phainopepla nitens","L267812","San Jacinto Wildlife Area--Mystic Lake","2025-06-09 09:01",1,33.8839706,-117.0884961,TRUE,FALSE,FALSE,"S248677520"
"165","phaino","Phainopepla","Phainopepla nitens","L505270","Anza Trail--Tumacacori","2025-06-09 08:55",6,31.5694771,-111.0472888,TRUE,FALSE,FALSE,"S248640529"
"166","phaino","Phainopepla","Phainopepla nitens","L8544843","Cucamonga Creek wash","2025-06-09 08:50",5,34.1562998,-117.639051,TRUE,FALSE,FALSE,"S248589876"
"167","phaino","Phainopepla","Phainopepla nitens","L351584","Ventura Settling Ponds","2025-06-09 08:42",3,34.2381312,-119.2615056,TRUE,FALSE,FALSE,"S248608571"
"168","phaino","Phainopepla","Phainopepla nitens","L716235","Kitchen Creek Rd.--creek crossing","2025-06-09 08:31",5,32.7523339,-116.4522994,TRUE,FALSE,FALSE,"S248736201"
"169","phaino","Phainopepla","Phainopepla nitens","L4558637","Lake Casitas Recreation Area","2025-06-09 08:30",4,34.4134951,-119.3395472,TRUE,FALSE,FALSE,"S248587373"
"170","phaino","Phainopepla","Phainopepla nitens","L17054936","Del Rio Drain","2025-06-09 08:24",1,32.359044,-106.830205,TRUE,FALSE,TRUE,"S248661829"
"171","phaino","Phainopepla","Phainopepla nitens","L5522272","Granite Mountains Reserve--Allanson Center","2025-06-09 08:19",1,34.7819544,-115.6536958,TRUE,FALSE,FALSE,"S248557396"
"172","phaino","Phainopepla","Phainopepla nitens","L47229718","Benson KOA","2025-06-09 08:11",1,31.988909,-110.302209,TRUE,FALSE,TRUE,"S248570167"
"173","phaino","Phainopepla","Phainopepla nitens","L3311348","Lake Hodges--east end (footbridge, lakebed, scrub)","2025-06-09 08:10",4,33.0559773,-117.082199,TRUE,FALSE,FALSE,"S248644500"
"174","phaino","Phainopepla","Phainopepla nitens","L19555544","Almartin Street Neighborhood","2025-06-09 08:04",1,32.2567875,-110.924359,TRUE,FALSE,TRUE,"S248584142"
"175","phaino","Phainopepla","Phainopepla nitens","L4719141","Barrett-Stoddard Truck Trail (LA Co.)","2025-06-09 08:01",1,34.2232822,-117.6674151,TRUE,FALSE,FALSE,"S248728829"
"176","phaino","Phainopepla","Phainopepla nitens","L39405056","HVSVRA - 102","2025-06-09 08:00",2,34.8057297,-118.9007393,TRUE,FALSE,TRUE,"S248561828"
"177","phaino","Phainopepla","Phainopepla nitens","L2065012","Yard List","2025-06-09 07:58",1,32.2496115,-110.7883483,TRUE,FALSE,TRUE,"S248566211"
"178","phaino","Phainopepla","Phainopepla nitens","L10101779","South Redlands","2025-06-09 07:57",1,34.0461282,-117.1541585,TRUE,FALSE,TRUE,"S248602420"
"179","phaino","Phainopepla","Phainopepla nitens","L42428907","San Diego Zoo Safari Park, San Diego US-CA 33.09639, -116.98047","2025-06-09 07:54",1,33.096392,-116.980471,TRUE,FALSE,TRUE,"S248617301"
"180","phaino","Phainopepla","Phainopepla nitens","L6429438","Mission Trails Regional Park--Lake Murray Blvd. trailhead","2025-06-09 07:40",3,32.8159194,-117.0101291,TRUE,FALSE,FALSE,"S248634776"
"181","phaino","Phainopepla","Phainopepla nitens","L296633","Madera Canyon--Mt. Wrightson Picnic Area & Upper Canyon Trails","2025-06-09 07:34",1,31.7124,-110.8744,TRUE,FALSE,FALSE,"S249018012"
"182","phaino","Phainopepla","Phainopepla nitens","L284577","Hidden Valley Wildlife Area","2025-06-09 07:32",1,33.961964,-117.49741,TRUE,FALSE,FALSE,"S248554114"
"183","phaino","Phainopepla","Phainopepla nitens","L908861","Sacramento River NWR--Capay Unit","2025-06-09 07:31",1,39.7064603,-121.953907,TRUE,FALSE,FALSE,"S248721965"
"184","phaino","Phainopepla","Phainopepla nitens","L765027","Las Cienegas NCA--Empire Gulch","2025-06-09 07:30",13,31.7878465,-110.6365728,TRUE,FALSE,FALSE,"S248688620"
"185","phaino","Phainopepla","Phainopepla nitens","L465135","Starr Ranch","2025-06-09 07:25",2,33.6249383,-117.556833,TRUE,FALSE,FALSE,"S248924255"
"186","phaino","Phainopepla","Phainopepla nitens","L495600","Edwards Field","2025-06-09 07:20",1,36.6084142,-118.0677724,TRUE,FALSE,FALSE,"S248544257"
"187","phaino","Phainopepla","Phainopepla nitens","L768735","Harshaw Creek Road","2025-06-09 07:11",7,31.506978,-110.6798543,TRUE,FALSE,FALSE,"S248644803"
"188","phaino","Phainopepla","Phainopepla nitens","L15465970","St. Cyrils Neighborhood","2025-06-09 06:57",2,32.2453599,-110.8866827,TRUE,FALSE,TRUE,"S248542277"
"189","phaino","Phainopepla","Phainopepla nitens","L29117391","Arizona National Golf Club, Tucson US-AZ","2025-06-09 06:46",2,32.301393,-110.777901,TRUE,FALSE,TRUE,"S248549905"
"190","phaino","Phainopepla","Phainopepla nitens","L47222493","HVSVRA - 103 Plot Center","2025-06-09 06:45",5,34.8079416,-118.8941221,TRUE,FALSE,TRUE,"S248539414"
"191","phaino","Phainopepla","Phainopepla nitens","L36228722","Sabino Canyon","2025-06-09 06:41",1,32.311809,-110.816693,TRUE,FALSE,TRUE,"S248531735"
"192","phaino","Phainopepla","Phainopepla nitens","L211809","Madera Canyon--Proctor Rd.","2025-06-09 06:35",1,31.739938,-110.886147,TRUE,FALSE,FALSE,"S248672643"
"193","phaino","Phainopepla","Phainopepla nitens","L128984","Harshaw Canyon","2025-06-09 06:30",4,31.5051994,-110.7031021,TRUE,FALSE,FALSE,"S248642145"
"194","phaino","Phainopepla","Phainopepla nitens","L4205088","Kayenta","2025-06-09 06:27",1,37.1825612,-113.7071121,TRUE,FALSE,FALSE,"S248544805"
"195","phaino","Phainopepla","Phainopepla nitens","L26899535","PGA West (restricted access)","2025-06-09 06:20",1,33.643476,-116.272733,TRUE,FALSE,TRUE,"S248571549"
"196","phaino","Phainopepla","Phainopepla nitens","L299012","Oracle State Park","2025-06-09 06:13",3,32.6083177,-110.7335132,TRUE,FALSE,FALSE,"S248599107"
"197","phaino","Phainopepla","Phainopepla nitens","L43152730","Encino Resevoir","2025-06-09 06:05",2,34.1399498,-118.5165242,TRUE,FALSE,TRUE,"S248584305"
"198","phaino","Phainopepla","Phainopepla nitens","L6750468","Reach 11--Bullfrog Pond","2025-06-09 06:03",1,33.6551267,-111.9686402,TRUE,FALSE,FALSE,"S248547369"
"199","phaino","Phainopepla","Phainopepla nitens","L480168","Veterans Oasis Park","2025-06-09 06:03",2,33.2347837,-111.7695838,TRUE,FALSE,FALSE,"S248568013"
"200","phaino","Phainopepla","Phainopepla nitens","L8936302","1245 W Calzada Ct","2025-06-09 06:00",1,32.3458072,-110.9932477,TRUE,FALSE,TRUE,"S248588109"
"201","phaino","Phainopepla","Phainopepla nitens","L1981814","my neighborhood","2025-06-09 06:00",1,34.7237269,-112.0106041,TRUE,FALSE,TRUE,"S248533344"
"202","phaino","Phainopepla","Phainopepla nitens","L24317100","Box Canyon--old dam area","2025-06-09 05:35",2,31.798956,-110.777034,TRUE,FALSE,FALSE,"S248523363"
"203","phaino","Phainopepla","Phainopepla nitens","L13918843","A Birding Spot Sedona AZ - private residence","2025-06-09 05:33",1,34.878085,-111.765957,TRUE,FALSE,TRUE,"S248748002"
"204","phaino","Phainopepla","Phainopepla nitens","L800002","Anthem--Southeast Parkside","2025-06-09 05:29",1,33.8466096,-112.1118844,TRUE,FALSE,TRUE,"S248567614"
"205","phaino","Phainopepla","Phainopepla nitens","L7843372","Vekol Valley--South Vekol Well","2025-06-09 05:10",2,32.7379985,-112.2309233,TRUE,FALSE,FALSE,"S248654910"
"206","phaino","Phainopepla","Phainopepla nitens","L387543","Papago Park","2025-06-09 05:01",3,33.4564,-111.95,TRUE,FALSE,FALSE,"S248589074"
"207","phaino","Phainopepla","Phainopepla nitens","L47187215","Sycamore canyon pond and marshes","2025-06-08 19:22",1,32.865055,-117.014051,TRUE,FALSE,TRUE,"S248379399"
"208","phaino","Phainopepla","Phainopepla nitens","L15062564","Fullerton US-CA","2025-06-08 18:20",2,33.892072,-117.911642,TRUE,FALSE,TRUE,"S248373567"
"209","phaino","Phainopepla","Phainopepla nitens","L595298","Lower Arroyo Seco","2025-06-08 17:18",1,34.137561,-118.1677651,TRUE,FALSE,FALSE,"S248374137"
"210","phaino","Phainopepla","Phainopepla nitens","L16651204","Soldier Pass Trailhead","2025-06-08 17:01",1,34.8840806,-111.7837905,TRUE,FALSE,FALSE,"S248349921"
"211","phaino","Phainopepla","Phainopepla nitens","L37964022","sjwa","2025-06-08 17:00",1,33.8711357,-117.0958937,TRUE,FALSE,TRUE,"S248385830"
"212","phaino","Phainopepla","Phainopepla nitens","L47187232","California Botanic Garden, Claremont US-CA 34.11068, -117.71493","2025-06-08 16:58",2,34.110681,-117.714934,TRUE,FALSE,TRUE,"S248379463"
"213","phaino","Phainopepla","Phainopepla nitens","L18976002","Davis Mtns SP--Interpretive Center","2025-06-08 15:51",1,30.5956658,-103.9304521,TRUE,FALSE,FALSE,"S248333620"
"214","phaino","Phainopepla","Phainopepla nitens","L47182933","Fred Canyon Road","2025-06-08 15:21",1,32.77614,-116.442564,TRUE,FALSE,TRUE,"S248359703"
"215","phaino","Phainopepla","Phainopepla nitens","L47183777","Owen Brown Grave Área","2025-06-08 15:04",1,34.216058,-118.161361,TRUE,FALSE,TRUE,"S248363881"
"216","phaino","Phainopepla","Phainopepla nitens","L3555556","Laguna Mtns.--fire info pullout","2025-06-08 14:39",2,32.9189118,-116.4711157,TRUE,FALSE,FALSE,"S248393904"
"217","phaino","Phainopepla","Phainopepla nitens","L587757","Kitchen Creek Rd.--Cibbets Flat Campground area","2025-06-08 14:30",1,32.777213,-116.4476485,TRUE,FALSE,FALSE,"S248359469"
"218","phaino","Phainopepla","Phainopepla nitens","L209809","Joshua Tree NP--Barker Dam area","2025-06-08 14:27",3,34.0309,-116.1463,TRUE,FALSE,FALSE,"S248346658"
"219","phaino","Phainopepla","Phainopepla nitens","L30317736","555 N 1590 W St, St. George US-UT 37.11790, -113.61768","2025-06-08 13:53",NA,37.117901,-113.617681,TRUE,FALSE,TRUE,"S248275384"
"220","phaino","Phainopepla","Phainopepla nitens","L47186992","Cuyamaca Rancho SP - Pine Ridge Trail","2025-06-08 13:18",2,32.905819,-116.590964,TRUE,FALSE,TRUE,"S248378430"
"221","phaino","Phainopepla","Phainopepla nitens","L350295","Shoshone Village","2025-06-08 13:14",1,35.9778673,-116.2714648,TRUE,FALSE,FALSE,"S248347412"
"222","phaino","Phainopepla","Phainopepla nitens","L127945","Bosque del Apache NWR","2025-06-08 12:58",1,33.802,-106.88,TRUE,FALSE,FALSE,"S248319836"
"223","phaino","Phainopepla","Phainopepla nitens","L762169","Himmel Park","2025-06-08 12:53",2,32.2334226,-110.9327316,TRUE,FALSE,FALSE,"S248325629"
"224","phaino","Phainopepla","Phainopepla nitens","L1089043","Cuyamaca Rancho SP--Japacha area","2025-06-08 12:34",1,32.9157941,-116.5695655,TRUE,FALSE,FALSE,"S248266962"
"225","phaino","Phainopepla","Phainopepla nitens","L14125514","Casas Adobes Park","2025-06-08 12:19",1,32.320333,-111.02659,TRUE,FALSE,FALSE,"S248262083"
"226","phaino","Phainopepla","Phainopepla nitens","L1153808","my back yard","2025-06-08 11:52",1,32.9196736,-117.1835876,TRUE,FALSE,TRUE,"S248249707"
"227","phaino","Phainopepla","Phainopepla nitens","L354397","Big Dalton Canyon","2025-06-08 11:52",2,34.1593292,-117.8257411,TRUE,FALSE,FALSE,"S248679443"
"228","phaino","Phainopepla","Phainopepla nitens","L12643317","Calif. Botanic Garden - 34.111x-117.715 - Apr 26, 2016 1:47 PM","2025-06-08 11:47",2,34.111,-117.715,TRUE,FALSE,TRUE,"S248337245"
"229","phaino","Phainopepla","Phainopepla nitens","L47160824","Falls Fire Road, Descanso US-CA 32.90141, -116.58338","2025-06-08 11:27",1,32.901406,-116.58338,TRUE,FALSE,TRUE,"S248262048"
"230","phaino","Phainopepla","Phainopepla nitens","L821520","Cameron Trading Post","2025-06-08 11:17",2,35.8756285,-111.4130402,TRUE,FALSE,FALSE,"S248208250"
"231","phaino","Phainopepla","Phainopepla nitens","L520495","Vandenberg SFB--Triangle Pond","2025-06-08 11:02",NA,34.7845304,-120.5407548,TRUE,FALSE,FALSE,"S248255951"
"232","phaino","Phainopepla","Phainopepla nitens","L10829007","Verde River--Lower TAPCO river access point","2025-06-08 11:00",1,34.7930034,-112.0597214,TRUE,FALSE,FALSE,"S248372642"
"233","phaino","Phainopepla","Phainopepla nitens","L902913","Angeles NF--Islip Saddle","2025-06-08 10:31",1,34.3569707,-117.8511357,TRUE,FALSE,FALSE,"S248397569"
"234","phaino","Phainopepla","Phainopepla nitens","L7073030","Lake Hodges--boat launch (central)","2025-06-08 10:26",1,33.0658921,-117.1084947,TRUE,FALSE,FALSE,"S248329907"
"235","phaino","Phainopepla","Phainopepla nitens","L758704","California Botanic Garden (formerly Rancho Santa Ana BG)","2025-06-08 10:01",3,34.1120533,-117.7152014,TRUE,FALSE,FALSE,"S248261213"
"236","phaino","Phainopepla","Phainopepla nitens","L47150124","3898–4442 S Old Skull Valley Rd, Skull Valley US-AZ 34.48877, -112.68723","2025-06-08 10:00",5,34.488767,-112.687234,TRUE,FALSE,TRUE,"S248220662"
"237","phaino","Phainopepla","Phainopepla nitens","L335262","Leasburg Dam SP","2025-06-08 09:48",2,32.4907235,-106.9201845,TRUE,FALSE,FALSE,"S248191904"
"238","phaino","Phainopepla","Phainopepla nitens","L833270","Summit Ridge Park/Diamond Bar Comm. Center","2025-06-08 09:34",1,33.9973868,-117.798264,TRUE,FALSE,FALSE,"S249065181"
"239","phaino","Phainopepla","Phainopepla nitens","L199300","Ash Canyon Bird Sanctuary (closed Thursday morning)","2025-06-08 09:24",2,31.3904516,-110.2392496,TRUE,FALSE,FALSE,"S248290525"
"240","phaino","Phainopepla","Phainopepla nitens","L39996223","1233 Greenleaf Canyon Rd, Topanga US-CA 34.10793, -118.60650","2025-06-08 09:09",1,34.107932,-118.606497,TRUE,FALSE,TRUE,"S248189398"
"241","phaino","Phainopepla","Phainopepla nitens","L18450030","Holland Saddle","2025-06-08 08:57",1,36.456191,-118.844552,TRUE,FALSE,TRUE,"S248186376"
"242","phaino","Phainopepla","Phainopepla nitens","L3406863","Palo Comado Canyon","2025-06-08 08:45",2,34.175756,-118.743819,TRUE,FALSE,FALSE,"S248237395"
"243","phaino","Phainopepla","Phainopepla nitens","L3244254","Bell Rock Trail","2025-06-08 08:41",1,34.791691,-111.7615235,TRUE,FALSE,FALSE,"S248201030"
"244","phaino","Phainopepla","Phainopepla nitens","L21831943","Power Plant Park","2025-06-08 08:36",4,37.1967618,-113.2807468,TRUE,FALSE,FALSE,"S248163727"
"245","phaino","Phainopepla","Phainopepla nitens","L27449900","Clem","2025-06-08 08:32",3,33.933576,-113.17368,TRUE,FALSE,TRUE,"S248342990"
"246","phaino","Phainopepla","Phainopepla nitens","L9497288","Safari Dr","2025-06-08 08:29",1,35.130066,-114.119841,TRUE,FALSE,TRUE,"S248385635"
"247","phaino","Phainopepla","Phainopepla nitens","L47175535","E Sedona neighborhood, Sedona US-AZ (34.8787,-111.7652)","2025-06-08 08:20",4,34.87865,-111.765191,TRUE,FALSE,TRUE,"S248324011"
"248","phaino","Phainopepla","Phainopepla nitens","L47129760","13010 State Park Road, Las Cruces, New Mexico, US (32.496, -106.922)","2025-06-08 08:07",1,32.4964271,-106.9221034,TRUE,FALSE,TRUE,"S248138314"
"249","phaino","Phainopepla","Phainopepla nitens","L47130589","587–599 US-180, Saint Johns US-AZ 34.49878, -109.36700","2025-06-08 08:03",1,34.498784,-109.367,TRUE,FALSE,TRUE,"S248142046"
"250","phaino","Phainopepla","Phainopepla nitens","L270121","Angeles NF--Buckhorn Campground","2025-06-08 08:03",2,34.3457038,-117.915262,TRUE,FALSE,FALSE,"S248397277"
"251","phaino","Phainopepla","Phainopepla nitens","L152146","Kenneth Hahn SRA","2025-06-08 07:55",1,34.00861,-118.36533,TRUE,FALSE,FALSE,"S248270958"
"252","phaino","Phainopepla","Phainopepla nitens","L47132147","Lake Natoma","2025-06-08 07:54",1,38.642166,-121.215502,TRUE,FALSE,TRUE,"S248256880"
"253","phaino","Phainopepla","Phainopepla nitens","L47136831","369 Sonoita Ave, Patagonia US-AZ 31.54046, -110.75625","2025-06-08 07:51",10,31.540463,-110.756247,TRUE,FALSE,TRUE,"S248168194"
"254","phaino","Phainopepla","Phainopepla nitens","L473056","Radium Springs","2025-06-08 07:47",1,32.50111,-106.9275,TRUE,FALSE,FALSE,"S248193739"
"255","phaino","Phainopepla","Phainopepla nitens","L47135730","Bell Rock Loop Ext, Sedona US-AZ 34.80448, -111.76618","2025-06-08 07:43",5,34.80448,-111.766184,TRUE,FALSE,TRUE,"S248163684"
"256","phaino","Phainopepla","Phainopepla nitens","L47159795","Courthouse Butte Loop","2025-06-08 07:38",6,34.80184,-111.755883,TRUE,FALSE,TRUE,"S248258044"
"257","phaino","Phainopepla","Phainopepla nitens","L300594","Prescott--Granite Dells","2025-06-08 07:31",8,34.6033333,-112.4166667,TRUE,FALSE,FALSE,"S248179162"
"258","phaino","Phainopepla","Phainopepla nitens","L373230","Tucson Mountain Park--David Yetman Trail-Camino de Oeste Trailhead","2025-06-08 07:30",1,32.2263561,-111.062863,TRUE,FALSE,FALSE,"S248270829"
"259","phaino","Phainopepla","Phainopepla nitens","L419422","Wilderness Gardens Preserve","2025-06-08 07:27",12,33.3510689,-117.0351174,TRUE,FALSE,FALSE,"S248255011"
"260","phaino","Phainopepla","Phainopepla nitens","L160294","Clark County Wetlands Park","2025-06-08 07:26",1,36.1006947,-115.022462,TRUE,FALSE,FALSE,"S248224988"
"261","phaino","Phainopepla","Phainopepla nitens","L459816","Santa Fe Dam Rec. Area","2025-06-08 07:25",6,34.1113782,-117.9507637,TRUE,FALSE,FALSE,"S248169110"
"262","phaino","Phainopepla","Phainopepla nitens","L2841155","San Gabriel River Channel--Duarte","2025-06-08 07:17",1,34.1428001,-117.9345095,TRUE,FALSE,FALSE,"S248152052"
"263","phaino","Phainopepla","Phainopepla nitens","L208278","Lytle Ranch Preserve","2025-06-08 07:17",4,37.1434192,-114.0232372,TRUE,FALSE,FALSE,"S248236774"
"264","phaino","Phainopepla","Phainopepla nitens","L2774546","San Dimas Canyon Rd.","2025-06-08 07:10",1,34.1514485,-117.7727509,TRUE,FALSE,FALSE,"S248319798"
"265","phaino","Phainopepla","Phainopepla nitens","L35513933","Placita Cresta Loma- Front","2025-06-08 07:09",1,32.3016224,-110.9837563,TRUE,FALSE,TRUE,"S248116407"
"266","phaino","Phainopepla","Phainopepla nitens","L744220","Farren Road","2025-06-08 07:04",5,34.443548,-119.9237752,TRUE,FALSE,FALSE,"S248231433"
"267","phaino","Phainopepla","Phainopepla nitens","L8615734","96003 Ridgecrest Condominiums","2025-06-08 07:00",2,40.6024143,-122.3753342,TRUE,FALSE,TRUE,"S248381617"
"268","phaino","Phainopepla","Phainopepla nitens","L47153336","The Golf Club at Dove Mountain, Marana US-AZ 32.47031, -111.10464","2025-06-08 06:54",1,32.47031,-111.104644,TRUE,FALSE,TRUE,"S248232977"
"269","phaino","Phainopepla","Phainopepla nitens","L2261952","Sunrise Hwy--mile 14.5 pullout","2025-06-08 06:44",1,32.82236,-116.5048304,TRUE,FALSE,FALSE,"S248273382"
"270","phaino","Phainopepla","Phainopepla nitens","L745580","Bernard Field Station","2025-06-08 06:43",4,34.1099924,-117.712326,TRUE,FALSE,FALSE,"S248208448"
"271","phaino","Phainopepla","Phainopepla nitens","L22742341","Visitor Center Loop, Mission Trails Regional Park","2025-06-08 06:28",1,32.8193421,-117.0575747,TRUE,FALSE,TRUE,"S248126694"
"272","phaino","Phainopepla","Phainopepla nitens","L22117110","Fullerton Panorama Trail","2025-06-08 06:15",1,33.8923639,-117.910458,TRUE,FALSE,TRUE,"S248293819"
"273","phaino","Phainopepla","Phainopepla nitens","L3286634","Morning Star Ranch - Winery Springs Cyn.","2025-06-08 06:13",1,31.5651832,-110.937242,TRUE,FALSE,TRUE,"S248121586"
"274","phaino","Phainopepla","Phainopepla nitens","L166979","Boyce Thompson Arboretum","2025-06-08 06:08",4,33.2795082,-111.158756,TRUE,FALSE,FALSE,"S248130780"
"275","phaino","Phainopepla","Phainopepla nitens","L1353850","Fain Park","2025-06-08 06:03",2,34.5748627,-112.3520867,TRUE,FALSE,FALSE,"S248101338"
"276","phaino","Phainopepla","Phainopepla nitens","L6862418","Primm","2025-06-08 06:00",1,35.6148017,-115.385072,TRUE,FALSE,FALSE,"S248231345"
"277","phaino","Phainopepla","Phainopepla nitens","L17345174","Vistoso Trails Nature Preserve","2025-06-08 05:58",1,32.4544094,-110.9822788,TRUE,FALSE,FALSE,"S248311619"
"278","phaino","Phainopepla","Phainopepla nitens","L3378309","Oak Creek--Chavez Crossing","2025-06-08 05:45",1,34.84399,-111.77706,TRUE,FALSE,FALSE,"S248098028"
"279","phaino","Phainopepla","Phainopepla nitens","L109407","Limestone Canyon and Whiting Ranch Wilderness Park","2025-06-08 05:39",10,33.7214841,-117.6642609,TRUE,FALSE,FALSE,"S249066902"
"280","phaino","Phainopepla","Phainopepla nitens","L1873547","Camp Creek","2025-06-08 05:29",5,33.9100521,-111.8163773,TRUE,FALSE,FALSE,"S248234323"
"281","phaino","Phainopepla","Phainopepla nitens","L2202422","Sloane Canyon","2025-06-08 05:14",14,32.766037,-116.8318051,TRUE,FALSE,FALSE,"S248203253"
"282","phaino","Phainopepla","Phainopepla nitens","L39282960","Bent NM","2025-06-08 01:23",1,33.1442538,-105.8521275,TRUE,FALSE,TRUE,"S247970568"
"283","phaino","Phainopepla","Phainopepla nitens","L31062812","my yard","2025-06-07 20:10",1,35.0825081,-110.6888123,TRUE,FALSE,TRUE,"S247936863"
"284","phaino","Phainopepla","Phainopepla nitens","L47086591","334 Riverside Road, Socorro, New Mexico, US (34.06, -106.877)","2025-06-07 20:09",2,34.0600173,-106.8766113,TRUE,FALSE,TRUE,"S247937356"
"285","phaino","Phainopepla","Phainopepla nitens","L20223024","1402 North Kentucky Street, Silver City, New Mexico, US (32.78, -108.285)","2025-06-07 19:45",1,32.7801512,-108.2852473,TRUE,FALSE,TRUE,"S247929343"
"286","phaino","Phainopepla","Phainopepla nitens","L6367501","Pinal Mountains - Six Shooter Canyon","2025-06-07 19:26",3,33.3667357,-110.7653081,TRUE,FALSE,TRUE,"S247936783"
"287","phaino","Phainopepla","Phainopepla nitens","L47084964","11801–12003 Copper Basin Rd, Skull Valley US-AZ 34.50310, -112.67453","2025-06-07 19:08",5,34.503104,-112.674529,TRUE,FALSE,TRUE,"S247930514"
"288","phaino","Phainopepla","Phainopepla nitens","L358408","Arroyo Verde Park","2025-06-07 18:48",2,34.2905165,-119.2259502,TRUE,FALSE,FALSE,"S247941706"
"289","phaino","Phainopepla","Phainopepla nitens","L47114222","12365 Copper Basin Rd, Skull Valley US-AZ (34.5038,-112.6831)","2025-06-07 18:41",3,34.503821,-112.683096,TRUE,FALSE,TRUE,"S248062888"
"290","phaino","Phainopepla","Phainopepla nitens","L1362112","Brooks Nature Park","2025-06-07 18:39",2,37.1160989,-113.5826932,TRUE,FALSE,FALSE,"S247913932"
"291","phaino","Phainopepla","Phainopepla nitens","L46984590","Willow Lake","2025-06-07 17:51",3,34.612504,-112.437402,TRUE,FALSE,TRUE,"S247919808"
"292","phaino","Phainopepla","Phainopepla nitens","L1095160","Bolado County Park","2025-06-07 17:51",1,36.7665296,-121.3021088,TRUE,FALSE,FALSE,"S248141730"
"293","phaino","Phainopepla","Phainopepla nitens","L11425544","H","2025-06-07 17:40",1,34.7956656,-111.7227124,TRUE,FALSE,TRUE,"S247909348"
"294","phaino","Phainopepla","Phainopepla nitens","L163561","San Jacinto Wildlife Area","2025-06-07 17:18",2,33.8854488,-117.104104,TRUE,FALSE,FALSE,"S248910484"
"295","phaino","Phainopepla","Phainopepla nitens","L47079350","12370 Copper Basin Rd, Skull Valley US-AZ 34.50442, -112.68276","2025-06-07 17:08",3,34.50442,-112.682757,TRUE,FALSE,TRUE,"S247904557"
"296","phaino","Phainopepla","Phainopepla nitens","L7420665","Page Springs--South Wildlife Viewing Area","2025-06-07 16:21",2,34.7595237,-111.8898694,TRUE,FALSE,FALSE,"S247941434"
"297","phaino","Phainopepla","Phainopepla nitens","L9523688","Mission Trails Regional Park--Father Junipero Serra Road","2025-06-07 16:00",1,32.8314749,-117.0506461,TRUE,FALSE,FALSE,"S247927357"
"298","phaino","Phainopepla","Phainopepla nitens","L47191895","32300–32330 San Francisquito Canyon Rd, Santa Clarita US-CA 34.53300, -118.52861","2025-06-07 15:55",1,34.532995,-118.528608,TRUE,FALSE,TRUE,"S248401201"
"299","phaino","Phainopepla","Phainopepla nitens","L47072263","3899–4321 S Old Skull Valley Rd, Skull Valley US-AZ 34.48551, -112.68739","2025-06-07 15:36",4,34.485512,-112.687395,TRUE,FALSE,TRUE,"S247868338"
"300","phaino","Phainopepla","Phainopepla nitens","L47072183","3899–4321 S Old Skull Valley Rd, Skull Valley US-AZ 34.48494, -112.68743","2025-06-07 15:36",4,34.484939,-112.687433,TRUE,FALSE,TRUE,"S247868002"
"301","phaino","Phainopepla","Phainopepla nitens","L275689","Patagonia Town Park","2025-06-07 14:25",8,31.5400292,-110.7542655,TRUE,FALSE,FALSE,"S247846431"
"302","phaino","Phainopepla","Phainopepla nitens","L5978971","Little Horse Trailhead","2025-06-07 14:13",1,34.8242716,-111.7758854,TRUE,FALSE,FALSE,"S247899807"
"303","phaino","Phainopepla","Phainopepla nitens","L191064","Tucker Wildlife Sanctuary","2025-06-07 13:30",1,33.7095788,-117.6190619,TRUE,FALSE,FALSE,"S247865195"
"304","phaino","Phainopepla","Phainopepla nitens","L47329172","1461 Heritage Park Road, Prescott, Arizona, US (34.613, -112.441)","2025-06-07 13:02",1,34.6125038,-112.4412892,TRUE,FALSE,TRUE,"S249034385"
"305","phaino","Phainopepla","Phainopepla nitens","L10890355","Red Rock Canyon NCA--Sandstone Quarry Area","2025-06-07 13:01",7,36.1646003,-115.4449105,TRUE,FALSE,FALSE,"S247906047"
"306","phaino","Phainopepla","Phainopepla nitens","L548821","Placerita Canyon SP","2025-06-07 12:36",3,34.3765248,-118.4534311,TRUE,FALSE,FALSE,"S247865501"
"307","phaino","Phainopepla","Phainopepla nitens","L47055044","Rancho Lompoc Farm Road, Lompoc, California, US (34.681, -120.538)","2025-06-07 12:03",NA,34.6808516,-120.5381275,TRUE,FALSE,TRUE,"S247800303"
"308","phaino","Phainopepla","Phainopepla nitens","L24542421","Griffith Park--Loop Trail","2025-06-07 12:00",NA,34.118496,-118.3045353,TRUE,FALSE,FALSE,"S247947241"
"309","phaino","Phainopepla","Phainopepla nitens","L17920366","The Paton Center for Hummingbirds, Patagonia US-AZ 31.53931, -110.76063","2025-06-07 11:56",2,31.539314,-110.760629,TRUE,FALSE,TRUE,"S247870995"
"310","phaino","Phainopepla","Phainopepla nitens","L47168397","900–998 Historic Route 80, Bisbee US-AZ 31.45029, -109.93302","2025-06-07 11:23",1,31.450293,-109.933021,TRUE,FALSE,TRUE,"S248292960"
"311","phaino","Phainopepla","Phainopepla nitens","L1316859","Pinnacles NP--Juniper Canyon Trail","2025-06-07 10:50",1,36.487311,-121.2047982,TRUE,FALSE,FALSE,"S247835751"
"312","phaino","Phainopepla","Phainopepla nitens","L1841236","El Paso Museum of Archaeology Nature Trails","2025-06-07 10:40",1,31.9034838,-106.4480838,TRUE,FALSE,FALSE,"S247746261"
"313","phaino","Phainopepla","Phainopepla nitens","L24058388","Harmon - upper canyons only (past mile marker 1.5)","2025-06-07 10:00",1,34.3159221,-119.1984106,TRUE,FALSE,TRUE,"S247808064"
"314","phaino","Phainopepla","Phainopepla nitens","L504405","King Gillette Ranch","2025-06-07 09:50",3,34.1032766,-118.706975,TRUE,FALSE,FALSE,"S247789581"
"315","phaino","Phainopepla","Phainopepla nitens","L39407676","Tanque Verde Ranch (please check in @ reception office)","2025-06-07 09:46",1,32.2420804,-110.6842503,TRUE,FALSE,FALSE,"S247771300"
"316","phaino","Phainopepla","Phainopepla nitens","L456496","Pahranagat NWR--Upper Lake","2025-06-07 09:36",1,37.2945399,-115.1236725,TRUE,FALSE,FALSE,"S247774458"
"317","phaino","Phainopepla","Phainopepla nitens","L446946","Mile Square Regional Park, Fountain Valley","2025-06-07 09:25",1,33.7246609,-117.9395199,TRUE,FALSE,FALSE,"S247907954"
"318","phaino","Phainopepla","Phainopepla nitens","L47081931","3550 Williams Terr, Encinitas US-CA 33.07375, -117.20033","2025-06-07 09:24",1,33.073745,-117.200325,TRUE,FALSE,TRUE,"S247917071"
"319","phaino","Phainopepla","Phainopepla nitens","L2064166","Patagonia Lake SP--Birding Trail","2025-06-07 09:24",9,31.496718,-110.848945,TRUE,FALSE,FALSE,"S247839924"
"320","phaino","Phainopepla","Phainopepla nitens","L152136","Peck Rd. Water Conservation Park","2025-06-07 09:20",4,34.10053,-118.01333,TRUE,FALSE,FALSE,"S247759602"
"321","phaino","Phainopepla","Phainopepla nitens","L865856","Villa Serena Park","2025-06-07 09:01",1,32.2450292,-110.8647108,TRUE,FALSE,FALSE,"S247730198"
"322","phaino","Phainopepla","Phainopepla nitens","L3231788","Sevilleta NWR--Unit B","2025-06-07 09:00",3,34.2769002,-106.8569756,TRUE,FALSE,FALSE,"S247810265"
"323","phaino","Phainopepla","Phainopepla nitens","L1230549","Beeline Highway--Bushnell Tanks Trailhead","2025-06-07 08:55",10,33.8691035,-111.4651258,TRUE,FALSE,FALSE,"S247945494"
"324","phaino","Phainopepla","Phainopepla nitens","L2455878","Whittier Narrows--mitigation lakes","2025-06-07 08:45",9,34.027624,-118.0591035,TRUE,FALSE,FALSE,"S247930696"
"325","phaino","Phainopepla","Phainopepla nitens","L25220741","Las Cienegas NCA--Levee and Cienega","2025-06-07 08:45",8,31.8245674,-110.585358,TRUE,FALSE,FALSE,"S247857027"
"326","phaino","Phainopepla","Phainopepla nitens","L129031","Miller Canyon Trail","2025-06-07 08:35",1,31.40806,-110.28619,TRUE,FALSE,FALSE,"S247801567"
"327","phaino","Phainopepla","Phainopepla nitens","L14319507","1020 W Webb Dr, San Manuel US-AZ 32.59779, -110.64156","2025-06-07 08:34",1,32.597787,-110.64156,TRUE,FALSE,TRUE,"S248587672"
"328","phaino","Phainopepla","Phainopepla nitens","L46945150","South Sedona","2025-06-07 08:31",4,34.8723068,-111.8041611,TRUE,FALSE,TRUE,"S247713251"
"329","phaino","Phainopepla","Phainopepla nitens","L281121","Red Rock WMA","2025-06-07 08:30",2,32.6906271,-108.73745,TRUE,FALSE,FALSE,"S247858894"
"330","phaino","Phainopepla","Phainopepla nitens","L201225","Prescott--Willow Lake","2025-06-07 08:28",1,34.605,-112.438,TRUE,FALSE,FALSE,"S247758295"
"331","phaino","Phainopepla","Phainopepla nitens","L281844","Montosa Canyon--km 1 (culvert area)","2025-06-07 08:27",1,31.6714585,-110.941082,TRUE,FALSE,FALSE,"S247801075"
"332","phaino","Phainopepla","Phainopepla nitens","L382781","Legg Lake","2025-06-07 08:24",1,34.031892,-118.060112,TRUE,FALSE,FALSE,"S247896779"
"333","phaino","Phainopepla","Phainopepla nitens","L284334","Estrella Mountain Regional Park","2025-06-07 08:22",1,33.3844217,-112.3823583,TRUE,FALSE,FALSE,"S247781175"
"334","phaino","Phainopepla","Phainopepla nitens","L860522","Organ Mountains-Desert Peaks NM--Soledad Canyon Day Use Area","2025-06-07 08:10",1,32.305044,-106.5930891,TRUE,FALSE,FALSE,"S247832350"
"335","phaino","Phainopepla","Phainopepla nitens","L2140411","Placerita Canyon Nature Center","2025-06-07 08:10",2,34.3770694,-118.4681726,TRUE,FALSE,FALSE,"S247752391"
"336","phaino","Phainopepla","Phainopepla nitens","L47058611","Kaywood Dr, Escondido","2025-06-07 08:10",6,33.185591,-117.083719,TRUE,FALSE,TRUE,"S247813887"
"337","phaino","Phainopepla","Phainopepla nitens","L305422","Malibu Creek SP","2025-06-07 08:05",1,34.0991117,-118.7157119,TRUE,FALSE,FALSE,"S247756781"
"338","phaino","Phainopepla","Phainopepla nitens","L1448431","Lawrence Moore Park","2025-06-07 08:00",3,35.6103572,-120.6878705,TRUE,FALSE,FALSE,"S248734177"
"339","phaino","Phainopepla","Phainopepla nitens","L1035985","Mission Garden","2025-06-07 08:00",5,32.2134183,-110.9871268,TRUE,FALSE,FALSE,"S247858539"
"340","phaino","Phainopepla","Phainopepla nitens","L1735043","Saguaro NP--East--Cactus Forest Dr Loop","2025-06-07 07:58",1,32.191219,-110.7076505,TRUE,FALSE,FALSE,"S247774720"
"341","phaino","Phainopepla","Phainopepla nitens","L37993146","Audubon Starr Ranch Sanctuary, Trabuco Canyon US-CA 33.62918, -117.55479","2025-06-07 07:51",3,33.629177,-117.554795,TRUE,FALSE,TRUE,"S247855366"
"342","phaino","Phainopepla","Phainopepla nitens","L22074763","Whipple Picnic Area","2025-06-07 07:44",2,31.6742032,-110.9496751,TRUE,FALSE,FALSE,"S247800083"
"343","phaino","Phainopepla","Phainopepla nitens","L2354167","John Muir Trail--Trailhead to Little Yosemite Valley","2025-06-07 07:39",1,37.7249277,-119.545009,TRUE,FALSE,FALSE,"S247857436"
"344","phaino","Phainopepla","Phainopepla nitens","L16608766","HB³ Casa (private)","2025-06-07 07:38",2,31.3957735,-110.2419635,TRUE,FALSE,TRUE,"S247726847"
"345","phaino","Phainopepla","Phainopepla nitens","L2580946","Wildwood Canyon State Park","2025-06-07 07:32",10,34.017172,-117.001815,TRUE,FALSE,FALSE,"S247751609"
"346","phaino","Phainopepla","Phainopepla nitens","L1981892","Riverfront Park along Verde River","2025-06-07 07:30",5,34.751204,-112.0004654,TRUE,FALSE,TRUE,"S247734618"
"347","phaino","Phainopepla","Phainopepla nitens","L47026070","S Madera Canyon Rd, Green Valley US-AZ 31.75363, -110.88779","2025-06-07 07:29",1,31.753629,-110.887795,TRUE,FALSE,TRUE,"S247686798"
"348","phaino","Phainopepla","Phainopepla nitens","L47153771","Arizona National Golf Club, Tucson US-AZ 32.30163, -110.78447","2025-06-07 07:20",2,32.301629,-110.784471,TRUE,FALSE,TRUE,"S248234575"
"349","phaino","Phainopepla","Phainopepla nitens","L36672920","Chapel trail","2025-06-07 07:16",2,34.830828,-111.762242,TRUE,FALSE,TRUE,"S247685197"
"350","phaino","Phainopepla","Phainopepla nitens","L30700429","La Posada Campus (Private Access)","2025-06-07 07:14",2,31.859562,-110.973835,TRUE,FALSE,TRUE,"S247703810"
"351","phaino","Phainopepla","Phainopepla nitens","L3824246","Cochise College (Sierra Vista Campus)","2025-06-07 07:13",5,31.5640289,-110.2463329,TRUE,FALSE,FALSE,"S247831033"
"352","phaino","Phainopepla","Phainopepla nitens","L34784398","Lower SAR","2025-06-07 07:09",1,33.898979,-117.615164,TRUE,FALSE,TRUE,"S247714212"
"353","phaino","Phainopepla","Phainopepla nitens","L505262","Anza Trail--Carmen (Clark Crossing Rd)","2025-06-07 07:09",3,31.5949816,-111.0494041,TRUE,FALSE,FALSE,"S247829225"
"354","phaino","Phainopepla","Phainopepla nitens","L47063539","Coronado National Forest, Hereford US-AZ 31.46509, -110.29187","2025-06-07 07:04",1,31.465088,-110.291872,TRUE,FALSE,TRUE,"S247832511"
"355","phaino","Phainopepla","Phainopepla nitens","L47081140","Boynton Canyon Trail, Sedona US-AZ 34.90750, -111.84832","2025-06-07 07:00",1,34.907503,-111.848324,TRUE,FALSE,TRUE,"S247913511"
"356","phaino","Phainopepla","Phainopepla nitens","L622087","McCormick Park","2025-06-07 07:00",1,32.2612251,-110.8999872,TRUE,FALSE,FALSE,"S247687543"
"357","phaino","Phainopepla","Phainopepla nitens","L2083782","Ross Lake","2025-06-07 06:50",11,33.4402424,-117.285372,TRUE,FALSE,FALSE,"S247804098"
"358","phaino","Phainopepla","Phainopepla nitens","L44833671","Bosque Creek Preserve","2025-06-07 06:45",1,32.2665019,-110.8802003,TRUE,FALSE,TRUE,"S247700316"
"359","phaino","Phainopepla","Phainopepla nitens","L47024091","2345 Country View Glen, Escondido, California, US (33.165, -117.135)","2025-06-07 06:40",1,33.1652677,-117.1349927,TRUE,FALSE,TRUE,"S247678363"
"360","phaino","Phainopepla","Phainopepla nitens","L380940","Hollywood Reservoir","2025-06-07 06:30",3,34.1206159,-118.3323669,TRUE,FALSE,FALSE,"S248098187"
"361","phaino","Phainopepla","Phainopepla nitens","L2776216","Sedgwick Reserve (restricted access)","2025-06-07 06:15",1,34.692571,-120.0405478,TRUE,FALSE,FALSE,"S247707373"
"362","phaino","Phainopepla","Phainopepla nitens","L300609","Salt River--Granite Reef Recreation Area","2025-06-07 06:02",2,33.5145045,-111.6815139,TRUE,FALSE,FALSE,"S247726043"
"363","phaino","Phainopepla","Phainopepla nitens","L5959224","Belmont Park Rd - Spur riparian bridle path","2025-06-07 05:57",1,33.2446933,-117.2496167,TRUE,FALSE,TRUE,"S247780209"
"364","phaino","Phainopepla","Phainopepla nitens","L2225532","RB backyard","2025-06-07 05:52",1,40.1676783,-122.2438404,TRUE,FALSE,TRUE,"S247847908"
"365","phaino","Phainopepla","Phainopepla nitens","L774996","Rillito River Park--Columbus Weed Patch","2025-06-07 05:46",2,32.2732364,-110.9032059,TRUE,FALSE,FALSE,"S247645461"
"366","phaino","Phainopepla","Phainopepla nitens","L474328","Marshall Creek","2025-06-07 05:45",6,34.1341332,-117.7669573,TRUE,FALSE,FALSE,"S247898701"
"367","phaino","Phainopepla","Phainopepla nitens","L267156","Christopher Columbus Park (soon to be Danny Lopez Park)","2025-06-07 05:40",2,32.2856814,-111.0346556,TRUE,FALSE,FALSE,"S247727673"
"368","phaino","Phainopepla","Phainopepla nitens","L47054340","BBS 8","2025-06-07 05:31",1,37.568558,-114.550138,TRUE,FALSE,TRUE,"S247797739"
"369","phaino","Phainopepla","Phainopepla nitens","L350281","El Rio Open Space Preserve","2025-06-07 05:25",2,32.392141,-111.1384898,TRUE,FALSE,FALSE,"S247790714"
"370","phaino","Phainopepla","Phainopepla nitens","L46991342","Nightjar Survey, Night Two","2025-06-06 19:35",3,34.856834,-111.914336,TRUE,FALSE,TRUE,"S247525766"
"371","phaino","Phainopepla","Phainopepla nitens","L14595751","Circle K Park","2025-06-06 19:26",1,33.3711978,-112.0552039,TRUE,FALSE,FALSE,"S247511299"
"372","phaino","Phainopepla","Phainopepla nitens","L16320572","Griffith Park--Mineral Wells Picnic Area","2025-06-06 19:00",1,34.146096,-118.2952774,TRUE,FALSE,FALSE,"S247521033"
"373","phaino","Phainopepla","Phainopepla nitens","L39885821","Sandstone Cottages","2025-06-06 18:55",1,37.1859919,-113.002631,TRUE,FALSE,TRUE,"S248396155"
"374","phaino","Phainopepla","Phainopepla nitens","L46986059","Escondida Bridge","2025-06-06 18:33",1,34.1206616,-106.8873467,TRUE,FALSE,TRUE,"S247503261"
"375","phaino","Phainopepla","Phainopepla nitens","L2701408","CSU San Bernardino","2025-06-06 18:15",1,34.1815597,-117.324543,TRUE,FALSE,FALSE,"S247521921"
"376","phaino","Phainopepla","Phainopepla nitens","L965345","Mountain Meadows Golf Course","2025-06-06 17:04",1,34.0836944,-117.7776432,TRUE,FALSE,FALSE,"S247505353"
"377","phaino","Phainopepla","Phainopepla nitens","L31370681","14210 N Bowman Rd, Tucson US-AZ 32.46359, -110.90925","2025-06-06 16:57",1,32.463592,-110.90925,TRUE,FALSE,TRUE,"S247475539"
"378","phaino","Phainopepla","Phainopepla nitens","L47215442","1187 W Portal Rd, San Simon US-AZ 31.91343, -109.13915","2025-06-06 16:07",1,31.913432,-109.13915,TRUE,FALSE,TRUE,"S248507805"
"379","phaino","Phainopepla","Phainopepla nitens","L5864785","Honanki Heritage Site","2025-06-06 14:41",1,34.936861,-111.934306,TRUE,FALSE,FALSE,"S247461304"
"380","phaino","Phainopepla","Phainopepla nitens","L46980886","4421 California 299, Redding, California, US (40.584, -122.441)","2025-06-06 14:31",1,40.5837476,-122.4409649,TRUE,FALSE,TRUE,"S247480148"
"381","phaino","Phainopepla","Phainopepla nitens","L211850","Red Rock Canyon NCA","2025-06-06 13:33",1,36.1353489,-115.4273763,TRUE,FALSE,FALSE,"S247436052"
"382","phaino","Phainopepla","Phainopepla nitens","L46972132","Scenic Loop Dr, Las Vegas US-NV 36.13818, -115.42631","2025-06-06 13:19",2,36.138183,-115.426315,TRUE,FALSE,TRUE,"S247438422"
"383","phaino","Phainopepla","Phainopepla nitens","L2954201","Las Cienegas NCA--Cottonwood Tanks","2025-06-06 12:34",2,31.761537,-110.6195044,TRUE,FALSE,FALSE,"S247521553"
"384","phaino","Phainopepla","Phainopepla nitens","L25499079","Smith's and Demartino's","2025-06-06 12:00",4,32.7467854,-116.7990446,TRUE,FALSE,TRUE,"S247717797"
"385","phaino","Phainopepla","Phainopepla nitens","L432951","Death Valley NP--Panamint Springs Resort","2025-06-06 11:41",1,36.3395694,-117.4684381,TRUE,FALSE,FALSE,"S247411690"
"386","phaino","Phainopepla","Phainopepla nitens","L469337","Santiago Oaks Regional Park","2025-06-06 11:30",3,33.8223693,-117.7705407,TRUE,FALSE,FALSE,"S247903874"
"387","phaino","Phainopepla","Phainopepla nitens","L46960573","Sonoita Ave, Patagonia","2025-06-06 11:30",4,31.5402861,-110.7565945,TRUE,FALSE,TRUE,"S247385342"
"388","phaino","Phainopepla","Phainopepla nitens","L20361958","Box Canyon Rd, OHV to old dam (31.8, -110.768)","2025-06-06 10:55",3,31.7997455,-110.7683016,TRUE,FALSE,TRUE,"S247519436"
"389","phaino","Phainopepla","Phainopepla nitens","L2123262","Griffith Park--Fern Dell","2025-06-06 10:30",1,34.1092462,-118.3076477,TRUE,FALSE,FALSE,"S247520802"
"390","phaino","Phainopepla","Phainopepla nitens","L2499549","Montezuma Well Picnic Area","2025-06-06 10:26",1,34.6483682,-111.7621404,TRUE,FALSE,FALSE,"S248560134"
"391","phaino","Phainopepla","Phainopepla nitens","L7067045","Barnett Ranch Preserve","2025-06-06 10:13",2,32.9982035,-116.8707991,TRUE,FALSE,FALSE,"S247358825"
"392","phaino","Phainopepla","Phainopepla nitens","L1040130","West Box Canyon Rd--desert scrub/mesquite grasslands","2025-06-06 10:07",3,31.7916584,-110.8193064,TRUE,FALSE,FALSE,"S247516630"
"393","phaino","Phainopepla","Phainopepla nitens","L340405","Box Canyon","2025-06-06 10:05",1,31.7974086,-110.7868486,TRUE,FALSE,FALSE,"S247359527"
"394","phaino","Phainopepla","Phainopepla nitens","L31519415","Baker Lake Rd, Washington US-UT 37.37681, -113.64166","2025-06-06 10:04",1,37.376812,-113.641655,TRUE,FALSE,TRUE,"S247352308"
"395","phaino","Phainopepla","Phainopepla nitens","L859415","Needle Rock Recreation Area","2025-06-06 09:25",2,33.7585986,-111.6755104,TRUE,FALSE,FALSE,"S247522054"
"396","phaino","Phainopepla","Phainopepla nitens","L296632","Madera Canyon--Madera Kubo B&B","2025-06-06 09:08",1,31.7200828,-110.8787354,TRUE,FALSE,FALSE,"S247346359"
"397","phaino","Phainopepla","Phainopepla nitens","L26661294","Amado Montosa Rd, Amado, AZ (31.708, -111.058)","2025-06-06 09:08",6,31.7078354,-111.0578446,TRUE,FALSE,TRUE,"S247516160"
"398","phaino","Phainopepla","Phainopepla nitens","L23574038","Daley Ranch -- oak woodland on Cougar Trail","2025-06-06 09:02",3,33.2064133,-117.0803845,TRUE,FALSE,TRUE,"S247461967"
"399","phaino","Phainopepla","Phainopepla nitens","L899956","San Timoteo Creek (SBE Co.)","2025-06-06 09:00",3,34.0239962,-117.1946812,TRUE,FALSE,FALSE,"S247378787"
"400","phaino","Phainopepla","Phainopepla nitens","L30769550","Riverfront Park, Cottonwood US-AZ 34.74964, -112.02164","2025-06-06 08:45",8,34.749641,-112.021642,TRUE,FALSE,TRUE,"S247340237"
"401","phaino","Phainopepla","Phainopepla nitens","L47062547","Aliso Canyon west of the sream","2025-06-06 08:45",1,34.2797777,-118.5279016,TRUE,FALSE,TRUE,"S247831351"
"402","phaino","Phainopepla","Phainopepla nitens","L233071","Amado WTP","2025-06-06 08:40",1,31.7306042,-111.0544619,TRUE,FALSE,FALSE,"S247514422"
"403","phaino","Phainopepla","Phainopepla nitens","L45202174","Lola off of West Basin","2025-06-06 08:35",1,36.2188198,-116.0232999,TRUE,FALSE,TRUE,"S247402650"
"404","phaino","Phainopepla","Phainopepla nitens","L2172197","Peppersauce Canyon--upstream from the CG","2025-06-06 08:35",9,32.53856,-110.72488,TRUE,FALSE,TRUE,"S247405304"
"405","phaino","Phainopepla","Phainopepla nitens","L503349","Tilden Nature Area--Jewel Lake","2025-06-06 08:23",1,37.9124709,-122.2690237,TRUE,FALSE,FALSE,"S247495968"
"406","phaino","Phainopepla","Phainopepla nitens","L1532987","La Estancia, El Paso","2025-06-06 08:20",1,31.8563859,-106.5924537,TRUE,FALSE,FALSE,"S247319981"
"407","phaino","Phainopepla","Phainopepla nitens","L24021585","SC5 to Bowl 33.75191, -117.55512","2025-06-06 08:17",1,33.751908,-117.555124,TRUE,FALSE,TRUE,"S247500555"
"408","phaino","Phainopepla","Phainopepla nitens","L21304622","Raul M Grijalva Canoa Ranch Conservation Park, Green Valley US-AZ 31.79566, -111.01583","2025-06-06 07:52",1,31.795656,-111.015834,TRUE,FALSE,TRUE,"S247326633"
"409","phaino","Phainopepla","Phainopepla nitens","L587779","Whiting Ranch Wilderness Park","2025-06-06 07:40",1,33.6920667,-117.6481247,TRUE,FALSE,FALSE,"S247337346"
"410","phaino","Phainopepla","Phainopepla nitens","L2237766","Stanford Inn","2025-06-06 07:28",1,39.2996848,-123.7918961,TRUE,TRUE,FALSE,"S247531160"
"411","phaino","Phainopepla","Phainopepla nitens","L279921","Peppersauce Canyon","2025-06-06 07:20",16,32.5379839,-110.716606,TRUE,FALSE,FALSE,"S247415858"
"412","phaino","Phainopepla","Phainopepla nitens","L890931","American Flag Spring","2025-06-06 06:50",1,32.54868,-110.70815,TRUE,FALSE,FALSE,"S247290695"
"413","phaino","Phainopepla","Phainopepla nitens","L762293","Lake Isabella--Tillie Creek Campground","2025-06-06 06:41",2,35.7015,-118.4594722,TRUE,FALSE,FALSE,"S247409766"
"414","phaino","Phainopepla","Phainopepla nitens","L468267","Irvine Lake","2025-06-06 06:38",2,33.7737252,-117.7176476,TRUE,FALSE,FALSE,"S247409819"
"415","phaino","Phainopepla","Phainopepla nitens","L14663392","1205 E Camino Diestro, Oro Valley US-AZ 32.39069, -110.95377","2025-06-06 06:32",3,32.39069,-110.953773,TRUE,FALSE,TRUE,"S247316721"
"416","phaino","Phainopepla","Phainopepla nitens","L375967","Madera Canyon--Pima Co.","2025-06-06 06:30",1,31.7310142,-110.881319,TRUE,FALSE,FALSE,"S247434010"
"417","phaino","Phainopepla","Phainopepla nitens","L1400591","Rio Vista Natural Resource Park","2025-06-06 06:25",1,32.2800719,-110.9326502,TRUE,FALSE,FALSE,"S247331517"
"418","phaino","Phainopepla","Phainopepla nitens","L144858","Riparian Preserve at Gilbert Water Ranch","2025-06-06 06:22",2,33.3614502,-111.7339478,TRUE,FALSE,FALSE,"S247413246"
"419","phaino","Phainopepla","Phainopepla nitens","L11839730","Otay River Valley--east of 125","2025-06-06 06:03",3,32.6000924,-116.9459411,TRUE,FALSE,FALSE,"S247425836"
"420","phaino","Phainopepla","Phainopepla nitens","L47254215","Camp Pendleton - Training area Mike","2025-06-06 06:01",1,33.303504,-117.326162,TRUE,FALSE,TRUE,"S248682462"
"421","phaino","Phainopepla","Phainopepla nitens","L684335","Organ Pipe Cactus NM--Alamo Canyon","2025-06-06 06:00",1,32.0664673,-112.7164087,TRUE,FALSE,FALSE,"S247496383"
"422","phaino","Phainopepla","Phainopepla nitens","L8107559","Zuma Canyon","2025-06-06 05:45",NA,34.0317358,-118.8122084,TRUE,FALSE,TRUE,"S247891597"
"423","phaino","Phainopepla","Phainopepla nitens","L275227","Piute Ponds (permit required)","2025-06-06 05:25",1,34.7901193,-118.1181776,TRUE,FALSE,FALSE,"S247399100"
"424","phaino","Phainopepla","Phainopepla nitens","L21899784","Tanque Verde Ranch","2025-06-06 05:15",3,32.242287,-110.685274,TRUE,FALSE,TRUE,"S247298535"
"425","phaino","Phainopepla","Phainopepla nitens","L357591","Saguaro Lake--Butcher Jones Beach","2025-06-06 05:10",4,33.5758784,-111.5154147,TRUE,FALSE,FALSE,"S247339093"
"426","phaino","Phainopepla","Phainopepla nitens","L15583914","Private land","2025-06-05 18:55",1,34.693826,-112.02569,TRUE,FALSE,TRUE,"S247157860"
"427","phaino","Phainopepla","Phainopepla nitens","L18630643","9206–9248 Six Bit Ranch Rd, Jamestown US-CA (37.8523,-120.4524)","2025-06-05 18:21",2,37.852334,-120.452369,TRUE,FALSE,TRUE,"S248341752"
"428","phaino","Phainopepla","Phainopepla nitens","L46908185","5878 W Whitlock Rd, Mariposa US-CA 37.55632, -120.02014","2025-06-05 17:57",2,37.556316,-120.020143,TRUE,FALSE,TRUE,"S247141397"
"429","phaino","Phainopepla","Phainopepla nitens","L3633807","1 - Our Yard in Pima","2025-06-05 17:15",1,32.8941555,-109.8318538,TRUE,FALSE,TRUE,"S247360933"
"430","phaino","Phainopepla","Phainopepla nitens","L46906486","3290 North State Route 89A, Sedona, Arizona, US (34.901, -111.73)","2025-06-05 17:03",1,34.900861,-111.7303278,TRUE,FALSE,TRUE,"S247132424"
"431","phaino","Phainopepla","Phainopepla nitens","L29974791","Caroline Park","2025-06-05 16:47",1,34.023631,-117.160048,TRUE,FALSE,TRUE,"S247130723"
"432","phaino","Phainopepla","Phainopepla nitens","L2572413","Horsethief Canyon Park","2025-06-05 16:05",2,34.1264778,-117.8006244,TRUE,FALSE,FALSE,"S247146478"
"433","phaino","Phainopepla","Phainopepla nitens","L878533","Brand Park--Glendale (LA Co.)","2025-06-05 16:00",2,34.1814709,-118.2774568,TRUE,FALSE,FALSE,"S247202005"
"434","phaino","Phainopepla","Phainopepla nitens","L26697436","Green Valley--Yard","2025-06-05 15:58",1,31.8111253,-111.004142,TRUE,FALSE,TRUE,"S247133003"
"435","phaino","Phainopepla","Phainopepla nitens","L39171761","El Scorpion Canyon Park","2025-06-05 15:50",1,34.1957388,-118.6589981,TRUE,FALSE,FALSE,"S247121056"
"436","phaino","Phainopepla","Phainopepla nitens","L1334829","Avenal St. and Santa Ana Rd.","2025-06-05 14:49",1,34.4240205,-119.3526762,TRUE,FALSE,FALSE,"S247393224"
"437","phaino","Phainopepla","Phainopepla nitens","L383741","Yucaipa Regional Park","2025-06-05 13:27",1,34.0550061,-117.0483398,TRUE,FALSE,FALSE,"S247076351"
"438","phaino","Phainopepla","Phainopepla nitens","L735009","Confluence Park","2025-06-05 12:36",2,37.2053292,-113.2876253,TRUE,FALSE,FALSE,"S247061409"
"439","phaino","Phainopepla","Phainopepla nitens","L6182805","Bel Air--Verano Road Area","2025-06-05 12:23",1,34.0941391,-118.4620839,TRUE,FALSE,TRUE,"S247176035"
"440","phaino","Phainopepla","Phainopepla nitens","L28134078","Griffith Park--Mineral Wells Trail","2025-06-05 12:00",1,34.1406496,-118.2891666,TRUE,FALSE,FALSE,"S247071320"
"441","phaino","Phainopepla","Phainopepla nitens","L1418212","Chekshani Cliffs & Camp Creek","2025-06-05 11:51",2,37.5024401,-113.1987871,TRUE,FALSE,FALSE,"S247034038"
"442","phaino","Phainopepla","Phainopepla nitens","L2129034","Red Rock Canyon NCA--Lost Creek","2025-06-05 11:00",1,36.1562762,-115.4961348,TRUE,FALSE,FALSE,"S247082247"
"443","phaino","Phainopepla","Phainopepla nitens","L279316","Fairmount Park","2025-06-05 10:38",2,33.9963966,-117.3789295,TRUE,FALSE,FALSE,"S247086211"
"444","phaino","Phainopepla","Phainopepla nitens","L6528214","Griffith Park--Toyon Landfill (Not open to public on weekdays)","2025-06-05 10:30",1,34.1436692,-118.3021546,TRUE,FALSE,FALSE,"S247089718"
"445","phaino","Phainopepla","Phainopepla nitens","L124367","Silverwood Wildlife Sanctuary (Saturdays and Wednesdays Nov–Jul, closed Aug–Oct)","2025-06-05 10:24",1,32.9194235,-116.8812801,TRUE,FALSE,FALSE,"S247051124"
"446","phaino","Phainopepla","Phainopepla nitens","L575823","Tonto Natural Bridge State Park","2025-06-05 09:10",1,34.3223857,-111.4541531,TRUE,FALSE,FALSE,"S247043975"
"447","phaino","Phainopepla","Phainopepla nitens","L281846","The Lakes at Castle Rock","2025-06-05 09:01",6,32.2491071,-110.7933046,TRUE,FALSE,FALSE,"S247016852"
"448","phaino","Phainopepla","Phainopepla nitens","L813790","Thompson Creek Trail (LA Co.)","2025-06-05 08:40",3,34.128929,-117.7220035,TRUE,FALSE,FALSE,"S247032269"
"449","phaino","Phainopepla","Phainopepla nitens","L23570156","Mill Creek basins","2025-06-05 08:40",NA,34.073357,-117.111613,TRUE,FALSE,TRUE,"S247045573"
"450","phaino","Phainopepla","Phainopepla nitens","L17840540","stakeout Golden-winged Warbler, Salt River Rec. Area (2022)","2025-06-05 08:36",1,33.517422,-111.674054,TRUE,FALSE,FALSE,"S247038330"
"451","phaino","Phainopepla","Phainopepla nitens","L4132512","Sunrise Pointe and The Legends walk","2025-06-05 08:26",1,31.836946,-110.995505,TRUE,FALSE,TRUE,"S246999501"
"452","phaino","Phainopepla","Phainopepla nitens","L29963271","Tucson Country Club, Tucson US-AZ 32.26141, -110.85052","2025-06-05 08:20",2,32.261413,-110.850521,TRUE,FALSE,TRUE,"S247156875"
"453","phaino","Phainopepla","Phainopepla nitens","L7969999","El Modena Open Space","2025-06-05 08:10",1,33.7971235,-117.7945518,TRUE,FALSE,FALSE,"S247022303"
"454","phaino","Phainopepla","Phainopepla nitens","L46903481","San Diego NWR- Vista Sage","2025-06-05 08:02",1,32.716315,-116.889759,TRUE,FALSE,TRUE,"S247116183"
"455","phaino","Phainopepla","Phainopepla nitens","L129077","San Bernardino NWR","2025-06-05 08:00",2,31.3558004,-109.261533,TRUE,FALSE,FALSE,"S247083814"
"456","phaino","Phainopepla","Phainopepla nitens","L11687425","Upper Verde River Wildlife Area","2025-06-05 07:57",12,34.8681514,-112.4028826,TRUE,FALSE,FALSE,"S247071002"
"457","phaino","Phainopepla","Phainopepla nitens","L285964","Lake Solano County Park (SOL Co.)","2025-06-05 07:53",NA,38.49153,-122.0282149,TRUE,FALSE,FALSE,"S247134833"
"458","phaino","Phainopepla","Phainopepla nitens","L1608213","San Gabriel Canyon Rd.--below East Fork Rd.","2025-06-05 07:45",1,34.2173056,-117.857784,TRUE,FALSE,FALSE,"S247053849"
"459","phaino","Phainopepla","Phainopepla nitens","L46880745","Horno Canyon Rd, Camp Pendleton US-CA 33.37296, -117.43359","2025-06-05 07:36",2,33.372958,-117.433587,TRUE,FALSE,TRUE,"S247008878"
"460","phaino","Phainopepla","Phainopepla nitens","L129021","Madera Canyon--Madera Picnic Area","2025-06-05 07:35",1,31.7271702,-110.8807518,TRUE,FALSE,FALSE,"S247018849"
"461","phaino","Phainopepla","Phainopepla nitens","L730126","Pacific Crest Trail--west of Kitchen Creek Rd.","2025-06-05 07:26",2,32.7493474,-116.4583006,TRUE,FALSE,FALSE,"S247152130"
"462","phaino","Phainopepla","Phainopepla nitens","L46884427","Santa Rosa Valley Park, Santa Rosa Valley US-CA 34.22896, -118.93214","2025-06-05 07:18",10,34.228958,-118.932135,TRUE,FALSE,TRUE,"S247024711"
"463","phaino","Phainopepla","Phainopepla nitens","L9326333","Saguaro NP--East--Loma Verde Trailhead","2025-06-05 06:45",2,32.2033393,-110.7099992,TRUE,FALSE,FALSE,"S247286644"
"464","phaino","Phainopepla","Phainopepla nitens","L13429713","720 N Plumer Ave, Tucson US-AZ 32.23095, -110.93934","2025-06-05 06:45",11,32.230947,-110.939341,TRUE,FALSE,TRUE,"S246939958"
"465","phaino","Phainopepla","Phainopepla nitens","L22736808","Del Valle Drive","2025-06-05 06:40",1,33.3139581,-117.2538159,TRUE,FALSE,TRUE,"S247054892"
"466","phaino","Phainopepla","Phainopepla nitens","L32379214","House of Payne","2025-06-05 06:39",2,32.261308,-111.017658,TRUE,FALSE,TRUE,"S246958717"
"467","phaino","Phainopepla","Phainopepla nitens","L1064140","WOW Arizona B&B","2025-06-05 06:30",2,32.5081331,-110.8764428,TRUE,FALSE,FALSE,"S247152227"
"468","phaino","Phainopepla","Phainopepla nitens","L29045046","PGA WEST (restricted access)","2025-06-05 06:25",1,33.643476,-116.272733,TRUE,FALSE,TRUE,"S247051579"
"469","phaino","Phainopepla","Phainopepla nitens","L492018","Audubon Bobcat Ranch","2025-06-05 06:22",3,38.5209068,-122.0323563,TRUE,FALSE,FALSE,"S247120116"
"470","phaino","Phainopepla","Phainopepla nitens","L40641825","Chihuahuan Desert IBA -- South","2025-06-05 06:20",1,32.3437347,-108.9863531,TRUE,FALSE,TRUE,"S247047711"
"471","phaino","Phainopepla","Phainopepla nitens","L22091545","Anthem—Southeast Parkside","2025-06-05 06:14",3,33.847651,-112.103797,TRUE,FALSE,TRUE,"S246960796"
"472","phaino","Phainopepla","Phainopepla nitens","L2434157","Red Rock Canyon NCA--White Rock Spring","2025-06-05 06:12",1,36.1738179,-115.47978,TRUE,FALSE,FALSE,"S246999021"
"473","phaino","Phainopepla","Phainopepla nitens","L47021229","5878 West Whitlock Road, Mariposa, California, US (37.556, -120.02)","2025-06-05 05:50",2,37.5562199,-120.0200897,TRUE,FALSE,TRUE,"S247665686"
"474","phaino","Phainopepla","Phainopepla nitens","L46876888","Pacific Crest National Scenic Trail, Pine Valley US-CA 32.74778, -116.45138","2025-06-05 05:48",4,32.747778,-116.451384,TRUE,FALSE,TRUE,"S246992231"
"475","phaino","Phainopepla","Phainopepla nitens","L444756","Afton Canyon","2025-06-05 05:43",3,35.0371473,-116.3848901,TRUE,FALSE,FALSE,"S246994663"
"476","phaino","Phainopepla","Phainopepla nitens","L21646834","AZLegendsSuperiorTrail","2025-06-05 05:35",2,33.277437,-111.139952,TRUE,FALSE,TRUE,"S247026987"
"477","phaino","Phainopepla","Phainopepla nitens","L3948152","Horseshoe Lake Recreation Area--Mesquite CG area","2025-06-05 05:20",15,33.9646652,-111.7163658,TRUE,FALSE,FALSE,"S247050620"
"478","phaino","Phainopepla","Phainopepla nitens","L16346374","Las Cienegas NCA--Cieneguita Primitive Campground","2025-06-05 04:59",1,31.7648989,-110.6314552,TRUE,FALSE,FALSE,"S246923633"
"479","phaino","Phainopepla","Phainopepla nitens","L46843934","51–57 SR-78, Clifton US-AZ (33.0005,-109.1704)","2025-06-04 19:16",1,33.000533,-109.170399,TRUE,FALSE,TRUE,"S246823436"
"480","phaino","Phainopepla","Phainopepla nitens","L33270635","Robert E. Ward Nature Preserve (West Coyote Hills Trail)","2025-06-04 18:47",2,33.903341,-117.9442322,TRUE,FALSE,TRUE,"S246827814"
"481","phaino","Phainopepla","Phainopepla nitens","L28598905","Mohave Community College Neal Campus - Kingman","2025-06-04 18:22",5,35.2700379,-114.02849,TRUE,FALSE,FALSE,"S246822857"
"482","phaino","Phainopepla","Phainopepla nitens","L4540580","Steam Pump Ranch","2025-06-04 18:20",1,32.4050156,-110.9499085,TRUE,FALSE,FALSE,"S247172075"
"483","phaino","Phainopepla","Phainopepla nitens","L8526367","Mission Trails Regional Park--Kwaay Paay Peak Trail","2025-06-04 17:00",1,32.8330871,-117.0415558,TRUE,FALSE,FALSE,"S246812837"
"484","phaino","Phainopepla","Phainopepla nitens","L10272694","Lower Clamshell TKTL","2025-06-04 16:30",3,34.1732017,-118.0015406,TRUE,FALSE,FALSE,"S246829304"
"485","phaino","Phainopepla","Phainopepla nitens","L1848765","Camarillo Grove Park","2025-06-04 16:10",1,34.2047805,-118.9704091,TRUE,FALSE,FALSE,"S246819469"
"486","phaino","Phainopepla","Phainopepla nitens","L603593","Portal--Cathedral Rock Rd at Creek Rd","2025-06-04 14:27",1,31.9104255,-109.1488092,TRUE,FALSE,FALSE,"S246762687"
"487","phaino","Phainopepla","Phainopepla nitens","L46832971","Empire Ranch Foundation","2025-06-04 14:02",2,31.7865567,-110.6430489,TRUE,FALSE,TRUE,"S246765860"
"488","phaino","Phainopepla","Phainopepla nitens","L192625","Santee Lakes","2025-06-04 13:55",1,32.8570948,-117.0071411,TRUE,FALSE,FALSE,"S246766753"
"489","phaino","Phainopepla","Phainopepla nitens","L39452400","Discovery Trail, Empire Ranch Headquarters, Sonoita, Arizona, US (31.786, -110.642)","2025-06-04 13:45",4,31.7855982,-110.6417798,TRUE,FALSE,TRUE,"S246752955"
"490","phaino","Phainopepla","Phainopepla nitens","L6295594","Stough Canyon Nature Center","2025-06-04 12:36",1,34.213395,-118.306914,TRUE,FALSE,FALSE,"S246723273"
"491","phaino","Phainopepla","Phainopepla nitens","L9595900","Anza-Borrego Desert SP--Sentenac Canyon","2025-06-04 12:13",2,33.1058807,-116.4509777,TRUE,FALSE,FALSE,"S246794540"
"492","phaino","Phainopepla","Phainopepla nitens","L46822976","399 McKeown Avenue, Patagonia, Arizona, US (31.539, -110.756)","2025-06-04 11:55",2,31.5389317,-110.7556633,TRUE,FALSE,TRUE,"S246719039"
"493","phaino","Phainopepla","Phainopepla nitens","L46824935","Petrogylph Wall Trail, Las Vegas US-NV 36.16124, -115.49899","2025-06-04 11:45",2,36.161236,-115.498987,TRUE,FALSE,TRUE,"S246727644"
"494","phaino","Phainopepla","Phainopepla nitens","L13494884","Birdsong Ranch (restricted access)","2025-06-04 11:27",2,34.3663684,-119.3128386,TRUE,FALSE,FALSE,"S246719144"
"495","phaino","Phainopepla","Phainopepla nitens","L1104695","Scissors Crossing area","2025-06-04 11:06",4,33.1005809,-116.4806421,TRUE,FALSE,FALSE,"S246799333"
"496","phaino","Phainopepla","Phainopepla nitens","L11792177","Harmon Canyon Preserve","2025-06-04 11:04",1,34.3029077,-119.2000843,TRUE,FALSE,FALSE,"S246727001"
"497","phaino","Phainopepla","Phainopepla nitens","L1266900","El Monte County Park","2025-06-04 11:04",1,32.8922408,-116.8468738,TRUE,FALSE,FALSE,"S246718078"
"498","phaino","Phainopepla","Phainopepla nitens","L1082629","Deukmejian Wilderness Park","2025-06-04 10:24",1,34.2492707,-118.2534885,TRUE,FALSE,FALSE,"S246727425"
"499","phaino","Phainopepla","Phainopepla nitens","L23558258","273 camino Panama","2025-06-04 10:19",1,31.489506,-110.991979,TRUE,FALSE,TRUE,"S246979077"
"500","phaino","Phainopepla","Phainopepla nitens","L23703028","San Felipe Valley Wildlife Area - north-central","2025-06-04 09:47",6,33.142329,-116.5412867,TRUE,FALSE,TRUE,"S246799259"
"501","phaino","Phainopepla","Phainopepla nitens","L41377205","Tucson Country Club, Tucson US-AZ 32.25978, -110.85266","2025-06-04 09:47",2,32.259785,-110.852664,TRUE,FALSE,TRUE,"S247153630"
"502","phaino","Phainopepla","Phainopepla nitens","L35177150","Claremont Hills Wilderness Park—Gail Canyon","2025-06-04 09:30",5,34.1389625,-117.7211569,TRUE,FALSE,FALSE,"S246692565"
"503","phaino","Phainopepla","Phainopepla nitens","L1037685","Tanque Verde Wash--Tanque Verde Loop Rd.","2025-06-04 09:24",3,32.2412452,-110.7554054,TRUE,FALSE,FALSE,"S246672157"
"504","phaino","Phainopepla","Phainopepla nitens","L662856","Grafton","2025-06-04 09:22",1,37.1674814,-113.081975,TRUE,FALSE,FALSE,"S246667200"
"505","phaino","Phainopepla","Phainopepla nitens","L46828106","Six-bit","2025-06-04 09:16",3,37.847733,-120.45154,TRUE,FALSE,TRUE,"S246742322"
"506","phaino","Phainopepla","Phainopepla nitens","L912789","Mojave National Preserve--Kelso Dunes","2025-06-04 09:16",1,34.8921265,-115.7016563,TRUE,FALSE,FALSE,"S246814619"
"507","phaino","Phainopepla","Phainopepla nitens","L269169","UC Riverside Botanic Gardens","2025-06-04 08:50",2,33.9698513,-117.3194612,TRUE,FALSE,FALSE,"S246653575"
"508","phaino","Phainopepla","Phainopepla nitens","L46681672","Eagle Dam","2025-06-04 08:47",2,31.4612062,-111.2243304,TRUE,FALSE,FALSE,"S246830645"
"509","phaino","Phainopepla","Phainopepla nitens","L6718077","3 Canyons Ranch (west of Deer Ridge Trail)","2025-06-04 08:35",1,31.4089416,-110.2331257,TRUE,FALSE,TRUE,"S246718186"
"510","phaino","Phainopepla","Phainopepla nitens","L23257426","2727 East Alturas Street, Tucson, Arizona, US (32.253, -110.932)","2025-06-04 08:30",2,32.2530654,-110.9317576,TRUE,FALSE,TRUE,"S246655294"
"511","phaino","Phainopepla","Phainopepla nitens","L871226","Mission Trails Regional Park--West Region","2025-06-04 08:26",1,32.8254028,-117.0710933,TRUE,FALSE,FALSE,"S246712677"
"512","phaino","Phainopepla","Phainopepla nitens","L12754991","Los Padres NF--Matilija Falls trail","2025-06-04 08:19",1,34.5150274,-119.4022763,TRUE,FALSE,FALSE,"S246691981"
"513","phaino","Phainopepla","Phainopepla nitens","L7122014","17th St and Pleasant Dr (Private)","2025-06-04 08:15",1,33.5535483,-112.0465461,TRUE,FALSE,TRUE,"S246649995"
"514","phaino","Phainopepla","Phainopepla nitens","L19945187","San Felipe Valley Wildlife Area--north","2025-06-04 08:08",14,33.160219,-116.554171,TRUE,FALSE,FALSE,"S246799308"
"515","phaino","Phainopepla","Phainopepla nitens","L15403845","Matilija Canyon Ranch","2025-06-04 07:55",3,34.505698,-119.3773423,TRUE,FALSE,TRUE,"S246824365"
"516","phaino","Phainopepla","Phainopepla nitens","L21287455","Queen Creek — Perlite Rd.","2025-06-04 07:43",1,33.277437,-111.139952,TRUE,FALSE,TRUE,"S247435299"
"517","phaino","Phainopepla","Phainopepla nitens","L46806766","40749 Old Highway 80, Boulevard, California, US (32.661, -116.272)","2025-06-04 07:29",1,32.6613666,-116.2715096,TRUE,FALSE,TRUE,"S246650113"
"518","phaino","Phainopepla","Phainopepla nitens","L775920","Tuweap Drive Riparian Area","2025-06-04 07:15",1,37.135277,-113.6316562,TRUE,FALSE,FALSE,"S248337551"
"519","phaino","Phainopepla","Phainopepla nitens","L14673720","Wash behind Cochise College","2025-06-04 07:10",3,31.5691809,-110.2430132,TRUE,FALSE,TRUE,"S246640471"
"520","phaino","Phainopepla","Phainopepla nitens","L3717605","2410 E Adams St","2025-06-04 07:05",1,32.240544,-110.9362829,TRUE,FALSE,TRUE,"S248306707"
"521","phaino","Phainopepla","Phainopepla nitens","L46809092","Tuweap","2025-06-04 07:03",1,37.133915,-113.631232,TRUE,FALSE,TRUE,"S246660379"
"522","phaino","Phainopepla","Phainopepla nitens","L280626","Mesilla Valley Bosque SP","2025-06-04 07:00",1,32.2525151,-106.8224716,TRUE,FALSE,FALSE,"S248598556"
"523","phaino","Phainopepla","Phainopepla nitens","L17438174","Quail Run to Quail Springs","2025-06-04 07:00",1,34.691732,-112.024735,TRUE,FALSE,TRUE,"S246627287"
"524","phaino","Phainopepla","Phainopepla nitens","L18396567","50 Bridge Road, Tubac, Arizona, US (31.617, -111.043)","2025-06-04 06:50",10,31.6170891,-111.0427769,TRUE,FALSE,TRUE,"S246772356"
"525","phaino","Phainopepla","Phainopepla nitens","L38677288","Old Fort Lowell","2025-06-04 06:43",2,32.2616099,-110.883888,TRUE,FALSE,TRUE,"S246656854"
"526","phaino","Phainopepla","Phainopepla nitens","L268114","Madera Canyon--Santa Rita Lodge","2025-06-04 06:39",3,31.7251514,-110.8801067,TRUE,FALSE,FALSE,"S246647553"
"527","phaino","Phainopepla","Phainopepla nitens","L2932915","Winslow--La Posada Hotel garden","2025-06-04 06:37",1,35.0218344,-110.6957665,TRUE,FALSE,FALSE,"S247050471"
"528","phaino","Phainopepla","Phainopepla nitens","L815817","Frank G. Bonelli RP/Puddingstone Reservoir and vicinity","2025-06-04 06:35",1,34.0870104,-117.8050125,TRUE,FALSE,FALSE,"S246709451"
"529","phaino","Phainopepla","Phainopepla nitens","L1051139","Walker Canyon","2025-06-04 06:30",4,31.38743,-111.0644469,TRUE,FALSE,FALSE,"S246734490"
"530","phaino","Phainopepla","Phainopepla nitens","L838090","Seneca/Ridgeway area","2025-06-04 06:30",1,32.2475404,-110.8653452,TRUE,FALSE,FALSE,"S246925749"
"531","phaino","Phainopepla","Phainopepla nitens","L20574951","Gila River Drain - Wellton","2025-06-04 06:26",1,32.700737,-114.168227,TRUE,FALSE,TRUE,"S246628133"
"532","phaino","Phainopepla","Phainopepla nitens","L799040","White Mountain Lake (restricted access)","2025-06-04 06:09",1,34.365,-109.995,TRUE,FALSE,FALSE,"S246635907"
"533","phaino","Phainopepla","Phainopepla nitens","L129072","Sabino Canyon Recreation Area","2025-06-04 06:04",3,32.3300526,-110.7944301,TRUE,FALSE,FALSE,"S246750941"
"534","phaino","Phainopepla","Phainopepla nitens","L571702","Warm Springs Natural Area","2025-06-04 04:58",2,36.7118633,-114.7141689,TRUE,FALSE,FALSE,"S246613276"
"535","phaino","Phainopepla","Phainopepla nitens","L7281849","Zion NP--The Grotto Trail","2025-06-03 19:06",1,37.2554843,-112.9554889,TRUE,FALSE,FALSE,"S246840392"
"536","phaino","Phainopepla","Phainopepla nitens","L46801204","22553–23593 N Valley Dr, Las Cruces US-NM 32.56883, -106.99975","2025-06-03 19:03",1,32.568832,-106.999754,TRUE,FALSE,TRUE,"S246624713"
"537","phaino","Phainopepla","Phainopepla nitens","L13197711","George Barker River Park","2025-06-03 18:16",1,37.1765197,-113.0088492,TRUE,FALSE,FALSE,"S246496212"
"538","phaino","Phainopepla","Phainopepla nitens","L450816","Pasture Canyon","2025-06-03 17:37",1,36.1281698,-111.2120247,TRUE,FALSE,FALSE,"S246487573"
"539","phaino","Phainopepla","Phainopepla nitens","L1358840","Bosque del Apache NWR--North Loop (formerly Farm Loop)","2025-06-03 17:15",2,33.8151614,-106.8722406,TRUE,FALSE,FALSE,"S246457029"
"540","phaino","Phainopepla","Phainopepla nitens","L129050","Patagonia Lake State Park","2025-06-03 16:04",1,31.4951992,-110.8566971,TRUE,FALSE,FALSE,"S246491823"
"541","phaino","Phainopepla","Phainopepla nitens","L10447806","Bru House Utah","2025-06-03 15:19",4,37.680295,-113.053941,TRUE,FALSE,TRUE,"S246421085"
"542","phaino","Phainopepla","Phainopepla nitens","L1757515","Dragoon Mt. Ranch, E Kingbird Trail (private)","2025-06-03 14:00",1,31.9252252,-110.0585951,TRUE,FALSE,TRUE,"S246557316"
"543","phaino","Phainopepla","Phainopepla nitens","L8951145","Sonoita Creek Preserve, Patagonia, Arizona, US (31.533, -110.768)","2025-06-03 13:40",9,31.5326689,-110.7676163,TRUE,FALSE,TRUE,"S246816040"
"544","phaino","Phainopepla","Phainopepla nitens","L614288","Kagel Canyon","2025-06-03 13:00",2,34.2867226,-118.3708191,TRUE,FALSE,FALSE,"S246411646"
"545","phaino","Phainopepla","Phainopepla nitens","L1040943","Del Rio Springs","2025-06-03 12:45",4,34.8194406,-112.4473,TRUE,FALSE,FALSE,"S246493336"
"546","phaino","Phainopepla","Phainopepla nitens","L16138526","Old School House, Shumway","2025-06-03 12:16",1,34.4064987,-110.072929,TRUE,FALSE,FALSE,"S246407574"
"547","phaino","Phainopepla","Phainopepla nitens","L843235","Grant Park","2025-06-03 12:15",1,34.2873328,-119.2917104,TRUE,FALSE,FALSE,"S246479034"
"548","phaino","Phainopepla","Phainopepla nitens","L46760081","Juaneno Trail, Trabuco Canyon, California, US (33.541, -117.552)","2025-06-03 12:08",2,33.5405525,-117.5522195,TRUE,FALSE,TRUE,"S246409715"
"549","phaino","Phainopepla","Phainopepla nitens","L22734650","Bella Colina Golf Course. San Clemente, California, US (33.451, -117.589)","2025-06-03 12:06",7,33.4512139,-117.5893167,TRUE,FALSE,TRUE,"S246681135"
"550","phaino","Phainopepla","Phainopepla nitens","L129114","Tumacacori NHP","2025-06-03 11:44",1,31.5683867,-111.0506648,TRUE,FALSE,FALSE,"S246372278"
"551","phaino","Phainopepla","Phainopepla nitens","L18235006","Harmon Canyon Preserve","2025-06-03 11:30",3,34.2886373,-119.1979694,TRUE,FALSE,TRUE,"S246416255"
"552","phaino","Phainopepla","Phainopepla nitens","L14616928","Santa Clarita, CA","2025-06-03 11:07",2,34.3966987,-118.4663065,TRUE,FALSE,TRUE,"S246360990"
"553","phaino","Phainopepla","Phainopepla nitens","L3317448","The Lakes--Private Property","2025-06-03 09:49",1,35.51434,-120.67129,TRUE,FALSE,FALSE,"S246390525"
"554","phaino","Phainopepla","Phainopepla nitens","L5982318","Doe Mountain Trail","2025-06-03 09:26",1,34.8925042,-111.864185,TRUE,FALSE,FALSE,"S246427020"
"555","phaino","Phainopepla","Phainopepla nitens","L13711205","Shingle Springs Home","2025-06-03 09:25",1,38.6542297,-120.9353791,TRUE,FALSE,TRUE,"S246335547"
"556","phaino","Phainopepla","Phainopepla nitens","L2830038","Posse Grounds Park","2025-06-03 09:15",1,34.8689024,-111.7877145,TRUE,FALSE,FALSE,"S246349804"
"557","phaino","Phainopepla","Phainopepla nitens","L129106","Tanque Verde Wash--Wentworth Rd.","2025-06-03 09:01",5,32.2400762,-110.7208975,TRUE,FALSE,FALSE,"S246337557"
"558","phaino","Phainopepla","Phainopepla nitens","L796565","Walnut Creek Park","2025-06-03 08:55",1,34.0890613,-117.8348064,TRUE,FALSE,FALSE,"S246408920"
"559","phaino","Phainopepla","Phainopepla nitens","L40131616","Rooney Ranch Shopping Center","2025-06-03 08:54",1,32.403391,-110.953618,TRUE,FALSE,TRUE,"S246348264"
"560","phaino","Phainopepla","Phainopepla nitens","L21592837","OVLC Ventura River Steelhead Preserve--Restricted access","2025-06-03 08:23",1,34.3780778,-119.3090515,TRUE,FALSE,FALSE,"S246373825"
"561","phaino","Phainopepla","Phainopepla nitens","L1183306","San Pedro RNCA--Kingfisher Pond","2025-06-03 07:59",3,31.5427632,-110.1337928,TRUE,FALSE,FALSE,"S246353027"
"562","phaino","Phainopepla","Phainopepla nitens","L17877753","Fain Park Below Dam","2025-06-03 07:45",12,34.5747583,-112.3490548,TRUE,FALSE,TRUE,"S246436746"
"563","phaino","Phainopepla","Phainopepla nitens","L15290326","6530 N Calle Lottie, Tucson US-AZ 32.32574, -110.95568","2025-06-03 07:45",3,32.325742,-110.955681,TRUE,FALSE,TRUE,"S246367649"
"564","phaino","Phainopepla","Phainopepla nitens","L30511482","South Branch Arroyo Conejo Upstream Of Hill Canyon WWTP, Thousand Oaks, California, US (34.209, -118.924)","2025-06-03 07:42",3,34.2093459,-118.9237592,TRUE,FALSE,TRUE,"S246372486"
"565","phaino","Phainopepla","Phainopepla nitens","L695591","Hogback Creek","2025-06-03 07:35",3,36.6622484,-118.1420696,TRUE,FALSE,FALSE,"S246489649"
"566","phaino","Phainopepla","Phainopepla nitens","L3301522","Black Swan Trail","2025-06-03 07:08",1,39.2090299,-121.2781566,TRUE,FALSE,FALSE,"S246493758"
"567","phaino","Phainopepla","Phainopepla nitens","L12831020","Backyard","2025-06-03 07:07",2,32.1975166,-111.0045938,TRUE,FALSE,TRUE,"S246294906"
"568","phaino","Phainopepla","Phainopepla nitens","L39931175","Buckhorn bend","2025-06-03 07:00",1,35.30762,-114.047564,TRUE,FALSE,TRUE,"S246295681"
"569","phaino","Phainopepla","Phainopepla nitens","L45067578","Tubac Nature Center, road, bridge, loop. Trail","2025-06-03 06:59",16,31.615706,-111.041819,TRUE,FALSE,TRUE,"S246331104"
"570","phaino","Phainopepla","Phainopepla nitens","L4305721","Hassayampa River at Orofino Wash","2025-06-03 06:58",8,34.3922255,-112.539694,TRUE,FALSE,FALSE,"S246400222"
"571","phaino","Phainopepla","Phainopepla nitens","L45546002","Tubac Nature Center","2025-06-03 06:56",13,31.6179434,-111.0434344,TRUE,FALSE,TRUE,"S246324193"
"572","phaino","Phainopepla","Phainopepla nitens","L35253415","My yard Green Valley","2025-06-03 06:52",1,31.870396,-111.009451,TRUE,FALSE,TRUE,"S246292023"
"573","phaino","Phainopepla","Phainopepla nitens","L3044486","Hot Springs Mountain","2025-06-03 06:00",1,33.3133525,-116.5760951,TRUE,FALSE,FALSE,"S246485269"
"574","phaino","Phainopepla","Phainopepla nitens","L392542","Sharps Road, Globe AZ","2025-06-03 06:00",1,33.3592086,-110.7689667,TRUE,FALSE,TRUE,"S246258302"
"575","phaino","Phainopepla","Phainopepla nitens","L451252","Ralph B. Clark Regional Park, Buena Park","2025-06-03 05:53",2,33.8942326,-117.9763627,TRUE,FALSE,FALSE,"S246317892"
"576","phaino","Phainopepla","Phainopepla nitens","L11510059","Spot Road Farm","2025-06-03 05:48",1,32.7969853,-113.352323,TRUE,FALSE,FALSE,"S246336567"
"577","phaino","Phainopepla","Phainopepla nitens","L729118","Santa Cruz River--Sunset Rd. to Camino del Cerro","2025-06-03 05:40",2,32.2993125,-111.0430877,TRUE,FALSE,FALSE,"S246380357"
"578","phaino","Phainopepla","Phainopepla nitens","L1908708","Ventana Canyon Trail--lowlands section","2025-06-03 05:29",1,32.3379646,-110.8554411,TRUE,FALSE,TRUE,"S246275592"
"579","phaino","Phainopepla","Phainopepla nitens","L18461951","Neighborhood","2025-06-03 05:12",1,32.299075,-110.833703,TRUE,FALSE,TRUE,"S246288192"
"580","phaino","Phainopepla","Phainopepla nitens","L46757136","SBD_Piute Valley_PJ survey","2025-06-03 05:01",5,35.401797,-115.506368,TRUE,FALSE,TRUE,"S246395797"
"581","phaino","Phainopepla","Phainopepla nitens","L11618145","Big Sandy River at Signal","2025-06-03 04:57",2,34.469968,-113.623983,TRUE,FALSE,FALSE,"S246834170"
"582","phaino","Phainopepla","Phainopepla nitens","L42403093","Agua Caliente Park, Tucson US-AZ 32.28148, -110.73027","2025-06-02 18:46",1,32.281485,-110.730269,TRUE,FALSE,TRUE,"S246158327"
"583","phaino","Phainopepla","Phainopepla nitens","L39231155","4305 N Camino del Obispo, Tucson US-AZ 32.28514, -110.93001","2025-06-02 18:09",6,32.285138,-110.930008,TRUE,FALSE,TRUE,"S246155992"
"584","phaino","Phainopepla","Phainopepla nitens","L21643568","1750 South Loy Street, Cornville, Arizona, US (34.708, -111.914)","2025-06-02 18:04",2,34.7079629,-111.9139894,TRUE,FALSE,TRUE,"S246145667"
"585","phaino","Phainopepla","Phainopepla nitens","L23503406","9000 6 Bit Gulch Road, Chinese Camp, California, US (37.851, -120.452)","2025-06-02 18:01",2,37.8512409,-120.4519819,TRUE,FALSE,TRUE,"S246144018"
"586","phaino","Phainopepla","Phainopepla nitens","L21143400","Pontatoc Canyon","2025-06-02 17:30",2,32.3399538,-110.9034241,TRUE,FALSE,FALSE,"S246311316"
"587","phaino","Phainopepla","Phainopepla nitens","L5008175","Plunge Creek Truck Trail","2025-06-02 17:22",2,34.11947,-117.147722,TRUE,FALSE,FALSE,"S246144999"
"588","phaino","Phainopepla","Phainopepla nitens","L41516932","2 Irvine Park Rd, Orange US-CA 33.80487, -117.75087","2025-06-02 17:00",1,33.804871,-117.750872,TRUE,FALSE,TRUE,"S246174453"
