"","speciesCode","comName","sciName","locId","locName","obsDt","howMany","lat","lng","obsValid","obsReviewed","locationPrivate","subId"
"1","rebsap","Red-breasted Sapsucker","Sphyrapicus ruber","L2392604","Eugene Masonic Cemetery","2025-05-14 15:14",2,44.032221,-123.0753556,TRUE,FALSE,FALSE,"S237942124"
"2","rebsap","Red-breasted Sapsucker","Sphyrapicus ruber","L18484064","Green Springs Mountain Loop","2025-05-14 14:57",1,42.1400818,-122.4958484,TRUE,FALSE,FALSE,"S237952003"
"3","rebsap","Red-breasted Sapsucker","Sphyrapicus ruber","L9956565","10611 Southeast 291st Street, Auburn, Washington, US (47.341, -122.201)","2025-05-14 14:51",1,47.3409221,-122.2014663,TRUE,FALSE,TRUE,"S237927491"
"4","rebsap","Red-breasted Sapsucker","Sphyrapicus ruber","L21113956","Angora Ridge Lookout South Lake Tahoe","2025-05-14 14:04",1,38.8811115,-120.0558043,TRUE,FALSE,TRUE,"S237939711"
"5","rebsap","Red-breasted Sapsucker","Sphyrapicus ruber","L777678","Scatter Creek Wildlife Area","2025-05-14 13:55",1,46.8278728,-123.0075645,TRUE,FALSE,FALSE,"S237966474"
"6","rebsap","Red-breasted Sapsucker","Sphyrapicus ruber","L740948","Wickersham area of Samish River","2025-05-14 13:46",3,48.6530746,-122.2054918,TRUE,FALSE,FALSE,"S237930690"
"7","rebsap","Red-breasted Sapsucker","Sphyrapicus ruber","L2894847","Cascades Raptor Center","2025-05-14 13:39",1,43.9864604,-123.0798903,TRUE,FALSE,FALSE,"S237904098"
"8","rebsap","Red-breasted Sapsucker","Sphyrapicus ruber","L6474575","Galena Creek County Park--Nature Trail and Bitterbrush Trail","2025-05-14 13:16",2,39.3548129,-119.8585546,TRUE,FALSE,FALSE,"S237927620"
"9","rebsap","Red-breasted Sapsucker","Sphyrapicus ruber","L2182592","Larry Wehmeyer Environmental Education Area","2025-05-14 13:09",1,41.2945672,-122.32557,TRUE,FALSE,FALSE,"S237897921"
"10","rebsap","Red-breasted Sapsucker","Sphyrapicus ruber","L33650331","450 Hudson Rd, Port Angeles US-WA 48.13033, -123.62065","2025-05-14 12:56",1,48.130327,-123.620652,TRUE,FALSE,TRUE,"S237888512"
"11","rebsap","Red-breasted Sapsucker","Sphyrapicus ruber","L24749503","2193 NW Sunview Dr, Corvallis US-OR 44.58924, -123.29834","2025-05-14 12:31",1,44.589239,-123.298337,TRUE,FALSE,TRUE,"S237883742"
"12","rebsap","Red-breasted Sapsucker","Sphyrapicus ruber","L572639","Upper Klamath Lake--Rocky Point","2025-05-14 12:24",1,42.477,-122.08503,TRUE,FALSE,FALSE,"S237956668"
"13","rebsap","Red-breasted Sapsucker","Sphyrapicus ruber","L232479","Juanita Bay Park","2025-05-14 12:20",1,47.6981686,-122.2101878,TRUE,FALSE,FALSE,"S237912350"
"14","rebsap","Red-breasted Sapsucker","Sphyrapicus ruber","L24482897","Masonic Mountain","2025-05-14 12:02",2,38.336226,-119.166393,TRUE,FALSE,FALSE,"S237897489"
"15","rebsap","Red-breasted Sapsucker","Sphyrapicus ruber","L14914980","Eagle Beach Rec Area, Juneau US-AK 58.52996, -134.82838","2025-05-14 11:59",1,58.529963,-134.828379,TRUE,FALSE,TRUE,"S237931507"
"16","rebsap","Red-breasted Sapsucker","Sphyrapicus ruber","L6819955","Meadowbrook Farm","2025-05-14 11:50",1,47.5198295,-121.8088592,TRUE,FALSE,FALSE,"S237898884"
"17","rebsap","Red-breasted Sapsucker","Sphyrapicus ruber","L3877712","Fallen Leaf Lake--Stanford Sierra Camp","2025-05-14 11:48",1,38.884988,-120.073376,TRUE,FALSE,FALSE,"S237869494"
"18","rebsap","Red-breasted Sapsucker","Sphyrapicus ruber","L525125","Howard Prairie Lake","2025-05-14 11:43",2,42.2325847,-122.4014282,TRUE,FALSE,FALSE,"S237900831"
"19","rebsap","Red-breasted Sapsucker","Sphyrapicus ruber","L11063393","Griggs Area (Garden)","2025-05-14 11:37",1,44.6101933,-122.8395169,TRUE,FALSE,TRUE,"S237864960"
"20","rebsap","Red-breasted Sapsucker","Sphyrapicus ruber","L24121272","Redwood NP--Dolason Prairie Picnic Area","2025-05-14 11:30",1,41.205458,-123.950758,TRUE,FALSE,FALSE,"S237946462"
"21","rebsap","Red-breasted Sapsucker","Sphyrapicus ruber","L4376719","William L. Finley NWR--Pigeon Butte","2025-05-14 11:26",1,44.4006651,-123.3162868,TRUE,FALSE,FALSE,"S237920716"
"22","rebsap","Red-breasted Sapsucker","Sphyrapicus ruber","L1219978","Ketchikan--Ward Lake-Grassy Point Picnic Ground","2025-05-14 11:10",3,55.4109894,-131.6970634,TRUE,FALSE,FALSE,"S237917904"
"23","rebsap","Red-breasted Sapsucker","Sphyrapicus ruber","L1875949","Errol Heights City Park","2025-05-14 10:44",1,45.4638568,-122.6125419,TRUE,FALSE,FALSE,"S237880644"
"24","rebsap","Red-breasted Sapsucker","Sphyrapicus ruber","L44983220","14100 NE 24th St, Bellevue US-WA Wetland near Pineview Dentistry","2025-05-14 10:33",1,47.631788,-122.152286,TRUE,FALSE,TRUE,"S237840646"
"25","rebsap","Red-breasted Sapsucker","Sphyrapicus ruber","L447381","Mt. Tabor Park","2025-05-14 10:31",1,45.5114597,-122.5940323,TRUE,FALSE,FALSE,"S237856850"
"26","rebsap","Red-breasted Sapsucker","Sphyrapicus ruber","L3046854","Donner Memorial SP--Museum Interpretive Trail","2025-05-14 10:31",2,39.3221625,-120.2310387,TRUE,FALSE,FALSE,"S237859350"
"27","rebsap","Red-breasted Sapsucker","Sphyrapicus ruber","L7575777","Soos Creek Botanical Gardens","2025-05-14 10:18",1,47.3393834,-122.1648889,TRUE,FALSE,FALSE,"S237854973"
"28","rebsap","Red-breasted Sapsucker","Sphyrapicus ruber","L4834228","Rainforest Trail (Douglas Island)","2025-05-14 10:16",3,58.3084969,-134.6698952,TRUE,FALSE,FALSE,"S237871215"
"29","rebsap","Red-breasted Sapsucker","Sphyrapicus ruber","L2865090","Crystal Peak Park","2025-05-14 09:59",1,39.5156616,-119.9964426,TRUE,FALSE,FALSE,"S237884582"
"30","rebsap","Red-breasted Sapsucker","Sphyrapicus ruber","L2042901","Wapato Park","2025-05-14 09:58",1,47.1947868,-122.4551153,TRUE,FALSE,FALSE,"S237834764"
"31","rebsap","Red-breasted Sapsucker","Sphyrapicus ruber","L11072675","Hockinson Meadows","2025-05-14 09:49",1,45.7025657,-122.5022773,TRUE,FALSE,FALSE,"S237917890"
"32","rebsap","Red-breasted Sapsucker","Sphyrapicus ruber","L42096126","Fanno Creek Trail between Hall and Scholl's Ferry","2025-05-14 09:45",1,45.4551412,-122.7962279,TRUE,FALSE,TRUE,"S237957099"
"33","rebsap","Red-breasted Sapsucker","Sphyrapicus ruber","L1833636","Carman Valley Meadows","2025-05-14 09:23",2,39.6979598,-120.4499817,TRUE,FALSE,FALSE,"S237848070"
"34","rebsap","Red-breasted Sapsucker","Sphyrapicus ruber","L26801487","Sitka, Alaska, US (56.37, -134.676)","2025-05-14 09:12",1,56.3696558,-134.6764404,TRUE,FALSE,TRUE,"S237894455"
"35","rebsap","Red-breasted Sapsucker","Sphyrapicus ruber","L1133945","Laurelhurst Park","2025-05-14 09:07",1,45.5210223,-122.6255322,TRUE,FALSE,FALSE,"S237814262"
"36","rebsap","Red-breasted Sapsucker","Sphyrapicus ruber","L390227","Eagle Beach SRA","2025-05-14 09:06",1,58.5283716,-134.8270512,TRUE,FALSE,FALSE,"S237929970"
"37","rebsap","Red-breasted Sapsucker","Sphyrapicus ruber","L9587815","Aant'iyeik Park","2025-05-14 09:03",3,58.3826542,-134.7355943,TRUE,FALSE,FALSE,"S237826594"
"38","rebsap","Red-breasted Sapsucker","Sphyrapicus ruber","L1665567","Cabin Lake","2025-05-14 08:49",1,43.4907878,-121.0597096,TRUE,FALSE,FALSE,"S237894501"
"39","rebsap","Red-breasted Sapsucker","Sphyrapicus ruber","L26434790","815 Charles St, Sitka US-AK 57.06232, -135.33601","2025-05-14 08:49",1,57.06232,-135.336013,TRUE,FALSE,TRUE,"S237825123"
"40","rebsap","Red-breasted Sapsucker","Sphyrapicus ruber","L3541514","NE Sundial Rd.--Company Lake","2025-05-14 08:48",1,45.5615042,-122.40696,TRUE,FALSE,FALSE,"S237892257"
"41","rebsap","Red-breasted Sapsucker","Sphyrapicus ruber","L453974","Oaks Bottom Wildlife Refuge","2025-05-14 08:43",1,45.4776166,-122.6553154,TRUE,FALSE,FALSE,"S237827500"
"42","rebsap","Red-breasted Sapsucker","Sphyrapicus ruber","L6318476","Washington-Kitsap Co.-Suquamish-north loop","2025-05-14 08:34",1,47.7394677,-122.5568247,TRUE,FALSE,TRUE,"S237884639"
"43","rebsap","Red-breasted Sapsucker","Sphyrapicus ruber","L571851","Railroad Bridge Park","2025-05-14 08:30",1,48.0853648,-123.14852,TRUE,FALSE,FALSE,"S237944256"
"44","rebsap","Red-breasted Sapsucker","Sphyrapicus ruber","L285631","Detroit Flats","2025-05-14 08:19",1,44.7290265,-122.1461259,TRUE,FALSE,FALSE,"S237815376"
"45","rebsap","Red-breasted Sapsucker","Sphyrapicus ruber","L580373","Tualatin River NWR","2025-05-14 08:17",1,45.3811203,-122.8353667,TRUE,FALSE,FALSE,"S237863329"
"46","rebsap","Red-breasted Sapsucker","Sphyrapicus ruber","L8238860","Cascade-Siskiyou National Monument, Ashland US-OR (42.0384,-122.5774)","2025-05-14 08:10",3,42.038359,-122.577398,TRUE,FALSE,TRUE,"S237877829"
"47","rebsap","Red-breasted Sapsucker","Sphyrapicus ruber","L45004143","2828 NE Enetai Beach Rd, Bremerton US-WA (private residence)","2025-05-14 08:09",1,47.583364,-122.603117,TRUE,FALSE,TRUE,"S237954876"
"48","rebsap","Red-breasted Sapsucker","Sphyrapicus ruber","L1090368","400 First St Quincy","2025-05-14 07:58",1,39.9268476,-120.898608,TRUE,FALSE,TRUE,"S237827229"
"49","rebsap","Red-breasted Sapsucker","Sphyrapicus ruber","L4407883","Catalyst WLT","2025-05-14 07:51",1,48.7097639,-122.196475,TRUE,FALSE,TRUE,"S237861641"
"50","rebsap","Red-breasted Sapsucker","Sphyrapicus ruber","L592967","Ridgefield NWR--River 'S' Unit","2025-05-14 07:46",1,45.7990694,-122.7490082,TRUE,FALSE,FALSE,"S237910552"
"51","rebsap","Red-breasted Sapsucker","Sphyrapicus ruber","L1348132","Running Y Ranch--Skillet Handle","2025-05-14 07:30",1,42.2953879,-121.8783287,TRUE,FALSE,FALSE,"S237816642"
"52","rebsap","Red-breasted Sapsucker","Sphyrapicus ruber","L1328313","River View Cemetery","2025-05-14 07:30",3,45.4634745,-122.6750071,TRUE,FALSE,FALSE,"S237828939"
"53","rebsap","Red-breasted Sapsucker","Sphyrapicus ruber","L801477","Pine Oak Lane","2025-05-14 07:22",1,39.9587302,-120.8893973,TRUE,FALSE,TRUE,"S237760220"
"54","rebsap","Red-breasted Sapsucker","Sphyrapicus ruber","L8079676","Red-tail Roost","2025-05-14 07:21",1,47.9008098,-122.5490918,TRUE,FALSE,TRUE,"S237874759"
"55","rebsap","Red-breasted Sapsucker","Sphyrapicus ruber","L15103814","4200 Northeast Lincoln Road, Poulsbo, Washington, US (47.761, -122.598)","2025-05-14 07:11",2,47.760553,-122.5980531,TRUE,FALSE,TRUE,"S237784477"
"56","rebsap","Red-breasted Sapsucker","Sphyrapicus ruber","L6330397","Quamash Prairie","2025-05-14 07:10",1,45.4047054,-122.926712,TRUE,FALSE,FALSE,"S237798990"
"57","rebsap","Red-breasted Sapsucker","Sphyrapicus ruber","L4403851","Mary McCallum Park (restricted access)","2025-05-14 07:08",1,43.8860899,-121.4590609,TRUE,FALSE,FALSE,"S237827919"
"58","rebsap","Red-breasted Sapsucker","Sphyrapicus ruber","L156866","Skinner Butte Park","2025-05-14 07:07",1,44.0580243,-123.0927828,TRUE,FALSE,FALSE,"S237815431"
"59","rebsap","Red-breasted Sapsucker","Sphyrapicus ruber","L1922848","Columbia Slough--122nd NE Ave.","2025-05-14 07:05",1,45.5608039,-122.5372767,TRUE,FALSE,FALSE,"S237751572"
"60","rebsap","Red-breasted Sapsucker","Sphyrapicus ruber","L44991127","24095 SW Scholls Ferry Rd, Hillsboro US-OR 45.40446, -122.92545","2025-05-14 06:46",1,45.404461,-122.925449,TRUE,FALSE,TRUE,"S237880394"
"61","rebsap","Red-breasted Sapsucker","Sphyrapicus ruber","L4497761","PLAYA Summer Lake","2025-05-14 06:30",1,42.805738,-120.791834,TRUE,FALSE,FALSE,"S237780243"
"62","rebsap","Red-breasted Sapsucker","Sphyrapicus ruber","L1170261","Blyth Park","2025-05-14 06:29",1,47.7504191,-122.2082877,TRUE,FALSE,FALSE,"S237767356"
"63","rebsap","Red-breasted Sapsucker","Sphyrapicus ruber","L7849151","casa dei viola_ private property no access","2025-05-14 06:27",1,42.063806,-122.609529,TRUE,FALSE,TRUE,"S237755434"
"64","rebsap","Red-breasted Sapsucker","Sphyrapicus ruber","L26947034","Home","2025-05-14 06:27",1,44.0280548,-123.1207504,TRUE,FALSE,TRUE,"S237772093"
"65","rebsap","Red-breasted Sapsucker","Sphyrapicus ruber","L1499624","Leino Lane","2025-05-14 06:26",1,40.0957823,-123.7998123,TRUE,FALSE,TRUE,"S237849424"
"66","rebsap","Red-breasted Sapsucker","Sphyrapicus ruber","L35766047","Casa Bergtree","2025-05-14 06:08",2,45.4647369,-122.6822682,TRUE,FALSE,TRUE,"S237746032"
"67","rebsap","Red-breasted Sapsucker","Sphyrapicus ruber","L2655982","Dow Road Freeland","2025-05-14 05:30",1,47.9839903,-122.5232649,TRUE,FALSE,TRUE,"S237743069"
"68","rebsap","Red-breasted Sapsucker","Sphyrapicus ruber","L44965914","721 Dawley Rd, Sequim US-WA 48.02921, -123.01739","2025-05-14 05:30",1,48.029209,-123.017392,TRUE,FALSE,TRUE,"S237747412"
"69","rebsap","Red-breasted Sapsucker","Sphyrapicus ruber","L1413967","Whitaker Ponds Nature Park","2025-05-13 18:52",1,45.5733692,-122.6113719,TRUE,FALSE,FALSE,"S237612785"
"70","rebsap","Red-breasted Sapsucker","Sphyrapicus ruber","L44939911","GOA 4622 Halibut Point Rd, Sitka US-AK 57.11537, -135.38927","2025-05-13 18:11",1,57.115371,-135.38927,TRUE,FALSE,TRUE,"S237594321"
"71","rebsap","Red-breasted Sapsucker","Sphyrapicus ruber","L712035","Willamette Greenway--Wapato Access","2025-05-13 18:00",1,45.6597554,-122.8409243,TRUE,FALSE,FALSE,"S237620565"
"72","rebsap","Red-breasted Sapsucker","Sphyrapicus ruber","L321969","Lake Sammamish SP","2025-05-13 17:58",2,47.5597558,-122.0549817,TRUE,FALSE,FALSE,"S237601559"
"73","rebsap","Red-breasted Sapsucker","Sphyrapicus ruber","L3245580","97225","2025-05-13 17:46",1,45.5130767,-122.7709575,TRUE,FALSE,TRUE,"S237577490"
"74","rebsap","Red-breasted Sapsucker","Sphyrapicus ruber","L2471276","Warren Creek Rd.","2025-05-13 17:32",2,40.8938564,-124.0253448,TRUE,FALSE,FALSE,"S237590023"
"75","rebsap","Red-breasted Sapsucker","Sphyrapicus ruber","L1563651","Witham Hill Natural Area","2025-05-13 16:25",1,44.5808312,-123.3020349,TRUE,FALSE,FALSE,"S237561454"
"76","rebsap","Red-breasted Sapsucker","Sphyrapicus ruber","L1617082","Pine Mt.--Pine Mountain Ridge Rd.","2025-05-13 16:19",2,34.6397787,-119.3332038,TRUE,FALSE,FALSE,"S237604810"
"77","rebsap","Red-breasted Sapsucker","Sphyrapicus ruber","L753291","Mt. Rainier NP--Longmire","2025-05-13 15:56",2,46.750859,-121.813488,TRUE,FALSE,FALSE,"S237601147"
"78","rebsap","Red-breasted Sapsucker","Sphyrapicus ruber","L17567266","Upper Beaver Pond","2025-05-13 15:53",1,45.4989929,-122.9566973,TRUE,FALSE,TRUE,"S237533929"
"79","rebsap","Red-breasted Sapsucker","Sphyrapicus ruber","L16439248","Pleasant Hill Seventh-day Adventist Church","2025-05-13 15:42",1,43.9804726,-122.9501086,TRUE,FALSE,FALSE,"S237606217"
"80","rebsap","Red-breasted Sapsucker","Sphyrapicus ruber","L286981","Point Defiance Park","2025-05-13 15:33",2,47.3069551,-122.5303152,TRUE,FALSE,FALSE,"S237536555"
"81","rebsap","Red-breasted Sapsucker","Sphyrapicus ruber","L7467533","Home, 9908 Sniktaw Lane, Fort Jones, California, US (41.597, -122.992)","2025-05-13 15:27",1,41.5967354,-122.9921955,TRUE,FALSE,TRUE,"S237812961"
"82","rebsap","Red-breasted Sapsucker","Sphyrapicus ruber","L726862","William L. Finley NWR--Woodpecker Loop","2025-05-13 15:19",1,44.4139574,-123.3382273,TRUE,FALSE,FALSE,"S237589896"
"83","rebsap","Red-breasted Sapsucker","Sphyrapicus ruber","L14388845","Trafton Trailhead Park","2025-05-13 15:01",1,48.238149,-122.077238,TRUE,FALSE,FALSE,"S237520021"
"84","rebsap","Red-breasted Sapsucker","Sphyrapicus ruber","L23444279","Down Woodard  Rd","2025-05-13 13:49",2,46.5726491,-122.8855217,TRUE,FALSE,TRUE,"S237519769"
"85","rebsap","Red-breasted Sapsucker","Sphyrapicus ruber","L30462703","Galvin Road","2025-05-13 13:41",1,46.7362338,-123.0215269,TRUE,FALSE,TRUE,"S237494346"
"86","rebsap","Red-breasted Sapsucker","Sphyrapicus ruber","L594031","Ackerson Meadow","2025-05-13 13:15",1,37.835,-119.847,TRUE,FALSE,FALSE,"S237948601"
"87","rebsap","Red-breasted Sapsucker","Sphyrapicus ruber","L4337832","Point Defiance Park--Rose Garden Pond","2025-05-13 13:12",1,47.3027739,-122.5167203,TRUE,FALSE,FALSE,"S237492003"
"88","rebsap","Red-breasted Sapsucker","Sphyrapicus ruber","L773245","Howard Miller Steelhead Park","2025-05-13 13:11",1,48.4849052,-121.5952313,TRUE,FALSE,FALSE,"S237491584"
"89","rebsap","Red-breasted Sapsucker","Sphyrapicus ruber","L878486","Plumas Eureka SP","2025-05-13 13:05",2,39.7520733,-120.7006073,TRUE,FALSE,FALSE,"S237481609"
"90","rebsap","Red-breasted Sapsucker","Sphyrapicus ruber","L30598752","Sultan--116th St SE PUD land","2025-05-13 12:58",1,47.8929898,-121.8109668,TRUE,FALSE,FALSE,"S237483035"
"91","rebsap","Red-breasted Sapsucker","Sphyrapicus ruber","L1049743","Christmas Lake","2025-05-13 12:58",1,47.4335452,-121.7602086,TRUE,FALSE,FALSE,"S237486334"
"92","rebsap","Red-breasted Sapsucker","Sphyrapicus ruber","L610091","Cougar Reservoir","2025-05-13 12:40",1,44.112733,-122.2345734,TRUE,FALSE,FALSE,"S237612748"
"93","rebsap","Red-breasted Sapsucker","Sphyrapicus ruber","L11805311","South Fork Floodplain Restoration Area","2025-05-13 12:29",1,47.1226239,-122.2435601,TRUE,FALSE,FALSE,"S237538691"
"94","rebsap","Red-breasted Sapsucker","Sphyrapicus ruber","L813905","Brown's Ferry Park","2025-05-13 12:19",1,45.3830796,-122.7380133,TRUE,FALSE,FALSE,"S237487975"
"95","rebsap","Red-breasted Sapsucker","Sphyrapicus ruber","L26441405","Middle Fork Feather--Jake's Island","2025-05-13 12:13",1,39.7534135,-120.5955504,TRUE,FALSE,TRUE,"S237464269"
"96","rebsap","Red-breasted Sapsucker","Sphyrapicus ruber","L270903","Mono Lake County Park","2025-05-13 11:35",3,38.0152767,-119.1486168,TRUE,FALSE,FALSE,"S237473442"
"97","rebsap","Red-breasted Sapsucker","Sphyrapicus ruber","L3590464","School Canyon Trail","2025-05-13 11:35",1,45.2997465,-121.3660097,TRUE,FALSE,FALSE,"S237512109"
"98","rebsap","Red-breasted Sapsucker","Sphyrapicus ruber","L285637","Calliope Crossing","2025-05-13 11:11",1,44.3507699,-121.5526056,TRUE,FALSE,FALSE,"S237479867"
"99","rebsap","Red-breasted Sapsucker","Sphyrapicus ruber","L1443305","Meadows home/garden","2025-05-13 11:00",2,42.0355188,-123.6416925,TRUE,FALSE,TRUE,"S237782595"
"100","rebsap","Red-breasted Sapsucker","Sphyrapicus ruber","L17031902","Black Oak Basin City Park","2025-05-13 10:57",1,44.0206691,-123.0448632,TRUE,FALSE,FALSE,"S237531858"
"101","rebsap","Red-breasted Sapsucker","Sphyrapicus ruber","L44931439","6412 23rd Ave NE, Tulalip US-WA Hibulb Cultural Center","2025-05-13 10:55",1,48.053589,-122.201123,TRUE,FALSE,TRUE,"S237530574"
"102","rebsap","Red-breasted Sapsucker","Sphyrapicus ruber","L3121366","Smith and Bybee Lakes--Wetland Interlakes Trail","2025-05-13 10:55",1,45.616676,-122.7266407,TRUE,FALSE,FALSE,"S237479355"
"103","rebsap","Red-breasted Sapsucker","Sphyrapicus ruber","L2723164","Whidbey Island--Lone Lake","2025-05-13 10:52",1,48.0237996,-122.4608184,TRUE,FALSE,FALSE,"S237762167"
"104","rebsap","Red-breasted Sapsucker","Sphyrapicus ruber","L37331427","Delta Ponds","2025-05-13 10:33",1,44.070931,-123.11183,TRUE,FALSE,TRUE,"S237597348"
"105","rebsap","Red-breasted Sapsucker","Sphyrapicus ruber","L1433384","Running Y Ranch","2025-05-13 10:23",2,42.28163,-121.88338,TRUE,FALSE,FALSE,"S237709522"
"106","rebsap","Red-breasted Sapsucker","Sphyrapicus ruber","L19632666","Dorena House","2025-05-13 10:15",1,43.691416,-122.758419,TRUE,FALSE,TRUE,"S237427487"
"107","rebsap","Red-breasted Sapsucker","Sphyrapicus ruber","L1158042","Marys River Natural Area","2025-05-13 10:03",1,44.5385194,-123.2853556,TRUE,FALSE,FALSE,"S237482661"
"108","rebsap","Red-breasted Sapsucker","Sphyrapicus ruber","L18182808","Clear Lake Resort","2025-05-13 10:00",1,44.374507,-121.998775,TRUE,FALSE,TRUE,"S237963814"
"109","rebsap","Red-breasted Sapsucker","Sphyrapicus ruber","L19752677","Sandy River Delta Recreation Area, Troutdale US-OR 45.55218, -122.36919","2025-05-13 09:28",1,45.552177,-122.369193,TRUE,FALSE,TRUE,"S237519593"
"110","rebsap","Red-breasted Sapsucker","Sphyrapicus ruber","L44930982","26609–26615 Finley Refuge Rd, Corvallis US-OR 44.41104, -123.34269","2025-05-13 09:26",1,44.411038,-123.342687,TRUE,FALSE,TRUE,"S237527458"
"111","rebsap","Red-breasted Sapsucker","Sphyrapicus ruber","L302585","Ridgefield NWR--Carty Unit","2025-05-13 09:18",1,45.8352931,-122.7499102,TRUE,FALSE,FALSE,"S237495597"
"112","rebsap","Red-breasted Sapsucker","Sphyrapicus ruber","L3199085","Green Valley Campground","2025-05-13 09:16",3,34.2449206,-117.0638497,TRUE,FALSE,FALSE,"S237522915"
"113","rebsap","Red-breasted Sapsucker","Sphyrapicus ruber","L35906228","Crabcake and Minnow's Yard List","2025-05-13 09:10",1,38.0411,-119.154349,TRUE,FALSE,TRUE,"S237390464"
"114","rebsap","Red-breasted Sapsucker","Sphyrapicus ruber","L44912968","Mariposa Grove Trail, Coulterville US-CA 37.50349, -119.60698","2025-05-13 09:10",1,37.503493,-119.606984,TRUE,FALSE,TRUE,"S237424328"
"115","rebsap","Red-breasted Sapsucker","Sphyrapicus ruber","L16943923","Camano home","2025-05-13 09:09",1,48.2269223,-122.5063489,TRUE,FALSE,TRUE,"S237413026"
"116","rebsap","Red-breasted Sapsucker","Sphyrapicus ruber","L322779","Wallace Falls State Park","2025-05-13 09:09",1,47.878347,-121.6571214,TRUE,FALSE,FALSE,"S237397533"
"117","rebsap","Red-breasted Sapsucker","Sphyrapicus ruber","L250091","Theler Wetlands","2025-05-13 09:08",1,47.4378813,-122.8411134,TRUE,FALSE,FALSE,"S237488589"
"118","rebsap","Red-breasted Sapsucker","Sphyrapicus ruber","L44933961","Burnt Woods Forest Road","2025-05-13 09:00",1,44.5956817,-123.6505174,TRUE,FALSE,TRUE,"S237548570"
"119","rebsap","Red-breasted Sapsucker","Sphyrapicus ruber","L34311621","Browns Crossing Wildlife Viewing Site","2025-05-13 08:59",1,43.7444989,-121.7819023,TRUE,FALSE,FALSE,"S237389307"
"120","rebsap","Red-breasted Sapsucker","Sphyrapicus ruber","L9306796","Svensen Island","2025-05-13 08:55",1,46.175724,-123.652065,TRUE,FALSE,TRUE,"S237482443"
"121","rebsap","Red-breasted Sapsucker","Sphyrapicus ruber","L11862972","44805 NW Leyman Rd, Banks US-OR 45.71267, -123.13588","2025-05-13 08:54",1,45.712671,-123.135876,TRUE,FALSE,TRUE,"S237387053"
"122","rebsap","Red-breasted Sapsucker","Sphyrapicus ruber","L1878770","Xanadu","2025-05-13 08:53",1,48.1149112,-122.8138214,TRUE,FALSE,TRUE,"S237387354"
"123","rebsap","Red-breasted Sapsucker","Sphyrapicus ruber","L5780859","WSU Vancouver Heritage Garden","2025-05-13 08:48",1,45.732128,-122.6276145,TRUE,FALSE,FALSE,"S237919457"
"124","rebsap","Red-breasted Sapsucker","Sphyrapicus ruber","L6214094","Herman Cr Rd, Cascade Locks US-OR (45.6896,-121.8338)","2025-05-13 08:39",2,45.689578,-121.833821,TRUE,FALSE,TRUE,"S237411422"
"125","rebsap","Red-breasted Sapsucker","Sphyrapicus ruber","L6295741","Coulter Creek Hatchery","2025-05-13 08:30",2,47.4072956,-122.8178787,TRUE,FALSE,FALSE,"S237455128"
"126","rebsap","Red-breasted Sapsucker","Sphyrapicus ruber","L9042725","Vedanta Retreat","2025-05-13 08:23",1,45.7107342,-122.9132156,TRUE,FALSE,FALSE,"S237484037"
"127","rebsap","Red-breasted Sapsucker","Sphyrapicus ruber","L39262636","Johnson Creek Park","2025-05-13 08:17",1,45.4607176,-122.6426339,TRUE,FALSE,FALSE,"S237364595"
"128","rebsap","Red-breasted Sapsucker","Sphyrapicus ruber","L42038109","Backyard 18138 Maury Mtn Ln","2025-05-13 08:13",1,43.903162,-121.418589,TRUE,FALSE,TRUE,"S237415262"
"129","rebsap","Red-breasted Sapsucker","Sphyrapicus ruber","L13849020","Wilkes Creek Headwaters Natural Area","2025-05-13 08:07",1,45.5468077,-122.505226,TRUE,FALSE,FALSE,"S237386498"
"130","rebsap","Red-breasted Sapsucker","Sphyrapicus ruber","L7613449","Maple Creek Reach (Whatcom Land Trust)","2025-05-13 08:05",1,48.9199274,-122.0708701,TRUE,FALSE,FALSE,"S237378593"
"131","rebsap","Red-breasted Sapsucker","Sphyrapicus ruber","L13818602","Jennings Heights","2025-05-13 08:04",1,45.40218,-122.59398,TRUE,FALSE,TRUE,"S237831119"
"132","rebsap","Red-breasted Sapsucker","Sphyrapicus ruber","L7178754","Skinner Butte Park, Eugene US-OR (44.0581,-123.0934)","2025-05-13 07:57",1,44.058076,-123.09336,TRUE,FALSE,TRUE,"S237377528"
"133","rebsap","Red-breasted Sapsucker","Sphyrapicus ruber","L29362416","Glenridge Drive","2025-05-13 07:47",1,44.603701,-123.299146,TRUE,FALSE,TRUE,"S237355194"
"134","rebsap","Red-breasted Sapsucker","Sphyrapicus ruber","L17364069","Auke Bay Area","2025-05-13 07:45",1,58.3909505,-134.6466887,TRUE,FALSE,TRUE,"S237407683"
"135","rebsap","Red-breasted Sapsucker","Sphyrapicus ruber","L4072947","Willamette Bluff","2025-05-13 07:45",1,45.5645874,-122.6986911,TRUE,FALSE,FALSE,"S237432506"
"136","rebsap","Red-breasted Sapsucker","Sphyrapicus ruber","L11990768","Marys Woods","2025-05-13 07:45",1,45.4016028,-122.6497377,TRUE,FALSE,TRUE,"S237431210"
"137","rebsap","Red-breasted Sapsucker","Sphyrapicus ruber","L128530","Discovery Park","2025-05-13 07:43",1,47.663868,-122.4215317,TRUE,FALSE,FALSE,"S237362212"
"138","rebsap","Red-breasted Sapsucker","Sphyrapicus ruber","L1062300","Columbia Children's Arboretum","2025-05-13 07:38",3,45.5929302,-122.6576328,TRUE,FALSE,FALSE,"S237473458"
"139","rebsap","Red-breasted Sapsucker","Sphyrapicus ruber","L728130","Sandy River Delta Park","2025-05-13 07:30",3,45.5473441,-122.3731899,TRUE,FALSE,FALSE,"S237858355"
"140","rebsap","Red-breasted Sapsucker","Sphyrapicus ruber","L672630","Minto-Brown Island Park","2025-05-13 07:20",3,44.924703,-123.0618095,TRUE,FALSE,FALSE,"S237385318"
"141","rebsap","Red-breasted Sapsucker","Sphyrapicus ruber","L886944","Cantrall-Buckley Park","2025-05-13 07:18",1,42.2207632,-123.0642128,TRUE,FALSE,FALSE,"S237458549"
"142","rebsap","Red-breasted Sapsucker","Sphyrapicus ruber","L2993848","Carrie Blake Park","2025-05-13 07:12",1,48.0800197,-123.0817978,TRUE,FALSE,FALSE,"S237441620"
"143","rebsap","Red-breasted Sapsucker","Sphyrapicus ruber","L601513","Nature Conservancy Foulweather Bluff Preserve","2025-05-13 06:56",1,47.9216197,-122.6001048,TRUE,FALSE,FALSE,"S237353732"
"144","rebsap","Red-breasted Sapsucker","Sphyrapicus ruber","L321279","Marymoor Park--Interpretive Trail","2025-05-13 06:23",1,47.6545148,-122.1077304,TRUE,FALSE,FALSE,"S237376484"
"145","rebsap","Red-breasted Sapsucker","Sphyrapicus ruber","L1937262","1. Alcyon Farm, 140 Oatfield Rd","2025-05-13 06:05",1,46.3237506,-123.4433707,TRUE,FALSE,TRUE,"S237313466"
"146","rebsap","Red-breasted Sapsucker","Sphyrapicus ruber","L200630","William L. Finley NWR--Snag Boat Bend Wildlife Area","2025-05-13 06:04",1,44.4257811,-123.2115311,TRUE,FALSE,FALSE,"S237377819"
"147","rebsap","Red-breasted Sapsucker","Sphyrapicus ruber","L15451109","Sitka--Indian River Trail","2025-05-13",2,57.0610471,-135.3047129,TRUE,FALSE,FALSE,"S237585334"
"148","rebsap","Red-breasted Sapsucker","Sphyrapicus ruber","L3171894","Auke Mountain home","2025-05-13",2,58.402122,-134.7534513,TRUE,FALSE,TRUE,"S237600160"
"149","rebsap","Red-breasted Sapsucker","Sphyrapicus ruber","L443195","Sitka (town)","2025-05-13",1,57.049881,-135.3335381,TRUE,FALSE,FALSE,"S237579993"
"150","rebsap","Red-breasted Sapsucker","Sphyrapicus ruber","L1003218","Sevenmile Guard Station","2025-05-12 23:08",2,42.7055736,-122.0744153,TRUE,FALSE,FALSE,"S237459776"
"151","rebsap","Red-breasted Sapsucker","Sphyrapicus ruber","L35861133","West Hylebos Wetlands Park","2025-05-12 17:45",1,47.287038,-122.32775,TRUE,FALSE,TRUE,"S237169203"
"152","rebsap","Red-breasted Sapsucker","Sphyrapicus ruber","L44866049","Sapsucker Spur Rd off Music Road","2025-05-12 17:28",2,45.7827393,-123.4099575,TRUE,FALSE,TRUE,"S237144907"
"153","rebsap","Red-breasted Sapsucker","Sphyrapicus ruber","L37598345","Madera’s old place","2025-05-12 17:03",2,48.676678,-122.151945,TRUE,FALSE,TRUE,"S237139311"
"154","rebsap","Red-breasted Sapsucker","Sphyrapicus ruber","L4927769","Portland Community College Rock Creek campus","2025-05-12 17:01",1,45.5692196,-122.8644417,TRUE,FALSE,FALSE,"S237164544"
"155","rebsap","Red-breasted Sapsucker","Sphyrapicus ruber","L755849","Ketchikan--Herring Cove/Bay","2025-05-12 16:11",1,55.3246522,-131.5211105,TRUE,FALSE,FALSE,"S237159793"
"156","rebsap","Red-breasted Sapsucker","Sphyrapicus ruber","L21498841","Juanita Bay, Kirkland US-WA 47.69813, -122.21210","2025-05-12 15:07",1,47.698131,-122.212098,TRUE,FALSE,TRUE,"S237080427"
"157","rebsap","Red-breasted Sapsucker","Sphyrapicus ruber","L4497940","Big Creek Campground and trails","2025-05-12 14:27",1,47.4929362,-123.2117683,TRUE,FALSE,FALSE,"S237154598"
"158","rebsap","Red-breasted Sapsucker","Sphyrapicus ruber","L14596316","97520, Ashland US-OR 42.07955, -122.60718","2025-05-12 14:24",1,42.079547,-122.607179,TRUE,FALSE,TRUE,"S237126625"
"159","rebsap","Red-breasted Sapsucker","Sphyrapicus ruber","L5954451","Mt. Hood Community College campus--Beaver Creek Overlook (near Facility Dept. dumpsters)","2025-05-12 14:19",1,45.5180006,-122.3903534,TRUE,FALSE,FALSE,"S237098229"
"160","rebsap","Red-breasted Sapsucker","Sphyrapicus ruber","L3104649","Cedar Mill Wetlands","2025-05-12 14:12",1,45.519647,-122.796581,TRUE,FALSE,FALSE,"S237096944"
"161","rebsap","Red-breasted Sapsucker","Sphyrapicus ruber","L3225689","Thomas Creek Farm","2025-05-12 13:43",1,45.118641,-122.584936,TRUE,FALSE,TRUE,"S237122094"
"162","rebsap","Red-breasted Sapsucker","Sphyrapicus ruber","L595393","Yosemite NP--Glacier Pt.","2025-05-12 13:40",1,37.7277555,-119.5751953,TRUE,FALSE,FALSE,"S237085502"
"163","rebsap","Red-breasted Sapsucker","Sphyrapicus ruber","L4756268","Field's Riffle","2025-05-12 13:38",1,47.9166297,-122.1268988,TRUE,FALSE,FALSE,"S237148604"
"164","rebsap","Red-breasted Sapsucker","Sphyrapicus ruber","L29370041","logsden 9.5","2025-05-12 13:30",1,44.728833,-123.7678208,TRUE,FALSE,TRUE,"S237200146"
"165","rebsap","Red-breasted Sapsucker","Sphyrapicus ruber","L15451995","Ridgeline Trail--Blanton Ridge trail","2025-05-12 13:19",1,44.007758,-123.108427,TRUE,FALSE,FALSE,"S237100021"
"166","rebsap","Red-breasted Sapsucker","Sphyrapicus ruber","L391210","Point Bridget SP","2025-05-12 13:15",2,58.6640847,-134.9630928,TRUE,FALSE,FALSE,"S237178113"
"167","rebsap","Red-breasted Sapsucker","Sphyrapicus ruber","L32127730","Davis creek riparian, 95490, Willits US-CA 39.43059, -123.33403","2025-05-12 12:05",1,39.430587,-123.33403,TRUE,FALSE,TRUE,"S237048658"
"168","rebsap","Red-breasted Sapsucker","Sphyrapicus ruber","L269461","Magnuson Park","2025-05-12 11:49",1,47.6815336,-122.2505453,TRUE,FALSE,FALSE,"S237097958"
"169","rebsap","Red-breasted Sapsucker","Sphyrapicus ruber","L11206455","116th SE, sultan","2025-05-12 11:40",2,47.8930996,-121.8105533,TRUE,FALSE,TRUE,"S237092505"
"170","rebsap","Red-breasted Sapsucker","Sphyrapicus ruber","L3292869","Dungeness NWR--forest trails","2025-05-12 11:18",1,48.1444053,-123.1874228,TRUE,FALSE,FALSE,"S237915886"
"171","rebsap","Red-breasted Sapsucker","Sphyrapicus ruber","L15284819","9 Alpine Court, Vader, Washington, US (46.398, -122.952)","2025-05-12 11:00",1,46.3976896,-122.9516277,TRUE,FALSE,TRUE,"S237028481"
"172","rebsap","Red-breasted Sapsucker","Sphyrapicus ruber","L234899","Onella Road","2025-05-12 10:37",1,48.1246785,-123.6607628,TRUE,FALSE,TRUE,"S237011844"
"173","rebsap","Red-breasted Sapsucker","Sphyrapicus ruber","L3870544","Ketchikan Int. Airport--floatplane base","2025-05-12 10:26",1,55.3585752,-131.7118864,TRUE,FALSE,FALSE,"S237198380"
"174","rebsap","Red-breasted Sapsucker","Sphyrapicus ruber","L8327288","Napavine Community Park","2025-05-12 10:20",1,46.5747198,-122.9152258,TRUE,FALSE,FALSE,"S236999162"
"175","rebsap","Red-breasted Sapsucker","Sphyrapicus ruber","L44843677","Lower Lundy Canyon","2025-05-12 09:45",1,38.030721,-119.178671,TRUE,FALSE,TRUE,"S237009444"
"176","rebsap","Red-breasted Sapsucker","Sphyrapicus ruber","L2465026","Pack Forest","2025-05-12 09:42",1,46.8331278,-122.3088736,TRUE,FALSE,FALSE,"S237017191"
"177","rebsap","Red-breasted Sapsucker","Sphyrapicus ruber","L2417450","Osprey Park","2025-05-12 09:40",1,47.8708,-121.82097,TRUE,FALSE,FALSE,"S237032037"
"178","rebsap","Red-breasted Sapsucker","Sphyrapicus ruber","L333703","Point Arena vicinity","2025-05-12 09:11",3,38.9134426,-123.7052393,TRUE,FALSE,FALSE,"S237176160"
"179","rebsap","Red-breasted Sapsucker","Sphyrapicus ruber","L751058","Goose Lake State Recreation Area (Oregon)","2025-05-12 08:52",1,41.9941909,-120.3235781,TRUE,FALSE,FALSE,"S236994550"
"180","rebsap","Red-breasted Sapsucker","Sphyrapicus ruber","L44841515","Besr Creek Wetland, Northeast 143rd Street, Woodinville, Washington, US (47.73, -122.072)","2025-05-12 08:49",1,47.7302179,-122.0715148,TRUE,FALSE,TRUE,"S236997193"
"181","rebsap","Red-breasted Sapsucker","Sphyrapicus ruber","L526876","Black Lake Meadows and Ditch","2025-05-12 08:40",1,47.0275463,-122.9455948,TRUE,FALSE,FALSE,"S237184386"
"182","rebsap","Red-breasted Sapsucker","Sphyrapicus ruber","L29407716","Front yard","2025-05-12 08:36",1,46.299224,-122.709318,TRUE,FALSE,TRUE,"S236929857"
"183","rebsap","Red-breasted Sapsucker","Sphyrapicus ruber","L6480936","Meadowbrook Marsh Park","2025-05-12 08:17",1,45.636408,-122.58108,TRUE,FALSE,FALSE,"S236956743"
"184","rebsap","Red-breasted Sapsucker","Sphyrapicus ruber","L7623361","Illahe Hills Country Club (restricted access)","2025-05-12 08:03",1,44.907703,-123.109568,TRUE,FALSE,FALSE,"S236990892"
"185","rebsap","Red-breasted Sapsucker","Sphyrapicus ruber","L9955160","Skokomish Valley Farms","2025-05-12 07:58",1,47.3267418,-123.2391792,TRUE,FALSE,FALSE,"S237155603"
"186","rebsap","Red-breasted Sapsucker","Sphyrapicus ruber","L10674741","Starrigavan Bay","2025-05-12 07:58",1,57.1328719,-135.3708656,TRUE,FALSE,TRUE,"S237399391"
"187","rebsap","Red-breasted Sapsucker","Sphyrapicus ruber","L20681433","Fishers Creek","2025-05-12 07:46",1,45.590187,-122.489292,TRUE,FALSE,TRUE,"S236899364"
"188","rebsap","Red-breasted Sapsucker","Sphyrapicus ruber","L9212227","Stossel Creek","2025-05-12 07:19",1,47.7330849,-121.8512901,TRUE,FALSE,FALSE,"S237034078"
"189","rebsap","Red-breasted Sapsucker","Sphyrapicus ruber","L514231","Snoqualmie Wildlife Area--Stillwater Unit","2025-05-12 07:15",3,47.6829127,-121.9239418,TRUE,FALSE,FALSE,"S237103405"
"190","rebsap","Red-breasted Sapsucker","Sphyrapicus ruber","L1393937","Frenchman's Bar Regional Park","2025-05-12 07:15",2,45.6839012,-122.7676324,TRUE,FALSE,FALSE,"S237081147"
"191","rebsap","Red-breasted Sapsucker","Sphyrapicus ruber","L44827016","Eugene-Deerwood RV Park","2025-05-12 07:00",1,43.9957243,-123.0002723,TRUE,FALSE,TRUE,"S236921433"
"192","rebsap","Red-breasted Sapsucker","Sphyrapicus ruber","L21252557","HJ Andrews Experimental Forest","2025-05-12 07:00",2,44.2122161,-122.2552478,TRUE,FALSE,FALSE,"S237146140"
"193","rebsap","Red-breasted Sapsucker","Sphyrapicus ruber","L1123211","Creswell House","2025-05-12 06:50",2,43.8948966,-122.9290871,TRUE,FALSE,TRUE,"S236910603"
"194","rebsap","Red-breasted Sapsucker","Sphyrapicus ruber","L26622906","Spoonyville","2025-05-12 06:36",1,45.474281,-122.682671,TRUE,FALSE,TRUE,"S236856619"
"195","rebsap","Red-breasted Sapsucker","Sphyrapicus ruber","L39893944","Faulhaber Rd.","2025-05-12 06:30",3,44.0661831,-123.3666525,TRUE,FALSE,TRUE,"S237204234"
"196","rebsap","Red-breasted Sapsucker","Sphyrapicus ruber","L3631645","Sitka--Indian River-East Tidal Flat","2025-05-12 06:17",1,57.044769,-135.3130417,TRUE,FALSE,FALSE,"S236899801"
"197","rebsap","Red-breasted Sapsucker","Sphyrapicus ruber","L351484","Marymoor Park","2025-05-12 06:14",1,47.662576,-122.12052,TRUE,FALSE,FALSE,"S236926320"
"198","rebsap","Red-breasted Sapsucker","Sphyrapicus ruber","L764898","Miner Hole Rd.","2025-05-12 06:04",2,38.9424545,-123.7201309,TRUE,FALSE,FALSE,"S237176645"
"199","rebsap","Red-breasted Sapsucker","Sphyrapicus ruber","L2137844","BPA powerline/ridgeline trail","2025-05-12 05:21",1,43.99542,-123.07923,TRUE,FALSE,TRUE,"S236859348"
"200","rebsap","Red-breasted Sapsucker","Sphyrapicus ruber","L33754947","The Project","2025-05-11 19:38",1,46.676318,-123.742302,TRUE,FALSE,TRUE,"S236707697"
"201","rebsap","Red-breasted Sapsucker","Sphyrapicus ruber","L44788021","Cowee Creek Trail, Juneau US-AK (58.6557,-134.9185)","2025-05-11 17:20",3,58.655671,-134.918458,TRUE,FALSE,TRUE,"S236692729"
"202","rebsap","Red-breasted Sapsucker","Sphyrapicus ruber","L44787444","461 W Old Olympic Hwy, Olympia US-WA 47.09202, -123.08458","2025-05-11 17:02",1,47.092021,-123.084575,TRUE,FALSE,TRUE,"S236689220"
"203","rebsap","Red-breasted Sapsucker","Sphyrapicus ruber","L3530579","Willamette River Greenway Trail (Clackamas Co.)","2025-05-11 16:08",2,45.3718203,-122.6161551,TRUE,FALSE,FALSE,"S236696182"
"204","rebsap","Red-breasted Sapsucker","Sphyrapicus ruber","L738429","Belfair State Park","2025-05-11 15:38",1,47.4293937,-122.8781319,TRUE,FALSE,FALSE,"S236639636"
"205","rebsap","Red-breasted Sapsucker","Sphyrapicus ruber","L44776316","1922–2250 Center Rd, Chimacum US-WA 47.98218, -122.77111","2025-05-11 15:31",1,47.982183,-122.771111,TRUE,FALSE,TRUE,"S236622804"
"206","rebsap","Red-breasted Sapsucker","Sphyrapicus ruber","L486310","Sly Park Rec Area","2025-05-11 15:28",1,38.7210101,-120.5626774,TRUE,FALSE,FALSE,"S236666259"
"207","rebsap","Red-breasted Sapsucker","Sphyrapicus ruber","L28452247","Petersburg - Airport (waterline) Access Road","2025-05-11 15:22",1,56.7986453,-132.9462761,TRUE,FALSE,TRUE,"S236725701"
"208","rebsap","Red-breasted Sapsucker","Sphyrapicus ruber","L159602","Silver Falls SP","2025-05-11 15:17",1,44.8625491,-122.6326561,TRUE,FALSE,FALSE,"S236976525"
"209","rebsap","Red-breasted Sapsucker","Sphyrapicus ruber","L1585980","Rush Creek inlet to Grant Lake","2025-05-11 15:12",1,37.8105676,-119.1095028,TRUE,FALSE,TRUE,"S236676718"
"210","rebsap","Red-breasted Sapsucker","Sphyrapicus ruber","L2812781","River Park (SIS Co.)","2025-05-11 14:59",NA,41.7942244,-123.3699846,TRUE,FALSE,FALSE,"S236636596"
"211","rebsap","Red-breasted Sapsucker","Sphyrapicus ruber","L7882515","Shady Acre, Warren","2025-05-11 14:54",1,45.8302941,-122.8464024,TRUE,FALSE,TRUE,"S236641816"
"212","rebsap","Red-breasted Sapsucker","Sphyrapicus ruber","L7127346","kruzoff island - little ponds on sea lion cove trail","2025-05-11 13:54",1,57.3019087,-135.8099413,TRUE,FALSE,TRUE,"S237582804"
"213","rebsap","Red-breasted Sapsucker","Sphyrapicus ruber","L2414243","Sandy River Mouth--West Bank","2025-05-11 13:47",1,45.5644545,-122.3985904,TRUE,FALSE,FALSE,"S236634122"
"214","rebsap","Red-breasted Sapsucker","Sphyrapicus ruber","L1363011","Huntington Lake--boat ramp","2025-05-11 13:37",1,37.2504632,-119.1732478,TRUE,FALSE,FALSE,"S236619427"
"215","rebsap","Red-breasted Sapsucker","Sphyrapicus ruber","L390444","Markleeville","2025-05-11 13:27",2,38.6945372,-119.7799659,TRUE,FALSE,FALSE,"S236587570"
"216","rebsap","Red-breasted Sapsucker","Sphyrapicus ruber","L15802071","Silver Falls State Park, Sublimity US-OR 44.88262, -122.66819","2025-05-11 12:52",1,44.88262,-122.668193,TRUE,FALSE,TRUE,"S236676501"
"217","rebsap","Red-breasted Sapsucker","Sphyrapicus ruber","L9974891","Bullard Lake","2025-05-11 12:07",2,48.7083128,-122.4408759,TRUE,FALSE,FALSE,"S236538732"
"218","rebsap","Red-breasted Sapsucker","Sphyrapicus ruber","L1252255","Big Pine Canyon--Glacier Lodge and campgrounds","2025-05-11 11:49",3,37.1264497,-118.4315786,TRUE,FALSE,FALSE,"S236604839"
"219","rebsap","Red-breasted Sapsucker","Sphyrapicus ruber","L44760183","Bald Hill Parking Path","2025-05-11 11:47",1,44.561064,-123.328645,TRUE,FALSE,TRUE,"S236542928"
"220","rebsap","Red-breasted Sapsucker","Sphyrapicus ruber","L43418988","NF-4600-330  at 1.4 mi","2025-05-11 11:41",1,44.8499585,-121.8884656,TRUE,FALSE,TRUE,"S237364669"
"221","rebsap","Red-breasted Sapsucker","Sphyrapicus ruber","L44768279","Crown Zellerbach Logging Road, Scappoose US-OR 45.82479, -122.96789","2025-05-11 11:36",2,45.824786,-122.967888,TRUE,FALSE,TRUE,"S236581875"
"222","rebsap","Red-breasted Sapsucker","Sphyrapicus ruber","L33183671","Meskill Rd","2025-05-11 11:24",1,46.6210783,-123.1488122,TRUE,FALSE,TRUE,"S236510007"
"223","rebsap","Red-breasted Sapsucker","Sphyrapicus ruber","L1170702","West Hylebos Wetlands Park","2025-05-11 11:11",1,47.2896511,-122.329073,TRUE,FALSE,FALSE,"S236572785"
"224","rebsap","Red-breasted Sapsucker","Sphyrapicus ruber","L807150","Willamette Park (Benton Co.)","2025-05-11 11:09",1,44.5410582,-123.2462597,TRUE,FALSE,FALSE,"S236485489"
"225","rebsap","Red-breasted Sapsucker","Sphyrapicus ruber","L10674875","Camp 18","2025-05-11 11:00",1,45.8861622,-123.6149025,TRUE,FALSE,FALSE,"S236477508"
"226","rebsap","Red-breasted Sapsucker","Sphyrapicus ruber","L23834283","Castle Lanzenstein","2025-05-11 10:32",1,47.305894,-123.075799,TRUE,FALSE,TRUE,"S236524790"
"227","rebsap","Red-breasted Sapsucker","Sphyrapicus ruber","L489469","Mt. Rainier NP--Paradise","2025-05-11 10:30",1,46.7871318,-121.7340088,TRUE,FALSE,FALSE,"S237410410"
"228","rebsap","Red-breasted Sapsucker","Sphyrapicus ruber","L2862330","Manastash Ridge Trail System--Cove Road","2025-05-11 10:30",1,46.9656,-120.6459,TRUE,FALSE,FALSE,"S236665683"
"229","rebsap","Red-breasted Sapsucker","Sphyrapicus ruber","L282253","Billy Frank Jr. Nisqually NWR","2025-05-11 10:25",1,47.0812514,-122.7180576,TRUE,FALSE,FALSE,"S236584708"
"230","rebsap","Red-breasted Sapsucker","Sphyrapicus ruber","L6110641","Olympic NF--Lower Skokomish Trail mile 0-5","2025-05-11 10:09",3,47.4279256,-123.3523789,TRUE,FALSE,FALSE,"S236698137"
"231","rebsap","Red-breasted Sapsucker","Sphyrapicus ruber","L520659","McLane Creek Nature Trail","2025-05-11 10:00",NA,47.0005389,-123.0049896,TRUE,FALSE,FALSE,"S237742728"
"232","rebsap","Red-breasted Sapsucker","Sphyrapicus ruber","L8315368","Jubilee Beach","2025-05-11 10:00",1,47.1052388,-122.7367076,TRUE,FALSE,TRUE,"S236627799"
"233","rebsap","Red-breasted Sapsucker","Sphyrapicus ruber","L41658468","Reed College west off-leash area","2025-05-11 09:46",1,45.4838,-122.635819,TRUE,FALSE,TRUE,"S236453922"
"234","rebsap","Red-breasted Sapsucker","Sphyrapicus ruber","L1015237","Wrangell--City Dock","2025-05-11 09:45",1,56.4709629,-132.3887193,TRUE,FALSE,FALSE,"S236504001"
"235","rebsap","Red-breasted Sapsucker","Sphyrapicus ruber","L4754125","Haines--Haines Birdwatching Trail","2025-05-11 09:37",1,59.2331567,-135.4552341,TRUE,FALSE,FALSE,"S237182673"
"236","rebsap","Red-breasted Sapsucker","Sphyrapicus ruber","L1970587","Skookum Inlet","2025-05-11 09:30",1,47.1473548,-123.0592879,TRUE,FALSE,FALSE,"S236563539"
"237","rebsap","Red-breasted Sapsucker","Sphyrapicus ruber","L2281639","Blue Lake Regional Park","2025-05-11 09:26",1,45.5547651,-122.4477839,TRUE,FALSE,FALSE,"S236447895"
"238","rebsap","Red-breasted Sapsucker","Sphyrapicus ruber","L6874125","Parker Lake","2025-05-11 09:24",1,37.8357508,-119.1557515,TRUE,FALSE,FALSE,"S236638636"
"239","rebsap","Red-breasted Sapsucker","Sphyrapicus ruber","L294186","Willamette Park--South Side","2025-05-11 09:22",1,44.5373738,-123.2487487,TRUE,FALSE,FALSE,"S236455712"
"240","rebsap","Red-breasted Sapsucker","Sphyrapicus ruber","L3106819","Whites Creek Canyon","2025-05-11 09:17",2,39.3818286,-119.845916,TRUE,FALSE,FALSE,"S236480216"
"241","rebsap","Red-breasted Sapsucker","Sphyrapicus ruber","L2847144","Bellingham--Cedar and Pine Lake Trail","2025-05-11 09:10",1,48.6768504,-122.4474764,TRUE,FALSE,FALSE,"S236511430"
"242","rebsap","Red-breasted Sapsucker","Sphyrapicus ruber","L685396","The Oregon Garden","2025-05-11 09:09",1,44.9947066,-122.79037,TRUE,FALSE,FALSE,"S236540314"
"243","rebsap","Red-breasted Sapsucker","Sphyrapicus ruber","L931349","William L. Finley NWR--Mill Hill Loop","2025-05-11 09:04",1,44.401564,-123.3449221,TRUE,FALSE,FALSE,"S236575971"
"244","rebsap","Red-breasted Sapsucker","Sphyrapicus ruber","L4037120","Oakbrook","2025-05-11 09:00",1,47.1904707,-122.5573397,TRUE,FALSE,TRUE,"S236434843"
"245","rebsap","Red-breasted Sapsucker","Sphyrapicus ruber","L18316109","103 Hillcrest, Thorne Bay, Alaska, US (55.688, -132.524)","2025-05-11 08:59",3,55.6881166,-132.5244388,TRUE,FALSE,TRUE,"S236472580"
"246","rebsap","Red-breasted Sapsucker","Sphyrapicus ruber","L1080782","Spanish Creek and Greenhorn Creek confluence","2025-05-11 08:40",1,39.9682403,-120.9153557,TRUE,FALSE,FALSE,"S236921183"
"247","rebsap","Red-breasted Sapsucker","Sphyrapicus ruber","L298030","Carkeek Park","2025-05-11 08:40",1,47.7126411,-122.377647,TRUE,FALSE,FALSE,"S236448327"
"248","rebsap","Red-breasted Sapsucker","Sphyrapicus ruber","L285943","Bird Alliance of Oregon Sanctuary (formerly Portland Audubon)","2025-05-11 08:38",1,45.5277023,-122.7291892,TRUE,FALSE,FALSE,"S236886384"
"249","rebsap","Red-breasted Sapsucker","Sphyrapicus ruber","L996128","Yosemite NP--Mariposa Grove","2025-05-11 08:34",1,37.51,-119.603,TRUE,FALSE,FALSE,"S236544825"
"250","rebsap","Red-breasted Sapsucker","Sphyrapicus ruber","L10056263","Hyatt Prairie Rd.--Dead Indian Memorial Rd.","2025-05-11 08:31",1,42.2658752,-122.4492359,TRUE,FALSE,FALSE,"S236368327"
"251","rebsap","Red-breasted Sapsucker","Sphyrapicus ruber","L44641292","Clark","2025-05-11 08:30",1,45.6082182,-122.5464596,TRUE,FALSE,TRUE,"S236410434"
"252","rebsap","Red-breasted Sapsucker","Sphyrapicus ruber","L1323033","Crown Zellerbach Trail (east end)","2025-05-11 08:29",1,45.754063,-122.850469,TRUE,FALSE,FALSE,"S236571212"
"253","rebsap","Red-breasted Sapsucker","Sphyrapicus ruber","L12821158","Pomin Park","2025-05-11 08:27",1,39.1828302,-120.1207995,TRUE,FALSE,FALSE,"S236407636"
"254","rebsap","Red-breasted Sapsucker","Sphyrapicus ruber","L192934","Mercer Slough","2025-05-11 08:24",1,47.5891498,-122.1867639,TRUE,FALSE,FALSE,"S237173032"
"255","rebsap","Red-breasted Sapsucker","Sphyrapicus ruber","L3265636","Pisgah arboretum","2025-05-11 08:18",1,44.006778,-122.981548,TRUE,FALSE,TRUE,"S236547517"
"256","rebsap","Red-breasted Sapsucker","Sphyrapicus ruber","L3645591","Fall Fire Burn Area","2025-05-11 08:09",2,39.3791812,-120.676851,TRUE,FALSE,FALSE,"S236714247"
"257","rebsap","Red-breasted Sapsucker","Sphyrapicus ruber","L2335446","Lake Valley Rd.","2025-05-11 08:01",1,39.3057287,-120.6099701,TRUE,FALSE,FALSE,"S236445520"
"258","rebsap","Red-breasted Sapsucker","Sphyrapicus ruber","L11228041","Tilley Rd","2025-05-11 08:00",NA,46.8899869,-122.9116614,TRUE,FALSE,TRUE,"S237747079"
"259","rebsap","Red-breasted Sapsucker","Sphyrapicus ruber","L519603","Dorris Ranch","2025-05-11 07:55",1,44.0310865,-123.0209541,TRUE,FALSE,FALSE,"S236327207"
"260","rebsap","Red-breasted Sapsucker","Sphyrapicus ruber","L17445756","Solar Peak","2025-05-11 07:53",1,43.999707,-123.106626,TRUE,FALSE,TRUE,"S236697265"
"261","rebsap","Red-breasted Sapsucker","Sphyrapicus ruber","L5125288","Deverell Rd.","2025-05-11 07:50",1,45.504971,-122.204159,TRUE,FALSE,FALSE,"S236407269"
"262","rebsap","Red-breasted Sapsucker","Sphyrapicus ruber","L2356308","Fuller Lake","2025-05-11 07:41",2,39.3455402,-120.6510401,TRUE,FALSE,FALSE,"S236836074"
"263","rebsap","Red-breasted Sapsucker","Sphyrapicus ruber","L816594","Bloedel Reserve","2025-05-11 07:30",1,47.7078556,-122.5485849,TRUE,FALSE,FALSE,"S236415240"
"264","rebsap","Red-breasted Sapsucker","Sphyrapicus ruber","L5172043","Lester's yard, McKinleyville, CA","2025-05-11 07:30",1,40.9230988,-124.0836775,TRUE,FALSE,TRUE,"S236545700"
"265","rebsap","Red-breasted Sapsucker","Sphyrapicus ruber","L25914336","Pt Bridget Trail 99801, Juneau US-AK 58.65105, -134.93665","2025-05-11 07:24",2,58.651053,-134.936655,TRUE,FALSE,TRUE,"S236610580"
"266","rebsap","Red-breasted Sapsucker","Sphyrapicus ruber","L3780450","Marymoor Park--Rowing Club","2025-05-11 07:17",1,47.6537387,-122.1152258,TRUE,FALSE,FALSE,"S236342406"
"267","rebsap","Red-breasted Sapsucker","Sphyrapicus ruber","L30759734","Hemlock House (private)","2025-05-11 07:15",2,59.46649,-135.3177108,TRUE,FALSE,TRUE,"S236389588"
"268","rebsap","Red-breasted Sapsucker","Sphyrapicus ruber","L8647568","Massey Creek Meadow","2025-05-11 07:10",2,39.9424082,-121.0528757,TRUE,FALSE,TRUE,"S236436948"
"269","rebsap","Red-breasted Sapsucker","Sphyrapicus ruber","L4444849","Riverview Wildlife Refuge / Snohomish Wastewater Treatment Plant","2025-05-11 06:58",1,47.9136122,-122.1063477,TRUE,FALSE,FALSE,"S236276604"
"270","rebsap","Red-breasted Sapsucker","Sphyrapicus ruber","L29884179","Auke Bay-Yard and Point","2025-05-11 06:46",1,58.362498,-134.64417,TRUE,FALSE,TRUE,"S236923435"
"271","rebsap","Red-breasted Sapsucker","Sphyrapicus ruber","L42260479","Palo Alto Rd--upper meadow","2025-05-11 06:20",2,47.987831,-123.0909234,TRUE,FALSE,FALSE,"S236360562"
"272","rebsap","Red-breasted Sapsucker","Sphyrapicus ruber","L915190","Wolf Haven International","2025-05-11 06:17",1,46.9035156,-122.8481233,TRUE,FALSE,FALSE,"S236517791"
"273","rebsap","Red-breasted Sapsucker","Sphyrapicus ruber","L589444","Yosemite NP--Hodgdon Meadow","2025-05-11 06:10",2,37.7955424,-119.8623848,TRUE,FALSE,FALSE,"S236946573"
"274","rebsap","Red-breasted Sapsucker","Sphyrapicus ruber","L1124219","Crystal Lake Rec Area","2025-05-11 06:08",1,34.3242464,-117.8353643,TRUE,FALSE,FALSE,"S236482465"
"275","rebsap","Red-breasted Sapsucker","Sphyrapicus ruber","L11289215","Friday Ridge Road: burn area","2025-05-11 05:55",1,40.8872948,-123.6145604,TRUE,FALSE,TRUE,"S236671622"
"276","rebsap","Red-breasted Sapsucker","Sphyrapicus ruber","L6540195","Dusty Campground","2025-05-11 05:18",1,41.0154782,-121.610831,TRUE,FALSE,FALSE,"S236301288"
"277","rebsap","Red-breasted Sapsucker","Sphyrapicus ruber","L1305371","Balsam Meadows Sno-Park","2025-05-10 19:49",1,37.1594102,-119.2434061,TRUE,FALSE,FALSE,"S236040241"
"278","rebsap","Red-breasted Sapsucker","Sphyrapicus ruber","L894831","Freshwater Bay","2025-05-10 19:33",2,48.1461024,-123.6414242,TRUE,FALSE,FALSE,"S236036735"
"279","rebsap","Red-breasted Sapsucker","Sphyrapicus ruber","L3015768","NF-290--north end","2025-05-10 19:24",1,43.0117734,-120.8060932,TRUE,FALSE,FALSE,"S236048404"
"280","rebsap","Red-breasted Sapsucker","Sphyrapicus ruber","L44567360","Tower Rock U-Fish RV Park","2025-05-10 19:10",1,46.4444736,-121.8872129,TRUE,FALSE,TRUE,"S236034265"
"281","rebsap","Red-breasted Sapsucker","Sphyrapicus ruber","L160286","Tacoma Nature Center/Snake Lake","2025-05-10 18:57",1,47.2407274,-122.4925088,TRUE,FALSE,FALSE,"S236039625"
"282","rebsap","Red-breasted Sapsucker","Sphyrapicus ruber","L1323230","Capitol Forest -- Delphi Entrance","2025-05-10 18:44",1,46.9470396,-123.0714226,TRUE,FALSE,FALSE,"S236074294"
"283","rebsap","Red-breasted Sapsucker","Sphyrapicus ruber","L14828608","9415 SW 18th Pl, Portland US-OR 45.45681, -122.69673","2025-05-10 18:40",1,45.456814,-122.696731,TRUE,FALSE,TRUE,"S236033125"
"284","rebsap","Red-breasted Sapsucker","Sphyrapicus ruber","L15553365","Oregon Golf Association, Woodburn US-OR 45.15625, -122.84374","2025-05-10 18:37",1,45.156248,-122.843736,TRUE,FALSE,TRUE,"S236033220"
"285","rebsap","Red-breasted Sapsucker","Sphyrapicus ruber","L22139333","Mill Pond, Trinity River Lumber, Weaverville","2025-05-10 17:56",1,40.7245011,-122.9297167,TRUE,FALSE,TRUE,"S236029821"
"286","rebsap","Red-breasted Sapsucker","Sphyrapicus ruber","L832651","Ankeny NWR--Eagle Marsh","2025-05-10 17:50",1,44.7967032,-123.0813789,TRUE,FALSE,FALSE,"S236040675"
"287","rebsap","Red-breasted Sapsucker","Sphyrapicus ruber","L756344","Camas Meadows","2025-05-10 17:27",3,47.4724308,-120.5849934,TRUE,FALSE,FALSE,"S236311219"
"288","rebsap","Red-breasted Sapsucker","Sphyrapicus ruber","L20530545","Madrona Terrace Sequim, WA","2025-05-10 17:24",1,48.121386,-123.13874,TRUE,FALSE,TRUE,"S236018078"
"289","rebsap","Red-breasted Sapsucker","Sphyrapicus ruber","L2357080","Horse Meadows Rd.","2025-05-10 16:54",1,37.9321482,-119.121623,TRUE,FALSE,FALSE,"S236014908"
"290","rebsap","Red-breasted Sapsucker","Sphyrapicus ruber","L464628","Tehachapi Mountain Park","2025-05-10 16:54",1,35.0662682,-118.4836564,TRUE,FALSE,FALSE,"S236077547"
"291","rebsap","Red-breasted Sapsucker","Sphyrapicus ruber","L17403073","1300 line to gate, Toutle, Washington, US (46.291, -122.74)","2025-05-10 16:49",1,46.2908591,-122.7404629,TRUE,FALSE,TRUE,"S235979124"
"292","rebsap","Red-breasted Sapsucker","Sphyrapicus ruber","L44597640","Studebaker Spur 1","2025-05-10 16:18",1,46.300914,-122.893252,TRUE,FALSE,TRUE,"S236014783"
"293","rebsap","Red-breasted Sapsucker","Sphyrapicus ruber","L17197580","Juneau -- Outer Point Loop Trail","2025-05-10 16:14",2,58.2996411,-134.6685755,TRUE,FALSE,TRUE,"S236010655"
"294","rebsap","Red-breasted Sapsucker","Sphyrapicus ruber","L905903","Grizzly Peak","2025-05-10 16:10",1,42.27127,-122.60934,TRUE,FALSE,FALSE,"S236023852"
"295","rebsap","Red-breasted Sapsucker","Sphyrapicus ruber","L384723","Squires Lake","2025-05-10 15:46",1,48.64584,-122.353878,TRUE,FALSE,FALSE,"S235983337"
"296","rebsap","Red-breasted Sapsucker","Sphyrapicus ruber","L4846321","Sierra Cedars Meadow","2025-05-10 15:28",1,37.0822457,-119.3100897,TRUE,FALSE,FALSE,"S235942403"
"297","rebsap","Red-breasted Sapsucker","Sphyrapicus ruber","L1403928","John Neal Memorial Park","2025-05-10 15:06",1,44.7823649,-122.6085624,TRUE,FALSE,FALSE,"S236044425"
"298","rebsap","Red-breasted Sapsucker","Sphyrapicus ruber","L44657166","China Peak Mountain Resort, Shaver Lake US-CA 37.23596, -119.15736","2025-05-10 15:03",1,37.235961,-119.157363,TRUE,FALSE,TRUE,"S236000592"
"299","rebsap","Red-breasted Sapsucker","Sphyrapicus ruber","L7733444","Rock Creek Trail","2025-05-10 14:57",1,45.5414651,-122.8886032,TRUE,FALSE,FALSE,"S235930508"
"300","rebsap","Red-breasted Sapsucker","Sphyrapicus ruber","L15657494","Billy Frank Jr. Nisqually National Wildlife Refuge, Olympia US-WA 47.07301, -122.71371","2025-05-10 14:47",1,47.073011,-122.713707,TRUE,FALSE,TRUE,"S236035029"
"301","rebsap","Red-breasted Sapsucker","Sphyrapicus ruber","L6274258","Vancouver Lake--North Trail (includes previous Bridge trail access)","2025-05-10 14:45",1,45.6968967,-122.7275535,TRUE,FALSE,FALSE,"S235938319"
"302","rebsap","Red-breasted Sapsucker","Sphyrapicus ruber","L21797396","Trinity Trailer Court, Weaverville","2025-05-10 14:25",1,40.7245685,-122.9310189,TRUE,FALSE,TRUE,"S236033450"
"303","rebsap","Red-breasted Sapsucker","Sphyrapicus ruber","L591296","Wildwood Trail","2025-05-10 14:12",2,45.5384743,-122.7269197,TRUE,FALSE,FALSE,"S235944593"
"304","rebsap","Red-breasted Sapsucker","Sphyrapicus ruber","L1217461","Ketchikan--Ward Lake","2025-05-10 14:07",1,55.4123536,-131.7011833,TRUE,FALSE,FALSE,"S235982955"
"305","rebsap","Red-breasted Sapsucker","Sphyrapicus ruber","L6056668","South Prairie","2025-05-10 14:00",1,45.9128396,-121.6981637,TRUE,FALSE,FALSE,"S236070490"
"306","rebsap","Red-breasted Sapsucker","Sphyrapicus ruber","L496326","Outer Point Trail","2025-05-10 13:39",2,58.302364,-134.6786499,TRUE,FALSE,FALSE,"S235999978"
"307","rebsap","Red-breasted Sapsucker","Sphyrapicus ruber","L44633166","Grizzly Campground Road, Ashland, Oregon, US (42.255, -122.424)","2025-05-10 13:26",1,42.2547476,-122.4239156,TRUE,FALSE,TRUE,"S235861602"
"308","rebsap","Red-breasted Sapsucker","Sphyrapicus ruber","L1058415","Fortson Mill Ponds","2025-05-10 13:20",1,48.2741106,-121.7310905,TRUE,FALSE,FALSE,"S235861746"
"309","rebsap","Red-breasted Sapsucker","Sphyrapicus ruber","L44626684","5959–6053 CA-158, June Lake US-CA 37.76593, -119.12184","2025-05-10 13:16",1,37.765927,-119.121845,TRUE,FALSE,TRUE,"S235828354"
"310","rebsap","Red-breasted Sapsucker","Sphyrapicus ruber","L755754","Elijah Bristow SP","2025-05-10 13:14",1,43.9401193,-122.8477907,TRUE,FALSE,FALSE,"S235855628"
"311","rebsap","Red-breasted Sapsucker","Sphyrapicus ruber","L7734291","Camp Baldwin--burn (restricted access)","2025-05-10 13:06",1,45.4059173,-121.4370805,TRUE,FALSE,FALSE,"S235826695"
"312","rebsap","Red-breasted Sapsucker","Sphyrapicus ruber","L1873235","785 Jackson yard","2025-05-10 13:05",1,39.9362675,-120.9559051,TRUE,FALSE,TRUE,"S235903582"
"313","rebsap","Red-breasted Sapsucker","Sphyrapicus ruber","L35684066","Juanita Bay Park","2025-05-10 12:58",1,47.69772,-122.21393,TRUE,FALSE,TRUE,"S235826474"
"314","rebsap","Red-breasted Sapsucker","Sphyrapicus ruber","L2123565","Canal Road, Toutle","2025-05-10 12:53",1,46.2967215,-122.7351379,TRUE,FALSE,FALSE,"S235839492"
"315","rebsap","Red-breasted Sapsucker","Sphyrapicus ruber","L504543","Humber Park","2025-05-10 12:49",1,33.7656628,-116.6874003,TRUE,FALSE,FALSE,"S236463500"
"316","rebsap","Red-breasted Sapsucker","Sphyrapicus ruber","L44626540","42609–42755 SE Reinig Rd, North Bend US-WA 47.52330, -121.77041","2025-05-10 12:22",1,47.523304,-121.770413,TRUE,FALSE,TRUE,"S235827679"
"317","rebsap","Red-breasted Sapsucker","Sphyrapicus ruber","L831968","Sauvie Island--Raccoon Point","2025-05-10 12:17",1,45.6916122,-122.8055191,TRUE,FALSE,FALSE,"S236278017"
"318","rebsap","Red-breasted Sapsucker","Sphyrapicus ruber","L30347357","Doug’s pond","2025-05-10 12:13",1,46.291069,-122.722382,TRUE,FALSE,TRUE,"S235788219"
"319","rebsap","Red-breasted Sapsucker","Sphyrapicus ruber","L44662408","Park Access Rd, Kirkland US-WA 47.69540, -122.21065","2025-05-10 12:12",2,47.695398,-122.210651,TRUE,FALSE,TRUE,"S236032151"
"320","rebsap","Red-breasted Sapsucker","Sphyrapicus ruber","L41851961","50244–50398 SW Patton Valley Rd, Gaston US-OR 45.43806, -123.19901","2025-05-10 11:49",1,45.438062,-123.199013,TRUE,FALSE,TRUE,"S235975540"
"321","rebsap","Red-breasted Sapsucker","Sphyrapicus ruber","L801097","Hendricks Park","2025-05-10 11:40",2,44.0374447,-123.0578828,TRUE,FALSE,FALSE,"S235785526"
"322","rebsap","Red-breasted Sapsucker","Sphyrapicus ruber","L14405871","Vashon--Judd Creek Loop Trail","2025-05-10 11:35",1,47.4165198,-122.476379,TRUE,FALSE,FALSE,"S235809390"
"323","rebsap","Red-breasted Sapsucker","Sphyrapicus ruber","L1472989","Bruce Starker Arts Park--SW section (was Sunset Park)","2025-05-10 11:33",1,44.5485435,-123.3031786,TRUE,FALSE,FALSE,"S236713738"
"324","rebsap","Red-breasted Sapsucker","Sphyrapicus ruber","L14101077","Salmonberry County Park and Campground","2025-05-10 11:15",1,44.342691,-123.686011,TRUE,FALSE,FALSE,"S235944607"
"325","rebsap","Red-breasted Sapsucker","Sphyrapicus ruber","L44623332","Champoeg State Heritage Area, Saint Paul US-OR 45.25418, -122.88364","2025-05-10 11:14",1,45.254185,-122.883639,TRUE,FALSE,TRUE,"S235811520"
"326","rebsap","Red-breasted Sapsucker","Sphyrapicus ruber","L8459302","Green Island (restricted access)","2025-05-10 11:02",1,44.1481835,-123.1149176,TRUE,FALSE,FALSE,"S235770982"
"327","rebsap","Red-breasted Sapsucker","Sphyrapicus ruber","L1073523","Palm Springs Aerial Tramway--top (Long Valley area)","2025-05-10 11:01",2,33.8130099,-116.6387343,TRUE,FALSE,FALSE,"S235858356"
"328","rebsap","Red-breasted Sapsucker","Sphyrapicus ruber","L777770","Camassia Natural Area","2025-05-10 11:00",1,45.3621269,-122.6185799,TRUE,FALSE,FALSE,"S235751069"
"329","rebsap","Red-breasted Sapsucker","Sphyrapicus ruber","L8091612","Ward Cove - Grassy Knoll","2025-05-10 11:00",1,55.4015136,-131.7396456,TRUE,FALSE,TRUE,"S235896993"
"330","rebsap","Red-breasted Sapsucker","Sphyrapicus ruber","L416770","Upper Ahtanum","2025-05-10 10:59",1,46.4997389,-121.0398778,TRUE,FALSE,TRUE,"S235826821"
"331","rebsap","Red-breasted Sapsucker","Sphyrapicus ruber","L922594","Glacial Heritage Preserve (no public access)","2025-05-10 10:58",1,46.8655315,-123.0518103,TRUE,FALSE,FALSE,"S236704055"
"332","rebsap","Red-breasted Sapsucker","Sphyrapicus ruber","L32639780","Lake Chaplain Road","2025-05-10 10:50",1,47.931347,-121.818861,TRUE,FALSE,FALSE,"S235770355"
"333","rebsap","Red-breasted Sapsucker","Sphyrapicus ruber","L44665314","Cape Horn Trail, Washougal US-WA (45.5721,-122.1979)","2025-05-10 10:47",1,45.572237,-122.198904,TRUE,FALSE,TRUE,"S236048530"
"334","rebsap","Red-breasted Sapsucker","Sphyrapicus ruber","L1479497","Sequoia NP--General Sherman Tree Trail","2025-05-10 10:47",1,36.5848435,-118.7496931,TRUE,FALSE,FALSE,"S236052061"
"335","rebsap","Red-breasted Sapsucker","Sphyrapicus ruber","L25102665","Woodard NAP","2025-05-10 10:39",1,47.1480053,-122.852619,TRUE,FALSE,TRUE,"S236050252"
"336","rebsap","Red-breasted Sapsucker","Sphyrapicus ruber","L7369328","Cardinal Landing","2025-05-10 10:36",1,43.89706,-121.44772,TRUE,FALSE,TRUE,"S235703369"
"337","rebsap","Red-breasted Sapsucker","Sphyrapicus ruber","L1287648","Marblemount boat launch","2025-05-10 10:35",1,48.5254937,-121.4270353,TRUE,FALSE,FALSE,"S235716604"
"338","rebsap","Red-breasted Sapsucker","Sphyrapicus ruber","L11897197","Warbler Thicket","2025-05-10 10:31",3,38.0008281,-119.1512094,TRUE,FALSE,TRUE,"S235741165"
"339","rebsap","Red-breasted Sapsucker","Sphyrapicus ruber","L30571593","Home","2025-05-10 10:26",1,47.4085688,-123.1934054,TRUE,FALSE,TRUE,"S235686500"
"340","rebsap","Red-breasted Sapsucker","Sphyrapicus ruber","L44663720","Skyriver Hideaway","2025-05-10 10:26",1,47.8000282,-121.5361699,TRUE,FALSE,TRUE,"S236039331"
"341","rebsap","Red-breasted Sapsucker","Sphyrapicus ruber","L18539428","C-Post Road","2025-05-10 10:20",1,48.2799818,-121.8307031,TRUE,FALSE,FALSE,"S235784415"
"342","rebsap","Red-breasted Sapsucker","Sphyrapicus ruber","L10163179","Home","2025-05-10 10:17",1,45.8281537,-122.935469,TRUE,FALSE,TRUE,"S235688929"
"343","rebsap","Red-breasted Sapsucker","Sphyrapicus ruber","L383599","Idyllwild Nature Center","2025-05-10 10:16",1,33.7477559,-116.7226084,TRUE,FALSE,FALSE,"S235755778"
"344","rebsap","Red-breasted Sapsucker","Sphyrapicus ruber","L1890241","Bruce Road--top of hill--new clearcuts (forested until 2017)","2025-05-10 10:14",1,44.389674,-123.3498926,TRUE,FALSE,TRUE,"S235677399"
"345","rebsap","Red-breasted Sapsucker","Sphyrapicus ruber","L1822681","Scatter Creek WA--WDFW Transect 2 Inner Loop Trail","2025-05-10 10:12",1,46.8262446,-123.0170102,TRUE,FALSE,FALSE,"S235783030"
"346","rebsap","Red-breasted Sapsucker","Sphyrapicus ruber","L741088","Wildwood Recreation Area","2025-05-10 10:01",1,45.3540754,-121.9839478,TRUE,FALSE,FALSE,"S235934314"
"347","rebsap","Red-breasted Sapsucker","Sphyrapicus ruber","L1033446","Weaverville WTP","2025-05-10 10:01",1,40.7158213,-122.9352205,TRUE,FALSE,FALSE,"S235774542"
"348","rebsap","Red-breasted Sapsucker","Sphyrapicus ruber","L5712774","Forest Park--Saltzman Trail","2025-05-10 10:00",1,45.5667229,-122.7551258,TRUE,FALSE,FALSE,"S235755080"
"349","rebsap","Red-breasted Sapsucker","Sphyrapicus ruber","L44608836","Johnson Creek Park, Portland US-OR 45.46132, -122.64265","2025-05-10 09:59",1,45.461316,-122.642653,TRUE,FALSE,TRUE,"S235738423"
"350","rebsap","Red-breasted Sapsucker","Sphyrapicus ruber","L5558965","Morgan Summit","2025-05-10 09:54",2,40.363147,-121.536437,TRUE,FALSE,FALSE,"S235683995"
"351","rebsap","Red-breasted Sapsucker","Sphyrapicus ruber","L18477322","Bellfountain Road Tree Farm-- S end (44.381, -123.361)","2025-05-10 09:49",1,44.3813854,-123.3613813,TRUE,FALSE,TRUE,"S235658082"
"352","rebsap","Red-breasted Sapsucker","Sphyrapicus ruber","L3129865","Foothills Trail--Orting end bridge crossing","2025-05-10 09:31",1,47.0867217,-122.1837831,TRUE,FALSE,FALSE,"S235760831"
"353","rebsap","Red-breasted Sapsucker","Sphyrapicus ruber","L14139013","Minthorn North Natural Area","2025-05-10 09:30",1,45.4419053,-122.6239393,TRUE,FALSE,FALSE,"S236021265"
"354","rebsap","Red-breasted Sapsucker","Sphyrapicus ruber","L2882283","Thomas Creek Canyon","2025-05-10 09:30",3,39.3917978,-119.8457766,TRUE,FALSE,FALSE,"S236038864"
"355","rebsap","Red-breasted Sapsucker","Sphyrapicus ruber","L4257914","Birds at Home","2025-05-10 09:30",1,48.2895467,-122.2806537,TRUE,FALSE,TRUE,"S236022227"
"356","rebsap","Red-breasted Sapsucker","Sphyrapicus ruber","L1346131","Morse Wildlife Preserve","2025-05-10 09:28",1,47.0253947,-122.3356975,TRUE,FALSE,FALSE,"S236642373"
"357","rebsap","Red-breasted Sapsucker","Sphyrapicus ruber","L773969","Weaverville Basin Wetlands","2025-05-10 09:27",1,40.71217,-122.92995,TRUE,FALSE,FALSE,"S235768266"
"358","rebsap","Red-breasted Sapsucker","Sphyrapicus ruber","L35688303","Juanita Bay Park","2025-05-10 09:24",1,47.695325,-122.209973,TRUE,FALSE,TRUE,"S235732354"
"359","rebsap","Red-breasted Sapsucker","Sphyrapicus ruber","L3814510","Forest Service Rte. 1 (Titlow Hill Rd.)--Clear Lake","2025-05-10 09:23",1,40.815485,-123.697095,TRUE,FALSE,FALSE,"S235836650"
"360","rebsap","Red-breasted Sapsucker","Sphyrapicus ruber","L1598030","Rockport -- pullout over marsh","2025-05-10 09:21",1,48.4915656,-121.5667465,TRUE,FALSE,FALSE,"S235656699"
"361","rebsap","Red-breasted Sapsucker","Sphyrapicus ruber","L44362796","Beck Rd Restoration Forest","2025-05-10 09:20",1,45.01142,-123.380033,TRUE,FALSE,TRUE,"S236418381"
"362","rebsap","Red-breasted Sapsucker","Sphyrapicus ruber","L163529","Fernhill Wetlands (general)","2025-05-10 09:18",1,45.5064875,-123.0851855,TRUE,FALSE,FALSE,"S235738637"
"363","rebsap","Red-breasted Sapsucker","Sphyrapicus ruber","L39428585","Sightly loop","2025-05-10 09:18",2,46.299674,-122.709979,TRUE,FALSE,TRUE,"S235723234"
"364","rebsap","Red-breasted Sapsucker","Sphyrapicus ruber","L44837953","Felida Greenspace","2025-05-10 09:16",3,45.7216231,-122.7171922,TRUE,FALSE,TRUE,"S236978841"
"365","rebsap","Red-breasted Sapsucker","Sphyrapicus ruber","L44590264","800–898 N Shore Dr, Fall Creek US-OR (43.9496,-122.8410)","2025-05-10 09:15",1,43.949629,-122.841022,TRUE,FALSE,TRUE,"S235648865"
"366","rebsap","Red-breasted Sapsucker","Sphyrapicus ruber","L22366893","Lake Siskiyou","2025-05-10 09:15",1,41.286014,-122.3234296,TRUE,FALSE,TRUE,"S235804340"
"367","rebsap","Red-breasted Sapsucker","Sphyrapicus ruber","L3865339","Turning Point Farm 2  (Private)","2025-05-10 09:10",1,47.5982947,-122.7443862,TRUE,FALSE,TRUE,"S235773046"
"368","rebsap","Red-breasted Sapsucker","Sphyrapicus ruber","L20490110","Dungeness Trails--West of River Rd","2025-05-10 09:06",1,48.0498489,-123.1388005,TRUE,FALSE,FALSE,"S235713807"
"369","rebsap","Red-breasted Sapsucker","Sphyrapicus ruber","L17800198","3272 Blue Mountain Road, Port Angeles, Washington, US (48.047, -123.276)","2025-05-10 09:00",7,48.0467965,-123.2756325,TRUE,FALSE,TRUE,"S236030881"
"370","rebsap","Red-breasted Sapsucker","Sphyrapicus ruber","L2216165","Granite Springs Rd.","2025-05-10 08:46",1,38.8003332,-120.3753176,TRUE,FALSE,FALSE,"S235868002"
"371","rebsap","Red-breasted Sapsucker","Sphyrapicus ruber","L1455873","Mary S. Young SP","2025-05-10 08:44",2,45.3818978,-122.6311717,TRUE,FALSE,FALSE,"S235662680"
"372","rebsap","Red-breasted Sapsucker","Sphyrapicus ruber","L3786956","Glass Mtns.--Wildrose Canyon","2025-05-10 08:44",2,37.7223244,-118.6100507,TRUE,FALSE,FALSE,"S235721821"
"373","rebsap","Red-breasted Sapsucker","Sphyrapicus ruber","L2061669","Tumwater--Pioneer Park","2025-05-10 08:44",2,46.9962768,-122.8844941,TRUE,FALSE,FALSE,"S235658481"
"374","rebsap","Red-breasted Sapsucker","Sphyrapicus ruber","L1254746","Anderson Lake SP","2025-05-10 08:40",1,48.0180248,-122.8053904,TRUE,FALSE,FALSE,"S235735725"
"375","rebsap","Red-breasted Sapsucker","Sphyrapicus ruber","L11585562","Black Mountain Forestry Center","2025-05-10 08:38",1,48.9686202,-122.080179,TRUE,FALSE,FALSE,"S235669787"
"376","rebsap","Red-breasted Sapsucker","Sphyrapicus ruber","L929048","Martin Rd., Rockport","2025-05-10 08:33",2,48.4804604,-121.5826035,TRUE,FALSE,FALSE,"S235624450"
"377","rebsap","Red-breasted Sapsucker","Sphyrapicus ruber","L1580235","Forest Service Rte. 1 (Titlow Hill Rd.)--Cold Spring","2025-05-10 08:32",1,40.834033,-123.7128675,TRUE,FALSE,FALSE,"S235836519"
"378","rebsap","Red-breasted Sapsucker","Sphyrapicus ruber","L2193760","Trout Lake area","2025-05-10 08:30",1,45.98692,-121.48873,TRUE,FALSE,FALSE,"S236044553"
"379","rebsap","Red-breasted Sapsucker","Sphyrapicus ruber","L4264343","LBA Woods","2025-05-10 08:30",1,47.0125081,-122.8549147,TRUE,FALSE,FALSE,"S236053143"
"380","rebsap","Red-breasted Sapsucker","Sphyrapicus ruber","L44611058","Oaks to Wetland Trail, Ridgefield US-WA 45.83267, -122.74980","2025-05-10 08:28",1,45.832675,-122.749802,TRUE,FALSE,TRUE,"S235749512"
"381","rebsap","Red-breasted Sapsucker","Sphyrapicus ruber","L44606791","Snoqualmie Valley Trail, Carnation US-WA 47.68293, -121.92381","2025-05-10 08:20",1,47.682927,-121.923815,TRUE,FALSE,TRUE,"S235728488"
"382","rebsap","Red-breasted Sapsucker","Sphyrapicus ruber","L18929830","Stillwater Wildlife Area","2025-05-10 08:20",1,47.683818,-121.926144,TRUE,FALSE,TRUE,"S236002711"
"383","rebsap","Red-breasted Sapsucker","Sphyrapicus ruber","L44571333","527 Jersey St, Silverton US-OR 45.00591, -122.77808","2025-05-10 08:16",1,45.005914,-122.77808,TRUE,FALSE,TRUE,"S235570897"
"384","rebsap","Red-breasted Sapsucker","Sphyrapicus ruber","L28607544","Taverner Ridge Ponds/Forest Area","2025-05-10 08:08",1,45.8016602,-122.732616,TRUE,FALSE,TRUE,"S235637485"
"385","rebsap","Red-breasted Sapsucker","Sphyrapicus ruber","L16503518","1411 Westview Pl NW, Olympia US-WA 47.05888, -122.94488","2025-05-10 08:07",1,47.058882,-122.94488,TRUE,FALSE,TRUE,"S235602655"
"386","rebsap","Red-breasted Sapsucker","Sphyrapicus ruber","L505753","Delta Ponds","2025-05-10 08:01",1,44.0744486,-123.1113512,TRUE,FALSE,FALSE,"S235653650"
"387","rebsap","Red-breasted Sapsucker","Sphyrapicus ruber","L19884293","Canyon Creek Campground","2025-05-10 08:00",2,45.89369,-121.0294783,TRUE,FALSE,FALSE,"S236401627"
"388","rebsap","Red-breasted Sapsucker","Sphyrapicus ruber","L21109109","Crooked Meadow","2025-05-10 08:00",1,37.8238289,-118.8259018,TRUE,FALSE,TRUE,"S235818530"
"389","rebsap","Red-breasted Sapsucker","Sphyrapicus ruber","L159604","Smith and Bybee Lakes Wetlands Natural Area","2025-05-10 07:56",1,45.6203,-122.7456,TRUE,FALSE,FALSE,"S236722176"
"390","rebsap","Red-breasted Sapsucker","Sphyrapicus ruber","L743050","Bloomberg Park","2025-05-10 07:55",1,44.0175398,-123.04533,TRUE,FALSE,FALSE,"S235588108"
"391","rebsap","Red-breasted Sapsucker","Sphyrapicus ruber","L9928582","720 Liberty St, Ashland US-OR_Yard list.","2025-05-10 07:54",1,42.182541,-122.703118,TRUE,FALSE,TRUE,"S235573401"
"392","rebsap","Red-breasted Sapsucker","Sphyrapicus ruber","L44629114","27210 NW Reeder Rd, Portland US-OR (45.7204,-122.7720)","2025-05-10 07:53",1,45.7204,-122.771986,TRUE,FALSE,TRUE,"S235840909"
"393","rebsap","Red-breasted Sapsucker","Sphyrapicus ruber","L18985578","DNR Rd 4200 to 4253 to Signal Peak Towers","2025-05-10 07:51",1,46.287888,-122.548276,TRUE,FALSE,TRUE,"S235650440"
"394","rebsap","Red-breasted Sapsucker","Sphyrapicus ruber","L735303","Three Forks Park","2025-05-10 07:50",4,47.523852,-121.7963326,TRUE,FALSE,FALSE,"S237113354"
"395","rebsap","Red-breasted Sapsucker","Sphyrapicus ruber","L8389857","Powell Butte--Pipeline Lane (8-37)","2025-05-10 07:49",1,45.4891379,-122.4981743,TRUE,FALSE,TRUE,"S235577761"
"396","rebsap","Red-breasted Sapsucker","Sphyrapicus ruber","L929050","Martin Ranch Road, Rockport","2025-05-10 07:42",1,48.4833926,-121.521676,TRUE,FALSE,FALSE,"S235581476"
"397","rebsap","Red-breasted Sapsucker","Sphyrapicus ruber","L21499624","6100 North Bank Road, Roseburg, Oregon, US (43.32, -123.254)","2025-05-10 07:36",1,43.3195139,-123.2538023,TRUE,FALSE,TRUE,"S236711839"
"398","rebsap","Red-breasted Sapsucker","Sphyrapicus ruber","L11448763","Omega Rd","2025-05-10 07:31",1,39.3264168,-120.7524451,TRUE,FALSE,TRUE,"S235989089"
"399","rebsap","Red-breasted Sapsucker","Sphyrapicus ruber","L4388644","Palomar Mtn.--Weir Trail","2025-05-10 07:30",1,33.3455881,-116.9094684,TRUE,FALSE,FALSE,"S235762353"
"400","rebsap","Red-breasted Sapsucker","Sphyrapicus ruber","L352323","Lake Hills Greenbelt","2025-05-10 07:29",1,47.599951,-122.134904,TRUE,FALSE,FALSE,"S235644071"
"401","rebsap","Red-breasted Sapsucker","Sphyrapicus ruber","L26095638","Back 40 Trails- Stayton Middle School","2025-05-10 07:24",1,44.8160924,-122.8038842,TRUE,FALSE,TRUE,"S235611725"
"402","rebsap","Red-breasted Sapsucker","Sphyrapicus ruber","L25135188","Shellock Draw Rd","2025-05-10 07:15",1,42.8854567,-121.5931163,TRUE,FALSE,TRUE,"S235821423"
"403","rebsap","Red-breasted Sapsucker","Sphyrapicus ruber","L931341","William L. Finley NWR--Headquarters","2025-05-10 07:14",1,44.4082171,-123.3367252,TRUE,FALSE,FALSE,"S235582356"
"404","rebsap","Red-breasted Sapsucker","Sphyrapicus ruber","L1912558","6975 20th Ave SE, Salem","2025-05-10 07:13",1,44.8541081,-123.0160511,TRUE,FALSE,TRUE,"S235563735"
"405","rebsap","Red-breasted Sapsucker","Sphyrapicus ruber","L493054","Henry Hagg Lake Park (Scoggins Valley Park)","2025-05-10 07:11",1,45.473855,-123.2135582,TRUE,FALSE,FALSE,"S235612749"
"406","rebsap","Red-breasted Sapsucker","Sphyrapicus ruber","L485959","Titlow Hill Rd.--Highway 299 to Horse Mtn. saddle (4.6 mile distance)","2025-05-10 07:10",1,40.8751679,-123.7553215,TRUE,FALSE,FALSE,"S235835937"
"407","rebsap","Red-breasted Sapsucker","Sphyrapicus ruber","L1600558","Sieberts Creek","2025-05-10 07:07",1,48.106663,-123.2785619,TRUE,FALSE,FALSE,"S235887718"
"408","rebsap","Red-breasted Sapsucker","Sphyrapicus ruber","L710366","Wood River Day Use Area","2025-05-10 07:05",1,42.7085517,-121.9906425,TRUE,FALSE,FALSE,"S235879453"
"409","rebsap","Red-breasted Sapsucker","Sphyrapicus ruber","L26765638","Belcrest Cemetery Loop","2025-05-10 07:05",1,44.889877,-123.070305,TRUE,FALSE,TRUE,"S235578795"
"410","rebsap","Red-breasted Sapsucker","Sphyrapicus ruber","L5231569","Burnt Bridge Creek Trail East","2025-05-10 07:00",1,45.634979,-122.604701,TRUE,FALSE,FALSE,"S235707076"
"411","rebsap","Red-breasted Sapsucker","Sphyrapicus ruber","L2486864","Woodland Creek Community Park","2025-05-10 07:00",1,47.0378054,-122.7913141,TRUE,FALSE,FALSE,"S236051908"
"412","rebsap","Red-breasted Sapsucker","Sphyrapicus ruber","L10362622","Forest View Cemetery","2025-05-10 07:00",1,45.522571,-123.12712,TRUE,FALSE,FALSE,"S235558204"
"413","rebsap","Red-breasted Sapsucker","Sphyrapicus ruber","L9078407","Vedder Mountain Trail","2025-05-10 06:59",1,48.989872,-122.146671,TRUE,FALSE,FALSE,"S235669962"
"414","rebsap","Red-breasted Sapsucker","Sphyrapicus ruber","L9329481","Sherrard Point","2025-05-10 06:58",2,45.53289,-122.087717,TRUE,FALSE,FALSE,"S235632371"
"415","rebsap","Red-breasted Sapsucker","Sphyrapicus ruber","L44636585","Fremont-Winema National Forests, Fort Klamath US-OR (42.7087,-121.9864)","2025-05-10 06:55",1,42.708678,-121.986357,TRUE,FALSE,TRUE,"S235879265"
"416","rebsap","Red-breasted Sapsucker","Sphyrapicus ruber","L33775036","Big Loop / Goat Trail","2025-05-10 06:48",1,47.7628828,-122.2660089,TRUE,FALSE,TRUE,"S235534234"
"417","rebsap","Red-breasted Sapsucker","Sphyrapicus ruber","L36579499","Forest Lane","2025-05-10 06:47",1,39.86215,-120.689267,TRUE,FALSE,TRUE,"S235545631"
"418","rebsap","Red-breasted Sapsucker","Sphyrapicus ruber","L44636525","55036–55074 Sun Mountain Hwy, Fort Klamath US-OR (42.7082,-121.9791)","2025-05-10 06:45",1,42.708158,-121.979141,TRUE,FALSE,TRUE,"S235878987"
"419","rebsap","Red-breasted Sapsucker","Sphyrapicus ruber","L10308539","Home","2025-05-10 06:45",1,45.5345341,-122.7856743,TRUE,FALSE,TRUE,"S235771163"
"420","rebsap","Red-breasted Sapsucker","Sphyrapicus ruber","L444656","Summer Lake Wildlife Area","2025-05-10 06:44",1,42.950819,-120.7639503,TRUE,FALSE,FALSE,"S235787666"
"421","rebsap","Red-breasted Sapsucker","Sphyrapicus ruber","L1373808","Bryson Rd., Darrington (Skagit Co.)","2025-05-10 06:40",1,48.3116209,-121.5478903,TRUE,FALSE,FALSE,"S235523847"
"422","rebsap","Red-breasted Sapsucker","Sphyrapicus ruber","L44706617","Tahoe National Forest, Nevada City US-CA 39.37972, -120.68235","2025-05-10 06:40",1,39.379722,-120.682347,TRUE,FALSE,TRUE,"S236283629"
"423","rebsap","Red-breasted Sapsucker","Sphyrapicus ruber","L905195","Gold Run Yard List","2025-05-10 06:35",1,40.3673593,-120.670073,TRUE,FALSE,TRUE,"S236327235"
"424","rebsap","Red-breasted Sapsucker","Sphyrapicus ruber","L39063867","LFP Yard","2025-05-10 06:33",1,47.7553291,-122.2760594,TRUE,FALSE,TRUE,"S235496512"
"425","rebsap","Red-breasted Sapsucker","Sphyrapicus ruber","L24297094","Cochran Rd.","2025-05-10 06:31",3,45.7088689,-123.3560362,TRUE,FALSE,FALSE,"S235674045"
"426","rebsap","Red-breasted Sapsucker","Sphyrapicus ruber","L4577303","Lee Vining, CA","2025-05-10 06:21",1,37.956902,-119.120495,TRUE,FALSE,TRUE,"S236023263"
"427","rebsap","Red-breasted Sapsucker","Sphyrapicus ruber","L5693633","Dungeness Fish Hatchery","2025-05-10 06:12",3,48.0280211,-123.1409025,TRUE,FALSE,FALSE,"S235903325"
"428","rebsap","Red-breasted Sapsucker","Sphyrapicus ruber","L11812694","Jonesville Snowmobile Park--Colby Meadows","2025-05-10 06:12",1,40.1135548,-121.4791241,TRUE,FALSE,FALSE,"S236022031"
"429","rebsap","Red-breasted Sapsucker","Sphyrapicus ruber","L41714199","Home","2025-05-10 06:08",1,48.0512598,-122.7882691,TRUE,FALSE,TRUE,"S235496710"
"430","rebsap","Red-breasted Sapsucker","Sphyrapicus ruber","L2718723","Rock Creek Nature Trail","2025-05-10 05:55",1,39.3009634,-120.9289706,TRUE,FALSE,FALSE,"S236707264"
"431","rebsap","Red-breasted Sapsucker","Sphyrapicus ruber","L10364950","Fenton Preserve (Whatcom Land Trust)","2025-05-10 05:54",1,48.9650315,-122.6589886,TRUE,FALSE,FALSE,"S235505952"
"432","rebsap","Red-breasted Sapsucker","Sphyrapicus ruber","L2977874","Snoqualmie Wildlife Unit--Faye Rd.","2025-05-10 05:42",1,47.6873481,-121.937449,TRUE,FALSE,FALSE,"S235820129"
"433","rebsap","Red-breasted Sapsucker","Sphyrapicus ruber","L1515665","Three Meadows Marsh (restricted access)","2025-05-10 05:27",1,48.5606729,-123.0681595,TRUE,FALSE,FALSE,"S235578388"
"434","rebsap","Red-breasted Sapsucker","Sphyrapicus ruber","L1242826","Metcalf Meadow--2N10 at 2N17","2025-05-10 05:18",2,34.2238322,-116.9383693,TRUE,FALSE,FALSE,"S235674735"
"435","rebsap","Red-breasted Sapsucker","Sphyrapicus ruber","L44790643","19998 Cooper Road, Nevada City, California, US (39.317, -120.934)","2025-05-10 05:10",1,39.3169835,-120.9342048,TRUE,FALSE,TRUE,"S236707424"
"436","rebsap","Red-breasted Sapsucker","Sphyrapicus ruber","L9288688","Gold Creek Rd.","2025-05-10 05:05",8,45.0251871,-123.561664,TRUE,FALSE,FALSE,"S236415957"
"437","rebsap","Red-breasted Sapsucker","Sphyrapicus ruber","L44735714","ramona","2025-05-10 05:02",1,41.3651323,-122.3912455,TRUE,FALSE,TRUE,"S236462947"
"438","rebsap","Red-breasted Sapsucker","Sphyrapicus ruber","L14830312","786 Lost Mountain Lane, Sequim, Washington, US (48.024, -123.188)","2025-05-10 04:45",3,48.0241869,-123.1876934,TRUE,FALSE,TRUE,"S235585409"
"439","rebsap","Red-breasted Sapsucker","Sphyrapicus ruber","L8868832","SW Scoggins Valley Rd, Gales Creek US-OR (45.5215,-123.2609)","2025-05-10 04:39",1,45.521473,-123.260914,TRUE,FALSE,TRUE,"S235516462"
"440","rebsap","Red-breasted Sapsucker","Sphyrapicus ruber","L9322417","Lower Forest Service Road 28 & upper Palo Alto Rd","2025-05-10 03:20",4,47.9775281,-123.1011983,TRUE,FALSE,TRUE,"S235578541"
"441","rebsap","Red-breasted Sapsucker","Sphyrapicus ruber","L3647656","Jones Creek Loop Trail","2025-05-10",1,39.3614056,-119.8607719,TRUE,FALSE,FALSE,"S235756955"
"442","rebsap","Red-breasted Sapsucker","Sphyrapicus ruber","L21614041","Cedarville - yard","2025-05-10",1,41.5269778,-120.1826507,TRUE,FALSE,TRUE,"S236018756"
"443","rebsap","Red-breasted Sapsucker","Sphyrapicus ruber","L2810633","Hyatt Meadows","2025-05-09 19:37",1,42.1511769,-122.489233,TRUE,FALSE,FALSE,"S235279899"
"444","rebsap","Red-breasted Sapsucker","Sphyrapicus ruber","L27849380","Lassen NF-29N60 (Bear Wallow)","2025-05-09 19:25",1,40.335532,-121.564415,TRUE,FALSE,TRUE,"S236053955"
"445","rebsap","Red-breasted Sapsucker","Sphyrapicus ruber","L1604726","Cottage Lake Park","2025-05-09 19:14",1,47.7557888,-122.0873182,TRUE,FALSE,FALSE,"S235277298"
"446","rebsap","Red-breasted Sapsucker","Sphyrapicus ruber","L28599059","23705 79th Avenue Southeast, Woodinville, Washington, US (47.782, -122.127)","2025-05-09 19:00",1,47.7817243,-122.1266379,TRUE,FALSE,TRUE,"S235268175"
"447","rebsap","Red-breasted Sapsucker","Sphyrapicus ruber","L3600161","McCubbin Road","2025-05-09 16:29",1,45.353623,-122.4672174,TRUE,FALSE,TRUE,"S235232518"
"448","rebsap","Red-breasted Sapsucker","Sphyrapicus ruber","L5105020","The Pinnacles","2025-05-09 16:16",2,34.306103,-117.224885,TRUE,FALSE,FALSE,"S235240642"
"449","rebsap","Red-breasted Sapsucker","Sphyrapicus ruber","L2256070","Camas Prairie","2025-05-09 15:44",5,45.1397933,-121.5585709,TRUE,FALSE,FALSE,"S235280064"
"450","rebsap","Red-breasted Sapsucker","Sphyrapicus ruber","L44627169","Middle Fork Trail, Snoqualmie Pass US-WA 47.52200, -121.47580","2025-05-09 13:50",2,47.522003,-121.4758,TRUE,FALSE,TRUE,"S235830830"
"451","rebsap","Red-breasted Sapsucker","Sphyrapicus ruber","L14871631","Black Butte Ranch, Sisters US-OR 44.37704, -121.65399","2025-05-09 13:44",1,44.377042,-121.653991,TRUE,FALSE,TRUE,"S235179488"
"452","rebsap","Red-breasted Sapsucker","Sphyrapicus ruber","L247053","Tualatin Hills Nature Park","2025-05-09 13:38",1,45.5006923,-122.8423405,TRUE,FALSE,FALSE,"S237397128"
"453","rebsap","Red-breasted Sapsucker","Sphyrapicus ruber","L11304461","Black Butte Ranch, Sisters US-OR 44.37779, -121.65390","2025-05-09 13:30",1,44.377795,-121.653898,TRUE,FALSE,TRUE,"S235179643"
"454","rebsap","Red-breasted Sapsucker","Sphyrapicus ruber","L2276179","Walker Lake","2025-05-09 13:25",2,37.8777494,-119.1602684,TRUE,FALSE,FALSE,"S235281070"
"455","rebsap","Red-breasted Sapsucker","Sphyrapicus ruber","L36850028","Castle Rock Loop Trail and Vista (including portions of Tahoe Rim Trail)","2025-05-09 12:55",1,38.9937426,-119.90299,TRUE,FALSE,FALSE,"S235178581"
"456","rebsap","Red-breasted Sapsucker","Sphyrapicus ruber","L44971919","Willamette Mission SP, Goose Lake","2025-05-09 12:50",1,45.0722546,-123.0482026,TRUE,FALSE,TRUE,"S237784863"
"457","rebsap","Red-breasted Sapsucker","Sphyrapicus ruber","L19879792","Brown’s Mountain","2025-05-09 12:34",1,43.7436549,-121.8038614,TRUE,FALSE,FALSE,"S235176867"
"458","rebsap","Red-breasted Sapsucker","Sphyrapicus ruber","L31510134","Oz Farm","2025-05-09 11:53",1,38.952225,-123.656619,TRUE,FALSE,TRUE,"S235179584"
"459","rebsap","Red-breasted Sapsucker","Sphyrapicus ruber","L2028774","East Nordum Road","2025-05-09 11:49",1,48.9472728,-122.2474051,TRUE,FALSE,TRUE,"S235165244"
"460","rebsap","Red-breasted Sapsucker","Sphyrapicus ruber","L4217782","Hyland Forest Park","2025-05-09 11:23",1,45.4614257,-122.8193318,TRUE,FALSE,FALSE,"S235185061"
"461","rebsap","Red-breasted Sapsucker","Sphyrapicus ruber","L930629","*Frog Lake","2025-05-09 11:10",1,45.2208031,-121.6963452,TRUE,FALSE,TRUE,"S237084337"
"462","rebsap","Red-breasted Sapsucker","Sphyrapicus ruber","L4248197","Deschutes River Trail--Slough","2025-05-09 11:02",1,43.944468,-121.430932,TRUE,FALSE,FALSE,"S235175296"
"463","rebsap","Red-breasted Sapsucker","Sphyrapicus ruber","L152134","Chilao--Visitor Center","2025-05-09 10:53",1,34.326745,-118.0047137,TRUE,FALSE,FALSE,"S235473970"
"464","rebsap","Red-breasted Sapsucker","Sphyrapicus ruber","L11454493","Green River Access from GRC and West Pond","2025-05-09 10:35",1,47.3062575,-122.1878267,TRUE,FALSE,FALSE,"S237146091"
"465","rebsap","Red-breasted Sapsucker","Sphyrapicus ruber","L44482740","1331 E Sealawn Blvd, Freeland US-WA (48.0361,-122.5436)","2025-05-09 10:18",1,48.036142,-122.543637,TRUE,FALSE,TRUE,"S235114936"
"466","rebsap","Red-breasted Sapsucker","Sphyrapicus ruber","L787862","Dosewallips State Park","2025-05-09 10:17",1,47.685658,-122.9004478,TRUE,FALSE,FALSE,"S235154163"
"467","rebsap","Red-breasted Sapsucker","Sphyrapicus ruber","L21159259","Dixie Rd.","2025-05-09 10:12",2,39.8363873,-121.4621257,TRUE,FALSE,FALSE,"S235255004"
"468","rebsap","Red-breasted Sapsucker","Sphyrapicus ruber","L6278593","Butterfly Valley Botanical Garden","2025-05-09 10:02",3,40.005988,-120.9941912,TRUE,FALSE,FALSE,"S235130286"
"469","rebsap","Red-breasted Sapsucker","Sphyrapicus ruber","L11302705","Bowers Mansion Regional Park","2025-05-09 09:45",1,39.286149,-119.8402384,TRUE,FALSE,FALSE,"S235272645"
"470","rebsap","Red-breasted Sapsucker","Sphyrapicus ruber","L3305623","Oyster Dome trail","2025-05-09 09:44",1,48.6203994,-122.4235511,TRUE,FALSE,FALSE,"S235205915"
"471","rebsap","Red-breasted Sapsucker","Sphyrapicus ruber","L8324765","Willapa Hills Trail--Shorey Road Crossing","2025-05-09 09:43",2,46.6457387,-122.9821651,TRUE,FALSE,FALSE,"S235143033"
"472","rebsap","Red-breasted Sapsucker","Sphyrapicus ruber","L44432412","12727 209th Pl NE","2025-05-09 09:36",1,47.713532,-122.061159,TRUE,FALSE,TRUE,"S235279821"
"473","rebsap","Red-breasted Sapsucker","Sphyrapicus ruber","L44490054","26647–26651 Finley Refuge Rd, Corvallis US-OR 44.41034, -123.33024","2025-05-09 09:28",1,44.410336,-123.330243,TRUE,FALSE,TRUE,"S235151053"
"474","rebsap","Red-breasted Sapsucker","Sphyrapicus ruber","L770402","Davis Creek ","2025-05-09 09:23",1,41.7369913,-120.3675842,TRUE,FALSE,FALSE,"S235271391"
"475","rebsap","Red-breasted Sapsucker","Sphyrapicus ruber","L28815415","Antelope Lake","2025-05-09 09:15",2,40.1911647,-120.6055076,TRUE,FALSE,TRUE,"S235214975"
"476","rebsap","Red-breasted Sapsucker","Sphyrapicus ruber","L14552773","Marrowstone--Morningtide (Jefferson Land Trust)","2025-05-09 09:14",1,48.0712285,-122.69161,TRUE,FALSE,FALSE,"S235105262"
"477","rebsap","Red-breasted Sapsucker","Sphyrapicus ruber","L14477693","Harbor Hill Retention Ponds","2025-05-09 09:11",1,47.357279,-122.595084,TRUE,FALSE,FALSE,"S235164494"
"478","rebsap","Red-breasted Sapsucker","Sphyrapicus ruber","L11228082","Juanita--NE 108th St Trail","2025-05-09 09:10",1,47.6967921,-122.2001118,TRUE,FALSE,FALSE,"S235102945"
"479","rebsap","Red-breasted Sapsucker","Sphyrapicus ruber","L44562205","Breitenbush Hot Springs","2025-05-09 08:56",4,44.7812649,-121.9715863,TRUE,FALSE,TRUE,"S235525119"
"480","rebsap","Red-breasted Sapsucker","Sphyrapicus ruber","L38158169","Breitenbush Hot Springs","2025-05-09 08:55",2,44.781667,-121.972483,TRUE,FALSE,TRUE,"S235108366"
"481","rebsap","Red-breasted Sapsucker","Sphyrapicus ruber","L909870","Brooks Memorial SP","2025-05-09 08:54",2,45.9477481,-120.6671333,TRUE,FALSE,FALSE,"S235102163"
"482","rebsap","Red-breasted Sapsucker","Sphyrapicus ruber","L1026774","Lundy Canyon","2025-05-09 08:54",2,38.0256812,-119.2441034,TRUE,FALSE,FALSE,"S235279329"
"483","rebsap","Red-breasted Sapsucker","Sphyrapicus ruber","L2671630","Eastwood Elementary Nature Trail","2025-05-09 08:44",2,43.20702,-123.31924,TRUE,FALSE,TRUE,"S236711558"
"484","rebsap","Red-breasted Sapsucker","Sphyrapicus ruber","L687446","Lincoln Park (Port Angeles)","2025-05-09 08:39",1,48.115397,-123.4759212,TRUE,FALSE,FALSE,"S235128724"
"485","rebsap","Red-breasted Sapsucker","Sphyrapicus ruber","L44497592","315–317 Humbug Rd, Yreka US-CA 41.74740, -122.65895","2025-05-09 08:38",NA,41.747395,-122.658953,TRUE,FALSE,TRUE,"S235188703"
"486","rebsap","Red-breasted Sapsucker","Sphyrapicus ruber","L11283384","Green River College--West Pond","2025-05-09 08:30",1,47.3105913,-122.1851621,TRUE,FALSE,FALSE,"S237142055"
"487","rebsap","Red-breasted Sapsucker","Sphyrapicus ruber","L8293993","Issaquah Highlands, Sandi's house","2025-05-09 08:30",1,47.5549351,-122.0019928,TRUE,FALSE,TRUE,"S235110312"
"488","rebsap","Red-breasted Sapsucker","Sphyrapicus ruber","L44476887","SPOWL Residence (private)","2025-05-09 08:23",1,38.031397,-120.229987,TRUE,FALSE,TRUE,"S235084171"
"489","rebsap","Red-breasted Sapsucker","Sphyrapicus ruber","L9870962","Whipple Creek Regional Park","2025-05-09 08:05",1,45.7452854,-122.6924877,TRUE,FALSE,FALSE,"S235163258"
"490","rebsap","Red-breasted Sapsucker","Sphyrapicus ruber","L5179735","47°15’58” N  122°53’24” W","2025-05-09 08:00",1,47.266786,-122.8889176,TRUE,FALSE,TRUE,"S235280042"
"491","rebsap","Red-breasted Sapsucker","Sphyrapicus ruber","L461017","Tou Velle SP","2025-05-09 07:39",1,42.4423899,-122.8857493,TRUE,FALSE,FALSE,"S235114014"
"492","rebsap","Red-breasted Sapsucker","Sphyrapicus ruber","L5154045","Casee Center Botanical Gardens","2025-05-09 07:22",2,45.7301497,-122.5629616,TRUE,FALSE,FALSE,"S235065329"
"493","rebsap","Red-breasted Sapsucker","Sphyrapicus ruber","L929006","McMinnville Rotary Park (Tice Park)","2025-05-09 07:22",2,45.2293911,-123.1972075,TRUE,FALSE,FALSE,"S235074567"
"494","rebsap","Red-breasted Sapsucker","Sphyrapicus ruber","L790165","Black Butte Ranch","2025-05-09 07:16",1,44.3714778,-121.6632843,TRUE,FALSE,FALSE,"S235071547"
"495","rebsap","Red-breasted Sapsucker","Sphyrapicus ruber","L4626630","Howard Prairie","2025-05-09 07:15",2,42.259929,-122.4424124,TRUE,FALSE,TRUE,"S235284021"
"496","rebsap","Red-breasted Sapsucker","Sphyrapicus ruber","L817016","Burke-Gilman Playground Park","2025-05-09 07:03",1,47.666081,-122.2835827,TRUE,FALSE,FALSE,"S235029853"
"497","rebsap","Red-breasted Sapsucker","Sphyrapicus ruber","L19270508","Parker Lake Trail and lake","2025-05-09 07:00",2,37.8455701,-119.1404753,TRUE,FALSE,TRUE,"S235102355"
"498","rebsap","Red-breasted Sapsucker","Sphyrapicus ruber","L44471909","Lake Sammamish State Park, Issaquah US-WA 47.55852, -122.06299","2025-05-09 06:46",1,47.558516,-122.062995,TRUE,FALSE,TRUE,"S235058639"
"499","rebsap","Red-breasted Sapsucker","Sphyrapicus ruber","L727975","Cooper Mountain Nature Park","2025-05-09 06:42",1,45.4519426,-122.8702354,TRUE,FALSE,FALSE,"S235240222"
"500","rebsap","Red-breasted Sapsucker","Sphyrapicus ruber","L718847","Lily Glen Park","2025-05-09 06:39",2,42.2720614,-122.4312329,TRUE,FALSE,FALSE,"S235157945"
"501","rebsap","Red-breasted Sapsucker","Sphyrapicus ruber","L18119359","Daystar Drive","2025-05-09 06:20",3,44.675666,-123.242781,TRUE,FALSE,TRUE,"S235218485"
"502","rebsap","Red-breasted Sapsucker","Sphyrapicus ruber","L44606379","Cascadia Covered Bridge","2025-05-09 06:19",1,44.3912303,-122.5106907,TRUE,FALSE,TRUE,"S235726941"
"503","rebsap","Red-breasted Sapsucker","Sphyrapicus ruber","L26390443","1609 Northwest Lester Avenue, Corvallis, Oregon, US (44.607, -123.27)","2025-05-09 05:53",1,44.6072896,-123.2701902,TRUE,FALSE,TRUE,"S235482088"
"504","rebsap","Red-breasted Sapsucker","Sphyrapicus ruber","L3611757","Luther Pass (ALP Co.)","2025-05-08 19:43",3,38.786793,-119.946564,TRUE,FALSE,FALSE,"S234829621"
"505","rebsap","Red-breasted Sapsucker","Sphyrapicus ruber","L24520069","*Meadow Lane and 94th Avenue","2025-05-08 19:35",1,45.4892964,-122.7738678,TRUE,FALSE,TRUE,"S234829594"
"506","rebsap","Red-breasted Sapsucker","Sphyrapicus ruber","L983791","Willamette River Path--Maurie Jacobs to Alton Baker Park","2025-05-08 18:21",1,44.0648708,-123.1101151,TRUE,FALSE,FALSE,"S234823866"
"507","rebsap","Red-breasted Sapsucker","Sphyrapicus ruber","L23265958","Willamette Landing path above side channel","2025-05-08 18:12",1,44.528024,-123.255716,TRUE,FALSE,TRUE,"S234815540"
"508","rebsap","Red-breasted Sapsucker","Sphyrapicus ruber","L22727402","The Judd Creek Estuary","2025-05-08 17:56",1,47.402526,-122.468024,TRUE,FALSE,TRUE,"S234814193"
"509","rebsap","Red-breasted Sapsucker","Sphyrapicus ruber","L13159040","Vancouver Lake Regional Park","2025-05-08 17:42",1,45.6796051,-122.742691,TRUE,FALSE,FALSE,"S234822210"
"510","rebsap","Red-breasted Sapsucker","Sphyrapicus ruber","L44423624","Glacier Springs","2025-05-08 16:19",1,48.9139087,-121.9988512,TRUE,FALSE,TRUE,"S234781115"
"511","rebsap","Red-breasted Sapsucker","Sphyrapicus ruber","L13847510","Billy Frank Jr trail","2025-05-08 15:30",1,47.0760841,-122.7120743,TRUE,FALSE,TRUE,"S234801039"
"512","rebsap","Red-breasted Sapsucker","Sphyrapicus ruber","L901766","Billy Frank Jr. Nisqually NWR--Twin Barns Loop","2025-05-08 15:24",1,47.0780133,-122.7119207,TRUE,FALSE,FALSE,"S234812133"
"513","rebsap","Red-breasted Sapsucker","Sphyrapicus ruber","L44419053","71218 Fiddle Neck Lane, Sisters, Oregon, US (44.378, -121.668)","2025-05-08 14:51",1,44.3780517,-121.6678207,TRUE,FALSE,TRUE,"S234752896"
"514","rebsap","Red-breasted Sapsucker","Sphyrapicus ruber","L9084519","Interurban Trail--Jovita Station","2025-05-08 14:10",1,47.2561059,-122.2777607,TRUE,FALSE,FALSE,"S235002913"
"515","rebsap","Red-breasted Sapsucker","Sphyrapicus ruber","L1331865","Ovenell's Heritage Inn and adjacent fields","2025-05-08 13:50",1,48.5176183,-121.7338465,TRUE,FALSE,FALSE,"S234812580"
"516","rebsap","Red-breasted Sapsucker","Sphyrapicus ruber","L1504747","West D Greenway & Alton Baker Eastgate Woodlands (I-5 to Riverview Blvd.)","2025-05-08 13:34",1,44.0483105,-123.0421779,TRUE,FALSE,FALSE,"S234752073"
"517","rebsap","Red-breasted Sapsucker","Sphyrapicus ruber","L11818709","Mt. Baker--Picture Lake","2025-05-08 13:30",1,48.8649604,-121.6782248,TRUE,FALSE,FALSE,"S235162514"
"518","rebsap","Red-breasted Sapsucker","Sphyrapicus ruber","L801111","Julian--town","2025-05-08 13:16",2,33.0784911,-116.600912,TRUE,FALSE,FALSE,"S234738718"
"519","rebsap","Red-breasted Sapsucker","Sphyrapicus ruber","L2287134","Rickreall Creek Trail System","2025-05-08 13:12",2,44.9185799,-123.2997322,TRUE,FALSE,FALSE,"S234751663"
"520","rebsap","Red-breasted Sapsucker","Sphyrapicus ruber","L4399523","Buell County Park","2025-05-08 12:55",1,45.021641,-123.420141,TRUE,FALSE,FALSE,"S234800047"
"521","rebsap","Red-breasted Sapsucker","Sphyrapicus ruber","L9893833","Marblemount Fish Hatchery","2025-05-08 12:48",2,48.5224268,-121.4198313,TRUE,FALSE,TRUE,"S234806636"
"522","rebsap","Red-breasted Sapsucker","Sphyrapicus ruber","L733601","Clear Creek trails","2025-05-08 12:48",1,47.673248,-122.6856995,TRUE,FALSE,FALSE,"S234740699"
"523","rebsap","Red-breasted Sapsucker","Sphyrapicus ruber","L1252842","Marblemount Fish Hatchery","2025-05-08 12:45",2,48.5220479,-121.4177012,TRUE,FALSE,FALSE,"S234813258"
"524","rebsap","Red-breasted Sapsucker","Sphyrapicus ruber","L19833601","Bower ln by Irrigation Ditch 1","2025-05-08 12:37",1,42.4216042,-123.3239392,TRUE,FALSE,TRUE,"S234823123"
"525","rebsap","Red-breasted Sapsucker","Sphyrapicus ruber","L2170407","Skagit valley--Jct. of Hoehn & Utopia Roads","2025-05-08 12:18",1,48.515076,-122.140121,TRUE,FALSE,FALSE,"S234724117"
"526","rebsap","Red-breasted Sapsucker","Sphyrapicus ruber","L191685","Mendenhall Wetlands SGR--Fish Creek Delta","2025-05-08 11:40",1,58.3311702,-134.5996857,TRUE,FALSE,FALSE,"S234728339"
"527","rebsap","Red-breasted Sapsucker","Sphyrapicus ruber","L7487203","South Fork Rock Crk tributary headwaters","2025-05-08 11:34",1,39.880361,-121.00291,TRUE,FALSE,TRUE,"S235180651"
"528","rebsap","Red-breasted Sapsucker","Sphyrapicus ruber","L317469","Klamath Marsh NWR","2025-05-08 11:30",1,42.8929966,-121.6850238,TRUE,FALSE,FALSE,"S236217687"
"529","rebsap","Red-breasted Sapsucker","Sphyrapicus ruber","L4814881","Little Quilcene River mouth","2025-05-08 11:29",1,47.828197,-122.857704,TRUE,FALSE,FALSE,"S234724820"
"530","rebsap","Red-breasted Sapsucker","Sphyrapicus ruber","L11392188","Titlow Hill Road: Clear Lake","2025-05-08 10:35",2,40.8153636,-123.6968161,TRUE,FALSE,TRUE,"S235210537"
"531","rebsap","Red-breasted Sapsucker","Sphyrapicus ruber","L1040000","Mt. Ashland Ski Area","2025-05-08 10:26",1,42.0807302,-122.7057806,TRUE,FALSE,FALSE,"S234665938"
"532","rebsap","Red-breasted Sapsucker","Sphyrapicus ruber","L11458131","Chapman Landing","2025-05-08 10:21",1,45.7457426,-122.840426,TRUE,FALSE,FALSE,"S234709350"
"533","rebsap","Red-breasted Sapsucker","Sphyrapicus ruber","L744437","Newhalem Agg Ponds","2025-05-08 10:03",2,48.6554796,-121.2935257,TRUE,FALSE,FALSE,"S234814462"
"534","rebsap","Red-breasted Sapsucker","Sphyrapicus ruber","L44399492","Plumas National Forest, Blairsden Graeagle US-CA (39.7843,-120.5998)","2025-05-08 09:47",1,39.784327,-120.599839,TRUE,FALSE,TRUE,"S234650171"
"535","rebsap","Red-breasted Sapsucker","Sphyrapicus ruber","L9722265","Nature Trails Park","2025-05-08 09:30",2,47.4312739,-122.3452071,TRUE,FALSE,FALSE,"S235236638"
"536","rebsap","Red-breasted Sapsucker","Sphyrapicus ruber","L547951","County Line Ponds (Skagit Co.)","2025-05-08 09:28",1,48.6377866,-121.3142967,TRUE,FALSE,FALSE,"S234817710"
"537","rebsap","Red-breasted Sapsucker","Sphyrapicus ruber","L18576203","Blackwell Habitat Portland, Oregon, US (45.506, -122.712)","2025-05-08 09:24",1,45.5056096,-122.7121461,TRUE,FALSE,TRUE,"S234640259"
"538","rebsap","Red-breasted Sapsucker","Sphyrapicus ruber","L44434628","Cochran Clearcut Trail","2025-05-08 09:22",1,45.708917,-123.358617,TRUE,FALSE,TRUE,"S234842922"
"539","rebsap","Red-breasted Sapsucker","Sphyrapicus ruber","L31870021","549–557 Penny Creek Rd, Quilcene US-WA (47.8136,-122.9216)","2025-05-08 09:22",1,47.813649,-122.921629,TRUE,FALSE,TRUE,"S234655006"
"540","rebsap","Red-breasted Sapsucker","Sphyrapicus ruber","L370640","Indian Grinding Rocks SHP","2025-05-08 09:20",1,38.4250167,-120.6437874,TRUE,FALSE,FALSE,"S235849219"
"541","rebsap","Red-breasted Sapsucker","Sphyrapicus ruber","L3942996","Shillapoo Lake","2025-05-08 09:19",1,45.6956365,-122.7440187,TRUE,FALSE,FALSE,"S234684737"
"542","rebsap","Red-breasted Sapsucker","Sphyrapicus ruber","L12838027","Lundy Canyon Trail and Road","2025-05-08 09:15",2,38.0265191,-119.2496214,TRUE,FALSE,TRUE,"S234725976"
"543","rebsap","Red-breasted Sapsucker","Sphyrapicus ruber","L2407898","Monte Cristo","2025-05-08 09:07",1,47.9850024,-121.3935614,TRUE,FALSE,FALSE,"S234825690"
"544","rebsap","Red-breasted Sapsucker","Sphyrapicus ruber","L1659851","Dry Creek","2025-05-08 08:59",3,44.3478561,-121.7310423,TRUE,FALSE,FALSE,"S234683893"
"545","rebsap","Red-breasted Sapsucker","Sphyrapicus ruber","L41411755","Weyco Gate to mile 5","2025-05-08 08:55",3,44.9410329,-123.4799181,TRUE,FALSE,TRUE,"S234805959"
"546","rebsap","Red-breasted Sapsucker","Sphyrapicus ruber","L847540","Lassen Volcanic Scenic Byway--Hwy 89 (TEH Co.) from Hwy 36E to park boundary","2025-05-08 08:47",1,40.3960996,-121.5246204,TRUE,FALSE,FALSE,"S234717918"
"547","rebsap","Red-breasted Sapsucker","Sphyrapicus ruber","L4972245","William L. Finley NWR--Beaver and Cattail Ponds Loop Trail","2025-05-08 08:42",1,44.3976106,-123.3241081,TRUE,FALSE,FALSE,"S234834031"
"548","rebsap","Red-breasted Sapsucker","Sphyrapicus ruber","L31749290","Tulare--Parker Meadow 22s04","2025-05-08 08:32",2,35.9560349,-118.6301858,TRUE,FALSE,TRUE,"S234767661"
"549","rebsap","Red-breasted Sapsucker","Sphyrapicus ruber","L956588","OSU McDonald-Dunn Forest--Lewisburg Saddle","2025-05-08 08:30",1,44.6368874,-123.2959235,TRUE,FALSE,FALSE,"S237194516"
"550","rebsap","Red-breasted Sapsucker","Sphyrapicus ruber","L17264174","North Creek Retention Pond","2025-05-08 08:28",NA,47.851337,-122.221462,TRUE,FALSE,FALSE,"S234617220"
"551","rebsap","Red-breasted Sapsucker","Sphyrapicus ruber","L2477661","North Creek Trail, Mill Creek","2025-05-08 08:28",1,47.8554527,-122.2224391,TRUE,FALSE,FALSE,"S234639999"
"552","rebsap","Red-breasted Sapsucker","Sphyrapicus ruber","L447392","Pittock Mansion","2025-05-08 08:15",3,45.5249912,-122.7171564,TRUE,FALSE,FALSE,"S234639268"
"553","rebsap","Red-breasted Sapsucker","Sphyrapicus ruber","L12675109","Williamson River, east of Klamath Marsh HQ","2025-05-08 08:15",1,42.9745488,-121.5572594,TRUE,FALSE,TRUE,"S235885259"
"554","rebsap","Red-breasted Sapsucker","Sphyrapicus ruber","L163667","Starrigavan Estuary Recreation Area","2025-05-08 08:01",2,57.13212,-135.36794,TRUE,FALSE,FALSE,"S237583573"
"555","rebsap","Red-breasted Sapsucker","Sphyrapicus ruber","L2392664","Cornet Bay","2025-05-08 08:00",1,48.3961306,-122.6381493,TRUE,FALSE,FALSE,"S234726406"
"556","rebsap","Red-breasted Sapsucker","Sphyrapicus ruber","L3308079","Mt Shasta - Holiday Lane","2025-05-08 08:00",1,41.2919777,-122.3232633,TRUE,FALSE,TRUE,"S234803664"
"557","rebsap","Red-breasted Sapsucker","Sphyrapicus ruber","L23807077","5MR—Matrix Hill Woods, Beaverton US-OR 45.45686, -122.82875","2025-05-08 07:55",1,45.456857,-122.828748,TRUE,FALSE,TRUE,"S234625341"
"558","rebsap","Red-breasted Sapsucker","Sphyrapicus ruber","L44198368","Alder Patch","2025-05-08 07:46",2,46.304578,-122.709241,TRUE,FALSE,TRUE,"S234631421"
"559","rebsap","Red-breasted Sapsucker","Sphyrapicus ruber","L929049","Bacon Creek","2025-05-08 07:46",1,48.5888149,-121.3930464,TRUE,FALSE,FALSE,"S234812505"
"560","rebsap","Red-breasted Sapsucker","Sphyrapicus ruber","L6755241","Dash PT State Pk, Norpoint Way Entrance","2025-05-08 07:43",1,47.3062989,-122.4080157,TRUE,FALSE,TRUE,"S234687196"
"561","rebsap","Red-breasted Sapsucker","Sphyrapicus ruber","L34690841","O","2025-05-08 07:18",2,47.1483777,-122.9532946,TRUE,FALSE,TRUE,"S234833943"
"562","rebsap","Red-breasted Sapsucker","Sphyrapicus ruber","L22678244","South Upper Truckee Rd. at Upper Truckee River","2025-05-08 07:14",3,38.795718,-120.017995,TRUE,FALSE,TRUE,"S234637595"
"563","rebsap","Red-breasted Sapsucker","Sphyrapicus ruber","L38710681","heron loop trail","2025-05-08 07:03",1,47.6565094,-122.111412,TRUE,FALSE,TRUE,"S234645704"
"564","rebsap","Red-breasted Sapsucker","Sphyrapicus ruber","L23907720","Memorial Park, Wilsonville US-OR 45.29893, -122.75795","2025-05-08 06:46",1,45.298935,-122.757951,TRUE,FALSE,TRUE,"S234601753"
