"","speciesCode","comName","sciName","locId","locName","obsDt","howMany","lat","lng","obsValid","obsReviewed","locationPrivate","subId"
"1","blkski","Black Skimmer","Rynchops niger","L159289","Chincoteague NWR--Swan Cove","2025-07-04 19:48",10,37.8941,-75.3485,TRUE,FALSE,FALSE,"S256963278"
"2","blkski","Black Skimmer","Rynchops niger","L3151172","Blackburn Point Park","2025-07-04 18:53",3,27.1794953,-82.4916643,TRUE,FALSE,FALSE,"S256964190"
"3","blkski","Black Skimmer","Rynchops niger","L27753308","Yacht Club Rd.","2025-07-04 18:11",1,30.3420943,-88.5218337,TRUE,FALSE,FALSE,"S256958535"
"4","blkski","Black Skimmer","Rynchops niger","L958328","West Side Pier--Gulfport","2025-07-04 17:58",30,30.3581044,-89.10825,TRUE,FALSE,FALSE,"S256949864"
"5","blkski","Black Skimmer","Rynchops niger","L625090","The Brooks--Shadow Wood (PRIVATE)","2025-07-04 17:31",2,26.40886,-81.7903805,TRUE,FALSE,TRUE,"S256962170"
"6","blkski","Black Skimmer","Rynchops niger","L49024770","Gateway National Recreation Area, New York US-NY (40.5541,-73.9119)","2025-07-04 17:31",1,40.554056,-73.91188,TRUE,FALSE,TRUE,"S256939857"
"7","blkski","Black Skimmer","Rynchops niger","L3893746","Heron Bay","2025-07-04 17:26",3,30.3448059,-88.1377316,TRUE,FALSE,FALSE,"S256954005"
"8","blkski","Black Skimmer","Rynchops niger","L1125706","Big Talbot Island SP--Spoonbill Pond (includes parking & boat ramp)","2025-07-04 17:17",1,30.5101704,-81.4585671,TRUE,FALSE,FALSE,"S256932464"
"9","blkski","Black Skimmer","Rynchops niger","L92448","Edwin B. Forsythe NWR--Wildlife Drive (8-mile auto tour loop only)","2025-07-04 16:19",14,39.464298,-74.417612,TRUE,FALSE,FALSE,"S256930185"
"10","blkski","Black Skimmer","Rynchops niger","L301036","San Carlos Bay/Bunche Beach Preserve","2025-07-04 15:56",1,26.476174,-81.9673795,TRUE,FALSE,FALSE,"S256924365"
"11","blkski","Black Skimmer","Rynchops niger","L508149","Nickerson Beach","2025-07-04 15:54",25,40.5871823,-73.6024,TRUE,FALSE,FALSE,"S256924978"
"12","blkski","Black Skimmer","Rynchops niger","L1151034","Bayfront Park (Alabama Port, AL)","2025-07-04 15:51",8,30.3570641,-88.1168318,TRUE,FALSE,FALSE,"S256939593"
"13","blkski","Black Skimmer","Rynchops niger","L604728","Fort Monroe","2025-07-04 15:45",NA,37.0039407,-76.3073874,TRUE,FALSE,FALSE,"S256951243"
"14","blkski","Black Skimmer","Rynchops niger","L31774688","Oakwood Beach Wastewater Treatment Plant","2025-07-04 15:30",1,40.5508304,-74.1156393,TRUE,FALSE,FALSE,"S256920624"
"15","blkski","Black Skimmer","Rynchops niger","L852706","West Ocean City--Hooper's Restaurant (private)","2025-07-04 14:51",50,38.3348566,-75.098505,TRUE,FALSE,FALSE,"S256912516"
"16","blkski","Black Skimmer","Rynchops niger","L210417","Pea Island NWR--Old Coast Guard Station","2025-07-04 14:44",1,35.767247,-75.522541,TRUE,FALSE,FALSE,"S256922991"
"17","blkski","Black Skimmer","Rynchops niger","L23937880","1723 Sand Hill Dr, Cape Charles US-VA 37.21581, -76.00897","2025-07-04 14:25",5,37.215811,-76.008972,TRUE,FALSE,TRUE,"S256889857"
"18","blkski","Black Skimmer","Rynchops niger","L657122","Bombay Hook NWR--Refuge Headquarters","2025-07-04 14:06",9,39.2597968,-75.4731452,TRUE,FALSE,FALSE,"S256915989"
"19","blkski","Black Skimmer","Rynchops niger","L370889","Cape Island--CMP--St. Mary's dune crossing","2025-07-04 14:05",4,38.9314255,-74.9622261,TRUE,FALSE,FALSE,"S256870262"
"20","blkski","Black Skimmer","Rynchops niger","L28233068","White Sands of Longboat","2025-07-04 13:58",1,27.405773,-82.655257,TRUE,FALSE,FALSE,"S256877083"
"21","blkski","Black Skimmer","Rynchops niger","L42225895","5301 Gulf Blvd, St. Pete Beach US-FL 27.72717, -82.74090","2025-07-04 13:54",1,27.727168,-82.740899,TRUE,FALSE,TRUE,"S256880066"
"22","blkski","Black Skimmer","Rynchops niger","L43851896","Woodhaven Beach","2025-07-04 13:45",6,30.3559556,-89.1175426,TRUE,FALSE,TRUE,"S256884453"
"23","blkski","Black Skimmer","Rynchops niger","L1165694","Bolsa Chica--walkbridge/inner bay","2025-07-04 13:42",2,33.6965128,-118.0451372,TRUE,FALSE,FALSE,"S256928933"
"24","blkski","Black Skimmer","Rynchops niger","L405340","Marco Island--Tiger Tail Beach","2025-07-04 13:14",NA,25.948098,-81.74456,TRUE,FALSE,FALSE,"S256892769"
"25","blkski","Black Skimmer","Rynchops niger","L2865928","Captree Island","2025-07-04 13:01",3,40.6469348,-73.2632673,TRUE,FALSE,FALSE,"S256851034"
"26","blkski","Black Skimmer","Rynchops niger","L9967179","Tyndall Beach","2025-07-04 12:42",2,30.0520405,-85.6000787,TRUE,FALSE,FALSE,"S256905400"
"27","blkski","Black Skimmer","Rynchops niger","L2396620","South Beach SP","2025-07-04 12:35",8,41.3490267,-70.521841,TRUE,FALSE,FALSE,"S256914004"
"28","blkski","Black Skimmer","Rynchops niger","L1555375","Pea Island NWR--Salt Flats Wildlife Trail","2025-07-04 12:28",12,35.7355509,-75.5053226,TRUE,FALSE,FALSE,"S256856670"
"29","blkski","Black Skimmer","Rynchops niger","L998470","Don Edwards NWR--Ravenswood Salt Pond SF2","2025-07-04 12:27",1,37.4887844,-122.1341944,TRUE,FALSE,FALSE,"S256901393"
"30","blkski","Black Skimmer","Rynchops niger","L109133","Edwin B. Forsythe NWR (formerly Brig)","2025-07-04 12:18",8,39.465,-74.4477778,TRUE,FALSE,FALSE,"S256891495"
"31","blkski","Black Skimmer","Rynchops niger","L1663502","Pea Island NWR--North Pond Wildlife Trail","2025-07-04 12:04",10,35.7156212,-75.4935891,TRUE,FALSE,FALSE,"S256883305"
"32","blkski","Black Skimmer","Rynchops niger","L594012","Shoreline Park--Shoreline Lake area","2025-07-04 11:45",17,37.432341,-122.0918369,TRUE,FALSE,FALSE,"S256923457"
"33","blkski","Black Skimmer","Rynchops niger","L1761769","Little Saint Simons Island--Main Beach","2025-07-04 11:33",1,31.2597333,-81.2732935,TRUE,FALSE,FALSE,"S256825776"
"34","blkski","Black Skimmer","Rynchops niger","L126637","Bombay Hook National Wildlife Refuge","2025-07-04 11:30",7,39.2670818,-75.4695511,TRUE,FALSE,FALSE,"S256887625"
"35","blkski","Black Skimmer","Rynchops niger","L4340457","Breezy Point Beach","2025-07-04 11:11",1,40.5512034,-73.9200545,TRUE,FALSE,FALSE,"S256808961"
"36","blkski","Black Skimmer","Rynchops niger","L8663681","WWTP","2025-07-04 11:09",1,27.4496755,-82.6247466,TRUE,FALSE,TRUE,"S256928328"
"37","blkski","Black Skimmer","Rynchops niger","L7048132","Fort Walton Beach","2025-07-04 11:07",1,30.3963835,-86.6173482,TRUE,FALSE,FALSE,"S256852653"
"38","blkski","Black Skimmer","Rynchops niger","L6556704","Cooper River County Park & Marina","2025-07-04 10:30",2,32.832403,-79.937704,TRUE,FALSE,FALSE,"S256817427"
"39","blkski","Black Skimmer","Rynchops niger","L1099702","Floyd Bennett Field--NE Corner","2025-07-04 10:15",1,40.6036408,-73.8871765,TRUE,FALSE,FALSE,"S256899872"
"40","blkski","Black Skimmer","Rynchops niger","L127332","Fort De Soto Park","2025-07-04 10:10",8,27.6327266,-82.718157,TRUE,FALSE,FALSE,"S256842515"
"41","blkski","Black Skimmer","Rynchops niger","L49067208","North Atlantic Ocean, Tarpon Springs US-FL 28.13225, -82.82533","2025-07-04 10:03",100,28.132252,-82.82533,TRUE,FALSE,TRUE,"S256809257"
"42","blkski","Black Skimmer","Rynchops niger","L453872","Prime Hook NWR--Headquarters area","2025-07-04 10:00",1,38.830594,-75.2480918,TRUE,FALSE,FALSE,"S256958055"
"43","blkski","Black Skimmer","Rynchops niger","L49098923","5054 66th Street West, Bradenton, Florida, US (27.453, -82.628)","2025-07-04 09:57",11,27.4526924,-82.6282541,TRUE,FALSE,TRUE,"S256929571"
"44","blkski","Black Skimmer","Rynchops niger","L274556","Stone Harbor Blvd--The Wetlands Institute","2025-07-04 09:53",1,39.0608166,-74.7726134,TRUE,FALSE,FALSE,"S256810402"
"45","blkski","Black Skimmer","Rynchops niger","L197073","Stone Harbor Point","2025-07-04 09:42",85,39.0317999,-74.7723111,TRUE,FALSE,FALSE,"S256812933"
"46","blkski","Black Skimmer","Rynchops niger","L4115382","Joseph Sylvia State Beach--Inlet","2025-07-04 09:40",2,41.416078,-70.548659,TRUE,FALSE,FALSE,"S256776671"
"47","blkski","Black Skimmer","Rynchops niger","L3181705","Bolsa Chica--full tidal area","2025-07-04 09:36",6,33.6958158,-118.0368304,TRUE,FALSE,FALSE,"S256844675"
"48","blkski","Black Skimmer","Rynchops niger","L449889","Patriot's Point -- nature trail and surrounding areas","2025-07-04 09:36",16,32.7912107,-79.9011505,TRUE,FALSE,FALSE,"S256801917"
"49","blkski","Black Skimmer","Rynchops niger","L827977","Bayfront Park (J St.)","2025-07-04 09:33",6,32.6186091,-117.1033868,TRUE,FALSE,FALSE,"S256908463"
"50","blkski","Black Skimmer","Rynchops niger","L5841068","Bombay Hook NWR--Parson Point Trail","2025-07-04 09:21",10,39.2752182,-75.4801941,TRUE,FALSE,FALSE,"S256859697"
"51","blkski","Black Skimmer","Rynchops niger","L1131629","Lake Seminole Park","2025-07-04 09:08",1,27.8452331,-82.7763927,TRUE,FALSE,FALSE,"S256880549"
"52","blkski","Black Skimmer","Rynchops niger","L2573474","Oregon Inlet South Rock Jetty","2025-07-04 09:06",2,35.7732576,-75.5264568,TRUE,FALSE,FALSE,"S256799262"
"53","blkski","Black Skimmer","Rynchops niger","L21261939","Altamaha WMA--Champney Rd.","2025-07-04 09:04",1,31.3539811,-81.4515483,TRUE,FALSE,FALSE,"S256808529"
"54","blkski","Black Skimmer","Rynchops niger","L1857543","Litchfield Beach","2025-07-04 09:00",4,33.4768156,-79.0892307,TRUE,FALSE,FALSE,"S256789078"
"55","blkski","Black Skimmer","Rynchops niger","L152773","Floyd Bennett Field","2025-07-04 08:50",1,40.5923453,-73.8914328,TRUE,FALSE,FALSE,"S256847814"
"56","blkski","Black Skimmer","Rynchops niger","L447759","Morgan's Point","2025-07-04 08:48",1,29.6784474,-94.9826073,TRUE,FALSE,FALSE,"S256783545"
"57","blkski","Black Skimmer","Rynchops niger","L49103085","Matagorda Paddlesport Park","2025-07-04 08:42",3,28.6443715,-95.9646831,TRUE,FALSE,TRUE,"S256946070"
"58","blkski","Black Skimmer","Rynchops niger","L10908867","Pea Island NWR--Visitor Center","2025-07-04 08:38",87,35.7166887,-75.4940924,TRUE,FALSE,FALSE,"S256785418"
"59","blkski","Black Skimmer","Rynchops niger","L219714","Pitt Street Causeway","2025-07-04 08:37",5,32.7708558,-79.8628964,TRUE,FALSE,FALSE,"S256767127"
"60","blkski","Black Skimmer","Rynchops niger","L1772235","Russell Burgess Coastal Preserve","2025-07-04 08:35",1,33.8344585,-78.6327699,TRUE,FALSE,FALSE,"S256816680"
"61","blkski","Black Skimmer","Rynchops niger","L581841","Browns Farm Rd.","2025-07-04 08:34",10,26.6215822,-80.5616945,TRUE,FALSE,FALSE,"S256826307"
"62","blkski","Black Skimmer","Rynchops niger","L49059600","21442 Highway, Golden Meadow US-LA 29.33985, -90.24548","2025-07-04 08:31",2,29.339849,-90.245476,TRUE,FALSE,TRUE,"S256774404"
"63","blkski","Black Skimmer","Rynchops niger","L109339","IRWD San Joaquin Marsh & Wildlife Sanctuary, Irvine","2025-07-04 08:30",80,33.6637274,-117.8426814,TRUE,FALSE,FALSE,"S256874531"
"64","blkski","Black Skimmer","Rynchops niger","L280834","Walsingham Park","2025-07-04 08:30",1,27.8763584,-82.8090332,TRUE,FALSE,FALSE,"S256803057"
"65","blkski","Black Skimmer","Rynchops niger","L483019","Bombay Hook NWR--Shearness Pool","2025-07-04 08:23",2,39.2684108,-75.4772758,TRUE,FALSE,FALSE,"S256802503"
"66","blkski","Black Skimmer","Rynchops niger","L730351","Charleston Slough/Coast Casey Forebay","2025-07-04 08:19",6,37.4359191,-122.098918,TRUE,FALSE,FALSE,"S256859430"
"67","blkski","Black Skimmer","Rynchops niger","L1341211","Breezy Point--Silver Gull Beach Club","2025-07-04 08:11",1,40.5598332,-73.904462,TRUE,FALSE,FALSE,"S256757982"
"68","blkski","Black Skimmer","Rynchops niger","L3560623","Fort De Soto Park--Gulf Pier","2025-07-04 08:07",7,27.61363,-82.73564,TRUE,FALSE,TRUE,"S256749942"
"69","blkski","Black Skimmer","Rynchops niger","L483327","Bombay Hook NWR--Raymond Pool","2025-07-04 08:04",8,39.2600377,-75.4642296,TRUE,FALSE,FALSE,"S256798571"
"70","blkski","Black Skimmer","Rynchops niger","L46097411","Eel Pond & The Mudhole","2025-07-04 08:02",1,41.3963449,-70.5133472,TRUE,FALSE,TRUE,"S256887260"
"71","blkski","Black Skimmer","Rynchops niger","L20536131","Oil Well Rd—Flooded Tomato Field","2025-07-04 07:57",1,26.294181,-81.486965,TRUE,FALSE,FALSE,"S256749877"
"72","blkski","Black Skimmer","Rynchops niger","L1149810","Whitney Lake Marsh Park","2025-07-04 07:48",1,27.8848228,-97.1914852,TRUE,FALSE,FALSE,"S256784892"
"73","blkski","Black Skimmer","Rynchops niger","L2334913","Kiawah Island--East Beach","2025-07-04 07:44",1,32.6106042,-80.0157452,TRUE,FALSE,FALSE,"S256770934"
"74","blkski","Black Skimmer","Rynchops niger","L1120035","Bombay Hook NWR--Shearness Observation Tower trail and fields","2025-07-04 07:43",12,39.2632442,-75.4687035,TRUE,FALSE,FALSE,"S256779348"
"75","blkski","Black Skimmer","Rynchops niger","L7086958","Stormwater Treatment Area 1W (Limited Access)","2025-07-04 07:32",2,26.6762842,-80.4273806,TRUE,FALSE,FALSE,"S256787757"
"76","blkski","Black Skimmer","Rynchops niger","L49011988","Whitney Lake Marsh Wildlife Refuge","2025-07-04 07:32",1,27.8842384,-97.1912165,TRUE,FALSE,TRUE,"S256810395"
"77","blkski","Black Skimmer","Rynchops niger","L30419888","5010 Oil Well Grade Road, Naples, Florida, US (26.295, -81.483)OWGR","2025-07-04 07:25",2,26.2947934,-81.482903,TRUE,FALSE,TRUE,"S256856464"
"78","blkski","Black Skimmer","Rynchops niger","L127320","John Chesnut Sr. Park","2025-07-04 07:23",1,28.0922,-82.7067,TRUE,FALSE,FALSE,"S256788697"
"79","blkski","Black Skimmer","Rynchops niger","L855856","Stump Pass Beach SP","2025-07-04 07:21",3,26.9022934,-82.346805,TRUE,FALSE,FALSE,"S256747267"
"80","blkski","Black Skimmer","Rynchops niger","L1086977","San Joaquin WS - Pond 2","2025-07-04 07:21",2,33.6583885,-117.8463078,TRUE,FALSE,TRUE,"S256848886"
"81","blkski","Black Skimmer","Rynchops niger","L47775736","Sedgefield Boulevard, Palmetto, Florida, US (27.634, -82.482)","2025-07-04 07:19",1,27.6340483,-82.4817467,TRUE,FALSE,TRUE,"S256810957"
"82","blkski","Black Skimmer","Rynchops niger","L24895515","Redington Shores Beach Access","2025-07-04 07:17",193,27.832642,-82.834189,TRUE,FALSE,TRUE,"S256733371"
"83","blkski","Black Skimmer","Rynchops niger","L6932817","Palmetto Avenue Beach/City Park","2025-07-04 07:15",3,27.523659,-82.735642,TRUE,FALSE,FALSE,"S256785693"
"84","blkski","Black Skimmer","Rynchops niger","L5564438","Seaport Village area","2025-07-04 07:14",2,32.7082119,-117.1697246,TRUE,FALSE,FALSE,"S256823400"
"85","blkski","Black Skimmer","Rynchops niger","L607892","Venice Rookery","2025-07-04 06:58",1,27.04598,-82.39989,TRUE,FALSE,FALSE,"S256824313"
"86","blkski","Black Skimmer","Rynchops niger","L5281758","Harbor Island Beach (restricted access)","2025-07-04 06:53",12,32.4041792,-80.4275179,TRUE,FALSE,FALSE,"S256723809"
"87","blkski","Black Skimmer","Rynchops niger","L19841548","Bayou Sale Rd, Dulac US-LA 29.37084, -90.71300","2025-07-04 06:50",1,29.370835,-90.713003,TRUE,FALSE,TRUE,"S256898255"
"88","blkski","Black Skimmer","Rynchops niger","L3902053","Blue Heron Pond Observation Tower","2025-07-04 06:44",2,32.6261021,-80.0430259,TRUE,FALSE,FALSE,"S256761278"
"89","blkski","Black Skimmer","Rynchops niger","L389013","Meadowlands IBA--Mill Creek Point","2025-07-04 06:30",1,40.8065667,-74.0447833,TRUE,FALSE,FALSE,"S256721551"
"90","blkski","Black Skimmer","Rynchops niger","L591483","Saint Simons Island--Goulds Inlet","2025-07-04 06:30",7,31.1570695,-81.3650036,TRUE,FALSE,FALSE,"S256900764"
"91","blkski","Black Skimmer","Rynchops niger","L126645","Prime Hook National Wildlife Refuge","2025-07-04 06:27",1,38.840717,-75.258354,TRUE,FALSE,FALSE,"S256761609"
"92","blkski","Black Skimmer","Rynchops niger","L18727687","turtle patrol","2025-07-04 06:22",2,27.304319,-82.572524,TRUE,FALSE,TRUE,"S256726955"
"93","blkski","Black Skimmer","Rynchops niger","L14217048","Pea Island NWR, South Pond NE Lookout Platform","2025-07-04 06:19",2,35.7024608,-75.4886222,TRUE,FALSE,TRUE,"S256717713"
"94","blkski","Black Skimmer","Rynchops niger","L20432070","San Joaquin Marsh and Wildlife Sanctuary Pond 4","2025-07-04 06:14",1,33.663426,-117.844923,TRUE,FALSE,TRUE,"S256783935"
"95","blkski","Black Skimmer","Rynchops niger","L6655531","Sunset Cliffs Natural Park","2025-07-04 06:03",6,32.7167073,-117.2552277,TRUE,FALSE,FALSE,"S256815935"
"96","blkski","Black Skimmer","Rynchops niger","L109145","Jamaica Bay Wildlife Refuge--West Pond","2025-07-04 05:51",1,40.6188482,-73.8307995,TRUE,FALSE,FALSE,"S256724799"
"97","blkski","Black Skimmer","Rynchops niger","L481023","Los Angeles River--Willow St.","2025-07-04 05:50",15,33.8048977,-118.2059383,TRUE,FALSE,FALSE,"S256913099"
"98","blkski","Black Skimmer","Rynchops niger","L161004","Barnegat Lighthouse SP","2025-07-04 05:48",1,39.7633333,-74.1058333,TRUE,FALSE,FALSE,"S256729892"
"99","blkski","Black Skimmer","Rynchops niger","L15096090","The Brooks--10670 Glen Lakes Drive (PRIVATE)","2025-07-04 05:40",1,26.413023,-81.78049,TRUE,FALSE,TRUE,"S256815394"
"100","blkski","Black Skimmer","Rynchops niger","L48928550","133333 Johnson Beach Road, Pensacola, Florida, US (30.3, -87.413)","2025-07-04 05:37",4,30.2998043,-87.4131572,TRUE,FALSE,TRUE,"S256770511"
"101","blkski","Black Skimmer","Rynchops niger","L656142","Folly Beach County Park","2025-07-03 20:40",1,32.644145,-79.9622726,TRUE,FALSE,FALSE,"S256642406"
"102","blkski","Black Skimmer","Rynchops niger","L49031511","Marriott","2025-07-03 20:16",1,25.785131,-80.262105,TRUE,FALSE,TRUE,"S256637190"
"103","blkski","Black Skimmer","Rynchops niger","L3112005","Mustang Isl.--the Willows","2025-07-03 20:09",1,27.734525,-97.132616,TRUE,FALSE,FALSE,"S256657173"
"104","blkski","Black Skimmer","Rynchops niger","L32015232","Watersound Beach","2025-07-03 19:46",3,30.298458,-86.073899,TRUE,FALSE,TRUE,"S256653242"
"105","blkski","Black Skimmer","Rynchops niger","L1252879","ACBS-Elmer's Island","2025-07-03 19:46",2,29.182515,-90.0610256,TRUE,FALSE,FALSE,"S256821532"
"106","blkski","Black Skimmer","Rynchops niger","L49037646","94065, Redwood City US-CA 37.52044, -122.25082","2025-07-03 19:32",2,37.520444,-122.250818,TRUE,FALSE,TRUE,"S256663056"
"107","blkski","Black Skimmer","Rynchops niger","L2723507","Cape Hatteras NS--Ramp 43-44 (Ponds & Beach)","2025-07-03 19:29",4,35.2364534,-75.5286992,TRUE,FALSE,FALSE,"S256663966"
"108","blkski","Black Skimmer","Rynchops niger","L771306","Jarvis Sound","2025-07-03 19:06",1,38.967751,-74.8683929,TRUE,FALSE,FALSE,"S256656848"
"109","blkski","Black Skimmer","Rynchops niger","L447335","South Nags Head","2025-07-03 19:03",2,35.8861165,-75.582853,TRUE,FALSE,FALSE,"S256621994"
"110","blkski","Black Skimmer","Rynchops niger","L249800","Short Beach Park","2025-07-03 18:45",1,41.1648434,-73.1104136,TRUE,FALSE,FALSE,"S256774356"
"111","blkski","Black Skimmer","Rynchops niger","L49031647","Pensacola Bay US-FL (30.3408,-87.2702)","2025-07-03 18:25",5,30.340834,-87.2702,TRUE,FALSE,TRUE,"S256637737"
"112","blkski","Black Skimmer","Rynchops niger","L420537","Nob Hill Pond","2025-07-03 18:24",13,37.5218818,-122.2498887,TRUE,FALSE,FALSE,"S256652084"
"113","blkski","Black Skimmer","Rynchops niger","L1280497","Cape May Harbor","2025-07-03 18:00",1,38.9496627,-74.8943564,TRUE,FALSE,FALSE,"S256649047"
"114","blkski","Black Skimmer","Rynchops niger","L42448935","Mobile St. Beach","2025-07-03 17:32",1,30.228406,-87.8298,TRUE,FALSE,TRUE,"S256629800"
"115","blkski","Black Skimmer","Rynchops niger","L837165","Eagle Lakes Community Park","2025-07-03 17:20",2,26.0773686,-81.7141414,TRUE,FALSE,FALSE,"S256623171"
"116","blkski","Black Skimmer","Rynchops niger","L19201954","Redington Shores public beach","2025-07-03 17:16",375,27.83178,-82.834467,TRUE,FALSE,TRUE,"S256662715"
"117","blkski","Black Skimmer","Rynchops niger","L1423930","*DI Causeway","2025-07-03 17:00",2,30.3347445,-88.1295727,TRUE,FALSE,TRUE,"S256645570"
"118","blkski","Black Skimmer","Rynchops niger","L38254867","Outer Clam Bay, Pelican Bay US-FL (26.2209,-81.8149)","2025-07-03 16:30",2,26.22086,-81.814931,TRUE,FALSE,TRUE,"S256622861"
"119","blkski","Black Skimmer","Rynchops niger","L718378","Chincoteague NWR* (general area)","2025-07-03 16:26",1,37.9106228,-75.3479719,TRUE,FALSE,FALSE,"S256592232"
"120","blkski","Black Skimmer","Rynchops niger","L810122","Chincoteague NWR--Toms Cove Visitor Center","2025-07-03 16:08",6,37.890028,-75.3449035,TRUE,FALSE,FALSE,"S256671627"
"121","blkski","Black Skimmer","Rynchops niger","L5751970","St. Pete Beach","2025-07-03 15:31",1,27.7262348,-82.7438736,TRUE,FALSE,FALSE,"S256583361"
"122","blkski","Black Skimmer","Rynchops niger","L49027221","107 Mar Vista Court, Surfside Beach, Texas, US (28.966, -95.267)","2025-07-03 15:29",1,28.9660843,-95.2667744,TRUE,FALSE,TRUE,"S256618614"
"123","blkski","Black Skimmer","Rynchops niger","L4326200","Padre Isl. NS--Beach S. of Visitor center (Kleberg Co.)","2025-07-03 15:00",3,27.4057949,-97.3054147,TRUE,FALSE,FALSE,"S256598847"
"124","blkski","Black Skimmer","Rynchops niger","L49016119","Long Key, St. Pete Beach US-FL (27.7095,-82.7391)","2025-07-03 14:45",20,27.70948,-82.739079,TRUE,FALSE,TRUE,"S256574146"
"125","blkski","Black Skimmer","Rynchops niger","L450544","Matagorda Bay Nature Park/Jetty (CTC 003)","2025-07-03 14:23",1,28.5976351,-95.9782791,TRUE,FALSE,FALSE,"S256671450"
"126","blkski","Black Skimmer","Rynchops niger","L272840","Andree Clark Bird Refuge","2025-07-03 13:51",2,34.4215353,-119.6572856,TRUE,FALSE,FALSE,"S256603683"
"127","blkski","Black Skimmer","Rynchops niger","L718624","New Point Comfort Natural Area Preserve","2025-07-03 13:29",1,37.3165,-76.2788,TRUE,FALSE,FALSE,"S256725986"
"128","blkski","Black Skimmer","Rynchops niger","L2167041","Oakwood Beach--tidal marshes, NW to Mill Rd.","2025-07-03 13:25",1,40.5494903,-74.1131688,TRUE,FALSE,FALSE,"S256592856"
"129","blkski","Black Skimmer","Rynchops niger","L49014543","Fort Pickens Road, Florida, US (30.321, -87.227)","2025-07-03 13:19",16,30.3207723,-87.2265347,TRUE,FALSE,TRUE,"S256567659"
"130","blkski","Black Skimmer","Rynchops niger","L269277","Hatteras Point","2025-07-03 13:19",3,35.1976636,-75.7332529,TRUE,FALSE,FALSE,"S256664745"
"131","blkski","Black Skimmer","Rynchops niger","L677963","St. Andrews SP--Jetty Beach","2025-07-03 12:55",2,30.1238,-85.73356,TRUE,FALSE,FALSE,"S256894160"
"132","blkski","Black Skimmer","Rynchops niger","L296392","Tuckerton--Great Bay Bvld. WMA","2025-07-03 12:45",1,39.5301285,-74.3183899,TRUE,FALSE,FALSE,"S256541348"
"133","blkski","Black Skimmer","Rynchops niger","L7046259","Mattakessett Bay west end -125 Edgartown Bay Road, Edgartown, Massachusetts, US (41.35, -70.51)","2025-07-03 12:26",3,41.3503717,-70.5097347,TRUE,FALSE,TRUE,"S256530652"
"134","blkski","Black Skimmer","Rynchops niger","L621111","Smith Point County Park","2025-07-03 12:04",6,40.7352017,-72.8641286,TRUE,FALSE,FALSE,"S256922459"
"135","blkski","Black Skimmer","Rynchops niger","L723695","Lido Beach Passive Nature Area","2025-07-03 11:45",17,40.5923663,-73.5957384,TRUE,FALSE,FALSE,"S256564967"
"136","blkski","Black Skimmer","Rynchops niger","L302786","Hazel Bazemore County Park (CTC 078)","2025-07-03 11:45",1,27.8666445,-97.6416233,TRUE,FALSE,FALSE,"S256530379"
"137","blkski","Black Skimmer","Rynchops niger","L465131","Mission Creek outflow","2025-07-03 10:39",10,34.4127959,-119.6869361,TRUE,FALSE,FALSE,"S256545860"
"138","blkski","Black Skimmer","Rynchops niger","L1246774","Hayward Regional Shoreline--H.A.R.D. Marsh","2025-07-03 10:36",8,37.6253809,-122.1395588,TRUE,FALSE,FALSE,"S256628795"
"139","blkski","Black Skimmer","Rynchops niger","L589206","Andrews Island Causeway","2025-07-03 10:33",11,31.16246,-81.50159,TRUE,FALSE,FALSE,"S256508635"
"140","blkski","Black Skimmer","Rynchops niger","L28197845","SPI Birding and Nature Center","2025-07-03 10:30",1,26.1374582,-97.1739377,TRUE,FALSE,TRUE,"S256533953"
"141","blkski","Black Skimmer","Rynchops niger","L506275","San Diego River mudflats (including Robb Field & north side)","2025-07-03 10:28",1,32.7568803,-117.2401432,TRUE,FALSE,FALSE,"S256594201"
"142","blkski","Black Skimmer","Rynchops niger","L283726","South Padre Is.--WBC/Conv. Center/Laguna Madre Trail (LTC 035)","2025-07-03 10:27",1,26.1400912,-97.1748233,TRUE,FALSE,FALSE,"S256533949"
"143","blkski","Black Skimmer","Rynchops niger","L1909774","Glorietta Bay Park","2025-07-03 10:27",2,32.6748104,-117.168138,TRUE,FALSE,FALSE,"S256576891"
"144","blkski","Black Skimmer","Rynchops niger","L20233359","Ocean Drive Bridge E. of NAS","2025-07-03 10:20",5,27.7099666,-97.3086087,TRUE,FALSE,FALSE,"S256533935"
"145","blkski","Black Skimmer","Rynchops niger","L48999254","Ship Island","2025-07-03 10:16",2,30.208469,-88.972443,TRUE,FALSE,TRUE,"S256505341"
"146","blkski","Black Skimmer","Rynchops niger","L1329429","Ocean Drive--Middle Thorofare Bridge & fish docks","2025-07-03 10:07",1,38.9566812,-74.8757897,TRUE,FALSE,FALSE,"S256520425"
"147","blkski","Black Skimmer","Rynchops niger","L247338","Largo Central Park Nature Preserve","2025-07-03 10:05",1,27.913417,-82.7749035,TRUE,FALSE,FALSE,"S256900624"
"148","blkski","Black Skimmer","Rynchops niger","L48804581","5613 Gulf Dr, Holmes Beach US-FL 27.50818, -82.71889","2025-07-03 09:36",1,27.508176,-82.71889,TRUE,FALSE,TRUE,"S256492061"
"149","blkski","Black Skimmer","Rynchops niger","L6187779","Goose Island","2025-07-03 09:32",1,40.642881,-73.4826028,TRUE,FALSE,TRUE,"S256592612"
"150","blkski","Black Skimmer","Rynchops niger","L3836354","Kiawah Island--Willet Pond","2025-07-03 09:30",1,32.6162796,-80.0246072,TRUE,FALSE,FALSE,"S256559748"
"151","blkski","Black Skimmer","Rynchops niger","L40878067","Florida, US (25.898, -81.716)","2025-07-03 09:22",2,25.8977546,-81.7157447,TRUE,FALSE,TRUE,"S256475529"
"152","blkski","Black Skimmer","Rynchops niger","L39373244","Cape Romain NWR Stowe Tract (Restricted Access)","2025-07-03 09:07",2,33.089942,-79.442428,TRUE,FALSE,TRUE,"S256471175"
"153","blkski","Black Skimmer","Rynchops niger","L770565","South Padre Is.--Birding and Nature Center","2025-07-03 08:55",1,26.1374628,-97.1739367,TRUE,FALSE,FALSE,"S256492794"
"154","blkski","Black Skimmer","Rynchops niger","L197609","Cape Henlopen SP--Gordon's Pond","2025-07-03 08:43",1,38.7522693,-75.0893841,TRUE,FALSE,FALSE,"S256500470"
"155","blkski","Black Skimmer","Rynchops niger","L1265319","Cape Henlopen SP--The Point","2025-07-03 08:36",2,38.8000272,-75.092376,TRUE,FALSE,FALSE,"S256570636"
"156","blkski","Black Skimmer","Rynchops niger","L48841284","Seacrest Beach Access","2025-07-03 08:33",1,30.289786,-86.0504038,TRUE,FALSE,TRUE,"S256515482"
"157","blkski","Black Skimmer","Rynchops niger","L27548440","Freshkills Park--North Park (Phase l)","2025-07-03 08:24",1,40.5875003,-74.1851211,TRUE,FALSE,FALSE,"S256529246"
"158","blkski","Black Skimmer","Rynchops niger","L566310","Cupsogue Beach County Park","2025-07-03 08:18",34,40.7713119,-72.7373457,TRUE,FALSE,FALSE,"S256542019"
"159","blkski","Black Skimmer","Rynchops niger","L9845309","1102 Harbor Village Drive, Corpus Christi, Texas, US (27.691, -97.321)","2025-07-03 08:13",1,27.6905893,-97.3206588,TRUE,FALSE,TRUE,"S256489225"
"160","blkski","Black Skimmer","Rynchops niger","L2792995","Winston Trails (Restricted Access)","2025-07-03 08:06",1,26.5788792,-80.132197,TRUE,FALSE,FALSE,"S256523125"
"161","blkski","Black Skimmer","Rynchops niger","L1843920","North Jetty Park","2025-07-03 08:05",1,27.1135693,-82.4675176,TRUE,FALSE,FALSE,"S256493150"
"162","blkski","Black Skimmer","Rynchops niger","L234146","The Celery Fields","2025-07-03 08:03",5,27.3253186,-82.4336821,TRUE,FALSE,FALSE,"S256499536"
"163","blkski","Black Skimmer","Rynchops niger","L2276582","Hatteras Inlet Peninsula--Sound Side","2025-07-03 08:00",5,35.2023418,-75.7206488,TRUE,FALSE,FALSE,"S256505635"
"164","blkski","Black Skimmer","Rynchops niger","L3243111","Siesta Key--Beach Access 5","2025-07-03 07:57",9,27.2726991,-82.5676659,TRUE,FALSE,FALSE,"S256452823"
"165","blkski","Black Skimmer","Rynchops niger","L9884898","Lynnhaven Boat Ramp & Beach Facility","2025-07-03 07:47",1,36.9068875,-76.0937512,TRUE,FALSE,FALSE,"S256452311"
"166","blkski","Black Skimmer","Rynchops niger","L445366","Mecox Inlet","2025-07-03 07:46",2,40.8923492,-72.3284175,TRUE,FALSE,FALSE,"S256530361"
"167","blkski","Black Skimmer","Rynchops niger","L296391","Conaskonk Point","2025-07-03 07:42",1,40.454367,-74.17673,TRUE,FALSE,FALSE,"S256518373"
"168","blkski","Black Skimmer","Rynchops niger","L12451694","Whiskey Branch","2025-07-03 07:37",2,34.1566291,-77.8842599,TRUE,FALSE,TRUE,"S256437229"
"169","blkski","Black Skimmer","Rynchops niger","L253315","Fire Island--Wilderness East","2025-07-03 07:35",1,40.7325463,-72.8669289,TRUE,FALSE,FALSE,"S256468624"
"170","blkski","Black Skimmer","Rynchops niger","L6855472","Laguna Atascosa NWR--West Lake Trail (north of General Brant Rd.)","2025-07-03 07:31",2,26.197853,-97.4020871,TRUE,FALSE,FALSE,"S256607553"
"171","blkski","Black Skimmer","Rynchops niger","L13101797","Duncan yard, Gulf Breeze","2025-07-03 07:30",16,30.3604091,-87.197123,TRUE,FALSE,TRUE,"S256652177"
"172","blkski","Black Skimmer","Rynchops niger","L11438570","3020 Maritime Forest Dr, Johns Island US-SC 32.61768, -80.13410","2025-07-03 07:30",7,32.617678,-80.134101,TRUE,FALSE,TRUE,"S256616766"
"173","blkski","Black Skimmer","Rynchops niger","L32855736","501 Edmunds Ave, Union Beach US-NJ 40.44869, -74.18231","2025-07-03 07:28",1,40.448695,-74.18231,TRUE,FALSE,TRUE,"S256547484"
"174","blkski","Black Skimmer","Rynchops niger","L4167568","Heritage Harbour Lake","2025-07-03 07:25",1,27.4966995,-82.4677134,TRUE,FALSE,FALSE,"S256457564"
"175","blkski","Black Skimmer","Rynchops niger","L562775","Carbon Plant Rd. & waterbird  lake","2025-07-03 07:24",3,27.8539888,-97.5520492,TRUE,FALSE,FALSE,"S256464998"
"176","blkski","Black Skimmer","Rynchops niger","L464099","Prime Hook NWR--Dike Trail (formerly Observation Point Trail)","2025-07-03 07:24",12,38.831785,-75.2446157,TRUE,FALSE,FALSE,"S256457465"
"177","blkski","Black Skimmer","Rynchops niger","L20272185","Wrightsville Beach South","2025-07-03 07:17",175,34.186533,-77.814286,TRUE,FALSE,TRUE,"S256460643"
"178","blkski","Black Skimmer","Rynchops niger","L8082660","Pea Island NWR--New Field Pond Platform","2025-07-03 07:14",80,35.7023132,-75.488955,TRUE,FALSE,TRUE,"S256509210"
"179","blkski","Black Skimmer","Rynchops niger","L14725361","Pea Island South Pond, Southern End (35.6939,-75.4857)","2025-07-03 07:09",60,35.693855,-75.485659,TRUE,FALSE,TRUE,"S256455404"
"180","blkski","Black Skimmer","Rynchops niger","L1296440","Madeira Beach","2025-07-03 07:09",2,27.7976285,-82.7977753,TRUE,FALSE,FALSE,"S256429616"
"181","blkski","Black Skimmer","Rynchops niger","L275524","Seaman Rd Sewage Lagoons (restricted access)","2025-07-03 07:07",2,30.500325,-88.7982038,TRUE,FALSE,FALSE,"S256511521"
"182","blkski","Black Skimmer","Rynchops niger","L5834334","Pine Island--Heritage River Road Wetlands/ Carlucci Boat Ramp","2025-07-03 07:05",1,30.3945488,-81.4672916,TRUE,FALSE,FALSE,"S256473198"
"183","blkski","Black Skimmer","Rynchops niger","L335811","Assateague Island","2025-07-03 06:51",2,37.8872945,-75.3440039,TRUE,FALSE,FALSE,"S256525536"
"184","blkski","Black Skimmer","Rynchops niger","L230620","Big Talbot Island SP","2025-07-03 06:45",1,30.5017447,-81.4517114,TRUE,FALSE,FALSE,"S256476287"
"185","blkski","Black Skimmer","Rynchops niger","L351189","Calvert Vaux Park (Dreier-Offerman Park)","2025-07-03 06:42",1,40.5848762,-73.9945752,TRUE,FALSE,FALSE,"S256632666"
"186","blkski","Black Skimmer","Rynchops niger","L207063","Upper Newport Bay","2025-07-03 06:40",2,33.6432772,-117.8879356,TRUE,FALSE,FALSE,"S256517125"
"187","blkski","Black Skimmer","Rynchops niger","L126644","Cape Henlopen State Park","2025-07-03 06:39",2,38.7714636,-75.086344,TRUE,FALSE,FALSE,"S256465039"
"188","blkski","Black Skimmer","Rynchops niger","L416598","El Jardin Park/Beach","2025-07-03 06:35",2,29.596998,-94.9865994,TRUE,FALSE,FALSE,"S256458886"
"189","blkski","Black Skimmer","Rynchops niger","L444485","Plumb Beach","2025-07-03 06:32",1,40.5823284,-73.9153746,TRUE,FALSE,FALSE,"S256440296"
"190","blkski","Black Skimmer","Rynchops niger","L29788571","UWF Research Property","2025-07-03 06:22",3,30.352333,-87.034021,TRUE,FALSE,TRUE,"S256486723"
"191","blkski","Black Skimmer","Rynchops niger","L9820130","New Round Island (restricted access)","2025-07-03 06:19",5,30.3055357,-88.5953804,TRUE,FALSE,FALSE,"S256492050"
"192","blkski","Black Skimmer","Rynchops niger","L286004","Deer Island","2025-07-03 06:09",3,30.3847226,-88.8718414,TRUE,FALSE,FALSE,"S256488457"
"193","blkski","Black Skimmer","Rynchops niger","L92447","Edwin B. Forsythe NWR--Visitor Center","2025-07-03 06:05",6,39.4648594,-74.4506477,TRUE,FALSE,FALSE,"S256468024"
"194","blkski","Black Skimmer","Rynchops niger","L17326367","Fourth Ave, Pass Christian US-MS 30.30410, -89.28358","2025-07-03 06:02",1,30.3041,-89.283585,TRUE,FALSE,TRUE,"S256580955"
"195","blkski","Black Skimmer","Rynchops niger","L233548","Point La Jolla--seawatch","2025-07-03 06:00",1,32.8507576,-117.2735641,TRUE,FALSE,FALSE,"S256625969"
"196","blkski","Black Skimmer","Rynchops niger","L159297","Craney Island Disposal Area (restricted access)","2025-07-03 06:00",23,36.9065,-76.37,TRUE,FALSE,FALSE,"S256558745"
"197","blkski","Black Skimmer","Rynchops niger","L958620","Upper Santa Ana River--Taft Ave. to Lincoln Ave.","2025-07-03 05:58",6,33.8260771,-117.866478,TRUE,FALSE,FALSE,"S256676040"
"198","blkski","Black Skimmer","Rynchops niger","L1396236","Anaheim Coves Park (aka Burris Basin)","2025-07-03 05:58",40,33.8257044,-117.869868,TRUE,FALSE,FALSE,"S256620536"
"199","blkski","Black Skimmer","Rynchops niger","L385839","Salt Marsh Nature Center at Marine Park","2025-07-03 05:55",1,40.599946,-73.9243268,TRUE,FALSE,FALSE,"S256442946"
"200","blkski","Black Skimmer","Rynchops niger","L12427956","Sunset Cove Park","2025-07-03 05:15",2,40.5985632,-73.8231237,TRUE,FALSE,FALSE,"S256513484"
"201","blkski","Black Skimmer","Rynchops niger","L10206709","704 Sand Hill Trce, Saint Simons Island US-GA (31.1476,-81.3904)","2025-07-02 20:06",1,31.14762,-81.390397,TRUE,FALSE,TRUE,"S256362768"
"202","blkski","Black Skimmer","Rynchops niger","L48965394","2300–2604 E Absecon Blvd, Atlantic City US-NJ 39.38509, -74.46153","2025-07-02 19:51",2,39.385094,-74.461526,TRUE,FALSE,TRUE,"S256341195"
"203","blkski","Black Skimmer","Rynchops niger","L1476823","Alley Pond Park--Environmental Center","2025-07-02 19:50",1,40.7621022,-73.7535993,TRUE,FALSE,FALSE,"S256348399"
"204","blkski","Black Skimmer","Rynchops niger","L2618136","Dauphin Island Causeway","2025-07-02 19:11",3,30.2932775,-88.1309509,TRUE,FALSE,FALSE,"S256357781"
"205","blkski","Black Skimmer","Rynchops niger","L197353","Sandy Hook","2025-07-02 18:33",9,40.4392518,-73.9869263,TRUE,FALSE,FALSE,"S256357209"
"206","blkski","Black Skimmer","Rynchops niger","L3382819","Bohicket Marina","2025-07-02 18:30",1,32.6054166,-80.1570198,TRUE,FALSE,FALSE,"S256359455"
"207","blkski","Black Skimmer","Rynchops niger","L21320927","Oyster Village Horse Island Trail","2025-07-02 18:12",6,37.2878054,-75.9204626,TRUE,FALSE,FALSE,"S256319345"
"208","blkski","Black Skimmer","Rynchops niger","L4100205","Port Aransas Beach (Access Rd 1 to Horace Caldwell Pier)","2025-07-02 18:00",2,27.8190375,-97.0614195,TRUE,FALSE,FALSE,"S256657668"
"209","blkski","Black Skimmer","Rynchops niger","L3094986","Goose Island SP--islet out from pier","2025-07-02 17:42",1,28.123237,-96.9776058,TRUE,FALSE,FALSE,"S256339857"
"210","blkski","Black Skimmer","Rynchops niger","L1192916","Hatteras Landing Marina","2025-07-02 17:08",10,35.208571,-75.7029033,TRUE,FALSE,FALSE,"S256307669"
"211","blkski","Black Skimmer","Rynchops niger","L619780","Chincoteague NWR--Marsh Trail","2025-07-02 16:59",2,37.9083824,-75.3471136,TRUE,FALSE,FALSE,"S256323479"
"212","blkski","Black Skimmer","Rynchops niger","L48959453","Big Talbot Birding Walk","2025-07-02 16:45",2,30.51032,-81.457954,TRUE,FALSE,TRUE,"S256331117"
"213","blkski","Black Skimmer","Rynchops niger","L270936","Monomoy NWR--Morris Island","2025-07-02 16:30",2,41.6568485,-69.9582152,TRUE,TRUE,FALSE,"S256318416"
"214","blkski","Black Skimmer","Rynchops niger","L473168","Cape Hatteras NS--Cape Point","2025-07-02 14:46",1,35.2234655,-75.5286026,TRUE,FALSE,FALSE,"S256316263"
"215","blkski","Black Skimmer","Rynchops niger","L357297","Wrightsville Beach","2025-07-02 14:38",2,34.2144993,-77.7905846,TRUE,FALSE,FALSE,"S256286356"
"216","blkski","Black Skimmer","Rynchops niger","L596698","Kiawah Island--Captain Sams Spit","2025-07-02 13:19",11,32.5780634,-80.1460791,TRUE,FALSE,FALSE,"S256359497"
"217","blkski","Black Skimmer","Rynchops niger","L3033063","Oak Island--West End","2025-07-02 13:18",2,33.9185505,-78.2347369,TRUE,FALSE,FALSE,"S256262219"
"218","blkski","Black Skimmer","Rynchops niger","L48955470","4708–4838 66th St W, Bradenton US-FL 27.45349, -82.62869","2025-07-02 12:51",4,27.45349,-82.628689,TRUE,FALSE,TRUE,"S256294446"
"219","blkski","Black Skimmer","Rynchops niger","L8022212","Cape May beach, Cape May, NJ","2025-07-02 12:51",2,38.929664,-74.929716,TRUE,FALSE,TRUE,"S256273287"
"220","blkski","Black Skimmer","Rynchops niger","L869458","Bombay Hook NWR--Saltmarsh Boardwalk Trail","2025-07-02 12:47",8,39.2540522,-75.4608325,TRUE,FALSE,FALSE,"S256246974"
"221","blkski","Black Skimmer","Rynchops niger","L731072","Buck's Creek","2025-07-02 12:25",2,41.673952,-70.0011545,TRUE,TRUE,FALSE,"S256513703"
"222","blkski","Black Skimmer","Rynchops niger","L48981730","Gardiners Bay, East Hampton US-NY 41.03106, -72.09772","2025-07-02 12:25",2,41.031061,-72.097723,TRUE,FALSE,TRUE,"S256415044"
"223","blkski","Black Skimmer","Rynchops niger","L985270","Bombay Hook NWR--Raymond Pool overlook trail","2025-07-02 12:09",12,39.2554022,-75.4655653,TRUE,FALSE,FALSE,"S256286310"
"224","blkski","Black Skimmer","Rynchops niger","L280707","Fort Tilden","2025-07-02 11:52",NA,40.5632807,-73.8833118,TRUE,FALSE,FALSE,"S256448415"
"225","blkski","Black Skimmer","Rynchops niger","L48954964","Cape Hatteras National Seashore, Buxton US-NC 35.20075, -75.71703","2025-07-02 11:48",13,35.200752,-75.717035,TRUE,FALSE,TRUE,"S256292426"
"226","blkski","Black Skimmer","Rynchops niger","L48938167","7824 Estero Blvd, Fort Myers Beach US-FL (26.4058,-81.8958)","2025-07-02 11:42",150,26.405815,-81.895822,TRUE,FALSE,TRUE,"S256227820"
"227","blkski","Black Skimmer","Rynchops niger","L48981631","Gardiners Island, East Hampton US-NY 41.05299, -72.09942","2025-07-02 11:24",2,41.052993,-72.099418,TRUE,FALSE,TRUE,"S256414603"
"228","blkski","Black Skimmer","Rynchops niger","L915713","Swan Cove east end","2025-07-02 11:07",2,37.890807,-75.3419638,TRUE,FALSE,TRUE,"S256241483"
"229","blkski","Black Skimmer","Rynchops niger","L656482","Jekyll Island--Welcome Center","2025-07-02 11:01",2,31.0594596,-81.4470255,TRUE,FALSE,FALSE,"S256225090"
"230","blkski","Black Skimmer","Rynchops niger","L776550","Salt Pond A1","2025-07-02 10:51",1,37.4379296,-122.0886612,TRUE,FALSE,FALSE,"S256262549"
"231","blkski","Black Skimmer","Rynchops niger","L855255","Jekyll Island--Tidelands Nature Center","2025-07-02 10:39",1,31.03909,-81.41908,TRUE,FALSE,FALSE,"S256211639"
"232","blkski","Black Skimmer","Rynchops niger","L48969092","Mangrove Warbler Spot","2025-07-02 10:38",1,27.7544475,-97.1426954,TRUE,FALSE,TRUE,"S256358492"
"233","blkski","Black Skimmer","Rynchops niger","L793778","Port Aransas Nature Preserve at Charlie's Pasture","2025-07-02 10:34",2,27.8327765,-97.0873833,TRUE,FALSE,FALSE,"S256388545"
"234","blkski","Black Skimmer","Rynchops niger","L48942420","Anastasia State Park, St. Augustine US-FL 29.87184, -81.27570","2025-07-02 10:32",1,29.871836,-81.275702,TRUE,FALSE,TRUE,"S256244848"
"235","blkski","Black Skimmer","Rynchops niger","L302411","Tuckerton--Great Bay Bvld WMA Inlet","2025-07-02 10:29",2,39.5080978,-74.3204483,TRUE,FALSE,FALSE,"S256221708"
"236","blkski","Black Skimmer","Rynchops niger","L819486","Keyport--waterfront area","2025-07-02 10:28",2,40.4391085,-74.2001152,TRUE,FALSE,FALSE,"S256213643"
"237","blkski","Black Skimmer","Rynchops niger","L213321","Oceanside Marine Nature Study Area","2025-07-02 10:24",2,40.6233726,-73.6242225,TRUE,FALSE,FALSE,"S256368391"
"238","blkski","Black Skimmer","Rynchops niger","L5403306","Batiquitos Lagoon--Navigator Circle","2025-07-02 10:16",5,33.0896202,-117.3067053,TRUE,FALSE,FALSE,"S256366289"
"239","blkski","Black Skimmer","Rynchops niger","L189003","Emerson Point Preserve","2025-07-02 10:13",2,27.5320111,-82.6256604,TRUE,FALSE,FALSE,"S256220206"
"240","blkski","Black Skimmer","Rynchops niger","L48931495","Rafters","2025-07-02 10:03",1,32.670947,-79.915524,TRUE,FALSE,TRUE,"S256214364"
"241","blkski","Black Skimmer","Rynchops niger","L572369","Drum Point (CTC 091)","2025-07-02 10:03",6,27.3729106,-97.7070808,TRUE,FALSE,FALSE,"S256263537"
"242","blkski","Black Skimmer","Rynchops niger","L910949","Harbor Island (restricted access)","2025-07-02 09:57",6,32.4050699,-80.4330345,TRUE,FALSE,FALSE,"S256215890"
"243","blkski","Black Skimmer","Rynchops niger","L1300483","Cape May NWR--Two Mile Unit","2025-07-02 09:38",1,38.9518672,-74.8578212,TRUE,FALSE,FALSE,"S256201243"
"244","blkski","Black Skimmer","Rynchops niger","L4961519","US-DE-Smyrna-Bombay Hook National Wildlife Refuge - 39.2597x-75.4731","2025-07-02 09:33",14,39.259653,-75.473068,TRUE,FALSE,TRUE,"S256229860"
"245","blkski","Black Skimmer","Rynchops niger","L518788","Coney Island Pier","2025-07-02 09:31",2,40.5696241,-73.9833203,TRUE,FALSE,FALSE,"S256216463"
"246","blkski","Black Skimmer","Rynchops niger","L5402521","H Street Viewpoint","2025-07-02 09:24",3,33.040469,-117.296262,TRUE,FALSE,FALSE,"S256298485"
"247","blkski","Black Skimmer","Rynchops niger","L920931","Longboat Key--Public Beach Access 4795","2025-07-02 09:15",2,27.4004895,-82.6509216,TRUE,FALSE,FALSE,"S256221148"
"248","blkski","Black Skimmer","Rynchops niger","L509134","Elsie Roemer Bird Sanctuary","2025-07-02 09:14",1,37.7525975,-122.2473836,TRUE,FALSE,FALSE,"S256254296"
"249","blkski","Black Skimmer","Rynchops niger","L256572","Shinnecock County Park West","2025-07-02 09:05",1,40.82816,-72.53171,TRUE,FALSE,FALSE,"S256223458"
"250","blkski","Black Skimmer","Rynchops niger","L128994","South Padre Is.--Isla Blanca Park (LTC 038)","2025-07-02 08:59",1,26.0711994,-97.1604004,TRUE,FALSE,FALSE,"S256304922"
"251","blkski","Black Skimmer","Rynchops niger","L787448","Shamrock Island Preserve","2025-07-02 08:58",60,27.7622413,-97.16609,TRUE,FALSE,FALSE,"S256357742"
"252","blkski","Black Skimmer","Rynchops niger","L40789751","UC Natural Reserve System Creek Area","2025-07-02 08:48",2,33.6520483,-117.8540118,TRUE,FALSE,TRUE,"S256234405"
"253","blkski","Black Skimmer","Rynchops niger","L48953316","New River CW- Long Rock, Sneads Ferry US-NC (34.5549,-77.3564)","2025-07-02 08:48",4,34.554917,-77.356374,TRUE,FALSE,TRUE,"S256278217"
"254","blkski","Black Skimmer","Rynchops niger","L1552663","Ken Malloy Harbor Regional Park","2025-07-02 08:22",2,33.7874582,-118.2939363,TRUE,TRUE,FALSE,"S256230991"
"255","blkski","Black Skimmer","Rynchops niger","L246888","Lynnhaven Inlet","2025-07-02 08:16",2,36.9073525,-76.0918236,TRUE,FALSE,FALSE,"S256170146"
"256","blkski","Black Skimmer","Rynchops niger","L498948","Siesta Key Public Beach","2025-07-02 08:12",12,27.2643958,-82.5517845,TRUE,FALSE,FALSE,"S256238401"
"257","blkski","Black Skimmer","Rynchops niger","L764383","Gulf Islands NS: Fort Pickens - Beach E of Langdon Beach","2025-07-02 08:10",1,30.3188,-87.2407833,TRUE,FALSE,FALSE,"S256188997"
"258","blkski","Black Skimmer","Rynchops niger","L482346","Kiawah Island--Inlet Cove","2025-07-02 08:00",1,32.5910812,-80.1291275,TRUE,FALSE,FALSE,"S256256404"
"259","blkski","Black Skimmer","Rynchops niger","L338428","Indian Point (CTC 073)","2025-07-02 07:58",1,27.8525492,-97.3559312,TRUE,FALSE,FALSE,"S256189077"
"260","blkski","Black Skimmer","Rynchops niger","L5100157","Cape Henlopen SP--Gordon's Pond Trail North","2025-07-02 07:52",7,38.7608875,-75.085907,TRUE,FALSE,TRUE,"S256199962"
"261","blkski","Black Skimmer","Rynchops niger","L3288506","De Soto National Memorial","2025-07-02 07:40",3,27.5235681,-82.6432157,TRUE,FALSE,FALSE,"S256180589"
"262","blkski","Black Skimmer","Rynchops niger","L48953462","Channel off Little Tybee","2025-07-02 07:32",1,31.968185,-80.867059,TRUE,FALSE,TRUE,"S256286673"
"263","blkski","Black Skimmer","Rynchops niger","L1109955","UC Natural Reserve System Ponds 4-11","2025-07-02 07:19",3,33.6562812,-117.8515975,TRUE,FALSE,TRUE,"S256249203"
"264","blkski","Black Skimmer","Rynchops niger","L2113967","Timber Point Golf Course--East Marina","2025-07-02 07:10",2,40.7202869,-73.1412855,TRUE,FALSE,FALSE,"S256216169"
"265","blkski","Black Skimmer","Rynchops niger","L1109941","UC Natural Reserve System Ponds 1-3, Sediment","2025-07-02 07:05",13,33.6539326,-117.8497161,TRUE,FALSE,TRUE,"S256238063"
"266","blkski","Black Skimmer","Rynchops niger","L164929","Bolsa Chica Ecological Reserve","2025-07-02 07:04",4,33.7026531,-118.050735,TRUE,FALSE,FALSE,"S256258330"
"267","blkski","Black Skimmer","Rynchops niger","L15709269","Pinellas Trail - north of Trinity Blvd.","2025-07-02 06:53",1,28.1846456,-82.6538678,TRUE,FALSE,TRUE,"S256178178"
"268","blkski","Black Skimmer","Rynchops niger","L614549","Santa Ana River mouth","2025-07-02 06:40",1,33.6299142,-117.9575443,TRUE,FALSE,FALSE,"S256237083"
"269","blkski","Black Skimmer","Rynchops niger","L6023480","Round Island  - Beneficial Use Site (Restricted Access)","2025-07-02 06:39",5,30.3119125,-88.604393,TRUE,FALSE,TRUE,"S256247839"
"270","blkski","Black Skimmer","Rynchops niger","L47549941","16195 Alabama 193, Coden, Alabama, US (30.343, -88.126)","2025-07-02 06:35",1,30.3427485,-88.1256464,TRUE,FALSE,TRUE,"S256648099"
"271","blkski","Black Skimmer","Rynchops niger","L1037720","Gulf Islands NS: Fort Pickens entrance beach","2025-07-02 06:29",95,30.3262677,-87.1803653,TRUE,FALSE,FALSE,"S256177148"
"272","blkski","Black Skimmer","Rynchops niger","L15573155","Beach between West Chop and Mink Meadows","2025-07-02 06:21",1,41.4790985,-70.6104379,TRUE,FALSE,TRUE,"S256207068"
"273","blkski","Black Skimmer","Rynchops niger","L48947965","RESTRICTED- New River Inlet CW- Raisin Rock, North Topsail Beach US-NC (34.5500,-77.3548)","2025-07-02 06:01",2,34.550045,-77.354844,TRUE,FALSE,TRUE,"S256266133"
"274","blkski","Black Skimmer","Rynchops niger","L3037383","68th Ave Flood Control Area","2025-07-01 20:35",1,27.8338106,-82.7053249,TRUE,FALSE,FALSE,"S256067197"
"275","blkski","Black Skimmer","Rynchops niger","L190658","Fort Myers Beach","2025-07-01 20:22",1,26.417042,-81.904274,TRUE,FALSE,FALSE,"S256087290"
"276","blkski","Black Skimmer","Rynchops niger","L13771043","Indian Shores Beach","2025-07-01 20:18",4,27.8621762,-82.8489015,TRUE,FALSE,FALSE,"S256225974"
"277","blkski","Black Skimmer","Rynchops niger","L8130554","James Patton Park","2025-07-01 20:13",3,27.4365832,-82.4097369,TRUE,FALSE,FALSE,"S256063242"
"278","blkski","Black Skimmer","Rynchops niger","L48905688","451 Fort Pickens Rd, Gulf Breeze US-FL (30.3282,-87.1550)","2025-07-01 20:01",1,30.328199,-87.154996,TRUE,FALSE,TRUE,"S256072602"
"279","blkski","Black Skimmer","Rynchops niger","L952893","Pete's Harbor","2025-07-01 20:00",2,37.5010198,-122.2234476,TRUE,FALSE,FALSE,"S256188224"
"280","blkski","Black Skimmer","Rynchops niger","L694875","Emily Renzel Wetlands","2025-07-01 19:59",1,37.4425693,-122.1150649,TRUE,FALSE,FALSE,"S256297868"
"281","blkski","Black Skimmer","Rynchops niger","L3087424","Shinnecock Inlet, west","2025-07-01 19:49",2,40.8421473,-72.4781388,TRUE,FALSE,FALSE,"S256060797"
"282","blkski","Black Skimmer","Rynchops niger","L25508965","Roger Hill Park","2025-07-01 19:44",1,27.4492536,-82.4176921,TRUE,FALSE,FALSE,"S256058367"
"283","blkski","Black Skimmer","Rynchops niger","L46945085","Marker 10, and shore","2025-07-01 19:29",1,37.530028,-122.197642,TRUE,FALSE,TRUE,"S256187291"
"284","blkski","Black Skimmer","Rynchops niger","L48902554","1411 Butterfield Court, Marco Island, Florida, US (25.957, -81.711)","2025-07-01 19:27",1,25.9573909,-81.7106008,TRUE,FALSE,TRUE,"S256058038"
"285","blkski","Black Skimmer","Rynchops niger","L757716","San Diego River--estuary (Old Sea World Dr.)","2025-07-01 18:53",2,32.7601952,-117.2142431,TRUE,FALSE,FALSE,"S256081557"
"286","blkski","Black Skimmer","Rynchops niger","L1267221","I.G. Levy Park North (formerly Scranton Nature Center)","2025-07-01 18:16",1,30.3786022,-88.5197639,TRUE,FALSE,FALSE,"S256057502"
"287","blkski","Black Skimmer","Rynchops niger","L928645","Stone Harbor (general area)","2025-07-01 18:06",65,39.0474263,-74.7636403,TRUE,FALSE,FALSE,"S256053216"
"288","blkski","Black Skimmer","Rynchops niger","L20220750","Padre Isl. NS—North Beach Area","2025-07-01 18:00",1,27.4804462,-97.2721216,TRUE,FALSE,FALSE,"S256057948"
"289","blkski","Black Skimmer","Rynchops niger","L795156","Dauphin Island--Pier","2025-07-01 17:29",4,30.2478562,-88.126322,TRUE,FALSE,FALSE,"S256379353"
"290","blkski","Black Skimmer","Rynchops niger","L127324","Honeymoon Island SP","2025-07-01 17:20",1,28.0706,-82.8314,TRUE,FALSE,FALSE,"S256050227"
"291","blkski","Black Skimmer","Rynchops niger","L152122","Palo Alto Baylands","2025-07-01 17:04",2,37.459167,-122.10445,TRUE,FALSE,FALSE,"S256067970"
"292","blkski","Black Skimmer","Rynchops niger","L596901","East Kiawah Island","2025-07-01 17:01",4,32.6158096,-80.0184917,TRUE,FALSE,FALSE,"S256076411"
"293","blkski","Black Skimmer","Rynchops niger","L1950528","Scipio Creek &  boat basin","2025-07-01 16:48",2,29.734387,-84.994169,TRUE,FALSE,FALSE,"S256043904"
"294","blkski","Black Skimmer","Rynchops niger","L2040230","Long Point Wildlife Refuge (TTOR)","2025-07-01 16:12",2,41.3545043,-70.6384742,TRUE,FALSE,FALSE,"S256024203"
"295","blkski","Black Skimmer","Rynchops niger","L48900493","The Gulf Restaurant","2025-07-01 16:01",2,30.400596,-86.59697,TRUE,FALSE,TRUE,"S256048062"
"296","blkski","Black Skimmer","Rynchops niger","L49099889","BH","2025-07-01 16:00",2,27.5072696,-82.7191284,TRUE,FALSE,TRUE,"S256934681"
"297","blkski","Black Skimmer","Rynchops niger","L725009","Dauphin Island--Airport","2025-07-01 15:56",1,30.2575335,-88.1236848,TRUE,FALSE,FALSE,"S256379003"
"298","blkski","Black Skimmer","Rynchops niger","L1050138","Johnnie Mercer's Pier","2025-07-01 15:38",1,34.2132146,-77.7864314,TRUE,FALSE,FALSE,"S256004488"
"299","blkski","Black Skimmer","Rynchops niger","L48897516","Silver Strand Salt Marsh - Imperial Beach, CA","2025-07-01 14:45",1,32.5912819,-117.1223373,TRUE,FALSE,TRUE,"S256322669"
"300","blkski","Black Skimmer","Rynchops niger","L451062","Ben T. Davis Beach","2025-07-01 14:44",1,27.9690474,-82.5746155,TRUE,FALSE,FALSE,"S256056446"
"301","blkski","Black Skimmer","Rynchops niger","L6705638","Brookfield Park","2025-07-01 14:34",1,40.5618248,-74.1601933,TRUE,FALSE,FALSE,"S256042869"
"302","blkski","Black Skimmer","Rynchops niger","L48906210","317 Glen Eagle Ct, Kiawah Island US-SC 32.60968, -80.08301","2025-07-01 14:21",1,32.609684,-80.083015,TRUE,FALSE,TRUE,"S256074814"
"303","blkski","Black Skimmer","Rynchops niger","L677968","St. Andrews SP--Gator Lake","2025-07-01 14:08",1,30.12853,-85.73288,TRUE,FALSE,FALSE,"S256020883"
"304","blkski","Black Skimmer","Rynchops niger","L799187","Corson's Inlet SP--Strathmere Natural Area","2025-07-01 13:35",1,39.2035828,-74.6523947,TRUE,FALSE,FALSE,"S255972065"
"305","blkski","Black Skimmer","Rynchops niger","L966711","Bayshore Bikeway--13th Street (Ponds 22/20)","2025-07-01 13:29",10,32.5880078,-117.1059448,TRUE,FALSE,FALSE,"S256018897"
"306","blkski","Black Skimmer","Rynchops niger","L14874886","John Butler's Mudhole","2025-07-01 12:45",1,41.3958945,-70.5134408,TRUE,FALSE,FALSE,"S256071214"
"307","blkski","Black Skimmer","Rynchops niger","L549315","DuPont Nature Center and Lighthouse Rd.","2025-07-01 12:20",3,38.947648,-75.314868,TRUE,FALSE,FALSE,"S255954617"
"308","blkski","Black Skimmer","Rynchops niger","L1286469","Pass A Loutre WMA--South Pass","2025-07-01 12:02",2,29.0606713,-89.2082977,TRUE,FALSE,FALSE,"S255982843"
"309","blkski","Black Skimmer","Rynchops niger","L20786381","131–199 Mill Creek Rd, South Chatham US-MA 41.67534, -70.02019","2025-07-01 12:02",1,41.675344,-70.020189,TRUE,TRUE,TRUE,"S255940743"
"310","blkski","Black Skimmer","Rynchops niger","L48874873","213 Anglers Rd, Lewes US-DE 38.77842, -75.14006","2025-07-01 11:57",2,38.778416,-75.14006,TRUE,FALSE,TRUE,"S255935605"
"311","blkski","Black Skimmer","Rynchops niger","L130800","Pea Island NWR--North Pond","2025-07-01 11:55",100,35.7175756,-75.4985794,TRUE,FALSE,FALSE,"S255951500"
"312","blkski","Black Skimmer","Rynchops niger","L547888","Heckscher SP, East Islip","2025-07-01 11:50",1,40.7129149,-73.1650615,TRUE,FALSE,FALSE,"S255940060"
"313","blkski","Black Skimmer","Rynchops niger","L109217","Milford Point — Sandbars","2025-07-01 11:35",3,41.1725812,-73.1003666,TRUE,FALSE,FALSE,"S255951043"
"314","blkski","Black Skimmer","Rynchops niger","L109233","Sandy Point","2025-07-01 11:30",1,41.2645658,-72.9312372,TRUE,FALSE,FALSE,"S256030554"
"315","blkski","Black Skimmer","Rynchops niger","L483821","Little Creek Wildlife Area--Main Tract","2025-07-01 11:30",42,39.1506971,-75.4237175,TRUE,FALSE,FALSE,"S255938359"
"316","blkski","Black Skimmer","Rynchops niger","L45007342","Hatteras Point","2025-07-01 11:28",15,35.1991783,-75.722874,TRUE,FALSE,TRUE,"S256075200"
"317","blkski","Black Skimmer","Rynchops niger","L48879251","1294–1306 Miracle Strip Pkwy SE, Fort Walton Beach","2025-07-01 11:18",12,30.394856,-86.565352,TRUE,FALSE,TRUE,"S255954443"
"318","blkski","Black Skimmer","Rynchops niger","L152499","Breezy Point Tip","2025-07-01 11:04",2,40.5506643,-73.9357889,TRUE,FALSE,FALSE,"S256011782"
"319","blkski","Black Skimmer","Rynchops niger","L109216","Milford Point, CT Audubon","2025-07-01 11:00",3,41.1754303,-73.1032485,TRUE,FALSE,FALSE,"S256005649"
"320","blkski","Black Skimmer","Rynchops niger","L109144","Jamaica Bay Wildlife Refuge--East Pond","2025-07-01 10:45",2,40.6226854,-73.8220096,TRUE,FALSE,FALSE,"S256618606"
"321","blkski","Black Skimmer","Rynchops niger","L19524904","Eastpoint Channel","2025-07-01 10:21",2,29.7387883,-84.8742091,TRUE,FALSE,TRUE,"S255925054"
"322","blkski","Black Skimmer","Rynchops niger","L17028983","Mission Bay--Mariners Point","2025-07-01 10:20",4,32.766686,-117.2453127,TRUE,FALSE,FALSE,"S256031324"
"323","blkski","Black Skimmer","Rynchops niger","L771154","Norton Point Tidal Flats","2025-07-01 10:10",1,41.3497848,-70.5046749,TRUE,FALSE,FALSE,"S255929045"
"324","blkski","Black Skimmer","Rynchops niger","L716027","Mission Bay--Quivira Basin","2025-07-01 09:57",1,32.7623417,-117.2389844,TRUE,FALSE,TRUE,"S256035944"
"325","blkski","Black Skimmer","Rynchops niger","L47847209","Canal 19958, Lew US-DE 38.75562, -75.10639","2025-07-01 09:57",2,38.755625,-75.106387,TRUE,FALSE,TRUE,"S255921118"
"326","blkski","Black Skimmer","Rynchops niger","L160668","Lovers Key SP","2025-07-01 09:50",12,26.3911316,-81.8713188,TRUE,FALSE,FALSE,"S255913977"
"327","blkski","Black Skimmer","Rynchops niger","L871818","North Lido Beach Park","2025-07-01 09:37",400,27.3167045,-82.583995,TRUE,FALSE,FALSE,"S255977070"
"328","blkski","Black Skimmer","Rynchops niger","L788729","Tybee Island--North Beach","2025-07-01 09:34",6,32.0270701,-80.8530664,TRUE,FALSE,FALSE,"S255946339"
"329","blkski","Black Skimmer","Rynchops niger","L859765","Newport Back Bay","2025-07-01 09:25",3,33.6264124,-117.8853178,TRUE,FALSE,FALSE,"S255960646"
"330","blkski","Black Skimmer","Rynchops niger","L2294559","Sunset Beach--East End","2025-07-01 09:20",6,33.8729098,-78.4842682,TRUE,FALSE,FALSE,"S256230658"
"331","blkski","Black Skimmer","Rynchops niger","L18298174","North Clearwater Beach","2025-07-01 09:20",1,28.004443,-82.828777,TRUE,FALSE,FALSE,"S255923866"
"332","blkski","Black Skimmer","Rynchops niger","L40001501","Calhoun Port Authority Wetland Mitigation Site (restricted access)","2025-07-01 09:09",1,28.670311,-96.570329,TRUE,FALSE,TRUE,"S255988961"
"333","blkski","Black Skimmer","Rynchops niger","L1059216","Fort Tilden--Fishermans Parking Lot","2025-07-01 09:09",8,40.5572434,-73.898989,TRUE,FALSE,FALSE,"S255903474"
"334","blkski","Black Skimmer","Rynchops niger","L6227462","Siesta Key--Beach Access 7","2025-07-01 09:00",18,27.2703128,-82.5628682,TRUE,FALSE,FALSE,"S255933717"
"335","blkski","Black Skimmer","Rynchops niger","L1897300","Murrell's Inlet Oyster Recycling Rd. Boat Launch","2025-07-01 08:59",6,33.5239423,-79.0619526,TRUE,FALSE,FALSE,"S255887544"
"336","blkski","Black Skimmer","Rynchops niger","L109136","Cape Island--South Cape May Meadows (SCMM)","2025-07-01 08:56",1,38.9359287,-74.9434519,TRUE,FALSE,FALSE,"S255904585"
"337","blkski","Black Skimmer","Rynchops niger","L48863232","1106 Rental Car Rd, Sarasota US-FL 27.38304, -82.55164","2025-07-01 08:55",1,27.383039,-82.551636,TRUE,FALSE,TRUE,"S255879223"
"338","blkski","Black Skimmer","Rynchops niger","L128974","Galveston Island SP (UTC 070)","2025-07-01 08:50",2,29.1956654,-94.9559069,TRUE,FALSE,FALSE,"S255925587"
"339","blkski","Black Skimmer","Rynchops niger","L559318","Marshes of Glynn Park","2025-07-01 08:49",1,31.153654,-81.4779782,TRUE,FALSE,FALSE,"S255880929"
"340","blkski","Black Skimmer","Rynchops niger","L3161280","Seabrook Island--North Beach","2025-07-01 08:42",4,32.5727539,-80.1518404,TRUE,FALSE,FALSE,"S255958005"
"341","blkski","Black Skimmer","Rynchops niger","L45531993","4966 66th Street West, Bradenton, Florida, US (27.454, -82.629)","2025-07-01 08:41",6,27.4542846,-82.6286661,TRUE,FALSE,TRUE,"S255888787"
"342","blkski","Black Skimmer","Rynchops niger","L142739","Gulf Islands National Seashore--Santa Rosa area (Opal Beach)","2025-07-01 08:25",1,30.3591709,-86.9854889,TRUE,FALSE,FALSE,"S256051335"
"343","blkski","Black Skimmer","Rynchops niger","L48885301","Paridise Point","2025-07-01 08:20",40,32.7756404,-117.2401074,TRUE,FALSE,TRUE,"S255981743"
"344","blkski","Black Skimmer","Rynchops niger","L429923","Pine Gully Park (UTC 079)","2025-07-01 08:18",1,29.5909701,-94.9947882,TRUE,FALSE,FALSE,"S255889004"
"345","blkski","Black Skimmer","Rynchops niger","L9836454","Sarasota Bay & Paradise Bay Parks","2025-07-01 08:00",1,27.4626698,-82.6736234,TRUE,FALSE,TRUE,"S255888941"
"346","blkski","Black Skimmer","Rynchops niger","L10027603","New Creek Watershed, Graham Blvd. bridge","2025-07-01 07:59",1,40.576194,-74.087204,TRUE,FALSE,FALSE,"S255912909"
"347","blkski","Black Skimmer","Rynchops niger","L3738360","Lynnhaven Inlet Flats","2025-07-01 07:46",2,36.903687,-76.0915983,TRUE,FALSE,FALSE,"S255865997"
"348","blkski","Black Skimmer","Rynchops niger","L48933306","375 Sanctuary Road West, Corkscrew Swamp Sanctuary","2025-07-01 07:45",1,26.3751567,-81.6036988,TRUE,FALSE,TRUE,"S256206634"
"349","blkski","Black Skimmer","Rynchops niger","L2423907","Bahia Beach Nature Preserve","2025-07-01 07:30",2,27.7214102,-82.463159,TRUE,FALSE,FALSE,"S255864599"
"350","blkski","Black Skimmer","Rynchops niger","L127263","St. George Island SP","2025-07-01 07:30",1,29.7155,-84.7535,TRUE,FALSE,FALSE,"S255958218"
"351","blkski","Black Skimmer","Rynchops niger","L718342","Brownsville Preserve","2025-07-01 07:30",1,37.4689,-75.8327,TRUE,FALSE,FALSE,"S256288315"
"352","blkski","Black Skimmer","Rynchops niger","L811205","Upper Santa Ana River--Glassell St. to Tustin Ave.","2025-07-01 07:23",5,33.8462532,-117.843411,TRUE,FALSE,FALSE,"S255939520"
"353","blkski","Black Skimmer","Rynchops niger","L36522624","Gulfport Harbor Beach","2025-07-01 07:17",2,30.367591,-89.083412,TRUE,FALSE,TRUE,"S255890265"
"354","blkski","Black Skimmer","Rynchops niger","L2263572","San Joaquin Wildlife Sanctuary--Fledgling Loop Trail","2025-07-01 07:12",80,33.6609892,-117.8437141,TRUE,FALSE,FALSE,"S255941776"
"355","blkski","Black Skimmer","Rynchops niger","L34188023","Pea Island NWR--North Pond Wildlife Trail [NCBA Pea Island Oe W NE]","2025-07-01 07:10",70,35.712707,-75.5023833,TRUE,FALSE,TRUE,"S255894766"
"356","blkski","Black Skimmer","Rynchops niger","L632896","Lake Belleview","2025-07-01 07:09",1,27.9465497,-82.7934623,TRUE,FALSE,FALSE,"S255860930"
"357","blkski","Black Skimmer","Rynchops niger","L7424978","Sammy's Beach","2025-07-01 06:46",1,41.0290844,-72.1875189,TRUE,FALSE,FALSE,"S255853954"
"358","blkski","Black Skimmer","Rynchops niger","L812292","San Diego Bay NWR--Sweetwater Marsh Unit / Living Coast Discovery Center (limited access)","2025-07-01 06:40",3,32.6391472,-117.113378,TRUE,FALSE,FALSE,"S256012656"
"359","blkski","Black Skimmer","Rynchops niger","L129103","Galveston--8 Mile Rd./Sportsman Rd (UTC 066)","2025-07-01 06:04",1,29.2572178,-94.8949664,TRUE,FALSE,FALSE,"S255861161"
"360","blkski","Black Skimmer","Rynchops niger","L25873472","Ocean Isle- West End","2025-07-01 05:53",12,33.877156,-78.473031,TRUE,FALSE,TRUE,"S255848517"
"361","blkski","Black Skimmer","Rynchops niger","L451252","Ralph B. Clark Regional Park, Buena Park","2025-07-01 05:49",2,33.8942326,-117.9763627,TRUE,FALSE,FALSE,"S255926787"
"362","blkski","Black Skimmer","Rynchops niger","L2170004","River Barge Park","2025-07-01 05:43",2,40.8076452,-74.0572889,TRUE,FALSE,FALSE,"S255839658"
"363","blkski","Black Skimmer","Rynchops niger","L19461921","Leif Ericson Park (Colonial Rd.-Fort Hamilton Pkwy; 66-67th St.)","2025-07-01 05:42",2,40.6374122,-74.0229891,TRUE,FALSE,FALSE,"S255832575"
"364","blkski","Black Skimmer","Rynchops niger","L5739136","South Padre Is.--W. Verna Jean/W. Georgia Ruth Dr. area","2025-06-30 19:51",2,26.124142,-97.171788,TRUE,FALSE,FALSE,"S255767120"
"365","blkski","Black Skimmer","Rynchops niger","L9577710","Napeague SP--Lazy Point","2025-06-30 19:51",1,41.0117351,-72.0589849,TRUE,FALSE,FALSE,"S255763977"
"366","blkski","Black Skimmer","Rynchops niger","L1269935","Cape Island--South Cape May beach (CMPSP & SCMM)","2025-06-30 19:48",5,38.9317636,-74.9461985,TRUE,FALSE,FALSE,"S255760829"
"367","blkski","Black Skimmer","Rynchops niger","L48845602","Santa Ana River Trail, Orange US-CA 33.83924, -117.85926","2025-06-30 19:43",8,33.839237,-117.859259,TRUE,FALSE,TRUE,"S255789370"
"368","blkski","Black Skimmer","Rynchops niger","L19646861","The Dock at 614 Fairpoint","2025-06-30 19:32",27,30.3614091,-87.1971293,TRUE,FALSE,TRUE,"S255769799"
"369","blkski","Black Skimmer","Rynchops niger","L587721","Hayward Regional Shoreline--Interpretive Center","2025-06-30 19:02",3,37.6233925,-122.1372843,TRUE,FALSE,FALSE,"S255798542"
"370","blkski","Black Skimmer","Rynchops niger","L1060062","Embarcadero Marina Park South","2025-06-30 18:58",2,32.7038945,-117.1645975,TRUE,FALSE,FALSE,"S255783854"
"371","blkski","Black Skimmer","Rynchops niger","L2598864","Brooklyn Army Terminal Pier 4","2025-06-30 18:37",2,40.646519,-74.026074,TRUE,FALSE,FALSE,"S255749290"
"372","blkski","Black Skimmer","Rynchops niger","L1468832","Jekyll Island--Marina and Wharf","2025-06-30 18:35",NA,31.0593162,-81.423111,TRUE,FALSE,FALSE,"S255735644"
"373","blkski","Black Skimmer","Rynchops niger","L9585120","Lake Worth Golf Club","2025-06-30 18:30",5,26.6240202,-80.0471592,TRUE,FALSE,FALSE,"S255752861"
"374","blkski","Black Skimmer","Rynchops niger","L48932621","Oregon Inlet Area [NCBA Oregon Inlet SW]","2025-06-30 18:13",12,35.7856668,-75.5734334,TRUE,FALSE,TRUE,"S256203604"
"375","blkski","Black Skimmer","Rynchops niger","L23516747","Preserve","2025-06-30 18:11",3,32.627704,-80.043952,TRUE,FALSE,TRUE,"S255737986"
"376","blkski","Black Skimmer","Rynchops niger","L246035","Famosa Slough","2025-06-30 17:09",2,32.7514463,-117.2287632,TRUE,FALSE,FALSE,"S255776924"
"377","blkski","Black Skimmer","Rynchops niger","L723082","Laguna Atascosa NWR--Buena Vista Blvd. (within refuge)","2025-06-30 16:52",1,26.2112414,-97.3515916,TRUE,FALSE,FALSE,"S255752474"
"378","blkski","Black Skimmer","Rynchops niger","L37983809","San Joaquin Marsh and Wildlife Sanctuary, Irvine US-CA 33.66063, -117.84129","2025-06-30 16:45",50,33.66063,-117.841285,TRUE,FALSE,TRUE,"S256060645"
"379","blkski","Black Skimmer","Rynchops niger","L10817242","Sarson Island","2025-06-30 16:36",1,41.4149189,-70.5517431,TRUE,FALSE,FALSE,"S255714632"
"380","blkski","Black Skimmer","Rynchops niger","L230897","Port Royal Mudflats","2025-06-30 16:00",NA,32.2393758,-80.6764698,TRUE,FALSE,FALSE,"S255791397"
"381","blkski","Black Skimmer","Rynchops niger","L6329229","Oakwood Beach--Delwit Ave. marsh","2025-06-30 13:42",1,40.5532081,-74.118756,TRUE,FALSE,FALSE,"S255686116"
"382","blkski","Black Skimmer","Rynchops niger","L225177","Pascagoula Beach","2025-06-30 13:35",2,30.3437267,-88.5411024,TRUE,FALSE,FALSE,"S255698103"
"383","blkski","Black Skimmer","Rynchops niger","L4226156","US-Atlantic Ocean - 38.8929x-74.8823 - Feb 6, 2016, 6:50 PM","2025-06-30 13:16",1,38.89287,-74.882298,TRUE,FALSE,TRUE,"S255703257"
"384","blkski","Black Skimmer","Rynchops niger","L446585","Magnolia Plantation & Gardens","2025-06-30 12:57",1,32.8746855,-80.0863409,TRUE,FALSE,FALSE,"S255863644"
"385","blkski","Black Skimmer","Rynchops niger","L47878758","Arcos Gdns (Private Residence)","2025-06-30 12:43",NA,26.1197174,-97.3116048,TRUE,FALSE,TRUE,"S255665585"
"386","blkski","Black Skimmer","Rynchops niger","L582682","Merritt Island NWR--Bio Lab Rd.","2025-06-30 12:32",1,28.6799002,-80.6935447,TRUE,FALSE,FALSE,"S255681899"
"387","blkski","Black Skimmer","Rynchops niger","L12894357","Shoreline Park--maintenance road","2025-06-30 12:19",1,37.4310174,-122.095066,TRUE,FALSE,FALSE,"S255694034"
"388","blkski","Black Skimmer","Rynchops niger","L788322","Padre Balli Park","2025-06-30 11:50",2,27.5850568,-97.2181892,TRUE,FALSE,FALSE,"S255657134"
"389","blkski","Black Skimmer","Rynchops niger","L611064","Stratford Point, CT Audubon","2025-06-30 11:47",1,41.1533577,-73.1033278,TRUE,FALSE,FALSE,"S255653799"
"390","blkski","Black Skimmer","Rynchops niger","L48838979","Bay Sainte Elaine","2025-06-30 11:36",300,29.1744948,-90.6476112,TRUE,FALSE,TRUE,"S255655699"
"391","blkski","Black Skimmer","Rynchops niger","L48815294","Auto selected 29.17421, -90.64837","2025-06-30 11:36",300,29.174208,-90.648366,TRUE,FALSE,TRUE,"S255655698"
"392","blkski","Black Skimmer","Rynchops niger","L370644","Saint Simons Island--Massingale Park","2025-06-30 11:17",1,31.1413889,-81.3777778,TRUE,FALSE,FALSE,"S255748113"
"393","blkski","Black Skimmer","Rynchops niger","L39120337","Bayview Ave.--Gulf Pride Enterprises","2025-06-30 11:17",1,30.4080179,-88.8728402,TRUE,FALSE,FALSE,"S255644498"
"394","blkski","Black Skimmer","Rynchops niger","L48823097","The Gap","2025-06-30 11:00",2,41.3480207,-70.6486489,TRUE,FALSE,TRUE,"S255687650"
"395","blkski","Black Skimmer","Rynchops niger","L6665553","Oregon Inlet, NC","2025-06-30 10:35",17,35.7721434,-75.5284739,TRUE,FALSE,TRUE,"S255737981"
"396","blkski","Black Skimmer","Rynchops niger","L1616913","Chincoteague NWR--Beach","2025-06-30 10:24",5,37.8800638,-75.3495458,TRUE,FALSE,FALSE,"S255639278"
"397","blkski","Black Skimmer","Rynchops niger","L126638","Little Creek WA--Mahon Impoundment","2025-06-30 10:06",12,39.167,-75.425,TRUE,FALSE,FALSE,"S255679635"
"398","blkski","Black Skimmer","Rynchops niger","L35848423","123 Bayshore Way, Goodland US-FL 25.92737, -81.64642 (Crabby Flats)","2025-06-30 09:53",2,25.927372,-81.646422,TRUE,FALSE,TRUE,"S255652525"
"399","blkski","Black Skimmer","Rynchops niger","L389007","Richard W. DeKorte Park","2025-06-30 09:20",3,40.7833,-74.1025167,TRUE,FALSE,FALSE,"S255607109"
"400","blkski","Black Skimmer","Rynchops niger","L241664","Fort Fisher SRA--Basin Trail and Aquarium Pond","2025-06-30 09:09",2,33.964264,-77.922871,TRUE,FALSE,FALSE,"S255597652"
"401","blkski","Black Skimmer","Rynchops niger","L34286344","Tern and gull Roost Anastasia SP","2025-06-30 08:47",60,29.904394,-81.277432,TRUE,FALSE,TRUE,"S255574872"
"402","blkski","Black Skimmer","Rynchops niger","L1867387","Linden Hawk Rise Sanctuary","2025-06-30 08:43",1,40.602752,-74.2479886,TRUE,FALSE,FALSE,"S255622486"
"403","blkski","Black Skimmer","Rynchops niger","L12660107","Brazoria Co.—Levee Road/CR690","2025-06-30 08:40",2,28.9871077,-95.3055501,TRUE,FALSE,FALSE,"S255602116"
"404","blkski","Black Skimmer","Rynchops niger","L6114739","Kleberg County Beach N. of National Seashore","2025-06-30 08:40",4,27.5512938,-97.2363746,TRUE,FALSE,FALSE,"S255629798"
"405","blkski","Black Skimmer","Rynchops niger","L17141440","St. Augustine, Florida, US (29.955, -81.319) Waterway North","2025-06-30 08:40",7,29.9549417,-81.3192025,TRUE,FALSE,TRUE,"S255581013"
"406","blkski","Black Skimmer","Rynchops niger","L418748","Seacoast Drive to Tijuana River mouth","2025-06-30 08:26",1,32.5665347,-117.1322003,TRUE,FALSE,FALSE,"S255667602"
"407","blkski","Black Skimmer","Rynchops niger","L1112149","Bonita Beach--North tip","2025-06-30 08:26",8,26.365226,-81.8616199,TRUE,FALSE,FALSE,"S255587376"
"408","blkski","Black Skimmer","Rynchops niger","L11418032","Cedar Ave beach","2025-06-30 08:24",2,30.30621,-89.2708113,TRUE,FALSE,FALSE,"S255583338"
"409","blkski","Black Skimmer","Rynchops niger","L48819802","8575 Gulf Blvd, Navarre US-FL 30.37988, -86.86499","2025-06-30 08:22",1,30.379875,-86.864988,TRUE,FALSE,TRUE,"S255673446"
"410","blkski","Black Skimmer","Rynchops niger","L422541","Leonabelle Turnbull Birding Ctr. (CTC 057)","2025-06-30 08:11",2,27.8275297,-97.0789558,TRUE,FALSE,FALSE,"S255613686"
"411","blkski","Black Skimmer","Rynchops niger","L693848","Cape Island--CMP--Coral Ave. dune crossing","2025-06-30 08:00",2,38.9327948,-74.9651502,TRUE,FALSE,FALSE,"S255568579"
"412","blkski","Black Skimmer","Rynchops niger","L4929734","Redington Beach & Pier","2025-06-30 07:56",316,27.8185821,-82.8252772,TRUE,FALSE,FALSE,"S255592729"
"413","blkski","Black Skimmer","Rynchops niger","L43707625","Cumberland Dividings bird island","2025-06-30 07:55",46,30.886762,-81.510735,TRUE,FALSE,TRUE,"S255747827"
"414","blkski","Black Skimmer","Rynchops niger","L2621752","Bay Pines VAHCS","2025-06-30 07:54",2,27.8130403,-82.78018,TRUE,FALSE,FALSE,"S255552723"
"415","blkski","Black Skimmer","Rynchops niger","L1249601","E. Raccoon Island","2025-06-30 07:50",46,29.0501197,-90.9267139,TRUE,FALSE,FALSE,"S255652705"
"416","blkski","Black Skimmer","Rynchops niger","L35098632","1 Home On Ginnie Springs Way, Parrish, Florida, US (27.579, -82.399)","2025-06-30 07:40",2,27.5785805,-82.398777,TRUE,FALSE,TRUE,"S255547028"
"417","blkski","Black Skimmer","Rynchops niger","L23128668","Tybee Island At north Beach","2025-06-30 07:38",5,32.022372,-80.842054,TRUE,FALSE,TRUE,"S255548298"
"418","blkski","Black Skimmer","Rynchops niger","L41018908","Bailey Tract Trail, Sanibel US-FL 26.42842, -82.08113","2025-06-30 07:32",9,26.428419,-82.081127,TRUE,FALSE,TRUE,"S255591781"
"419","blkski","Black Skimmer","Rynchops niger","L207434","Felix Neck Wildlife Sanctuary (Mass Audubon)","2025-06-30 07:19",1,41.41449,-70.56464,TRUE,FALSE,FALSE,"S255574892"
"420","blkski","Black Skimmer","Rynchops niger","L7094449","Tremley Point (Private/Restricted Access)","2025-06-30 07:16",1,40.613102,-74.23381,TRUE,FALSE,FALSE,"S255623262"
"421","blkski","Black Skimmer","Rynchops niger","L1516403","Port Canaveral-Jetty Park","2025-06-30 07:12",2,28.406954,-80.592442,TRUE,FALSE,TRUE,"S255737096"
"422","blkski","Black Skimmer","Rynchops niger","L660064","Chincoteague NWR--Wildlife Loop","2025-06-30 06:49",2,37.9045392,-75.3517216,TRUE,FALSE,FALSE,"S255578842"
"423","blkski","Black Skimmer","Rynchops niger","L16851726","Robberson home (restricted access)","2025-06-30 06:36",2,26.474212,-81.8287113,TRUE,FALSE,TRUE,"S255595354"
"424","blkski","Black Skimmer","Rynchops niger","L45733802","Camp","2025-06-30 06:18",11,29.317601,-90.646209,TRUE,FALSE,TRUE,"S255579138"
"425","blkski","Black Skimmer","Rynchops niger","L48925059","Lucas Creek, Bloxom US-VA 37.78729, -75.54132","2025-06-30 06:17",4,37.787286,-75.541316,TRUE,FALSE,TRUE,"S256162107"
"426","blkski","Black Skimmer","Rynchops niger","L48839439","Top Water Charters south through Bayou Little Caillou","2025-06-30 06:11",4,29.2755684,-90.6433065,TRUE,FALSE,TRUE,"S255655264"
"427","blkski","Black Skimmer","Rynchops niger","L48815181","7723 LA-56, Chauvin US-LA 29.27564, -90.64316","2025-06-30 06:11",4,29.275643,-90.643162,TRUE,FALSE,TRUE,"S255655263"
"428","blkski","Black Skimmer","Rynchops niger","L21191621","Sanibel Moorings","2025-06-30 06:05",3,26.4392432,-82.0365249,TRUE,FALSE,TRUE,"S255573206"
"429","blkski","Black Skimmer","Rynchops niger","L367627","Salton Sea--Young Rd. (west end)","2025-06-30 05:37",2,33.1330196,-115.6666589,TRUE,FALSE,FALSE,"S255788649"
"430","blkski","Black Skimmer","Rynchops niger","L1990251","Pleasure House Point Natural Area","2025-06-29 19:45",8,36.903226,-76.0994303,TRUE,FALSE,FALSE,"S255477945"
"431","blkski","Black Skimmer","Rynchops niger","L211914","Nummy Island","2025-06-29 19:45",1,39.0365891,-74.7912741,TRUE,FALSE,FALSE,"S255764022"
"432","blkski","Black Skimmer","Rynchops niger","L2691219","Ken Thompson City Island Park","2025-06-29 19:44",5,27.3356707,-82.5749052,TRUE,FALSE,FALSE,"S255465877"
"433","blkski","Black Skimmer","Rynchops niger","L681809","Great Kills Park--Mudflats","2025-06-29 19:19",2,40.5464104,-74.1182005,TRUE,FALSE,FALSE,"S255442390"
"434","blkski","Black Skimmer","Rynchops niger","L1280302","Lewes Beach","2025-06-29 19:15",3,38.7831937,-75.1388454,TRUE,FALSE,FALSE,"S255444211"
"435","blkski","Black Skimmer","Rynchops niger","L34299725","Jamaica Ct, San Diego US-CA 32.77368, -117.24993","2025-06-29 19:13",2,32.773682,-117.249927,TRUE,FALSE,TRUE,"S255468787"
"436","blkski","Black Skimmer","Rynchops niger","L1192301","Corona Del Mar SB","2025-06-29 18:53",5,33.5940669,-117.8777754,TRUE,FALSE,FALSE,"S256679677"
"437","blkski","Black Skimmer","Rynchops niger","L802202","Otay River Restoration","2025-06-29 18:38",5,32.5915614,-117.0925512,TRUE,FALSE,FALSE,"S255465151"
"438","blkski","Black Skimmer","Rynchops niger","L12281964","Veranda Gardens","2025-06-29 18:01",3,27.2115107,-80.3168392,TRUE,FALSE,TRUE,"S255410248"
"439","blkski","Black Skimmer","Rynchops niger","L805361","New River Inlet","2025-06-29 17:35",2,34.529576,-77.3440719,TRUE,FALSE,FALSE,"S255475906"
"440","blkski","Black Skimmer","Rynchops niger","L109134","North Wildwood--Hereford Inlet/Seawall","2025-06-29 17:34",5,39.0119444,-74.7925,TRUE,FALSE,FALSE,"S255427401"
"441","blkski","Black Skimmer","Rynchops niger","L127438","Everglades NP--Flamingo","2025-06-29 17:20",2,25.1416,-80.9255,TRUE,FALSE,FALSE,"S255579240"
"442","blkski","Black Skimmer","Rynchops niger","L2454360","Smith Point","2025-06-29 16:57",2,41.2748511,-70.2156186,TRUE,TRUE,FALSE,"S255470260"
"443","blkski","Black Skimmer","Rynchops niger","L166463","Dauphin Island","2025-06-29 16:05",5,30.2504,-88.1058,TRUE,FALSE,FALSE,"S255424232"
"444","blkski","Black Skimmer","Rynchops niger","L48760225","16001–16695 Dauphin Island Pkwy, Coden US-AL 30.34618, -88.12378","2025-06-29 15:50",1,30.346177,-88.123782,TRUE,FALSE,TRUE,"S255395215"
"445","blkski","Black Skimmer","Rynchops niger","L714512","Sunset Lake  (Portland)","2025-06-29 15:40",2,27.8679131,-97.3274088,TRUE,FALSE,FALSE,"S255418112"
"446","blkski","Black Skimmer","Rynchops niger","L48833273","Morgan’s Island NO Access!","2025-06-29 15:30",12,34.643088,-76.5309325,TRUE,FALSE,TRUE,"S255736394"
"447","blkski","Black Skimmer","Rynchops niger","L48752232","Auto selected 33.00959, -79.42657","2025-06-29 14:55",12,33.009591,-79.42657,TRUE,FALSE,TRUE,"S255363222"
"448","blkski","Black Skimmer","Rynchops niger","L5876425","Padre Isl. NS--Malaquite Campground","2025-06-29 14:51",3,27.4312095,-97.2949841,TRUE,FALSE,FALSE,"S255400099"
"449","blkski","Black Skimmer","Rynchops niger","L792639","Cape Lookout NS--Cape Lookout Point","2025-06-29 14:46",32,34.5878561,-76.535182,TRUE,FALSE,FALSE,"S255856159"
"450","blkski","Black Skimmer","Rynchops niger","L6231074","South Beach, West Tisbury","2025-06-29 14:25",1,41.3500104,-70.6097317,TRUE,FALSE,TRUE,"S255353131"
"451","blkski","Black Skimmer","Rynchops niger","L48751665","4557–4699 US-90 E, Gulfport US-MS 30.35649, -89.11726","2025-06-29 14:15",10,30.356493,-89.117264,TRUE,FALSE,TRUE,"S255361016"
"452","blkski","Black Skimmer","Rynchops niger","L48749368","Ocean Course Clubhouse Kiawah Island","2025-06-29 14:02",2,32.6116157,-80.0224612,TRUE,FALSE,TRUE,"S255351873"
"453","blkski","Black Skimmer","Rynchops niger","L34171112","Seagull Beach Club","2025-06-29 13:50",2,28.3592941,-80.6049282,TRUE,FALSE,TRUE,"S255349993"
"454","blkski","Black Skimmer","Rynchops niger","L3797793","Ocean City Welcome Center","2025-06-29 13:40",1,39.2881767,-74.5824587,TRUE,FALSE,FALSE,"S255383462"
"455","blkski","Black Skimmer","Rynchops niger","L4854670","Biloxi Beach--area of yacht club","2025-06-29 13:27",1,30.3921727,-88.8736523,TRUE,FALSE,FALSE,"S255370146"
"456","blkski","Black Skimmer","Rynchops niger","L11151670","Loop To Ester Island","2025-06-29 13:02",2,41.2737389,-70.20835,TRUE,TRUE,TRUE,"S255366760"
"457","blkski","Black Skimmer","Rynchops niger","L6241657","Watcha Pond","2025-06-29 12:15",1,41.3517822,-70.6131649,TRUE,FALSE,FALSE,"S255325737"
"458","blkski","Black Skimmer","Rynchops niger","L373997","Pt. Mugu Naval Air Station (restricted access)","2025-06-29 11:32",7,34.1113782,-119.111495,TRUE,FALSE,FALSE,"S255401996"
"459","blkski","Black Skimmer","Rynchops niger","L48859533","Styron Bay CW Nesting Colony","2025-06-29 11:30",35,34.8296827,-76.3472973,TRUE,FALSE,TRUE,"S255858147"
"460","blkski","Black Skimmer","Rynchops niger","L2573747","Pinellas National Wildlife Refuge Islands","2025-06-29 11:00",1,27.6817913,-82.7020714,TRUE,FALSE,FALSE,"S255388249"
"461","blkski","Black Skimmer","Rynchops niger","L48730248","Pamlico Sound, Buxton US-NC 35.20152, -75.72834","2025-06-29 10:59",1,35.201523,-75.728336,TRUE,FALSE,TRUE,"S255276706"
"462","blkski","Black Skimmer","Rynchops niger","L36262612","North Atlantic Ocean, Galloway US-NJ 39.47331, -74.30742","2025-06-29 10:51",NA,39.473312,-74.307419,TRUE,FALSE,TRUE,"S255421292"
"463","blkski","Black Skimmer","Rynchops niger","L48612818","Styron Bay CW: Sheep Islands US-NC (34.8183,-76.3567)","2025-06-29 10:28",3,34.818296,-76.356691,TRUE,FALSE,TRUE,"S255860980"
"464","blkski","Black Skimmer","Rynchops niger","L365394","Pea Island NWR--South Pond","2025-06-29 10:23",85,35.693971,-75.485696,TRUE,FALSE,FALSE,"S255323625"
"465","blkski","Black Skimmer","Rynchops niger","L17284095","Cedar Key","2025-06-29 10:12",15,29.139425,-83.034957,TRUE,FALSE,TRUE,"S255286216"
"466","blkski","Black Skimmer","Rynchops niger","L6193969","Tybee Island--North Jetty","2025-06-29 09:43",5,32.0241168,-80.8430266,TRUE,FALSE,FALSE,"S255250956"
"467","blkski","Black Skimmer","Rynchops niger","L8907231","Walker's Landing","2025-06-29 09:15",5,30.5498438,-81.4602649,TRUE,FALSE,FALSE,"S255266567"
"468","blkski","Black Skimmer","Rynchops niger","L128926","Brazoria NWR (UTC 108)","2025-06-29 09:14",1,29.0592062,-95.2745684,TRUE,FALSE,FALSE,"S255366151"
"469","blkski","Black Skimmer","Rynchops niger","L127286","Huguenot Memorial City Park","2025-06-29 09:09",1,30.4112444,-81.4206594,TRUE,FALSE,FALSE,"S255255059"
"470","blkski","Black Skimmer","Rynchops niger","L48723045","Margaritaville beach house","2025-06-29 09:08",3,30.193219,-85.837808,TRUE,FALSE,TRUE,"S255245310"
"471","blkski","Black Skimmer","Rynchops niger","L48093915","Cabrillo Nat. Mon. -- tide pool seawatch","2025-06-29 09:01",2,32.6682812,-117.2445331,TRUE,FALSE,TRUE,"S255356798"
"472","blkski","Black Skimmer","Rynchops niger","L48728281","16701–16839 Dauphin Island Pkwy, Coden US-AL 30.34251, -88.12571","2025-06-29 08:46",1,30.342509,-88.125707,TRUE,FALSE,TRUE,"S255268367"
"473","blkski","Black Skimmer","Rynchops niger","L48582008","Davis SE: Sheep Islands US-NC (34.7710,-76.4016)","2025-06-29 08:45",1,34.771007,-76.401577,TRUE,FALSE,TRUE,"S255230471"
"474","blkski","Black Skimmer","Rynchops niger","L21743146","Arbor Grove, 31st St S, Saint Petersburg US-FL (27.7170,-82.6750)","2025-06-29 08:28",1,27.716968,-82.675038,TRUE,FALSE,TRUE,"S255396490"
"475","blkski","Black Skimmer","Rynchops niger","L12968236","Bolsa Chica Ecological Reserve-Backside (restricted access)","2025-06-29 08:27",1,33.7025628,-118.035571,TRUE,FALSE,FALSE,"S255409131"
"476","blkski","Black Skimmer","Rynchops niger","L1640093","Upper Newport Bay--Big Canyon","2025-06-29 08:27",2,33.6321866,-117.8841044,TRUE,FALSE,FALSE,"S255326415"
"477","blkski","Black Skimmer","Rynchops niger","L589195","Jekyll Island--South Beach","2025-06-29 08:27",24,31.0117481,-81.4304924,TRUE,FALSE,FALSE,"S255232625"
"478","blkski","Black Skimmer","Rynchops niger","L248659","Quintana Neotropical Bird Sanctuary (UTC 121)","2025-06-29 08:12",1,28.9336226,-95.3087246,TRUE,FALSE,FALSE,"S255237317"
"479","blkski","Black Skimmer","Rynchops niger","L15963475","IRWD San Joaquin Marsh","2025-06-29 08:05",115,33.660325,-117.841798,TRUE,TRUE,TRUE,"S255308810"
"480","blkski","Black Skimmer","Rynchops niger","L165143","Jamaica Bay Wildlife Refuge","2025-06-29 08:05",1,40.6170296,-73.8244561,TRUE,FALSE,FALSE,"S255231475"
"481","blkski","Black Skimmer","Rynchops niger","L8842116","Baypointe","2025-06-29 08:05",3,27.8592518,-82.837225,TRUE,FALSE,FALSE,"S255454645"
"482","blkski","Black Skimmer","Rynchops niger","L817703","Upper Newport Bay--Back Bay Dr. parking lot","2025-06-29 08:01",1,33.6308076,-117.8856719,TRUE,FALSE,FALSE,"S255332430"
"483","blkski","Black Skimmer","Rynchops niger","L2975878","Royal Palm Park","2025-06-29 08:00",3,26.1742346,-80.1643288,TRUE,FALSE,FALSE,"S255465561"
"484","blkski","Black Skimmer","Rynchops niger","L48713763","308 Caswell Beach Rd, Caswell Beach US-NC 33.89281, -78.03568","2025-06-29 07:51",3,33.892814,-78.035681,TRUE,FALSE,TRUE,"S255200428"
"485","blkski","Black Skimmer","Rynchops niger","L48885684","Davis SE: Bean Island US-NC (34.7703,-76.4122)","2025-06-29 07:45",1,34.770314,-76.412184,TRUE,FALSE,TRUE,"S255982431"
"486","blkski","Black Skimmer","Rynchops niger","L3435308","Bombay Hook NWR","2025-06-29 07:45",7,39.2647682,-75.4651093,TRUE,FALSE,TRUE,"S255354870"
"487","blkski","Black Skimmer","Rynchops niger","L4960826","New Creek Watershed, Olympia Blvd. bridge & marsh","2025-06-29 07:39",1,40.5782158,-74.088079,TRUE,FALSE,FALSE,"S255174465"
"488","blkski","Black Skimmer","Rynchops niger","L17566363","Coronado Island Marriott Resort","2025-06-29 07:39",2,32.693993,-117.165132,TRUE,FALSE,FALSE,"S255493603"
"489","blkski","Black Skimmer","Rynchops niger","L48737918","US (40.505, -73.585)","2025-06-29 07:34",4,40.5049781,-73.5853727,TRUE,FALSE,TRUE,"S255307338"
"490","blkski","Black Skimmer","Rynchops niger","L337594","Bonita Beach--Access #10","2025-06-29 07:30",7,26.3597359,-81.8602459,TRUE,FALSE,FALSE,"S255201217"
"491","blkski","Black Skimmer","Rynchops niger","L458906","Sand Key Park","2025-06-29 07:30",1,27.960064,-82.8294897,TRUE,FALSE,FALSE,"S255567834"
"492","blkski","Black Skimmer","Rynchops niger","L792451","Fort Fisher--Federal Point/The Rocks","2025-06-29 07:29",2,33.9593705,-77.9415151,TRUE,FALSE,FALSE,"S255190084"
"493","blkski","Black Skimmer","Rynchops niger","L109139","Robert Moses SP--Democrat Point","2025-06-29 07:26",8,40.6222222,-73.3058333,TRUE,FALSE,FALSE,"S255240084"
"494","blkski","Black Skimmer","Rynchops niger","L22577253","Oso Bay—Ocean Drive mud flats just E. of Texas A&M Corpus Christi campus","2025-06-29 07:17",2,27.7101193,-97.3150831,TRUE,FALSE,FALSE,"S255199354"
"495","blkski","Black Skimmer","Rynchops niger","L21829360","Bolsa Chica Ecological Reserve, Huntington Beach US-CA 33.69578, -118.04614","2025-06-29 07:11",3,33.695783,-118.046137,TRUE,FALSE,TRUE,"S255292576"
"496","blkski","Black Skimmer","Rynchops niger","L557026","Ocracoke Island--North End","2025-06-29 07:07",13,35.1881194,-75.7788849,TRUE,FALSE,FALSE,"S255168655"
"497","blkski","Black Skimmer","Rynchops niger","L48711671","52 Ocean Blvd, Southern Shores US-NC 36.10867, -75.71652","2025-06-29 07:05",2,36.108666,-75.716522,TRUE,FALSE,TRUE,"S255189194"
"498","blkski","Black Skimmer","Rynchops niger","L370829","Salton Sea--W Bowles Rd. - west end","2025-06-29 07:02",52,33.1178563,-115.6789112,TRUE,FALSE,FALSE,"S255305700"
"499","blkski","Black Skimmer","Rynchops niger","L271098","Bethel Beach Natural Area Preserve","2025-06-29 06:44",2,37.4106814,-76.2503958,TRUE,FALSE,FALSE,"S255330112"
"500","blkski","Black Skimmer","Rynchops niger","L48714756","2365–2435 N Palm Ave, Pembroke Pines US-FL 26.02893, -80.28055","2025-06-29 06:43",1,26.028933,-80.280554,TRUE,FALSE,TRUE,"S255205662"
"501","blkski","Black Skimmer","Rynchops niger","L12007144","DeSoto Avenue","2025-06-29 06:35",1,30.2575817,-88.1178418,TRUE,FALSE,TRUE,"S255415650"
"502","blkski","Black Skimmer","Rynchops niger","L10371366","Navarre Beach Pier","2025-06-29 06:32",1,30.3767342,-86.8632077,TRUE,FALSE,FALSE,"S255318127"
"503","blkski","Black Skimmer","Rynchops niger","L598880","Edwin B. Forsythe NWR--Southwest Pool","2025-06-29 06:29",1,39.4621738,-74.4368362,TRUE,FALSE,FALSE,"S255204592"
"504","blkski","Black Skimmer","Rynchops niger","L48728473","Beaufort River, Beaufort, SC","2025-06-29 06:25",3,32.367213,-80.688627,TRUE,FALSE,TRUE,"S255269215"
"505","blkski","Black Skimmer","Rynchops niger","L42962486","15869 Alabama 193, Coden, Alabama, US (30.349, -88.122)","2025-06-29 06:24",4,30.3489681,-88.1220024,TRUE,FALSE,TRUE,"S255199324"
"506","blkski","Black Skimmer","Rynchops niger","L284440","Jones Park","2025-06-29 06:20",4,30.3670574,-89.085007,TRUE,FALSE,FALSE,"S255337546"
"507","blkski","Black Skimmer","Rynchops niger","L725012","Dauphin Island--Audubon Bird Sanctuary","2025-06-29 06:17",3,30.2487987,-88.0864692,TRUE,FALSE,FALSE,"S255207501"
"508","blkski","Black Skimmer","Rynchops niger","L9612611","Wertheim NWR--Lower Carman's River","2025-06-29 05:59",3,40.7666335,-72.8914734,TRUE,FALSE,FALSE,"S255267132"
"509","blkski","Black Skimmer","Rynchops niger","L48616698","Campsite","2025-06-29 05:54",1,40.450286,-73.995097,TRUE,FALSE,TRUE,"S255146980"
"510","blkski","Black Skimmer","Rynchops niger","L3668219","Assawoman Canal South of Kent Avenue","2025-06-29 05:30",3,38.5175511,-75.0660524,TRUE,FALSE,TRUE,"S255233779"
"511","blkski","Black Skimmer","Rynchops niger","L109147","Jones Beach SP--West End","2025-06-29 05:00",2,40.5835871,-73.5514346,TRUE,FALSE,FALSE,"S254998602"
"512","blkski","Black Skimmer","Rynchops niger","L523951","Stipson Island Rd.","2025-06-28 20:30",3,39.1890256,-74.9109006,TRUE,FALSE,FALSE,"S255063074"
"513","blkski","Black Skimmer","Rynchops niger","L21741924","Silverleaf/Neal Communities","2025-06-28 19:35",1,27.55357,-82.45398,TRUE,FALSE,FALSE,"S255180996"
"514","blkski","Black Skimmer","Rynchops niger","L15187006","trretops","2025-06-28 19:30",1,27.4013372,-82.5063757,TRUE,FALSE,TRUE,"S255039274"
"515","blkski","Black Skimmer","Rynchops niger","L12950952","Jolly Roger Padre Island","2025-06-28 19:28",1,27.606739,-97.239769,TRUE,FALSE,TRUE,"S255056135"
"516","blkski","Black Skimmer","Rynchops niger","L18243499","Mill Creek Rd","2025-06-28 19:27",1,41.6753088,-70.0202269,TRUE,TRUE,TRUE,"S255043173"
"517","blkski","Black Skimmer","Rynchops niger","L4115372","Eel Pond, Edgartown","2025-06-28 19:27",1,41.396849,-70.511165,TRUE,FALSE,FALSE,"S255030371"
"518","blkski","Black Skimmer","Rynchops niger","L48677253","198 Mill Creek Rd, South Chatham US-MA 41.67530, -70.02022","2025-06-28 19:22",1,41.675295,-70.020215,TRUE,TRUE,TRUE,"S255027297"
"519","blkski","Black Skimmer","Rynchops niger","L48681045","Maimonides Park","2025-06-28 18:44",1,40.574693,-73.984466,TRUE,FALSE,TRUE,"S255043518"
"520","blkski","Black Skimmer","Rynchops niger","L48669076","mudflat north of Jemison's","2025-06-28 18:15",1,30.3431834,-88.1254677,TRUE,FALSE,TRUE,"S255041568"
"521","blkski","Black Skimmer","Rynchops niger","L761524","Bayshore Bikeway--Emory Cove & Pond 11","2025-06-28 18:14",NA,32.6018801,-117.1238114,TRUE,FALSE,FALSE,"S255063167"
"522","blkski","Black Skimmer","Rynchops niger","L265656","South Cape Beach SP","2025-06-28 18:00",1,41.5536361,-70.4993146,TRUE,TRUE,FALSE,"S256663260"
"523","blkski","Black Skimmer","Rynchops niger","L2925921","West Ashley Greenway--MP7-MP8","2025-06-28 17:42",1,32.7938328,-80.1036712,TRUE,FALSE,FALSE,"S255073393"
"524","blkski","Black Skimmer","Rynchops niger","L1507214","Dike Bridge, Chappaquiddick","2025-06-28 17:03",1,41.3735871,-70.4539866,TRUE,FALSE,FALSE,"S254997490"
"525","blkski","Black Skimmer","Rynchops niger","L229904","The Celery Farm","2025-06-28 17:03",1,41.0364972,-74.1271909,TRUE,FALSE,FALSE,"S255011240"
"526","blkski","Black Skimmer","Rynchops niger","L30224043","Auto Tour Route - Raymond Pool Loop, Smyrna, Delaware, US (39.255, -75.465)","2025-06-28 16:47",12,39.2546016,-75.4647847,TRUE,FALSE,TRUE,"S255316017"
"527","blkski","Black Skimmer","Rynchops niger","L48668892","Sheep Islands US-NC (34.5805,-76.5312)","2025-06-28 15:40",20,34.58049,-76.531216,TRUE,FALSE,TRUE,"S254993536"
"528","blkski","Black Skimmer","Rynchops niger","L48247854","17852 Lee Ave, Redington Shores US-FL 27.82948, -82.83282","2025-06-28 15:36",510,27.82948,-82.832815,TRUE,TRUE,TRUE,"S254980605"
"529","blkski","Black Skimmer","Rynchops niger","L358490","Raritan Bay Waterfront Park & Morgan Avenue Mudflats","2025-06-28 14:23",6,40.4769114,-74.268578,TRUE,FALSE,FALSE,"S254972187"
"530","blkski","Black Skimmer","Rynchops niger","L44155621","Side Channel Islands","2025-06-28 13:26",40,27.324675,-97.38825,TRUE,FALSE,TRUE,"S255261588"
"531","blkski","Black Skimmer","Rynchops niger","L10248819","Quintana Boat Ramp","2025-06-28 12:22",1,28.9222135,-95.3427458,TRUE,FALSE,FALSE,"S254926261"
"532","blkski","Black Skimmer","Rynchops niger","L41581617","Celery Farm","2025-06-28 12:00",1,41.039444,-74.119131,TRUE,FALSE,TRUE,"S255015042"
"533","blkski","Black Skimmer","Rynchops niger","L44155666","Six Cabins Islands","2025-06-28 11:30",12,27.206724,-97.422578,TRUE,FALSE,TRUE,"S255252401"
"534","blkski","Black Skimmer","Rynchops niger","L14420278","Chester Island Bird Sanctuary (restricted access)","2025-06-28 11:25",25,28.4507003,-96.3484675,TRUE,FALSE,FALSE,"S254991350"
"535","blkski","Black Skimmer","Rynchops niger","L42502370","East Gator Creek Trail, Florida, US (28.636, -80.776)","2025-06-28 11:00",10,28.63562,-80.7761733,TRUE,FALSE,TRUE,"S254888120"
"536","blkski","Black Skimmer","Rynchops niger","L580981","Merritt Island NWR--West Gator Creek","2025-06-28 10:02",3,28.6283331,-80.7873852,TRUE,FALSE,FALSE,"S254867619"
"537","blkski","Black Skimmer","Rynchops niger","L779308","Forest Beach and Conservation Lands, Chatham","2025-06-28 10:02",1,41.6700588,-70.0253749,TRUE,TRUE,FALSE,"S254897908"
"538","blkski","Black Skimmer","Rynchops niger","L4813791","Dauphin Island--East End Boat Ramp","2025-06-28 09:59",1,30.2500545,-88.0761735,TRUE,FALSE,FALSE,"S254869485"
"539","blkski","Black Skimmer","Rynchops niger","L48627460","Broad","2025-06-28 09:52",57,30.359135,-89.110399,TRUE,FALSE,TRUE,"S254866256"
"540","blkski","Black Skimmer","Rynchops niger","L30699143","Celery Farm","2025-06-28 09:44",1,41.035059,-74.127727,TRUE,FALSE,TRUE,"S254873714"
"541","blkski","Black Skimmer","Rynchops niger","L48634983","1767 County Road 230, Bay City, Texas, US (28.783, -95.591)","2025-06-28 09:43",2,28.7832294,-95.5913545,TRUE,FALSE,TRUE,"S254866932"
"542","blkski","Black Skimmer","Rynchops niger","L815568","Harbor Island","2025-06-28 09:30",1,32.7251763,-117.1967814,TRUE,FALSE,FALSE,"S254939298"
"543","blkski","Black Skimmer","Rynchops niger","L713834","Padre Isl. NS- Malaquite Beach/Visitor Ctr. area","2025-06-28 09:22",2,27.4244237,-97.2973251,TRUE,FALSE,FALSE,"S255194258"
"544","blkski","Black Skimmer","Rynchops niger","L48635851","Bradenton Beach","2025-06-28 09:20",1,27.4755295,-82.703156,TRUE,FALSE,TRUE,"S254870484"
"545","blkski","Black Skimmer","Rynchops niger","L36499434","Golf course beach, gulf front","2025-06-28 09:00",5,30.241673,-88.107775,TRUE,FALSE,TRUE,"S254958999"
"546","blkski","Black Skimmer","Rynchops niger","L880325","Bridge Creek, Western Ave.","2025-06-28 08:43",2,40.6324936,-74.1838624,TRUE,FALSE,FALSE,"S254814159"
"547","blkski","Black Skimmer","Rynchops niger","L2940029","Buckroe Beach","2025-06-28 08:34",1,37.0375483,-76.2914861,TRUE,FALSE,FALSE,"S254919002"
"548","blkski","Black Skimmer","Rynchops niger","L8838675","Osprey Fishing Pier","2025-06-28 08:22",1,27.1976366,-82.4934411,TRUE,FALSE,FALSE,"S254850020"
"549","blkski","Black Skimmer","Rynchops niger","L127331","Boyd Hill Nature Park & Lake Maggiore","2025-06-28 08:18",1,27.7248069,-82.6501069,TRUE,FALSE,FALSE,"S254843565"
"550","blkski","Black Skimmer","Rynchops niger","L48626860","Vanderbilt Beach Park, Naples US-FL (26.2724,-81.8277)","2025-06-28 08:17",1,26.272432,-81.827699,TRUE,FALSE,TRUE,"S254831762"
"551","blkski","Black Skimmer","Rynchops niger","L1514629","South Lido County Park","2025-06-28 08:10",1,27.2995048,-82.5665436,TRUE,FALSE,FALSE,"S254906492"
"552","blkski","Black Skimmer","Rynchops niger","L1345169","Wildflower Preserve","2025-06-28 08:09",3,26.8814148,-82.3046701,TRUE,FALSE,FALSE,"S254831130"
"553","blkski","Black Skimmer","Rynchops niger","L724990","Dauphin Island--Pelican Point","2025-06-28 08:01",2,30.2462407,-88.0759066,TRUE,FALSE,FALSE,"S254899698"
"554","blkski","Black Skimmer","Rynchops niger","L1042229","Upper Newport Bay (by boat)","2025-06-28 07:59",11,33.6198192,-117.9030955,TRUE,FALSE,TRUE,"S254940474"
"555","blkski","Black Skimmer","Rynchops niger","L3182371","Tom Bennett Park","2025-06-28 07:52",4,27.5016862,-82.4870896,TRUE,FALSE,FALSE,"S254834806"
"556","blkski","Black Skimmer","Rynchops niger","L3129074","Waves soundfront","2025-06-28 07:35",2,35.5622821,-75.4715037,TRUE,FALSE,TRUE,"S254863328"
"557","blkski","Black Skimmer","Rynchops niger","L2309712","Little Dauphin Island","2025-06-28 07:21",1,30.2763692,-88.1166945,TRUE,FALSE,FALSE,"S254935664"
"558","blkski","Black Skimmer","Rynchops niger","L6638748","Lakeview Park","2025-06-28 07:17",1,27.2895703,-82.4273998,TRUE,FALSE,FALSE,"S254862990"
"559","blkski","Black Skimmer","Rynchops niger","L6047395","Docksider","2025-06-28 07:16",1,39.956893,-74.079112,TRUE,FALSE,TRUE,"S254825683"
"560","blkski","Black Skimmer","Rynchops niger","L1344227","Charlie's Pasture South Boardwalk (off TX-361)","2025-06-28 07:12",1,27.81398,-97.080079,TRUE,FALSE,FALSE,"S254844467"
"561","blkski","Black Skimmer","Rynchops niger","L4071534","Calipatria, West Young Road area","2025-06-28 07:06",7,33.1321607,-115.6386566,TRUE,FALSE,TRUE,"S254911465"
"562","blkski","Black Skimmer","Rynchops niger","L13366069","Bombay Hook","2025-06-28 07:00",8,39.274296,-75.485891,TRUE,FALSE,TRUE,"S254835904"
"563","blkski","Black Skimmer","Rynchops niger","L16286221","Lakewood Estates","2025-06-28 06:45",2,27.7275263,-82.6619053,TRUE,FALSE,TRUE,"S254789572"
"564","blkski","Black Skimmer","Rynchops niger","L48617049","Horsepen CW Unnamed Road, Marshallberg, North Carolina, US (34.694, -76.473)","2025-06-28 06:43",1,34.6941536,-76.472593,TRUE,FALSE,TRUE,"S254782476"
"565","blkski","Black Skimmer","Rynchops niger","L127294","Anastasia SP","2025-06-28 06:40",108,29.8661797,-81.2705122,TRUE,FALSE,FALSE,"S254971984"
"566","blkski","Black Skimmer","Rynchops niger","L2457005","River Rd. marshes and RR tracks","2025-06-28 06:40",1,40.6165874,-74.1940534,TRUE,FALSE,FALSE,"S254805706"
"567","blkski","Black Skimmer","Rynchops niger","L304199","Double Trouble SP","2025-06-28 06:39",2,39.8972894,-74.2222633,TRUE,FALSE,FALSE,"S254833763"
"568","blkski","Black Skimmer","Rynchops niger","L792647","Pea Island NWR--Salt Flats","2025-06-28 06:32",4,35.7423325,-75.5069733,TRUE,FALSE,FALSE,"S254819566"
"569","blkski","Black Skimmer","Rynchops niger","L17639350","Auto Tour Route - Raymond Pool Loop, Smyrna, Delaware, US (39.256, -75.46)","2025-06-28 06:28",7,39.2564124,-75.4604424,TRUE,FALSE,TRUE,"S254853704"
"570","blkski","Black Skimmer","Rynchops niger","L13282860","Cherry Grove Dock - Private","2025-06-28 06:25",2,36.9072531,-76.5254694,TRUE,TRUE,TRUE,"S254945545"
"571","blkski","Black Skimmer","Rynchops niger","L48546894","Fisherman’s Co-op","2025-06-28 06:23",1,31.818812,-81.189705,TRUE,FALSE,TRUE,"S254786812"
"572","blkski","Black Skimmer","Rynchops niger","L152143","Pt. Fermin","2025-06-28 06:13",3,33.7058931,-118.2941294,TRUE,FALSE,FALSE,"S254869983"
"573","blkski","Black Skimmer","Rynchops niger","L20035315","The Cut, PINWR, -NC 35.73200, -75.50034","2025-06-28 06:12",3,35.732003,-75.500335,TRUE,FALSE,TRUE,"S254774038"
"574","blkski","Black Skimmer","Rynchops niger","L295606","Rookery Bay NERR--Briggs Boardwalk","2025-06-28 06:08",2,26.0240674,-81.7117082,TRUE,FALSE,FALSE,"S254777543"
"575","blkski","Black Skimmer","Rynchops niger","L1989101","Los Penasquitos Lagoon--mouth & beach","2025-06-28 05:36",3,32.9339432,-117.2603633,TRUE,FALSE,FALSE,"S254990251"
"576","blkski","Black Skimmer","Rynchops niger","L48614653","Davis SE Unnamed Road, Marshallberg, North Carolina, US (34.753, -76.419)","2025-06-28 05:36",1,34.752659,-76.4191644,TRUE,FALSE,TRUE,"S254771406"
"577","blkski","Black Skimmer","Rynchops niger","L1054424","Wrightsville Beach--Masonboro Inlet","2025-06-28 05:23",176,34.1870979,-77.8114414,TRUE,FALSE,FALSE,"S254768464"
"578","blkski","Black Skimmer","Rynchops niger","L31633343","LWR Blvd Pump Station","2025-06-27 21:04",1,27.3755715,-82.433351,TRUE,FALSE,TRUE,"S254700085"
"579","blkski","Black Skimmer","Rynchops niger","L1545423","Maximo Park","2025-06-27 20:39",1,27.7106207,-82.6818287,TRUE,FALSE,FALSE,"S254716446"
"580","blkski","Black Skimmer","Rynchops niger","L48598967","Ocean City Expy.","2025-06-27 20:09",6,38.3875168,-75.0827293,TRUE,FALSE,TRUE,"S254706417"
"581","blkski","Black Skimmer","Rynchops niger","L4542281","Clearwater Beach/Pier 60 Park","2025-06-27 20:05",1,27.9772246,-82.8288567,TRUE,FALSE,FALSE,"S254692283"
"582","blkski","Black Skimmer","Rynchops niger","L2786368","Barbara Gilberg Habitat","2025-06-27 20:00",1,27.7509742,-82.7387857,TRUE,FALSE,FALSE,"S255323722"
"583","blkski","Black Skimmer","Rynchops niger","L48533620","Key Largo Resort","2025-06-27 19:56",3,29.0289336,-95.1892272,TRUE,FALSE,TRUE,"S254705710"
"584","blkski","Black Skimmer","Rynchops niger","L48601338","735 Palm Ave, Imperial Beach US-CA 32.58345, -117.11706","2025-06-27 19:55",1,32.583446,-117.117063,TRUE,FALSE,TRUE,"S254715770"
"585","blkski","Black Skimmer","Rynchops niger","L48593000","Assateague Island, Chincoteague US-VA 37.91190, -75.37131","2025-06-27 19:46",1,37.911896,-75.371308,TRUE,FALSE,TRUE,"S254681334"
"586","blkski","Black Skimmer","Rynchops niger","L48225088","Sea Oak Lane Beach","2025-06-27 19:37",2,32.134052,-80.76684,TRUE,FALSE,TRUE,"S254693534"
"587","blkski","Black Skimmer","Rynchops niger","L48595698","1216 Parasol Pl, Pensacola US-FL 30.29729, -87.42375","2025-06-27 19:32",3,30.297286,-87.423748,TRUE,FALSE,TRUE,"S254693022"
"588","blkski","Black Skimmer","Rynchops niger","L520701","Flushing Meadows Corona Park","2025-06-27 19:22",1,40.7397975,-73.8407834,TRUE,FALSE,FALSE,"S254683507"
"589","blkski","Black Skimmer","Rynchops niger","L19427431","Old Glory Lookout, The Narrows - 80th street overpass and vicinity","2025-06-27 19:21",2,40.6301245,-74.0409383,TRUE,FALSE,TRUE,"S254683560"
"590","blkski","Black Skimmer","Rynchops niger","L9657938","Wildlife Loop, Chincoteague, Virginia, US (37.911, -75.335)","2025-06-27 19:04",3,37.910626,-75.3354225,TRUE,FALSE,TRUE,"S254680021"
"591","blkski","Black Skimmer","Rynchops niger","L443565","Isla del Sol","2025-06-27 18:51",5,27.7108296,-82.7153778,TRUE,FALSE,FALSE,"S254684854"
"592","blkski","Black Skimmer","Rynchops niger","L558192","Isle of Palms Connector","2025-06-27 18:40",2,32.804879,-79.7995377,TRUE,FALSE,FALSE,"S254671385"
"593","blkski","Black Skimmer","Rynchops niger","L191220","Alley Pond Park","2025-06-27 18:35",1,40.7473874,-73.7429518,TRUE,FALSE,FALSE,"S254670491"
"594","blkski","Black Skimmer","Rynchops niger","L34563403","54 Oyster Watcha Rd, Edgartown US-MA 41.35561, -70.60627","2025-06-27 18:32",2,41.355605,-70.606272,TRUE,FALSE,TRUE,"S254681770"
"595","blkski","Black Skimmer","Rynchops niger","L28412237","Mill Creek Road Viewpoint of Forest Beach Marsh And Creek, Chatham, Massachusetts, US (41.675, -70.02)","2025-06-27 17:49",1,41.6753254,-70.0201893,TRUE,TRUE,TRUE,"S254693858"
"596","blkski","Black Skimmer","Rynchops niger","L48720224","1225 Fort Pickens Rd.","2025-06-27 17:33",40,30.3257398,-87.1798396,TRUE,FALSE,TRUE,"S254767430"
