"","speciesCode","comName","sciName","locId","locName","obsDt","howMany","lat","lng","obsValid","obsReviewed","locationPrivate","subId"
"1","norpin","Northern Pintail","Anas acuta","L6471374","Quivira NWR--Big Salt Marsh--Wildlife Drive","2025-06-15 15:56",2,38.1856615,-98.5338718,TRUE,FALSE,FALSE,"S250822018"
"2","norpin","Northern Pintail","Anas acuta","L47695652","10619–10699 145th St SE, Menoken US-ND 46.69320, -100.56387","2025-06-15 15:40",4,46.693201,-100.563869,TRUE,FALSE,TRUE,"S250835475"
"3","norpin","Northern Pintail","Anas acuta","L29160316","Jack Sawyer Rd.","2025-06-15 15:10",7,38.2495244,-119.217241,TRUE,FALSE,FALSE,"S250861846"
"4","norpin","Northern Pintail","Anas acuta","L210723","Salt Lake","2025-06-15 14:55",6,44.9645052,-96.4437363,TRUE,FALSE,FALSE,"S250816034"
"5","norpin","Northern Pintail","Anas acuta","L16651473","Bethel--Lion's Club River Walk","2025-06-15 13:48",1,60.7885012,-161.7720547,TRUE,FALSE,FALSE,"S250851016"
"6","norpin","Northern Pintail","Anas acuta","L712808","Mountain Home Reservoir","2025-06-15 13:19",2,43.1619924,-115.6580544,TRUE,FALSE,FALSE,"S250790061"
"7","norpin","Northern Pintail","Anas acuta","L47714128","3829 20th Avenue Southeast, Driscoll, North Dakota, US (46.863, -100.035)","2025-06-15 13:09",3,46.8625602,-100.0353088,TRUE,FALSE,TRUE,"S250761405"
"8","norpin","Northern Pintail","Anas acuta","L47731584","Piping Plover Waterfowl Production Area","2025-06-15 12:53",4,48.341592,-102.187154,TRUE,FALSE,TRUE,"S250832242"
"9","norpin","Northern Pintail","Anas acuta","L1028207","Bridgeport Reservoir--east shore pullout","2025-06-15 12:07",4,38.277161,-119.2191803,TRUE,FALSE,FALSE,"S250767413"
"10","norpin","Northern Pintail","Anas acuta","L2161814","South Park Wildlife Habitat Management Area","2025-06-15 12:05",1,43.3965039,-110.7767773,TRUE,FALSE,FALSE,"S250801147"
"11","norpin","Northern Pintail","Anas acuta","L1269264","Rock Creek Reservoir (Harney Co.)","2025-06-15 11:52",3,42.6849592,-119.3080902,TRUE,FALSE,FALSE,"S250818612"
"12","norpin","Northern Pintail","Anas acuta","L9791423","30th St SE slough","2025-06-15 11:34",8,46.979421,-98.654727,TRUE,FALSE,TRUE,"S250741136"
"13","norpin","Northern Pintail","Anas acuta","L27047037","Linwood Bay Road","2025-06-15 11:26",3,40.995835,-109.652602,TRUE,FALSE,TRUE,"S250746074"
"14","norpin","Northern Pintail","Anas acuta","L158902","McKenzie Slough","2025-06-15 11:22",2,46.7942788,-100.4157696,TRUE,FALSE,FALSE,"S250743407"
"15","norpin","Northern Pintail","Anas acuta","L47710315","Lawen Lane, Princeton, OR (43.397, -118.803)","2025-06-15 11:15",20,43.3972752,-118.8027323,TRUE,FALSE,TRUE,"S250746575"
"16","norpin","Northern Pintail","Anas acuta","L47702728","Henry’s Fork Wetlands","2025-06-15 10:55",1,41.004727,-109.667503,TRUE,FALSE,TRUE,"S250716662"
"17","norpin","Northern Pintail","Anas acuta","L41905110","Freezeout Lake WMA--Davis Lake Boat Ramp","2025-06-15 10:51",2,47.6712244,-112.0239826,TRUE,FALSE,FALSE,"S250829356"
"18","norpin","Northern Pintail","Anas acuta","L47708273","Lawen Lane, Princeton, OR (43.422, -118.802)","2025-06-15 10:49",35,43.4216666,-118.8024826,TRUE,FALSE,TRUE,"S250738577"
"19","norpin","Northern Pintail","Anas acuta","L1660621","Condon Sewage Ponds (restricted access)","2025-06-15 10:34",2,45.2275954,-120.17736,TRUE,FALSE,FALSE,"S250738058"
"20","norpin","Northern Pintail","Anas acuta","L47537437","USFWS Eider Project Survey Area","2025-06-15 10:15",10,71.275283,-156.685523,TRUE,FALSE,TRUE,"S250826133"
"21","norpin","Northern Pintail","Anas acuta","L47692527","9701–9799 11th St SE, Wimbledon US-ND 47.25503, -98.44152","2025-06-15 10:14",30,47.255027,-98.441525,TRUE,FALSE,TRUE,"S250674783"
"22","norpin","Northern Pintail","Anas acuta","L34025621","Bowdoin2","2025-06-15 10:00",NA,48.428968,-107.687124,TRUE,FALSE,TRUE,"S250725455"
"23","norpin","Northern Pintail","Anas acuta","L7486041","Utqiaġvik--Nunavaaq Rd. Gravel Pit","2025-06-15 09:57",1,71.280187,-156.818218,TRUE,FALSE,FALSE,"S250798548"
"24","norpin","Northern Pintail","Anas acuta","L47686325","1201–1235 97th Ave SE, Wimbledon US-ND 47.24063, -98.44699","2025-06-15 09:49",3,47.240633,-98.446995,TRUE,FALSE,TRUE,"S250648921"
"25","norpin","Northern Pintail","Anas acuta","L279404","Las Vegas NWR","2025-06-15 09:49",2,35.548848,-105.1583862,TRUE,FALSE,FALSE,"S250694177"
"26","norpin","Northern Pintail","Anas acuta","L598381","Chickahominy Reservoir","2025-06-15 09:32",3,43.5485481,-119.6205139,TRUE,FALSE,FALSE,"S250727500"
"27","norpin","Northern Pintail","Anas acuta","L30151190","25th Anniversary WMA","2025-06-15 09:21",2,44.9790902,-96.1599977,TRUE,FALSE,FALSE,"S250663771"
"28","norpin","Northern Pintail","Anas acuta","L934420","Dewald Slough--31st Ave. & 44th St.","2025-06-15 09:18",1,46.7793112,-99.8041326,TRUE,FALSE,FALSE,"S250658430"
"29","norpin","Northern Pintail","Anas acuta","L165307","Mann Lake","2025-06-15 09:00",2,46.371455,-116.8511029,TRUE,TRUE,FALSE,"S250740150"
"30","norpin","Northern Pintail","Anas acuta","L234583","Fort Boise WMA","2025-06-15 08:49",1,43.8215239,-117.0126942,TRUE,FALSE,FALSE,"S250863831"
"31","norpin","Northern Pintail","Anas acuta","L3008223","MacLean Bottoms (Emmons Co.)","2025-06-15 08:47",2,46.6296084,-100.6425092,TRUE,FALSE,FALSE,"S250657248"
"32","norpin","Northern Pintail","Anas acuta","L448084","Woodland WTP","2025-06-15 08:30",4,38.6624345,-121.7173585,TRUE,FALSE,FALSE,"S250728780"
"33","norpin","Northern Pintail","Anas acuta","L37091545","Malheur NWR--Sodhouse Lane at Blitzen River crossing","2025-06-15 08:28",2,43.267918,-118.851499,TRUE,FALSE,TRUE,"S250706819"
"34","norpin","Northern Pintail","Anas acuta","L47706644","Old Gap Rd, Harlowton US-MT 46.50472, -109.81499","2025-06-15 08:26",1,46.504725,-109.814994,TRUE,FALSE,TRUE,"S250732147"
"35","norpin","Northern Pintail","Anas acuta","L47716123","Masonic Rd, Bridgeport US-CA 38.30894, -119.20503","2025-06-15 08:06",10,38.308941,-119.205027,TRUE,FALSE,TRUE,"S250769324"
"36","norpin","Northern Pintail","Anas acuta","L4827152","Kinney Lake","2025-06-15 08:05",1,45.3140722,-117.1021342,TRUE,FALSE,FALSE,"S250651771"
"37","norpin","Northern Pintail","Anas acuta","L2182908","North Ottawa Impoundment","2025-06-15 08:04",1,45.9856315,-96.2471008,TRUE,FALSE,FALSE,"S250615972"
"38","norpin","Northern Pintail","Anas acuta","L43551106","128th St.","2025-06-15 08:00",2,45.5322853,-98.4761947,TRUE,FALSE,TRUE,"S250574365"
"39","norpin","Northern Pintail","Anas acuta","L1272145","Emiquon NWR--South Globe Unit","2025-06-15 07:59",3,40.3416378,-90.0928688,TRUE,TRUE,FALSE,"S250576583"
"40","norpin","Northern Pintail","Anas acuta","L5993045","Utqiaġvik--South Salt Lagoons (south beach) & Nathaniel Olemaun Jr. Blvd. (NE end)","2025-06-15 07:10",4,71.3053603,-156.728797,TRUE,FALSE,FALSE,"S250671102"
"41","norpin","Northern Pintail","Anas acuta","L443535","Yolo Bypass Wildlife Area","2025-06-15 06:59",2,38.551789,-121.6208018,TRUE,FALSE,FALSE,"S250821972"
"42","norpin","Northern Pintail","Anas acuta","L47021292","County Road 48, Las Vegas, New Mexico, US (35.559, -105.08) Road to La Liendre","2025-06-15 06:42",2,35.5594796,-105.0797181,TRUE,FALSE,TRUE,"S250645180"
"43","norpin","Northern Pintail","Anas acuta","L302080","Tolo Lake","2025-06-15 05:40",NA,45.9154619,-116.2362737,TRUE,FALSE,FALSE,"S250654737"
"44","norpin","Northern Pintail","Anas acuta","L159619","Malheur NWR--Headquarters","2025-06-15 05:16",2,43.2658741,-118.8448941,TRUE,FALSE,FALSE,"S250737714"
"45","norpin","Northern Pintail","Anas acuta","L158809","Horsehead Lake WMA","2025-06-15 05:07",16,47.0535923,-99.8160667,TRUE,FALSE,FALSE,"S250580243"
"46","norpin","Northern Pintail","Anas acuta","L32783799","Utqiaġvik--Gas Well Rd. (Gas Plant to New Landfill Rd.)","2025-06-14 23:30",8,71.2612185,-156.6030896,TRUE,FALSE,FALSE,"S250830715"
"47","norpin","Northern Pintail","Anas acuta","L1579238","Utqiaġvik--Cakeeater Rd.","2025-06-14 22:15",2,71.2879072,-156.6631195,TRUE,FALSE,FALSE,"S250500720"
"48","norpin","Northern Pintail","Anas acuta","L2897580","Utqiaġvik--Nunavaaq Rd.","2025-06-14 20:12",14,71.2757153,-156.8049967,TRUE,FALSE,FALSE,"S250829611"
"49","norpin","Northern Pintail","Anas acuta","L1339539","Kenai Flats--Sea Catch Dr. & Cannery Rd.","2025-06-14 20:05",17,60.5351637,-151.2629414,TRUE,FALSE,FALSE,"S250446940"
"50","norpin","Northern Pintail","Anas acuta","L1899028","Kougarok Rd.--Kuzitrin River","2025-06-14 19:59",2,65.2168114,-164.8284817,TRUE,FALSE,FALSE,"S250458807"
"51","norpin","Northern Pintail","Anas acuta","L158895","Audubon NWR","2025-06-14 19:02",2,47.577987,-101.2470187,TRUE,FALSE,FALSE,"S250413307"
"52","norpin","Northern Pintail","Anas acuta","L1295822","Utqiaġvik--Cemetery","2025-06-14 18:56",1,71.2899205,-156.7743874,TRUE,FALSE,FALSE,"S250452753"
"53","norpin","Northern Pintail","Anas acuta","L47635938","SD-71, Edgemont US-SD 43.15364, -103.66223","2025-06-14 18:56",12,43.153641,-103.662225,TRUE,FALSE,TRUE,"S250411004"
"54","norpin","Northern Pintail","Anas acuta","L828590","Dungeness Landing Park/Oyster House","2025-06-14 18:53",5,48.1514639,-123.143456,TRUE,FALSE,FALSE,"S250434432"
"55","norpin","Northern Pintail","Anas acuta","L1460618","Buffalo Ranch Pond","2025-06-14 18:37",5,40.9801077,-111.9387368,TRUE,FALSE,FALSE,"S250431118"
"56","norpin","Northern Pintail","Anas acuta","L157588","Camas Centennial Marsh","2025-06-14 18:35",1,43.26451,-114.99878,TRUE,FALSE,FALSE,"S250447318"
"57","norpin","Northern Pintail","Anas acuta","L7480044","Kotzebue Loop road west","2025-06-14 18:08",3,66.8685688,-162.617569,TRUE,FALSE,TRUE,"S250428503"
"58","norpin","Northern Pintail","Anas acuta","L2152261","Erickson GPA ","2025-06-14 18:00",4,45.7620144,-98.4200421,TRUE,FALSE,FALSE,"S250383297"
"59","norpin","Northern Pintail","Anas acuta","L47647999","Imik Lagoon US-AK (67.4898,-163.9287)","2025-06-14 17:59",4,67.489793,-163.928691,TRUE,FALSE,TRUE,"S250466255"
"60","norpin","Northern Pintail","Anas acuta","L2222767","Utqiaġvik--Middle Salt Lagoon (S end)","2025-06-14 17:28",2,71.3051952,-156.6897583,TRUE,FALSE,FALSE,"S250432319"
"61","norpin","Northern Pintail","Anas acuta","L47641339","Nome-Council Rd, Nome US-AK 64.44238, -164.93040","2025-06-14 17:21",1,64.442383,-164.9304,TRUE,FALSE,TRUE,"S250432130"
"62","norpin","Northern Pintail","Anas acuta","L47630913","3709 CR-173, Evanston US-WY (41.1357,-110.7851)","2025-06-14 17:16",1,41.135713,-110.785076,TRUE,FALSE,TRUE,"S250388228"
"63","norpin","Northern Pintail","Anas acuta","L158903","Long Lake NWR","2025-06-14 16:52",2,46.6698025,-100.2278475,TRUE,FALSE,FALSE,"S250421113"
"64","norpin","Northern Pintail","Anas acuta","L11222417","Bear Lake NWR--general (please consider using a more specific hotspot)","2025-06-14 16:48",7,42.2615256,-111.3411677,TRUE,FALSE,FALSE,"S250389233"
"65","norpin","Northern Pintail","Anas acuta","L578606","Honey Lake Wildlife Area--Fleming Unit","2025-06-14 16:39",1,40.3537678,-120.3021079,TRUE,FALSE,FALSE,"S250436851"
"66","norpin","Northern Pintail","Anas acuta","L47641201","Nome-Council Rd, Nome US-AK 64.47736, -165.21457","2025-06-14 16:23",25,64.47736,-165.214566,TRUE,FALSE,TRUE,"S250431532"
"67","norpin","Northern Pintail","Anas acuta","L47635837","Humbug Valley—Soda Springs","2025-06-14 16:20",1,40.141888,-121.244245,TRUE,FALSE,TRUE,"S250410640"
"68","norpin","Northern Pintail","Anas acuta","L1206739","Nome-Council Rd.--Safety Sound Bridge","2025-06-14 16:18",8,64.4720541,-164.746685,TRUE,FALSE,FALSE,"S250432799"
"69","norpin","Northern Pintail","Anas acuta","L927270","Nome-Council Rd.--Solomon","2025-06-14 16:07",6,64.5585058,-164.4438634,TRUE,FALSE,FALSE,"S250459672"
"70","norpin","Northern Pintail","Anas acuta","L730351","Charleston Slough/Coast Casey Forebay","2025-06-14 16:06",2,37.4359191,-122.098918,TRUE,FALSE,FALSE,"S250416515"
"71","norpin","Northern Pintail","Anas acuta","L28594606","Salt River Lower Burton Access Road","2025-06-14 15:54",2,42.7573483,-110.9722137,TRUE,FALSE,FALSE,"S250375045"
"72","norpin","Northern Pintail","Anas acuta","L1222788","Okanogan Highlands--Molson Lakes","2025-06-14 15:45",1,48.9860752,-119.2044067,TRUE,TRUE,FALSE,"S250391817"
"73","norpin","Northern Pintail","Anas acuta","L781326","State Line Park Rd. (CA side only)","2025-06-14 15:40",2,41.9927695,-120.3267073,TRUE,FALSE,FALSE,"S250437211"
"74","norpin","Northern Pintail","Anas acuta","L47645142","Kougarok Road, Alaska, US (65.226, -164.831)","2025-06-14 15:40",1,65.2263131,-164.8308947,TRUE,FALSE,TRUE,"S250450566"
"75","norpin","Northern Pintail","Anas acuta","L2867115","Road to Devil's lake","2025-06-14 15:27",40,66.8839899,-162.5207949,TRUE,FALSE,TRUE,"S250394464"
"76","norpin","Northern Pintail","Anas acuta","L751058","Goose Lake State Recreation Area (Oregon)","2025-06-14 15:25",6,41.9941909,-120.3235781,TRUE,FALSE,FALSE,"S250437178"
"77","norpin","Northern Pintail","Anas acuta","L3717427","Nome-Council Rd.--Safety Sound Bridge to Last Train to Nowhere","2025-06-14 15:24",12,64.5153332,-164.5622527,TRUE,FALSE,FALSE,"S250459319"
"78","norpin","Northern Pintail","Anas acuta","L1664751","Nome-Council Rd.--Cape Nome to Safety Sound Bridge","2025-06-14 15:04",14,64.4408338,-164.8940364,TRUE,FALSE,FALSE,"S250432166"
"79","norpin","Northern Pintail","Anas acuta","L929964","Beluga--South Bog","2025-06-14 14:44",1,61.1223093,-151.1026955,TRUE,FALSE,FALSE,"S250416529"
"80","norpin","Northern Pintail","Anas acuta","L2901555","Utqiaġvik--New Landfill Rd.","2025-06-14 14:39",16,71.2502605,-156.5665054,TRUE,FALSE,FALSE,"S250796179"
"81","norpin","Northern Pintail","Anas acuta","L5672962","Rice Lake (Emmons Co.)","2025-06-14 14:32",2,46.0393963,-100.079174,TRUE,FALSE,FALSE,"S250324773"
"82","norpin","Northern Pintail","Anas acuta","L1471763","Potter Swamp Rd.","2025-06-14 14:23",4,43.5044624,-119.0820007,TRUE,FALSE,FALSE,"S250364512"
"83","norpin","Northern Pintail","Anas acuta","L959596","Nome-Council Rd.--Hastings Creek","2025-06-14 14:13",30,64.4557741,-165.1001358,TRUE,FALSE,FALSE,"S250431558"
"84","norpin","Northern Pintail","Anas acuta","L1759273","Greenhouse Ln.","2025-06-14 14:07",4,43.512015,-119.0786411,TRUE,FALSE,FALSE,"S250353095"
"85","norpin","Northern Pintail","Anas acuta","L47641131","Nome-Council Rd--(64.47636, -165.24757)","2025-06-14 13:50",5,64.476365,-165.24757,TRUE,FALSE,TRUE,"S250431249"
"86","norpin","Northern Pintail","Anas acuta","L966521","Lawen Marshes","2025-06-14 13:48",100,43.40224,-118.84859,TRUE,FALSE,FALSE,"S250362420"
"87","norpin","Northern Pintail","Anas acuta","L1667673","Kougarok Rd.--Salmon Lake Campground","2025-06-14 13:48",3,64.9169757,-164.9601459,TRUE,FALSE,FALSE,"S250457686"
"88","norpin","Northern Pintail","Anas acuta","L9600622","Toolik Lake Public Access","2025-06-14 13:47",1,68.6319721,-149.585038,TRUE,FALSE,FALSE,"S250368827"
"89","norpin","Northern Pintail","Anas acuta","L2222152","Denali Hwy.--Oscar Creek Lakes (mm 48 to mm 52)","2025-06-14 13:46",35,63.073173,-146.7022739,TRUE,FALSE,FALSE,"S250421851"
"90","norpin","Northern Pintail","Anas acuta","L47642675","Piute Reservoir, Plush US-OR (42.0674,-119.5593)","2025-06-14 13:41",2,42.067395,-119.559293,TRUE,FALSE,TRUE,"S250437909"
"91","norpin","Northern Pintail","Anas acuta","L129129","Westchester Lagoon","2025-06-14 13:39",1,61.2070462,-149.9198785,TRUE,FALSE,FALSE,"S250635408"
"92","norpin","Northern Pintail","Anas acuta","L512907","Lake Nettie NWR","2025-06-14 13:38",4,47.6178137,-101.0141372,TRUE,FALSE,FALSE,"S250375036"
"93","norpin","Northern Pintail","Anas acuta","L158584","Bowdoin NWR","2025-06-14 13:32",1,48.4018332,-107.6784611,TRUE,FALSE,FALSE,"S250364813"
"94","norpin","Northern Pintail","Anas acuta","L47634837","Alpine Airstrip, Barrow US-AK (70.3456,-150.9244)","2025-06-14 13:13",4,70.345614,-150.924421,TRUE,FALSE,TRUE,"S250405405"
"95","norpin","Northern Pintail","Anas acuta","L6471373","Quivira NWR--Big Salt Marsh--NE 170th St.","2025-06-14 13:08",2,38.2017745,-98.5267379,TRUE,FALSE,FALSE,"S250293460"
"96","norpin","Northern Pintail","Anas acuta","L246497","Gambell (general area)","2025-06-14 13:00",7,63.7793007,-171.7214584,TRUE,FALSE,FALSE,"S250487721"
"97","norpin","Northern Pintail","Anas acuta","L2217402","Kotzebue lagoon and east hills","2025-06-14 12:58",11,66.8867023,-162.5568008,TRUE,FALSE,TRUE,"S250365516"
"98","norpin","Northern Pintail","Anas acuta","L158882","Lostwood NWR","2025-06-14 12:57",5,48.602636,-102.4386493,TRUE,FALSE,FALSE,"S250311175"
"99","norpin","Northern Pintail","Anas acuta","L47626701","83322, Corral US-ID 43.26450, -114.99986","2025-06-14 12:43",1,43.264505,-114.999862,TRUE,FALSE,TRUE,"S250370104"
"100","norpin","Northern Pintail","Anas acuta","L279360","Nome River Mouth","2025-06-14 12:23",3,64.4831392,-165.3024186,TRUE,FALSE,FALSE,"S250453205"
"101","norpin","Northern Pintail","Anas acuta","L820014","Attu Island--Navy Town","2025-06-14 12:15",2,52.8410393,173.1757736,TRUE,FALSE,FALSE,"S250419068"
"102","norpin","Northern Pintail","Anas acuta","L1658724","Harrison WTP","2025-06-14 11:31",1,42.6980453,-103.8763378,TRUE,FALSE,FALSE,"S250275612"
"103","norpin","Northern Pintail","Anas acuta","L1067145","Kasilof--Kasilof River Mouth","2025-06-14 11:30",30,60.3859137,-151.302166,TRUE,FALSE,FALSE,"S250450136"
"104","norpin","Northern Pintail","Anas acuta","L47601464","Airport Road, Montpelier, Idaho, US (42.261, -111.354)","2025-06-14 11:04",2,42.2613843,-111.3540528,TRUE,FALSE,TRUE,"S250273336"
"105","norpin","Northern Pintail","Anas acuta","L1482983","Utqiaġvik--Footprint Lake","2025-06-14 11:03",6,71.2743579,-156.6557381,TRUE,FALSE,FALSE,"S250335306"
"106","norpin","Northern Pintail","Anas acuta","L264861","Hoquiam STP","2025-06-14 11:01",1,46.9732093,-123.9165354,TRUE,FALSE,FALSE,"S250353495"
"107","norpin","Northern Pintail","Anas acuta","L158888","Minot Sewage Lagoons","2025-06-14 10:52",50,48.2074032,-101.1662549,TRUE,FALSE,FALSE,"S250258345"
"108","norpin","Northern Pintail","Anas acuta","L47544529","Mile 20 wetlands-Cape Krusenstern National Monument US-AK","2025-06-14 10:44",2,67.760384,-163.600414,TRUE,FALSE,TRUE,"S250356371"
"109","norpin","Northern Pintail","Anas acuta","L12203477","Hardy Rd.","2025-06-14 10:43",2,40.6908707,-112.2698607,TRUE,FALSE,FALSE,"S250255614"
"110","norpin","Northern Pintail","Anas acuta","L47602767","61507–61523 OR-205, Burns US-OR 43.30216, -118.97471","2025-06-14 10:38",NA,43.302162,-118.974714,TRUE,FALSE,TRUE,"S250278070"
"111","norpin","Northern Pintail","Anas acuta","L2341330","Onida Marsh","2025-06-14 10:34",4,44.7062117,-100.082016,TRUE,FALSE,FALSE,"S250228937"
"112","norpin","Northern Pintail","Anas acuta","L515634","Arapaho NWR--Auto Loop","2025-06-14 10:30",2,40.6686604,-106.322937,TRUE,FALSE,FALSE,"S250276893"
"113","norpin","Northern Pintail","Anas acuta","L837268","Sacramento NWR--Auto Route & Visitor Center","2025-06-14 10:16",60,39.4284385,-122.1564999,TRUE,FALSE,FALSE,"S250288402"
"114","norpin","Northern Pintail","Anas acuta","L5987829","Bethel--H-Marker Lake","2025-06-14 10:15",1,60.7976747,-161.8251157,TRUE,FALSE,FALSE,"S250295604"
"115","norpin","Northern Pintail","Anas acuta","L736019","Utqiaġvik--Naval Arctic Research Lab","2025-06-14 10:13",2,71.326271,-156.6744804,TRUE,FALSE,FALSE,"S250337164"
"116","norpin","Northern Pintail","Anas acuta","L3674065","Nome--Dry Creek Wetlands","2025-06-14 10:00",1,64.502299,-165.4165833,TRUE,FALSE,FALSE,"S250292532"
"117","norpin","Northern Pintail","Anas acuta","L4646807","Nome-Council Rd.--Nome River Bridge","2025-06-14 09:54",12,64.4856626,-165.2910662,TRUE,FALSE,FALSE,"S250451482"
"118","norpin","Northern Pintail","Anas acuta","L47585195","19973–19981 304th Ave, Pierre US-SD 44.49242, -100.08804","2025-06-14 09:54",6,44.492416,-100.088043,TRUE,FALSE,TRUE,"S250211888"
"119","norpin","Northern Pintail","Anas acuta","L109287","Adobe Creek Reservoir (Blue Lake)--Bent Co","2025-06-14 09:51",2,38.25,-103.25,TRUE,FALSE,FALSE,"S250329189"
"120","norpin","Northern Pintail","Anas acuta","L292857","Kah Tai Lagoon","2025-06-14 09:48",1,48.1114603,-122.7781165,TRUE,FALSE,FALSE,"S250332844"
"121","norpin","Northern Pintail","Anas acuta","L27799449","Pasture 7","2025-06-14 09:46",3,45.8006136,-102.0937578,TRUE,FALSE,FALSE,"S250442764"
"122","norpin","Northern Pintail","Anas acuta","L248057","Pte. Mouillee SGA (permit required Sep 1-Dec 15)","2025-06-14 09:41",1,42.0146112,-83.2001495,TRUE,TRUE,FALSE,"S250302308"
"123","norpin","Northern Pintail","Anas acuta","L579586","Arcata Marsh--Klopp Lake","2025-06-14 09:38",1,40.855284,-124.095567,TRUE,FALSE,FALSE,"S250311062"
"124","norpin","Northern Pintail","Anas acuta","L1333782","Malheur NWR--Wright's Pond","2025-06-14 09:32",8,43.2299022,-118.8752213,TRUE,FALSE,FALSE,"S250322087"
"125","norpin","Northern Pintail","Anas acuta","L24508340","Kasayuli- Big Beaver Lodge Lake at the bend","2025-06-14 09:31",1,60.77697,-161.8630083,TRUE,FALSE,TRUE,"S250279783"
"126","norpin","Northern Pintail","Anas acuta","L21079030","Gross Lake","2025-06-14 09:21",1,43.6696807,-97.5083217,TRUE,FALSE,FALSE,"S250282959"
"127","norpin","Northern Pintail","Anas acuta","L28067925","5831 Valley Road, Kathryn, ND 58049","2025-06-14 09:15",1,46.5683305,-97.8995169,TRUE,FALSE,TRUE,"S250254113"
"128","norpin","Northern Pintail","Anas acuta","L505620","Bear River Meadows--Crawford Mountain Rd.","2025-06-14 09:10",1,41.6956433,-111.1140114,TRUE,FALSE,FALSE,"S250254057"
"129","norpin","Northern Pintail","Anas acuta","L47580790","4401–4501 82nd St NW, Carpio US-ND 48.60426, -101.68724","2025-06-14 08:56",3,48.604258,-101.687238,TRUE,FALSE,TRUE,"S250193610"
"130","norpin","Northern Pintail","Anas acuta","L47593546","39th Ave SE, Tappen US-ND 47.04391, -99.67166","2025-06-14 08:55",3,47.043907,-99.671659,TRUE,FALSE,TRUE,"S250243588"
"131","norpin","Northern Pintail","Anas acuta","L33316864","Denali Hwy, Delta Junction US-AK 63.04924, -145.96683","2025-06-14 08:49",8,63.049236,-145.966831,TRUE,FALSE,TRUE,"S250421734"
"132","norpin","Northern Pintail","Anas acuta","L4682243","Summer Lake Wildlife Area--North Orchard","2025-06-14 08:44",9,42.983632,-120.7510114,TRUE,FALSE,FALSE,"S250402134"
"133","norpin","Northern Pintail","Anas acuta","L189487","Arcata Marsh and Wildlife Sanctuary","2025-06-14 08:32",2,40.857361,-124.094612,TRUE,FALSE,FALSE,"S250405039"
"134","norpin","Northern Pintail","Anas acuta","L6258718","Fort Mandan","2025-06-14 08:30",2,47.2981348,-101.0880351,TRUE,FALSE,FALSE,"S250183971"
"135","norpin","Northern Pintail","Anas acuta","L2984314","Utqiaġvik--Middle Salt Lagoon","2025-06-14 08:24",1,71.3158115,-156.6885567,TRUE,FALSE,FALSE,"S250335606"
"136","norpin","Northern Pintail","Anas acuta","L261146","St. Paul Island","2025-06-14 08:22",9,57.17012,-170.296751,TRUE,FALSE,FALSE,"S250524677"
"137","norpin","Northern Pintail","Anas acuta","L1542324","Valdez--City Dock & Ferry Terminal","2025-06-14 08:18",10,61.1243397,-146.3630078,TRUE,FALSE,FALSE,"S250710878"
"138","norpin","Northern Pintail","Anas acuta","L127945","Bosque del Apache NWR","2025-06-14 07:50",1,33.802,-106.88,TRUE,FALSE,FALSE,"S250246267"
"139","norpin","Northern Pintail","Anas acuta","L267398","Shiawassee NWR--Wildlife Drive","2025-06-14 07:49",1,43.3596344,-84.0304756,TRUE,FALSE,FALSE,"S250376555"
"140","norpin","Northern Pintail","Anas acuta","L1110288","Lost Trail NWR","2025-06-14 07:49",1,48.1722677,-114.8607817,TRUE,FALSE,FALSE,"S250384232"
"141","norpin","Northern Pintail","Anas acuta","L5829215","Fairbanks International Airport--Perimeter Rd./Tria Rd. pond","2025-06-14 07:42",1,64.7984675,-147.8698182,TRUE,FALSE,FALSE,"S250274643"
"142","norpin","Northern Pintail","Anas acuta","L2342351","Malheur NWR--Central Patrol Rd.--Between Headquarters and the Field Station","2025-06-14 07:19",4,43.238598,-118.8540888,TRUE,FALSE,FALSE,"S250255144"
"143","norpin","Northern Pintail","Anas acuta","L2498310","Yolo Bypass Wildlife Area--Auto Tour Route","2025-06-14 07:18",4,38.5483668,-121.6266346,TRUE,FALSE,FALSE,"S250775826"
"144","norpin","Northern Pintail","Anas acuta","L11051615","West side Dungeness River delta and mudflats","2025-06-14 07:08",4,48.153185,-123.13476,TRUE,FALSE,TRUE,"S250203748"
"145","norpin","Northern Pintail","Anas acuta","L473187","Wales (town)","2025-06-14 07:04",12,65.6101168,-168.0916226,TRUE,FALSE,FALSE,"S250349310"
"146","norpin","Northern Pintail","Anas acuta","L47570217","4923–4999 83rd St NW, Tolley US-ND (48.6189,-101.7670)","2025-06-14 06:58",4,48.618912,-101.767026,TRUE,FALSE,TRUE,"S250144520"
"147","norpin","Northern Pintail","Anas acuta","L47621474","Wales-Tin City Rd. (65.626, -168.041)","2025-06-14 06:54",5,65.6263181,-168.0407924,TRUE,FALSE,TRUE,"S250349176"
"148","norpin","Northern Pintail","Anas acuta","L47594812","99723, Barrow US-AK (68.5775,-149.5412)","2025-06-14 06:54",2,68.577489,-149.541219,TRUE,FALSE,TRUE,"S250248120"
"149","norpin","Northern Pintail","Anas acuta","L47621197","Wales-Tin City Rd. (65.624, -168.025)","2025-06-14 06:42",9,65.623619,-168.0251769,TRUE,FALSE,TRUE,"S250348096"
"150","norpin","Northern Pintail","Anas acuta","L487048","Fern Ridge WMA--Royal Ave. area (general)","2025-06-14 06:41",4,44.0705825,-123.2574606,TRUE,FALSE,FALSE,"S250251647"
"151","norpin","Northern Pintail","Anas acuta","L47566560","5000–5098 81st St NW, Donnybrook US-ND 48.58992, -101.81113","2025-06-14 06:27",1,48.589919,-101.811126,TRUE,FALSE,TRUE,"S250126364"
"152","norpin","Northern Pintail","Anas acuta","L247318","Benton Lake NWR","2025-06-14 06:22",8,47.6641904,-111.3007221,TRUE,FALSE,FALSE,"S250435742"
"153","norpin","Northern Pintail","Anas acuta","L1576429","Malheur NWR--Sodhouse Ln.","2025-06-14 06:11",4,43.2699566,-118.8691263,TRUE,FALSE,FALSE,"S250178231"
"154","norpin","Northern Pintail","Anas acuta","L47589259","Tipperary Road Sage/Grasslands","2025-06-14 05:53",2,44.33053,-106.530831,TRUE,FALSE,TRUE,"S250227503"
"155","norpin","Northern Pintail","Anas acuta","L47620914","Wales-Tin City Rd. (65.607, -167.98)","2025-06-14 05:37",3,65.6070137,-167.9797484,TRUE,FALSE,TRUE,"S250346916"
"156","norpin","Northern Pintail","Anas acuta","L47620856","Wales-Tin City Rd. (65.606, -167.967)","2025-06-14 05:30",1,65.6059788,-167.9672064,TRUE,FALSE,TRUE,"S250346696"
"157","norpin","Northern Pintail","Anas acuta","L20238931","Utqiaġvik--Sakeagak St. & Kaleak St.","2025-06-13 23:21",2,71.2971448,-156.7028405,TRUE,FALSE,FALSE,"S250101364"
"158","norpin","Northern Pintail","Anas acuta","L610486","Utqiaġvik--Funakoshi Memorial","2025-06-13 22:45",2,71.287852,-156.8019176,TRUE,FALSE,FALSE,"S250086899"
"159","norpin","Northern Pintail","Anas acuta","L2222756","Utqiaġvik--South Salt Lagoons","2025-06-13 21:30",1,71.3121267,-156.7134476,TRUE,FALSE,FALSE,"S250383596"
"160","norpin","Northern Pintail","Anas acuta","L937659","Kenai--Tarbox Wildlife Viewing Platform","2025-06-13 20:25",1,60.5420341,-151.2194681,TRUE,FALSE,FALSE,"S250061770"
"161","norpin","Northern Pintail","Anas acuta","L47549167","60432–60448 OR-205, Burns US-OR 43.32974, -118.97722","2025-06-13 20:20",4,43.329739,-118.97722,TRUE,FALSE,TRUE,"S250048005"
"162","norpin","Northern Pintail","Anas acuta","L12060584","San Pablo Bay National Wildlife Refuge, Vallejo US-CA 38.13246, -122.33787","2025-06-13 20:19",2,38.132458,-122.337868,TRUE,FALSE,TRUE,"S250046089"
"163","norpin","Northern Pintail","Anas acuta","L2084913","Utqiaġvik--Old Landfill","2025-06-13 20:16",5,71.3148079,-156.721344,TRUE,FALSE,FALSE,"S250100204"
"164","norpin","Northern Pintail","Anas acuta","L47546515","58492, Wimbledon US-ND (47.2409,-98.4323)","2025-06-13 20:14",12,47.240901,-98.4323,TRUE,FALSE,TRUE,"S250036874"
"165","norpin","Northern Pintail","Anas acuta","L27505839","Red Dog Port Site (restricted access)","2025-06-13 20:03",2,67.576528,-164.0608204,TRUE,FALSE,FALSE,"S250066610"
"166","norpin","Northern Pintail","Anas acuta","L47547338","42.89885_-117.23589","2025-06-13 19:22",8,42.89885,-117.23589,TRUE,FALSE,TRUE,"S250040168"
"167","norpin","Northern Pintail","Anas acuta","L424155","Woodruff Narrows Reservoir","2025-06-13 19:08",25,41.4799044,-111.0170174,TRUE,FALSE,FALSE,"S250039008"
"168","norpin","Northern Pintail","Anas acuta","L31271431","Slough N of Farm (N Side), Wimbledon US-ND (47.2571,-98.4458)","2025-06-13 18:51",3,47.257081,-98.445832,TRUE,FALSE,TRUE,"S250042493"
"169","norpin","Northern Pintail","Anas acuta","L47547337","42.91692_-117.23810","2025-06-13 18:30",2,42.91692,-117.2381,TRUE,FALSE,TRUE,"S250040166"
"170","norpin","Northern Pintail","Anas acuta","L47539669","US-83, Thedford US-NE 42.25824, -100.53450","2025-06-13 18:12",4,42.258239,-100.534498,TRUE,FALSE,TRUE,"S250006638"
"171","norpin","Northern Pintail","Anas acuta","L4765222","Playa at Morgan CRs JJ & 31","2025-06-13 18:12",2,40.508702,-103.570212,TRUE,FALSE,FALSE,"S250354534"
"172","norpin","Northern Pintail","Anas acuta","L4702202","Bethel--Sewage Ponds","2025-06-13 17:57",2,60.8098089,-161.7706561,TRUE,FALSE,FALSE,"S250041045"
"173","norpin","Northern Pintail","Anas acuta","L47620133","Nome-Council Rd, Nome US-AK 64.54231, -164.44269","2025-06-13 17:54",1,64.542308,-164.442693,TRUE,FALSE,TRUE,"S250343923"
"174","norpin","Northern Pintail","Anas acuta","L47581971","Lambi Creek","2025-06-13 17:48",1,46.6809831,-117.4979889,TRUE,TRUE,TRUE,"S250198607"
"175","norpin","Northern Pintail","Anas acuta","L47555454","1151–1399 Mud Bay Rd, Haines US-AK 59.20548, -135.44036","2025-06-13 17:38",3,59.205477,-135.440364,TRUE,FALSE,TRUE,"S250079810"
"176","norpin","Northern Pintail","Anas acuta","L1276047","Mare Island San Pablo Bay Trail","2025-06-13 17:32",4,38.0991721,-122.2861362,TRUE,FALSE,FALSE,"S250023753"
"177","norpin","Northern Pintail","Anas acuta","L47620089","Nome-Council Road, Nome, Alaska, US (64.512, -164.577)","2025-06-13 17:32",2,64.5116477,-164.5774949,TRUE,FALSE,TRUE,"S250343750"
"178","norpin","Northern Pintail","Anas acuta","L168785","Sacramento NWR","2025-06-13 17:30",NA,39.405434,-122.17191,TRUE,FALSE,FALSE,"S250284693"
"179","norpin","Northern Pintail","Anas acuta","L503368","Koosharem Reservoir ","2025-06-13 16:41",1,38.599583,-111.8450582,TRUE,FALSE,FALSE,"S250200867"
"180","norpin","Northern Pintail","Anas acuta","L464529","Cape Nome","2025-06-13 16:38",1,64.4353696,-165.0103838,TRUE,FALSE,FALSE,"S250033702"
"181","norpin","Northern Pintail","Anas acuta","L47378218","58401, Jamestown US-ND (Private Property)","2025-06-13 15:53",6,46.803872,-98.764825,TRUE,FALSE,TRUE,"S250057344"
"182","norpin","Northern Pintail","Anas acuta","L4499975","Causeway Lake","2025-06-13 15:22",6,48.2715984,-102.3299901,TRUE,FALSE,FALSE,"S249962678"
"183","norpin","Northern Pintail","Anas acuta","L47589436","Bob Blodgett Hwy, Nome US-AK 64.77518, -165.99796","2025-06-13 14:51",1,64.775185,-165.997955,TRUE,FALSE,TRUE,"S250228031"
"184","norpin","Northern Pintail","Anas acuta","L1217734","Toolik Field Station","2025-06-13 14:11",1,68.627808,-149.593389,TRUE,FALSE,FALSE,"S250000135"
"185","norpin","Northern Pintail","Anas acuta","L40544056","Ted Trueblood WMA--South Ponds","2025-06-13 13:47",1,43.0052276,-116.1018244,TRUE,FALSE,FALSE,"S249967362"
"186","norpin","Northern Pintail","Anas acuta","L47623422","ND Stutsman Cty - Crystal Springs Boat Dock","2025-06-13 13:30",2,46.8838228,-99.4468264,TRUE,FALSE,TRUE,"S250359495"
"187","norpin","Northern Pintail","Anas acuta","L47515064","I-90 E, Alexandria US-SD 43.66549, -97.65417","2025-06-13 12:45",1,43.665485,-97.654175,TRUE,FALSE,TRUE,"S249905229"
"188","norpin","Northern Pintail","Anas acuta","L47514758","13949 50th Street Southeast, Fingal, North Dakota, US (46.687, -97.547)","2025-06-13 12:41",1,46.6870983,-97.5472379,TRUE,FALSE,TRUE,"S249903852"
"189","norpin","Northern Pintail","Anas acuta","L47173993","Brown Bear Bay","2025-06-13 12:40",1,59.862712,-153.169682,TRUE,FALSE,FALSE,"S250357976"
"190","norpin","Northern Pintail","Anas acuta","L164961","Bear River MBR--Auto Tour Loop","2025-06-13 12:19",1,41.4692291,-112.2947788,TRUE,FALSE,FALSE,"S249973712"
"191","norpin","Northern Pintail","Anas acuta","L47548764","Teller Hwy mi 6-11","2025-06-13 11:59",3,64.569505,-165.589084,TRUE,FALSE,TRUE,"S250046312"
"192","norpin","Northern Pintail","Anas acuta","L257950","M Street Marsh/Emerald Downs","2025-06-13 11:54",1,47.3284365,-122.2431564,TRUE,FALSE,FALSE,"S249967746"
"193","norpin","Northern Pintail","Anas acuta","L14295433","point by old warden's residence","2025-06-13 11:12",18,46.6602934,-100.2338661,TRUE,FALSE,TRUE,"S249885401"
"194","norpin","Northern Pintail","Anas acuta","L33055606","Nome-Council Rd.--Last Train to Nowhere","2025-06-13 11:01",3,64.545843,-164.436344,TRUE,FALSE,FALSE,"S250055743"
"195","norpin","Northern Pintail","Anas acuta","L11849182","West of Rest Area","2025-06-13 10:50",2,41.6381395,-122.1841976,TRUE,FALSE,TRUE,"S250008430"
"196","norpin","Northern Pintail","Anas acuta","L1219637","Crescent Lake NWR--Goose Lake","2025-06-13 10:30",2,41.7798249,-102.4467373,TRUE,FALSE,FALSE,"S249949356"
"197","norpin","Northern Pintail","Anas acuta","L47534747","Smoke Creek Road - USDA Conservation Wetlands","2025-06-13 10:30",1,40.5546254,-119.9483623,TRUE,FALSE,TRUE,"S249985000"
"198","norpin","Northern Pintail","Anas acuta","L271485","Arcata Marsh--Oxidation Ponds","2025-06-13 10:29",2,40.8511728,-124.0891591,TRUE,FALSE,FALSE,"S249985222"
"199","norpin","Northern Pintail","Anas acuta","L47545513","353rd st SE wetland","2025-06-13 10:15",5,46.7179335,-100.2269429,TRUE,FALSE,TRUE,"S250033632"
"200","norpin","Northern Pintail","Anas acuta","L26377618","Antero Reservoir South","2025-06-13 10:06",2,38.9720025,-105.9099281,TRUE,FALSE,TRUE,"S249927103"
"201","norpin","Northern Pintail","Anas acuta","L657546","Lower Klamath NWR--Auto Tour Route","2025-06-13 09:51",6,41.9717075,-121.7260158,TRUE,FALSE,FALSE,"S249980589"
"202","norpin","Northern Pintail","Anas acuta","L1219633","Crescent Lake NWR","2025-06-13 09:44",2,41.7609727,-102.4375534,TRUE,FALSE,FALSE,"S250425150"
"203","norpin","Northern Pintail","Anas acuta","L1219638","Crescent Lake NWR--Smith Lake","2025-06-13 09:30",NA,41.7900009,-102.5230408,TRUE,FALSE,FALSE,"S249948491"
"204","norpin","Northern Pintail","Anas acuta","L5786158","Ebey Waterfront Trail, Marysville","2025-06-13 09:24",4,48.0458046,-122.1758652,TRUE,FALSE,FALSE,"S249931306"
"205","norpin","Northern Pintail","Anas acuta","L1166570","Pipit Field","2025-06-13 09:23",6,46.7220938,-100.2002478,TRUE,FALSE,TRUE,"S249861921"
"206","norpin","Northern Pintail","Anas acuta","L1599119","Harney County-Hwy 205","2025-06-13 09:00",NA,43.4796826,-119.0196876,TRUE,FALSE,TRUE,"S250167468"
"207","norpin","Northern Pintail","Anas acuta","L47502422","Pariette Wetlands (40.03064, -109.78436)","2025-06-13 08:56",2,40.030636,-109.784357,TRUE,FALSE,TRUE,"S249852621"
"208","norpin","Northern Pintail","Anas acuta","L125099","Cheyenne Bottoms WA","2025-06-13 08:56",1,38.4634203,-98.6551076,TRUE,FALSE,FALSE,"S250029895"
"209","norpin","Northern Pintail","Anas acuta","L9606706","Dalton Hwy.--Roche Moutonnee Creek","2025-06-13 08:56",4,68.3739557,-149.3283032,TRUE,FALSE,FALSE,"S249917144"
"210","norpin","Northern Pintail","Anas acuta","L47639072","Road No 155, Ellsworth, Nebraska, US (42.005, -102.578)","2025-06-13 08:55",2,42.0050051,-102.5782357,TRUE,FALSE,TRUE,"S250423610"
"211","norpin","Northern Pintail","Anas acuta","L47531827","Utqiagvik near town US-AK","2025-06-13 08:41",13,71.304261,-156.725223,TRUE,FALSE,TRUE,"S249975999"
"212","norpin","Northern Pintail","Anas acuta","L47391493","Stevenson Street, Utqiagvik, Alaska, US (71.318, -156.712)","2025-06-13 08:31",3,71.3177192,-156.7122216,TRUE,FALSE,TRUE,"S249953427"
"213","norpin","Northern Pintail","Anas acuta","L155141","Nome--Center Creek Rd.","2025-06-13 08:29",2,64.52735,-165.41586,TRUE,FALSE,FALSE,"S250226894"
"214","norpin","Northern Pintail","Anas acuta","L34262115","Nome-Council Road, Nome, Alaska, US (64.446, -164.848)","2025-06-13 07:55",11,64.4455119,-164.8476956,TRUE,FALSE,TRUE,"S250057306"
"215","norpin","Northern Pintail","Anas acuta","L2898401","Nome-Teller Hwy.--Snake River","2025-06-13 07:44",6,64.5643458,-165.5115759,TRUE,FALSE,FALSE,"S249900925"
"216","norpin","Northern Pintail","Anas acuta","L518546","Malheur NWR--Narrows","2025-06-13 07:27",2,43.2873151,-118.9591885,TRUE,FALSE,FALSE,"S249951164"
"217","norpin","Northern Pintail","Anas acuta","L6487827","West Pelican Pond","2025-06-13 07:20",NA,40.1955444,-109.7234845,TRUE,FALSE,FALSE,"S249956549"
"218","norpin","Northern Pintail","Anas acuta","L724714","Chena Lake RA","2025-06-13 07:16",3,64.7706866,-147.2272682,TRUE,FALSE,FALSE,"S249962172"
"219","norpin","Northern Pintail","Anas acuta","L44488538","Frenchglen Highway, Burns, Oregon, US (43.302, -118.975)","2025-06-13 07:09",7,43.3020766,-118.9748633,TRUE,FALSE,TRUE,"S249951257"
"220","norpin","Northern Pintail","Anas acuta","L491963","William L. Finley NWR--McFadden Marsh","2025-06-13 07:01",5,44.3907013,-123.2976294,TRUE,FALSE,FALSE,"S249838698"
"221","norpin","Northern Pintail","Anas acuta","L656782","Cosumnes River Preserve","2025-06-13 06:56",1,38.2658235,-121.4394915,TRUE,FALSE,FALSE,"S249865543"
"222","norpin","Northern Pintail","Anas acuta","L352958","Fish Springs NWR","2025-06-13 06:48",12,39.865343,-113.3936175,TRUE,FALSE,FALSE,"S249916504"
"223","norpin","Northern Pintail","Anas acuta","L290333","Arthur Pack Regional Park","2025-06-13 06:15",5,32.3733753,-111.0535231,TRUE,TRUE,FALSE,"S249909673"
"224","norpin","Northern Pintail","Anas acuta","L3642863","Winous Point Shooting Club (Ottawa Co.) (restricted access)","2025-06-13 05:47",1,41.4615,-82.9973,TRUE,FALSE,FALSE,"S249869775"
"225","norpin","Northern Pintail","Anas acuta","L47486167","Utqiagvik:  Kaleak Street","2025-06-13 01:31",6,71.29956,-156.689534,TRUE,FALSE,TRUE,"S249770895"
"226","norpin","Northern Pintail","Anas acuta","L866942","Pahranagat NWR--Trees Below Upper Lake Dam","2025-06-12 20:37",2,37.2844678,-115.1197243,TRUE,FALSE,FALSE,"S249714524"
"227","norpin","Northern Pintail","Anas acuta","L47266925","Dalton Highway, Alaska, US (68.393, -149.321)","2025-06-12 20:35",6,68.3927336,-149.3214788,TRUE,FALSE,TRUE,"S249730080"
"228","norpin","Northern Pintail","Anas acuta","L47482916","Nome-Council Road, Nome, Alaska, US (64.52, -164.542)","2025-06-12 20:31",6,64.5204025,-164.5418339,TRUE,FALSE,TRUE,"S249756205"
"229","norpin","Northern Pintail","Anas acuta","L47411260","Stevenson St, Utqiagvik US-AK 71.32366, -156.69404","2025-06-12 20:13",17,71.32366,-156.694036,TRUE,FALSE,TRUE,"S250022311"
"230","norpin","Northern Pintail","Anas acuta","L46409025","Creek Wetland, 240th Ave NE, Baldwin, North Dakota, US (47.07, -100.635)","2025-06-12 19:41",2,47.0698244,-100.6348492,TRUE,FALSE,TRUE,"S249695542"
"231","norpin","Northern Pintail","Anas acuta","L14493832","Old Gap Road","2025-06-12 19:30",1,46.5625274,-109.8149009,TRUE,FALSE,FALSE,"S249711479"
"232","norpin","Northern Pintail","Anas acuta","L47284484","Old Tin City","2025-06-12 19:19",8,65.5583822,-167.9500016,TRUE,FALSE,TRUE,"S249728593"
"233","norpin","Northern Pintail","Anas acuta","L47473854","42.89890_-117.23592","2025-06-12 18:40",62,42.8989,-117.23592,TRUE,FALSE,TRUE,"S249712239"
"234","norpin","Northern Pintail","Anas acuta","L1638849","Mount Pocono Airport/Lynchwood Lake (restricted access)","2025-06-12 18:38",1,41.1461048,-75.3850233,TRUE,TRUE,FALSE,"S249689922"
"235","norpin","Northern Pintail","Anas acuta","L33468084","Utqiaġvik--Imaiqsaun Cemetery","2025-06-12 18:31",3,71.2694868,-156.7718785,TRUE,FALSE,FALSE,"S249841055"
"236","norpin","Northern Pintail","Anas acuta","L4064293","McKissic Springs Park","2025-06-12 17:29",1,36.3594295,-94.2774796,TRUE,TRUE,FALSE,"S249653712"
"237","norpin","Northern Pintail","Anas acuta","L47473851","42.91203_-117.24068","2025-06-12 17:26",6,42.91203,-117.24068,TRUE,FALSE,TRUE,"S249712237"
"238","norpin","Northern Pintail","Anas acuta","L594020","Cottonwood Reservoir ","2025-06-12 17:18",1,46.037731,-110.6865692,TRUE,FALSE,FALSE,"S249687923"
"239","norpin","Northern Pintail","Anas acuta","L247792","Delta Junction--Clearwater Lake","2025-06-12 17:07",20,64.0861097,-145.6063,TRUE,FALSE,FALSE,"S249697308"
"240","norpin","Northern Pintail","Anas acuta","L47467633","Center Patrol Road, Princeton, Oregon, US (43.223, -118.888)","2025-06-12 16:31",1,43.2232915,-118.8875821,TRUE,FALSE,TRUE,"S249682177"
"241","norpin","Northern Pintail","Anas acuta","L47620683","ND Adams County HWY 8","2025-06-12 15:45",2,46.1562353,-102.4759912,TRUE,FALSE,TRUE,"S250347659"
"242","norpin","Northern Pintail","Anas acuta","L5979384","NS55 Rd. Playa","2025-06-12 15:17",8,36.918749,-102.029085,TRUE,FALSE,FALSE,"S249711708"
"243","norpin","Northern Pintail","Anas acuta","L47478872","Mile 15 Wetlands","2025-06-12 15:00",2,67.708076,-163.673378,TRUE,FALSE,TRUE,"S249739064"
"244","norpin","Northern Pintail","Anas acuta","L47472763","CR-16, Newcastle US-WY 43.88427, -104.38331","2025-06-12 14:44",1,43.884273,-104.383314,TRUE,FALSE,TRUE,"S249708393"
"245","norpin","Northern Pintail","Anas acuta","L526888","Tanana Lakes Recreation Area","2025-06-12 14:13",3,64.7966492,-147.7180481,TRUE,FALSE,FALSE,"S249671070"
"246","norpin","Northern Pintail","Anas acuta","L47458784","Frenchglen Highway, Burns, Oregon, US (43.313, -118.976)","2025-06-12 14:13",2,43.3128469,-118.9756394,TRUE,FALSE,TRUE,"S249635549"
"247","norpin","Northern Pintail","Anas acuta","L41613431","58401, Jamestown US-ND (46.8049,-98.7608) (Private Property)","2025-06-12 14:00",2,46.804904,-98.760753,TRUE,FALSE,TRUE,"S249681136"
"248","norpin","Northern Pintail","Anas acuta","L47479425","Nome-Council Rd, Nome US-AK 64.44323, -164.96135","2025-06-12 13:49",1,64.44323,-164.961354,TRUE,FALSE,TRUE,"S249741606"
"249","norpin","Northern Pintail","Anas acuta","L22666134","Denali Hwy.--mm 126.5 Lake","2025-06-12 13:41",1,63.3946929,-148.6707815,TRUE,FALSE,FALSE,"S249952024"
"250","norpin","Northern Pintail","Anas acuta","L47452617","19300–19804 Lemmon Lake Rd, Lemmon US-SD 45.80454, -102.07815","2025-06-12 13:01",2,45.804537,-102.078146,TRUE,FALSE,TRUE,"S249608544"
"251","norpin","Northern Pintail","Anas acuta","L47461761","Nome-Council Rd, Nome US-AK 64.50393, -164.60850","2025-06-12 12:40",4,64.503925,-164.608501,TRUE,FALSE,TRUE,"S249648549"
"252","norpin","Northern Pintail","Anas acuta","L47455292","1237 97th Street Northwest, Westhope, North Dakota, US (48.821, -100.98)","2025-06-12 12:36",1,48.8212209,-100.9800543,TRUE,FALSE,TRUE,"S249619969"
"253","norpin","Northern Pintail","Anas acuta","L11364936","Yukon Delta NWR--Old Chevak","2025-06-12 12:30",4,61.430935,-165.45134,TRUE,FALSE,FALSE,"S249897238"
"254","norpin","Northern Pintail","Anas acuta","L47391679","Unnamed Road, Utqiagvik, Alaska, US (71.244, -156.552)","2025-06-12 12:29",28,71.2435379,-156.5521825,TRUE,FALSE,TRUE,"S249640745"
"255","norpin","Northern Pintail","Anas acuta","L47465200","467–577 Morrissey Rd, Newcastle US-WY 43.78127, -104.25917","2025-06-12 12:12",1,43.781269,-104.259171,TRUE,FALSE,TRUE,"S249668735"
"256","norpin","Northern Pintail","Anas acuta","L421396","Denali NP&P--Camp Denali","2025-06-12 11:59",5,63.5190428,-150.8984077,TRUE,FALSE,FALSE,"S249975802"
"257","norpin","Northern Pintail","Anas acuta","L7951497","Highway 26 Playa, Minatare","2025-06-12 11:57",1,41.821666,-103.546628,TRUE,FALSE,TRUE,"S249712801"
"258","norpin","Northern Pintail","Anas acuta","L33424038","Beaver Pond by Nolan Rd","2025-06-12 11:55",5,67.4222689,-150.1159221,TRUE,FALSE,TRUE,"S249636718"
"259","norpin","Northern Pintail","Anas acuta","L1615549","Farson (town)","2025-06-12 11:51",5,42.109064,-109.4491589,TRUE,FALSE,FALSE,"S250032318"
"260","norpin","Northern Pintail","Anas acuta","L47440412","16762 County Road 23 5/10, Henry, South Dakota, US (44.954, -97.371)","2025-06-12 11:30",4,44.9540555,-97.371427,TRUE,FALSE,TRUE,"S249557484"
"261","norpin","Northern Pintail","Anas acuta","L763879","Potter Marsh Boardwalk","2025-06-12 11:14",1,61.0775802,-149.8262,TRUE,FALSE,FALSE,"S249619758"
"262","norpin","Northern Pintail","Anas acuta","L1667663","Nome--East End Park","2025-06-12 11:08",2,64.493702,-165.3742526,TRUE,FALSE,FALSE,"S249741147"
"263","norpin","Northern Pintail","Anas acuta","L5632548","Kellys Slough Main Ponds","2025-06-12 11:06",NA,47.9824489,-97.2606873,TRUE,FALSE,TRUE,"S249554619"
"264","norpin","Northern Pintail","Anas acuta","L47478799","Mile 10 wetlands","2025-06-12 11:05",4,67.621027,-163.938161,TRUE,FALSE,TRUE,"S249738727"
"265","norpin","Northern Pintail","Anas acuta","L33055713","Nome-Council Rd.--Derby Creek","2025-06-12 11:00",2,64.465069,-165.148939,TRUE,FALSE,FALSE,"S249718028"
"266","norpin","Northern Pintail","Anas acuta","L47534551","Kejulik River US-AK (57.8537,-155.8831)","2025-06-12 10:48",2,57.853693,-155.883076,TRUE,FALSE,TRUE,"S249983586"
"267","norpin","Northern Pintail","Anas acuta","L211505","Red Rock Lakes NWR--Upper","2025-06-12 10:32",6,44.591557,-111.7328195,TRUE,FALSE,FALSE,"S250007563"
"268","norpin","Northern Pintail","Anas acuta","L903585","Kellys Slough NWR--CR 11","2025-06-12 10:09",1,48.0053888,-97.2709888,TRUE,FALSE,FALSE,"S249538109"
"269","norpin","Northern Pintail","Anas acuta","L294954","Kougarok Rd. (please use a more specific location)","2025-06-12 10:00",2,64.7875103,-165.2113724,TRUE,FALSE,FALSE,"S250755242"
"270","norpin","Northern Pintail","Anas acuta","L47548289","Abbott Rd, Ashby, NE","2025-06-12 10:00",4,42.0187477,-102.0044992,TRUE,FALSE,TRUE,"S250045268"
"271","norpin","Northern Pintail","Anas acuta","L47533705","Kejulik River US-AK (57.8551,-155.7585)","2025-06-12 09:28",2,57.855111,-155.758486,TRUE,FALSE,TRUE,"S249981142"
"272","norpin","Northern Pintail","Anas acuta","L47446556","Lacreek Loop","2025-06-12 08:59",1,43.0990585,-101.5644931,TRUE,FALSE,TRUE,"S249582587"
"273","norpin","Northern Pintail","Anas acuta","L16016343","Road 108 west from Goose Lake","2025-06-12 08:51",2,41.79027,-102.471399,TRUE,FALSE,TRUE,"S249712496"
"274","norpin","Northern Pintail","Anas acuta","L3192597","Damonte Ranch Wetlands--Veterans Pkwy Lake and Wetlands","2025-06-12 08:33",2,39.4202899,-119.7332203,TRUE,FALSE,FALSE,"S249582400"
"275","norpin","Northern Pintail","Anas acuta","L47466904","Nome, Nome US-AK (64.4490,-164.8563)","2025-06-12 08:17",2,64.44903,-164.856301,TRUE,FALSE,TRUE,"S249678144"
"276","norpin","Northern Pintail","Anas acuta","L268889","Lacreek NWR","2025-06-12 07:39",2,43.1078385,-101.5455236,TRUE,FALSE,FALSE,"S249585347"
"277","norpin","Northern Pintail","Anas acuta","L769366","Denali Hwy.--Tangle Lakes general area","2025-06-12 07:30",8,63.0507586,-145.985899,TRUE,FALSE,FALSE,"S250044904"
"278","norpin","Northern Pintail","Anas acuta","L47431428","LAAB00","2025-06-12 07:13",20,42.6896677,-120.1571794,TRUE,FALSE,TRUE,"S249519975"
"279","norpin","Northern Pintail","Anas acuta","L790263","Campbell Creek Mouth","2025-06-12 07:00",6,61.1275184,-149.9659109,TRUE,FALSE,FALSE,"S249677439"
"280","norpin","Northern Pintail","Anas acuta","L43389870","LAAB01","2025-06-12 06:44",4,42.6831738,-120.162308,TRUE,FALSE,TRUE,"S249525109"
"281","norpin","Northern Pintail","Anas acuta","L47466498","38th Street SE, Tappen (46.866, -99.690)","2025-06-12 06:05",1,46.8663133,-99.6900433,TRUE,FALSE,TRUE,"S249676014"
"282","norpin","Northern Pintail","Anas acuta","L5755834","McIntosh Lake","2025-06-12 05:47",4,45.9232742,-101.3391781,TRUE,FALSE,FALSE,"S249675870"
"283","norpin","Northern Pintail","Anas acuta","L275227","Piute Ponds (permit required)","2025-06-12 05:21",1,34.7901193,-118.1181776,TRUE,FALSE,FALSE,"S249608548"
"284","norpin","Northern Pintail","Anas acuta","L379970","Dalton Hwy.--Sagwon Bluffs to Franklin Bluffs (mm 343 to mm 377.5)","2025-06-11 22:25",50,69.6432749,-148.6858713,TRUE,FALSE,FALSE,"S249413083"
"285","norpin","Northern Pintail","Anas acuta","L610093","Clear Lake (Linn Co.)","2025-06-11 20:51",1,44.3682873,-121.9939041,TRUE,FALSE,FALSE,"S249890215"
"286","norpin","Northern Pintail","Anas acuta","L2856665","Northe east Kotzebue","2025-06-11 20:37",15,66.8997717,-162.5647831,TRUE,FALSE,TRUE,"S249418204"
"287","norpin","Northern Pintail","Anas acuta","L7216048","Arrowwood NWR--visitor center area","2025-06-11 20:18",1,47.2690492,-98.8526182,TRUE,FALSE,FALSE,"S249393079"
"288","norpin","Northern Pintail","Anas acuta","L1426513","Badlands NP--West Headquarters","2025-06-11 20:13",6,43.8807526,-102.237771,TRUE,FALSE,FALSE,"S249401752"
"289","norpin","Northern Pintail","Anas acuta","L1129524","Kodiak Is.--Womens Bay (NW Spit)","2025-06-11 20:08",3,57.7157018,-152.5515175,TRUE,FALSE,FALSE,"S249424514"
"290","norpin","Northern Pintail","Anas acuta","L158886","Upper Souris NWR--Scenic Loop Drive","2025-06-11 19:20",1,48.4390382,-101.5606964,TRUE,FALSE,FALSE,"S249393781"
"291","norpin","Northern Pintail","Anas acuta","L4902369","Adel Ponds","2025-06-11 19:02",1,42.174218,-119.8068523,TRUE,FALSE,FALSE,"S249390568"
"292","norpin","Northern Pintail","Anas acuta","L47405981","11900–11998 26th St SE, Valley City US-ND (47.0384,-97.9793)","2025-06-11 18:53",1,47.038371,-97.979289,TRUE,FALSE,TRUE,"S249392157"
"293","norpin","Northern Pintail","Anas acuta","L10749298","Saltese--Church Pond","2025-06-11 18:41",3,47.6389037,-117.1360343,TRUE,FALSE,FALSE,"S249390102"
"294","norpin","Northern Pintail","Anas acuta","L47589458","Upper Missouri River — 47.84447, -110.06705","2025-06-11 17:08",1,47.844469,-110.067046,TRUE,FALSE,TRUE,"S250228093"
"295","norpin","Northern Pintail","Anas acuta","L2764357","Cameron Lake Road Farmhouse","2025-06-11 17:00",1,48.1427642,-119.560132,TRUE,FALSE,FALSE,"S249887785"
"296","norpin","Northern Pintail","Anas acuta","L1884575","Palouse region--Ewan","2025-06-11 16:47",4,47.1183774,-117.7307847,TRUE,FALSE,FALSE,"S249708380"
"297","norpin","Northern Pintail","Anas acuta","L266875","Willcox--Lake Cochise and Twin Lakes Golf Course","2025-06-11 16:45",1,32.2298515,-109.8243175,TRUE,TRUE,FALSE,"S249388850"
"298","norpin","Northern Pintail","Anas acuta","L1575491","Nome--Cemetery Pond","2025-06-11 16:41",2,64.5104327,-165.4193311,TRUE,FALSE,FALSE,"S249370358"
"299","norpin","Northern Pintail","Anas acuta","L11455319","Nome-Teller Hwy.--Six Mile Pond","2025-06-11 16:20",2,64.5615528,-165.4910246,TRUE,FALSE,FALSE,"S249365738"
"300","norpin","Northern Pintail","Anas acuta","L47391226","I-29 S, Brookings US-SD 44.18872, -96.75954","2025-06-11 16:13",2,44.18872,-96.759544,TRUE,FALSE,TRUE,"S249319245"
"301","norpin","Northern Pintail","Anas acuta","L2327448","Rice Lake (Burleigh Co.)","2025-06-11 16:12",4,46.9893748,-100.2882422,TRUE,FALSE,FALSE,"S249626994"
"302","norpin","Northern Pintail","Anas acuta","L45294807","314th St NE, Wing US-ND 47.12709, -100.28367","2025-06-11 16:05",2,47.127088,-100.283672,TRUE,FALSE,TRUE,"S249627738"
"303","norpin","Northern Pintail","Anas acuta","L47404320","Utqiaġvik--Airport Ponds","2025-06-11 16:04",12,71.283376,-156.792598,TRUE,FALSE,FALSE,"S249385372"
"304","norpin","Northern Pintail","Anas acuta","L1234055","Denali Hwy.--mm 117 vicinity","2025-06-11 15:41",4,63.3742698,-148.3784294,TRUE,FALSE,FALSE,"S249429090"
"305","norpin","Northern Pintail","Anas acuta","L373417","Lower Klamath NWR (CA side)","2025-06-11 15:30",1,41.948,-121.72,TRUE,FALSE,FALSE,"S249592175"
"306","norpin","Northern Pintail","Anas acuta","L46101047","3 1/2 St SE, Goodrich US-ND (47.3635,-100.2404)","2025-06-11 15:12",1,47.363523,-100.240418,TRUE,FALSE,TRUE,"S249627862"
"307","norpin","Northern Pintail","Anas acuta","L47402019","Bob Blodgett Highway, Alaska, US (64.775, -165.998)","2025-06-11 14:54",2,64.7754229,-165.9981008,TRUE,FALSE,TRUE,"S249373504"
"308","norpin","Northern Pintail","Anas acuta","L2327422","Salt Lake (Burleigh Co.)","2025-06-11 14:50",20,47.3063691,-100.2715158,TRUE,FALSE,FALSE,"S249627959"
"309","norpin","Northern Pintail","Anas acuta","L47409160","Ipiavik Lagoon","2025-06-11 14:48",4,67.60739,-164.110552,TRUE,FALSE,TRUE,"S249408658"
"310","norpin","Northern Pintail","Anas acuta","L2330588","Little Missouri NG--Talkington Dam","2025-06-11 14:29",6,46.9537481,-103.2572139,TRUE,FALSE,FALSE,"S249381818"
"311","norpin","Northern Pintail","Anas acuta","L4205132","Pete's Pond and E. Saltese Lake Rd","2025-06-11 14:27",1,47.6066332,-117.1244663,TRUE,FALSE,TRUE,"S249336889"
"312","norpin","Northern Pintail","Anas acuta","L47404931","43.93963_-118.13606","2025-06-11 14:20",1,43.93963,-118.13606,TRUE,FALSE,TRUE,"S249387834"
"313","norpin","Northern Pintail","Anas acuta","L47382309","US-12 E, Waubay US-SD 45.34101, -97.27178","2025-06-11 13:55",2,45.341008,-97.271776,TRUE,FALSE,TRUE,"S249279688"
"314","norpin","Northern Pintail","Anas acuta","L15613728","Denali Hwy.--mm 85.4 Lake","2025-06-11 13:50",1,63.1767012,-147.552201,TRUE,FALSE,FALSE,"S249397478"
"315","norpin","Northern Pintail","Anas acuta","L47514300","Nome-Council Rd, Nome US-AK 64.46085, -164.77374","2025-06-11 13:47",10,64.460848,-164.773735,TRUE,FALSE,TRUE,"S249902084"
"316","norpin","Northern Pintail","Anas acuta","L4007749","Teller--spit","2025-06-11 13:07",1,65.2709052,-166.3575125,TRUE,FALSE,FALSE,"S249534141"
"317","norpin","Northern Pintail","Anas acuta","L3823837","Ike Rd. Playa Lakes (Rd. 110 - Rd. 60)","2025-06-11 12:44",7,38.387444,-100.5207932,TRUE,FALSE,FALSE,"S249303359"
"318","norpin","Northern Pintail","Anas acuta","L47643596","Denali Hwy, Talkeetna US-AK 63.18801, -147.59790","2025-06-11 12:32",24,63.188011,-147.597902,TRUE,FALSE,TRUE,"S250441839"
"319","norpin","Northern Pintail","Anas acuta","L1214940","Utqiaġvik (town; please use a more specific location)","2025-06-11 12:30",5,71.2906914,-156.7885494,TRUE,FALSE,FALSE,"S249423297"
"320","norpin","Northern Pintail","Anas acuta","L14931291","Bethel--Lomack Beach","2025-06-11 12:27",3,60.7911941,-161.7585498,TRUE,FALSE,FALSE,"S249305174"
"321","norpin","Northern Pintail","Anas acuta","L9850553","Soda Lake Wetlands","2025-06-11 12:19",10,42.977466,-109.8467764,TRUE,FALSE,FALSE,"S249297786"
"322","norpin","Northern Pintail","Anas acuta","L47391650","13340 Cakeatter Road, Utqiagvik, Alaska, US (71.294, -156.674)","2025-06-11 11:42",12,71.2942835,-156.6743989,TRUE,FALSE,TRUE,"S249321227"
"323","norpin","Northern Pintail","Anas acuta","L1344700","Arcata Marsh--Gearheart Marsh","2025-06-11 11:38",2,40.8604405,-124.0946509,TRUE,FALSE,FALSE,"S249278164"
"324","norpin","Northern Pintail","Anas acuta","L47404926","43.75332_-118.47352","2025-06-11 11:36",1,43.75332,-118.47352,TRUE,FALSE,TRUE,"S249387587"
"325","norpin","Northern Pintail","Anas acuta","L3858879","Baskett Slough NWR--South Slough transect path","2025-06-11 11:34",1,44.9562801,-123.2571548,TRUE,FALSE,FALSE,"S249326691"
"326","norpin","Northern Pintail","Anas acuta","L913173","Kellys Slough NWR--Observation platform","2025-06-11 11:32",NA,47.9849436,-97.2616111,TRUE,FALSE,FALSE,"S249239290"
"327","norpin","Northern Pintail","Anas acuta","L47409503","Agagrak Creek","2025-06-11 11:20",2,67.52462,-163.991446,TRUE,FALSE,TRUE,"S249410886"
"328","norpin","Northern Pintail","Anas acuta","L421073","Beck & Alkali Lakes","2025-06-11 11:18",2,44.5096973,-109.0376973,TRUE,FALSE,FALSE,"S249256627"
"329","norpin","Northern Pintail","Anas acuta","L1187160","Kougarok Rd.--Coffee Dome (mm 72)","2025-06-11 11:06",1,65.2765291,-164.7896854,TRUE,FALSE,FALSE,"S249397359"
"330","norpin","Northern Pintail","Anas acuta","L815005","Baskett Slough NWR--The Narrows and Cottonwood Pond","2025-06-11 11:00",1,44.9592377,-123.2700262,TRUE,FALSE,FALSE,"S249326324"
"331","norpin","Northern Pintail","Anas acuta","L47514407","Nome-Council Rd, Nome US-AK 64.48699, -165.32886","2025-06-11 10:51",1,64.486988,-165.328863,TRUE,FALSE,TRUE,"S249902511"
"332","norpin","Northern Pintail","Anas acuta","L25848239","Horicon NWR--Egret Hiking Trail/Boardwalk","2025-06-11 10:46",1,43.618058,-88.6707401,TRUE,FALSE,FALSE,"S249231233"
"333","norpin","Northern Pintail","Anas acuta","L4688372","Murphy Reservoir","2025-06-11 10:45",1,40.6978928,-104.3528652,TRUE,FALSE,FALSE,"S249253132"
"334","norpin","Northern Pintail","Anas acuta","L9390044","Frenchglen Highway, Burns, Oregon, US (43.356, -118.979)","2025-06-11 10:42",4,43.3563432,-118.9793836,TRUE,FALSE,TRUE,"S249394181"
"335","norpin","Northern Pintail","Anas acuta","L47476139","Oliktok Point Area","2025-06-11 10:38",18,70.49852,-149.888694,TRUE,FALSE,TRUE,"S249724440"
"336","norpin","Northern Pintail","Anas acuta","L47391854","99723, Barrow US-AK 71.24240, -156.56327","2025-06-11 10:29",30,71.2424,-156.563267,TRUE,FALSE,TRUE,"S249322164"
"337","norpin","Northern Pintail","Anas acuta","L6310353","Cottonwood Reservoir, Wilsall US-MT (46.0383,-110.6934)","2025-06-11 10:25",13,46.038344,-110.693401,TRUE,FALSE,TRUE,"S249355224"
"338","norpin","Northern Pintail","Anas acuta","L753048","Malheur NWR--Central Patrol Rd.","2025-06-11 10:08",4,43.2024856,-118.8875628,TRUE,FALSE,FALSE,"S250419338"
"339","norpin","Northern Pintail","Anas acuta","L33712380","Sandy River Lodge","2025-06-11 09:46",6,56.231547,-160.067524,TRUE,FALSE,TRUE,"S249397046"
"340","norpin","Northern Pintail","Anas acuta","L1236105","La Grande Waste Water Treatment Ponds","2025-06-11 09:45",1,45.2869651,-118.0295563,TRUE,FALSE,FALSE,"S249375489"
"341","norpin","Northern Pintail","Anas acuta","L47391561","10006 Cakeatter Road, Utqiagvik, Alaska, US (71.316, -156.706)","2025-06-11 09:44",4,71.3162096,-156.7055824,TRUE,FALSE,TRUE,"S249320845"
"342","norpin","Northern Pintail","Anas acuta","L2169526","Albany WTP","2025-06-11 09:40",1,45.6161987,-94.5830154,TRUE,FALSE,FALSE,"S249211459"
"343","norpin","Northern Pintail","Anas acuta","L594360","Ceres WTP","2025-06-11 09:24",1,37.576,-120.970675,TRUE,FALSE,FALSE,"S249243797"
"344","norpin","Northern Pintail","Anas acuta","L751232","Kuparuk Oil Field--general area (restricted access)","2025-06-11 09:17",15,70.3283333,-149.6200562,TRUE,FALSE,FALSE,"S249724384"
"345","norpin","Northern Pintail","Anas acuta","L21694375","San Gabriel River--Slauson to Telegraph","2025-06-11 09:04",1,33.961597,-118.0873742,TRUE,FALSE,FALSE,"S249250982"
"346","norpin","Northern Pintail","Anas acuta","L47368573","5 1st Road Northwest, Fairfield, Montana, US (47.619, -112.009)","2025-06-11 09:00",2,47.6188876,-112.0088231,TRUE,FALSE,TRUE,"S249223140"
"347","norpin","Northern Pintail","Anas acuta","L19624711","Denali Hwy.--Swede Mountain Trail","2025-06-11 08:58",1,63.049119,-145.966696,TRUE,FALSE,FALSE,"S249320150"
"348","norpin","Northern Pintail","Anas acuta","L47364246","Dunkirk Reservoir, MT","2025-06-11 08:49",2,48.4878792,-111.6657256,TRUE,FALSE,TRUE,"S249204391"
"349","norpin","Northern Pintail","Anas acuta","L47409184","Tasaitsat Lagoon","2025-06-11 08:47",1,67.558216,-164.030504,TRUE,FALSE,TRUE,"S249408856"
"350","norpin","Northern Pintail","Anas acuta","L2318798","Medicine Lake NWR--Scenic Wildlife Loop","2025-06-11 08:45",NA,48.5006247,-104.3254227,TRUE,FALSE,FALSE,"S249362617"
"351","norpin","Northern Pintail","Anas acuta","L47357128","67th Avenue Southeast, Pingree, North Dakota, US (47.141, -99.081)","2025-06-11 08:39",1,47.1407407,-99.0806939,TRUE,FALSE,TRUE,"S249172130"
"352","norpin","Northern Pintail","Anas acuta","L265647","Maxwell NWR","2025-06-11 08:36",1,36.5688651,-104.5815831,TRUE,FALSE,FALSE,"S249307437"
"353","norpin","Northern Pintail","Anas acuta","L2936984","14 Mile Reservoir","2025-06-11 08:35",1,41.7461495,-109.3064976,TRUE,FALSE,FALSE,"S249380209"
"354","norpin","Northern Pintail","Anas acuta","L5988406","Fern Ridge WMA--Fisher Butte Unit north (dikes around Pond 4, 5, 6, and west edge of 3)","2025-06-11 08:24",1,44.0667313,-123.263855,TRUE,FALSE,FALSE,"S249297351"
"355","norpin","Northern Pintail","Anas acuta","L586881","Seward--Airport Mudflats","2025-06-11 08:17",1,60.1253055,-149.4220018,TRUE,FALSE,FALSE,"S249402712"
"356","norpin","Northern Pintail","Anas acuta","L319397","Bear Butte Lake","2025-06-11 08:16",3,44.4563502,-103.4452331,TRUE,FALSE,FALSE,"S249209050"
"357","norpin","Northern Pintail","Anas acuta","L247312","Freezout Lake WMA","2025-06-11 08:14",2,47.6657859,-112.0112392,TRUE,FALSE,FALSE,"S249197374"
"358","norpin","Northern Pintail","Anas acuta","L47354469","67th Avenue Southeast, Edmunds, North Dakota, US (47.153, -99.081)","2025-06-11 08:03",1,47.1533123,-99.0807061,TRUE,FALSE,TRUE,"S249158242"
"359","norpin","Northern Pintail","Anas acuta","L338300","Sierra Valley--Marble Hot Springs Rd.","2025-06-11 08:01",16,39.7627625,-120.3465128,TRUE,FALSE,FALSE,"S249231264"
"360","norpin","Northern Pintail","Anas acuta","L128537","Creamer's Field MWR","2025-06-11 07:54",2,64.86305,-147.7381727,TRUE,FALSE,FALSE,"S249248337"
"361","norpin","Northern Pintail","Anas acuta","L599648","St. George Island","2025-06-11 07:41",2,56.5776409,-169.6069336,TRUE,FALSE,FALSE,"S249226473"
"362","norpin","Northern Pintail","Anas acuta","L11243716","Kyburz Flat and Marsh","2025-06-11 07:30",2,39.5024202,-120.241079,TRUE,FALSE,TRUE,"S249259531"
"363","norpin","Northern Pintail","Anas acuta","L749295","Hayward Regional Shoreline--Grant Ave. access","2025-06-11 07:20",1,37.6679579,-122.1614027,TRUE,FALSE,FALSE,"S249222752"
"364","norpin","Northern Pintail","Anas acuta","L1312278","Arco Ponds","2025-06-11 07:05",3,46.1624744,-112.7791214,TRUE,FALSE,FALSE,"S249228970"
"365","norpin","Northern Pintail","Anas acuta","L575270","Pablo (Reservoir) NWR","2025-06-11 06:55",3,47.6354366,-114.1597939,TRUE,FALSE,FALSE,"S249194771"
"366","norpin","Northern Pintail","Anas acuta","L47365030","4749–4799 Wildfowl Ln, Stevensville US-MT 46.55182, -114.06720","2025-06-11 06:51",4,46.551818,-114.067199,TRUE,FALSE,TRUE,"S249207781"
"367","norpin","Northern Pintail","Anas acuta","L4606931","Palmer Hay Flats SGR--Wasilla Creek Boardwalk","2025-06-11 06:12",2,61.5504655,-149.2958629,TRUE,FALSE,FALSE,"S249227469"
"368","norpin","Northern Pintail","Anas acuta","L20552412","Job Corps Ponds","2025-06-11 06:11",2,46.2054302,-112.7771166,TRUE,FALSE,FALSE,"S249317412"
"369","norpin","Northern Pintail","Anas acuta","L469546","Skagit Wildlife Area--Fir Island Farm Reserve (Hayton Reserve)","2025-06-11 06:00",3,48.3356338,-122.4131659,TRUE,FALSE,FALSE,"S249247540"
"370","norpin","Northern Pintail","Anas acuta","L1472429","USGS Northern Prairie Wildlife Research Center (restricted access)","2025-06-11 05:40",1,46.8793717,-98.6261599,TRUE,FALSE,FALSE,"S249254666"
"371","norpin","Northern Pintail","Anas acuta","L353456","Upper Lake Mary","2025-06-11 05:30",4,35.0799541,-111.5327071,TRUE,FALSE,FALSE,"S249240291"
"372","norpin","Northern Pintail","Anas acuta","L21209548","Argenta WMA","2025-06-11 05:08",2,40.66918,-116.930015,TRUE,FALSE,FALSE,"S249199394"
"373","norpin","Northern Pintail","Anas acuta","L47436964","Custer NF - Deer Draw area","2025-06-11 04:20",2,45.378291,-103.16858,TRUE,FALSE,TRUE,"S249543683"
"374","norpin","Northern Pintail","Anas acuta","L47364343","Cedar Ridge NG (NO Public Access)","2025-06-11 04:03",2,45.946833,-101.576231,TRUE,FALSE,TRUE,"S249204757"
"375","norpin","Northern Pintail","Anas acuta","L19181197","Utqiaġvik--East Browerville","2025-06-10 22:33",4,71.3013457,-156.7221229,TRUE,FALSE,FALSE,"S249406646"
"376","norpin","Northern Pintail","Anas acuta","L211504","Red Rock Lakes NWR--Lower","2025-06-10 21:27",1,44.6444638,-111.8869394,TRUE,FALSE,FALSE,"S249992833"
"377","norpin","Northern Pintail","Anas acuta","L15031065","Thief Lake WMA","2025-06-10 20:47",5,48.477252,-95.925921,TRUE,FALSE,FALSE,"S249164948"
"378","norpin","Northern Pintail","Anas acuta","L247316","Ninepipe NWR","2025-06-10 20:41",3,47.4379957,-114.1184238,TRUE,FALSE,FALSE,"S249057102"
"379","norpin","Northern Pintail","Anas acuta","L15378702","Oil Spill Road","2025-06-10 20:21",3,60.787498,-161.879031,TRUE,FALSE,TRUE,"S249079293"
"380","norpin","Northern Pintail","Anas acuta","L131039","Fairbanks International Airport--ponds","2025-06-10 19:57",2,64.8213599,-147.8650492,TRUE,FALSE,FALSE,"S249062313"
"381","norpin","Northern Pintail","Anas acuta","L272998","Boyd Lake","2025-06-10 19:41",2,40.4341128,-105.0338644,TRUE,FALSE,FALSE,"S249905450"
"382","norpin","Northern Pintail","Anas acuta","L25624545","Potter Marsh--North Pullout","2025-06-10 19:13",4,61.06947,-149.824088,TRUE,FALSE,FALSE,"S249055891"
"383","norpin","Northern Pintail","Anas acuta","L1299729","West Valley Ponds","2025-06-10 18:38",7,48.2745105,-114.3729973,TRUE,FALSE,FALSE,"S249037948"
"384","norpin","Northern Pintail","Anas acuta","L47404014","53rd Ave SE","2025-06-10 18:30",2,47.0974686,-99.3754037,TRUE,FALSE,TRUE,"S249383358"
"385","norpin","Northern Pintail","Anas acuta","L47335795","Nathaniel Olemaun Junior Boulevard, Utqiagvik, Alaska, US (71.306, -156.717)","2025-06-10 18:26",12,71.3056832,-156.7165862,TRUE,FALSE,TRUE,"S249065311"
"386","norpin","Northern Pintail","Anas acuta","L47407837","Nome-Council Rd, Nome US-AK 64.50612, -164.59929","2025-06-10 18:02",1,64.506117,-164.599291,TRUE,FALSE,TRUE,"S249400976"
"387","norpin","Northern Pintail","Anas acuta","L569873","Prudhoe Bay Oil Field--general area (restricted access)","2025-06-10 18:00",50,70.2887481,-148.5031394,TRUE,FALSE,FALSE,"S249531895"
"388","norpin","Northern Pintail","Anas acuta","L47330515","Lemmon Lake Rd","2025-06-10 17:47",3,45.804414,-102.118335,TRUE,FALSE,TRUE,"S249040917"
"389","norpin","Northern Pintail","Anas acuta","L420537","Nob Hill Pond","2025-06-10 17:09",1,37.5218818,-122.2498887,TRUE,FALSE,FALSE,"S249034731"
"390","norpin","Northern Pintail","Anas acuta","L158165","Point Mouillee SGA","2025-06-10 16:59",1,42.024544,-83.20126,TRUE,TRUE,TRUE,"S249039962"
"391","norpin","Northern Pintail","Anas acuta","L2316346","Lava Beds Rd.","2025-06-10 16:58",1,43.0442639,-118.745513,TRUE,FALSE,FALSE,"S249050422"
"392","norpin","Northern Pintail","Anas acuta","L766832","Channel Drive","2025-06-10 16:51",1,48.4400773,-122.4980307,TRUE,FALSE,FALSE,"S249024743"
"393","norpin","Northern Pintail","Anas acuta","L4000904","Utqiaġvik--Wiley Post–Will Rogers Memorial Airport","2025-06-10 16:26",2,71.2859331,-156.7756406,TRUE,FALSE,FALSE,"S249057002"
"394","norpin","Northern Pintail","Anas acuta","L9574329","Utqiaġvik--Nunavaaq Bay","2025-06-10 16:26",12,71.2510564,-156.8600337,TRUE,FALSE,FALSE,"S249065280"
"395","norpin","Northern Pintail","Anas acuta","L9523564","Horsehead Lake--Northwest","2025-06-10 16:01",2,47.0824103,-99.8193113,TRUE,FALSE,FALSE,"S248977380"
"396","norpin","Northern Pintail","Anas acuta","L2487977","Lewis & Clark WMA--Pumphouse area","2025-06-10 15:46",1,48.0711987,-103.712213,TRUE,FALSE,FALSE,"S248975720"
"397","norpin","Northern Pintail","Anas acuta","L47318891","10559 SD-73, Lemmon US-SD 45.86397, -102.17686","2025-06-10 15:37",2,45.863971,-102.176858,TRUE,FALSE,TRUE,"S248982854"
"398","norpin","Northern Pintail","Anas acuta","L711323","Otto Lake","2025-06-10 15:31",1,63.8463098,-149.0364718,TRUE,FALSE,FALSE,"S249028353"
"399","norpin","Northern Pintail","Anas acuta","L2261772","Malheur NWR--Upper Krumbo Pond (Crane Pond)","2025-06-10 14:35",1,42.9624527,-118.8459778,TRUE,FALSE,FALSE,"S248985136"
"400","norpin","Northern Pintail","Anas acuta","L7637512","Rochelle Ranch Golf Course","2025-06-10 14:34",1,41.7943641,-107.19208,TRUE,FALSE,FALSE,"S248989411"
"401","norpin","Northern Pintail","Anas acuta","L157943","Little Camas Reservoir","2025-06-10 14:22",2,43.34624,-115.387566,TRUE,FALSE,FALSE,"S248984983"
"402","norpin","Northern Pintail","Anas acuta","L600469","Bateman Island","2025-06-10 14:03",1,46.2405035,-119.2254353,TRUE,FALSE,FALSE,"S249013714"
"403","norpin","Northern Pintail","Anas acuta","L3059796","Sitka--Nat. His. Pk.-Totem Trail","2025-06-10 13:52",1,57.0464146,-135.3124237,TRUE,TRUE,FALSE,"S249240686"
"404","norpin","Northern Pintail","Anas acuta","L4682626","Montpelier Airport Rd.","2025-06-10 13:47",4,42.290459,-111.355872,TRUE,FALSE,FALSE,"S248967054"
"405","norpin","Northern Pintail","Anas acuta","L47413223","Denali Highway, Alaska, US (63.043, -145.899)","2025-06-10 13:18",2,63.0429866,-145.8994035,TRUE,FALSE,TRUE,"S249427411"
"406","norpin","Northern Pintail","Anas acuta","L2348135","Lake Shel-oole","2025-06-10 13:12",2,48.5257003,-111.8539953,TRUE,FALSE,FALSE,"S248967999"
"407","norpin","Northern Pintail","Anas acuta","L4830353","Denali Hwy.--Seventeen Mile Lake","2025-06-10 12:35",6,63.0417855,-145.8861981,TRUE,FALSE,FALSE,"S249427265"
"408","norpin","Northern Pintail","Anas acuta","L47542508","88th St SE, Kulm US-ND (46.1422,-98.9012)","2025-06-10 11:53",1,46.142192,-98.901162,TRUE,FALSE,TRUE,"S250019465"
"409","norpin","Northern Pintail","Anas acuta","L4318590","Bowdoin NWR--first 5 mi. Auto Tour Route","2025-06-10 11:52",8,48.3915524,-107.7287149,TRUE,FALSE,FALSE,"S249714062"
"410","norpin","Northern Pintail","Anas acuta","L906006","Warm Springs WMA","2025-06-10 11:47",4,46.1907642,-112.7748299,TRUE,FALSE,FALSE,"S249020549"
"411","norpin","Northern Pintail","Anas acuta","L12890056","Manvel--Sewage Lagoons","2025-06-10 11:04",1,48.0746039,-97.1928419,TRUE,FALSE,FALSE,"S248922147"
"412","norpin","Northern Pintail","Anas acuta","L1990280","Narrows, Malheur, OR","2025-06-10 10:38",1,43.2822042,-118.9668274,TRUE,FALSE,TRUE,"S248933794"
"413","norpin","Northern Pintail","Anas acuta","L47309843","Nome-Council Rd, Nome US-AK 64.44690, -164.83708","2025-06-10 09:48",2,64.4469,-164.837085,TRUE,FALSE,TRUE,"S248945648"
"414","norpin","Northern Pintail","Anas acuta","L27503185","Lincoln WTP--East Ponds (restricted access, open M–F, 7:30-3:00)","2025-06-10 09:41",1,38.8586743,-121.3387836,TRUE,FALSE,FALSE,"S248935236"
"415","norpin","Northern Pintail","Anas acuta","L14116989","Harbor Lights Boat Launch","2025-06-10 09:22",1,44.6201472,-88.0130382,TRUE,TRUE,FALSE,"S248866405"
"416","norpin","Northern Pintail","Anas acuta","L998470","Don Edwards NWR--Ravenswood Salt Pond SF2","2025-06-10 09:18",2,37.4887844,-122.1341944,TRUE,FALSE,FALSE,"S248927502"
"417","norpin","Northern Pintail","Anas acuta","L4978588","Uniontown Sewage Ponds","2025-06-10 08:07",2,46.5434544,-117.0759022,TRUE,FALSE,FALSE,"S248874246"
"418","norpin","Northern Pintail","Anas acuta","L1739531","Cat Island Causeway (restricted access)","2025-06-10 08:00",1,44.5660227,-88.0053408,TRUE,TRUE,FALSE,"S249058476"
"419","norpin","Northern Pintail","Anas acuta","L294949","Nome-Council Rd. (please use a more specific location)","2025-06-10 07:54",53,64.4998619,-164.6239604,TRUE,FALSE,FALSE,"S249013334"
"420","norpin","Northern Pintail","Anas acuta","L47330286","314th Street NE, Wing (47.127, -100.284)","2025-06-10 07:54",1,47.1267817,-100.2835133,TRUE,FALSE,TRUE,"S249039785"
"421","norpin","Northern Pintail","Anas acuta","L46848149","Utqiaġvik--Tahak-Stevenson St. Seawatch","2025-06-10 07:41",11,71.299897,-156.770387,TRUE,FALSE,TRUE,"S249344611"
"422","norpin","Northern Pintail","Anas acuta","L47386319","99737, Delta Junction US-AK 63.06041, -145.95373","2025-06-10 07:27",3,63.060409,-145.953731,TRUE,FALSE,TRUE,"S249297127"
"423","norpin","Northern Pintail","Anas acuta","L332514","Medicine Lake NWR","2025-06-10 07:24",4,48.4844088,-104.451592,TRUE,FALSE,FALSE,"S249023982"
"424","norpin","Northern Pintail","Anas acuta","L302628","Lake Murtaugh","2025-06-10 06:20",1,42.4665072,-114.1706298,TRUE,FALSE,FALSE,"S248824479"
"425","norpin","Northern Pintail","Anas acuta","L45838891","8801–8805 23rd St SW, Richardton US-ND (47.0826,-102.3352)","2025-06-10 05:40",2,47.082622,-102.335248,TRUE,FALSE,TRUE,"S249336122"
"426","norpin","Northern Pintail","Anas acuta","L1594731","Malheur NWR--Diamond Ln.","2025-06-10 05:30",1,43.0090177,-118.7228851,TRUE,FALSE,FALSE,"S248993804"
"427","norpin","Northern Pintail","Anas acuta","L47291481","Buffalo Gap NG- Fiddle Creek Rd area","2025-06-10 04:27",1,43.261464,-103.977965,TRUE,FALSE,TRUE,"S248859318"
"428","norpin","Northern Pintail","Anas acuta","L46770687","Lassen National Forest, Susanville US-CA 40.68450, -120.85272","2025-06-10 04:06",2,40.684502,-120.852716,TRUE,FALSE,TRUE,"S248995325"
"429","norpin","Northern Pintail","Anas acuta","L7615669","Utqiaġvik--Airport Bluffs","2025-06-09 23:53",2,71.285293,-156.8092219,TRUE,FALSE,FALSE,"S249401236"
"430","norpin","Northern Pintail","Anas acuta","L1522998","St. Paul Island--Webster Lake and vicinity","2025-06-09 22:00",4,57.2349815,-170.1144695,TRUE,FALSE,FALSE,"S248879312"
"431","norpin","Northern Pintail","Anas acuta","L47267701","Maclaren River Lodge","2025-06-09 20:59",2,63.118956,-146.532301,TRUE,FALSE,TRUE,"S248747048"
"432","norpin","Northern Pintail","Anas acuta","L2262861","McArthur Lake WMA","2025-06-09 20:15",1,48.5197881,-116.4488554,TRUE,FALSE,FALSE,"S248745342"
"433","norpin","Northern Pintail","Anas acuta","L20373178","USFWS Eider Project Study Area","2025-06-09 20:00",18,71.2371505,-156.6825217,TRUE,FALSE,TRUE,"S248952250"
"434","norpin","Northern Pintail","Anas acuta","L1171159","Tetlin NWR--Lakeview Campground  & Yarger Lake","2025-06-09 19:03",1,62.9642878,-141.6410066,TRUE,FALSE,FALSE,"S249401760"
"435","norpin","Northern Pintail","Anas acuta","L47191893","Kivalina","2025-06-09 18:45",5,67.743233,-164.582021,TRUE,FALSE,TRUE,"S248745982"
"436","norpin","Northern Pintail","Anas acuta","L1233804","Denali NP&P--Kantishna","2025-06-09 18:35",1,63.5254263,-150.959444,TRUE,FALSE,FALSE,"S248732233"
"437","norpin","Northern Pintail","Anas acuta","L534241","Fairbanks--Peat Ponds Wildlife Area","2025-06-09 18:31",1,64.9110145,-147.9393518,TRUE,FALSE,FALSE,"S248733490"
"438","norpin","Northern Pintail","Anas acuta","L1150226","Iroquois NWR--Kumpf Marsh","2025-06-09 18:31",1,43.1184025,-78.4346581,TRUE,FALSE,FALSE,"S249332202"
"439","norpin","Northern Pintail","Anas acuta","L47265192","11201–11309 Cakeatter Rd, Utqiagvik US-AK 71.30773, -156.70121","2025-06-09 18:29",3,71.307735,-156.701212,TRUE,FALSE,TRUE,"S248735812"
"440","norpin","Northern Pintail","Anas acuta","L8633868","Runner Slough","2025-06-09 18:10",2,46.8773585,-99.1244197,TRUE,FALSE,FALSE,"S248717863"
"441","norpin","Northern Pintail","Anas acuta","L47268504","US-18, Martin US-SD 43.21532, -101.57339","2025-06-09 17:52",6,43.215316,-101.573393,TRUE,FALSE,TRUE,"S248750743"
"442","norpin","Northern Pintail","Anas acuta","L47266653","58443, Glenfield US-ND 47.51964, -98.76184","2025-06-09 17:51",2,47.519644,-98.761843,TRUE,FALSE,TRUE,"S248742351"
"443","norpin","Northern Pintail","Anas acuta","L2514380","Rockefeller Preserve","2025-06-09 17:14",2,43.6275643,-110.7754469,TRUE,FALSE,FALSE,"S248704733"
"444","norpin","Northern Pintail","Anas acuta","L2898833","Nome-Council Rd.--Solomon to East Fork Solomon River","2025-06-09 16:39",4,64.6488961,-164.3354073,TRUE,FALSE,FALSE,"S248884600"
"445","norpin","Northern Pintail","Anas acuta","L2703750","J. Clark Salyer NWR--Willow City Road","2025-06-09 16:35",2,48.5890289,-100.6856203,TRUE,FALSE,FALSE,"S248737937"
"446","norpin","Northern Pintail","Anas acuta","L47409178","Double O Road, Burns, Oregon, US (43.285, -119.178)","2025-06-09 16:31",10,43.2847837,-119.1779216,TRUE,FALSE,TRUE,"S249408783"
"447","norpin","Northern Pintail","Anas acuta","L47189110","Solar Road","2025-06-09 16:20",1,38.3969223,-107.8627603,TRUE,TRUE,TRUE,"S248737131"
"448","norpin","Northern Pintail","Anas acuta","L1894671","Camas NWR--Center Pond","2025-06-09 16:15",2,43.9358188,-112.2652129,TRUE,FALSE,FALSE,"S248686802"
"449","norpin","Northern Pintail","Anas acuta","L9858021","US-AK-Nome Council Hwy (64.4367,-165.0187)","2025-06-09 16:12",2,64.436701,-165.018685,TRUE,FALSE,TRUE,"S249013769"
"450","norpin","Northern Pintail","Anas acuta","L47405625","Dalton Hwy, Barrow US-AK 69.21765, -148.78854","2025-06-09 15:34",3,69.217653,-148.78854,TRUE,FALSE,TRUE,"S249390678"
"451","norpin","Northern Pintail","Anas acuta","L47248079","2200–2282 130th Ave NW, Arnegard US-ND 47.73261, -103.36896","2025-06-09 15:28",2,47.732614,-103.368958,TRUE,FALSE,TRUE,"S248653489"
"452","norpin","Northern Pintail","Anas acuta","L15237730","Pond at Hat and Thompson Rds","2025-06-09 15:25",1,42.9457697,-104.2635804,TRUE,FALSE,TRUE,"S248736727"
"453","norpin","Northern Pintail","Anas acuta","L592967","Ridgefield NWR--River 'S' Unit","2025-06-09 14:57",2,45.7990694,-122.7490082,TRUE,FALSE,FALSE,"S248993190"
"454","norpin","Northern Pintail","Anas acuta","L47409154","31568 Greenhouse Lane, Burns, Oregon, US (43.512, -119.05)","2025-06-09 14:48",3,43.5123689,-119.0499677,TRUE,FALSE,TRUE,"S249408621"
"455","norpin","Northern Pintail","Anas acuta","L47407027","Nome-Council Rd, Nome US-AK 64.44299, -164.93669","2025-06-09 14:44",3,64.442993,-164.936686,TRUE,FALSE,TRUE,"S249397043"
"456","norpin","Northern Pintail","Anas acuta","L28480010","Aliso Park (Laguna Woods)","2025-06-09 13:47",1,33.6008888,-117.7059105,TRUE,TRUE,FALSE,"S248676271"
"457","norpin","Northern Pintail","Anas acuta","L46012504","Nome:  Kougarok Road from MP 60 to MP 69 (1 mile past Kuzitrin River bridge)","2025-06-09 13:32",2,65.127118,-164.730848,TRUE,FALSE,TRUE,"S249037120"
"458","norpin","Northern Pintail","Anas acuta","L629416","Nome-Council Rd.--Nome to Nome River","2025-06-09 13:21",1,64.490727,-165.3564262,TRUE,FALSE,FALSE,"S249396926"
"459","norpin","Northern Pintail","Anas acuta","L4524066","Wood Lake (Garden Co.)","2025-06-09 12:45",2,41.9161141,-102.3494267,TRUE,FALSE,FALSE,"S248705517"
"460","norpin","Northern Pintail","Anas acuta","L41208617","Horace--Diversion Ponds","2025-06-09 12:35",1,46.736309,-96.882928,TRUE,FALSE,FALSE,"S248616756"
"461","norpin","Northern Pintail","Anas acuta","L9599346","McCone Lake (Divide Co.)","2025-06-09 12:17",NA,48.9399068,-104.0173998,TRUE,FALSE,FALSE,"S248619308"
"462","norpin","Northern Pintail","Anas acuta","L3079377","Bandon Marsh NWR--Observation Deck","2025-06-09 11:44",5,43.130861,-124.4013423,TRUE,TRUE,FALSE,"S248627795"
"463","norpin","Northern Pintail","Anas acuta","L935173","57th St. N Wetland (McHenry Co.)","2025-06-09 11:25",1,48.2397176,-100.7254422,TRUE,FALSE,FALSE,"S248735445"
"464","norpin","Northern Pintail","Anas acuta","L47244697","Lake Louise Road, Glennallen, Alaska, US (62.157, -146.497)","2025-06-09 11:17",4,62.1574986,-146.4967902,TRUE,FALSE,TRUE,"S248638201"
"465","norpin","Northern Pintail","Anas acuta","L9195066","Little Creek Reservoir","2025-06-09 11:03",2,41.6748042,-111.2292915,TRUE,FALSE,FALSE,"S248598250"
"466","norpin","Northern Pintail","Anas acuta","L47283969","Tin City LRRS (restricted access)","2025-06-09 11:00",2,65.5647108,-167.9674589,TRUE,FALSE,TRUE,"S248840325"
"467","norpin","Northern Pintail","Anas acuta","L47227847","I-90 W, Chamberlain US-SD 43.75253, -99.25177","2025-06-09 10:48",1,43.752528,-99.251772,TRUE,FALSE,TRUE,"S248562131"
"468","norpin","Northern Pintail","Anas acuta","L1659903","Gutierrez Ranch (restricted access)","2025-06-09 10:30",2,44.1625922,-120.0912952,TRUE,FALSE,FALSE,"S248680219"
"469","norpin","Northern Pintail","Anas acuta","L9317070","Eielson AFB--Effluent Pond (restricted access)","2025-06-09 10:19",5,64.6949387,-147.1209713,TRUE,FALSE,FALSE,"S249018559"
"470","norpin","Northern Pintail","Anas acuta","L1161518","Glenn Hwy.--Tahneta Lake & Startup Creek","2025-06-09 10:09",2,61.9056665,-147.2992434,TRUE,FALSE,FALSE,"S248745829"
"471","norpin","Northern Pintail","Anas acuta","L47523176","Auto selected 60.99645, -165.06162 / EMGO CAMP ADFG","2025-06-09 10:00",2,60.996452,-165.061623,TRUE,FALSE,TRUE,"S249939829"
"472","norpin","Northern Pintail","Anas acuta","L907929","Ray Lake East","2025-06-09 09:56",4,42.9537527,-108.7914276,TRUE,FALSE,FALSE,"S248590867"
"473","norpin","Northern Pintail","Anas acuta","L46331545","Alkali Lake","2025-06-09 09:44",1,48.131672,-119.318578,TRUE,FALSE,TRUE,"S248725477"
"474","norpin","Northern Pintail","Anas acuta","L6550725","Swan Lake Nature Study Area (IBA)--Fleetwood Dr Pumphouse","2025-06-09 09:36",1,39.6500322,-119.8445847,TRUE,FALSE,FALSE,"S248630353"
"475","norpin","Northern Pintail","Anas acuta","L21280931","Red Lodge Creek End Of Cooney Dam, Montana, US (45.442, -109.243)","2025-06-09 09:32",3,45.4415314,-109.2426501,TRUE,FALSE,TRUE,"S248654552"
"476","norpin","Northern Pintail","Anas acuta","L47229108","Crawford Mountain Road, Randolph, Utah, US (41.688, -111.14)","2025-06-09 09:22",7,41.6879734,-111.139741,TRUE,FALSE,TRUE,"S248567576"
"477","norpin","Northern Pintail","Anas acuta","L24725176","Nome. -  Kougarok (Beam) Road, from beginning to MP 13  (bridge over Nome River), including the city landfill.","2025-06-09 08:54",1,64.487882,-165.333985,TRUE,FALSE,TRUE,"S249035166"
"478","norpin","Northern Pintail","Anas acuta","L47266795","Flambeau River mouth","2025-06-09 08:30",1,64.476265,-164.903169,TRUE,FALSE,TRUE,"S248743008"
"479","norpin","Northern Pintail","Anas acuta","L47255920","30th Street SE (46.981, -99.818)","2025-06-09 07:52",5,46.9810467,-99.8184833,TRUE,FALSE,TRUE,"S248690645"
"480","norpin","Northern Pintail","Anas acuta","L484226","McNary NWR--Casey Pond","2025-06-09 07:31",1,46.1618205,-118.9552402,TRUE,FALSE,FALSE,"S248579644"
"481","norpin","Northern Pintail","Anas acuta","L109548","McNary NWR--Walla Walla River Delta","2025-06-09 07:24",2,46.0685319,-118.9096792,TRUE,FALSE,FALSE,"S248614687"
"482","norpin","Northern Pintail","Anas acuta","L1039312","Coskata-Coatue Wildlife Refuge","2025-06-09 07:20",2,41.3497526,-70.0229073,TRUE,TRUE,FALSE,"S248579376"
"483","norpin","Northern Pintail","Anas acuta","L559390","Middleton Island (restricted access)","2025-06-09 07:07",6,59.4278983,-146.33008,TRUE,FALSE,FALSE,"S248737351"
"484","norpin","Northern Pintail","Anas acuta","L41197874","5123 County Highway 81, Fargo, North Dakota, US (46.937, -96.848)","2025-06-09 06:43",1,46.9371919,-96.8476501,TRUE,FALSE,TRUE,"S248710205"
"485","norpin","Northern Pintail","Anas acuta","L1203015","51st Ave. Lake","2025-06-09 06:42",1,47.0882489,-99.4182783,TRUE,FALSE,FALSE,"S248611564"
"486","norpin","Northern Pintail","Anas acuta","L4873786","Umiat (town)","2025-06-09 06:12",60,69.366646,-152.1384144,TRUE,FALSE,FALSE,"S248636468"
"487","norpin","Northern Pintail","Anas acuta","L11237112","West Dungeness, WA","2025-06-09 05:53",7,48.1482609,-123.1417876,TRUE,FALSE,TRUE,"S248536767"
"488","norpin","Northern Pintail","Anas acuta","L128530","Discovery Park","2025-06-09 05:13",1,47.663868,-122.4215317,TRUE,FALSE,FALSE,"S248683275"
"489","norpin","Northern Pintail","Anas acuta","L3494787","Coconino NF - Prime Lake","2025-06-09 05:10",1,35.0986255,-111.5307355,TRUE,FALSE,TRUE,"S248628193"
"490","norpin","Northern Pintail","Anas acuta","L47237046","Bob Blodgett Hwy, Teller US-AK","2025-06-08 23:33",2,65.255063,-166.344316,TRUE,FALSE,TRUE,"S248606166"
"491","norpin","Northern Pintail","Anas acuta","L7209244","Muddy Creek Wetlands","2025-06-08 19:39",1,41.3186888,-107.7732182,TRUE,FALSE,FALSE,"S248393477"
"492","norpin","Northern Pintail","Anas acuta","L47191012","Stampede Trail, Healy US-AK 63.87577, -149.24194","2025-06-08 19:37",8,63.87577,-149.241938,TRUE,FALSE,TRUE,"S248396783"
"493","norpin","Northern Pintail","Anas acuta","L2859925","Vortac Lake, Kotzebue","2025-06-08 19:27",4,66.8854472,-162.5289917,TRUE,FALSE,TRUE,"S248405505"
"494","norpin","Northern Pintail","Anas acuta","L2923096","Bobolink Lookout","2025-06-08 19:17",4,44.0656797,-118.9476442,TRUE,FALSE,FALSE,"S248398049"
"495","norpin","Northern Pintail","Anas acuta","L5965437","Dot Lake","2025-06-08 18:39",2,63.6633196,-144.0706032,TRUE,FALSE,FALSE,"S248385282"
"496","norpin","Northern Pintail","Anas acuta","L3011818","Lund's Landing","2025-06-08 17:59",2,48.1640594,-103.1407736,TRUE,FALSE,FALSE,"S248333930"
"497","norpin","Northern Pintail","Anas acuta","L5928803","Nome-Council Rd.--Nome River to Cape Nome","2025-06-08 17:39",2,64.4477456,-165.0624213,TRUE,FALSE,FALSE,"S248423227"
"498","norpin","Northern Pintail","Anas acuta","L47201408","Nunavak Rd, Utqiagvik US-AK 71.26712, -156.83229","2025-06-08 17:34",2,71.267115,-156.832287,TRUE,FALSE,TRUE,"S248557596"
"499","norpin","Northern Pintail","Anas acuta","L6427858","Goldendale sewage ponds (restricted access)","2025-06-08 17:34",4,45.8059944,-120.8488857,TRUE,FALSE,FALSE,"S248365973"
"500","norpin","Northern Pintail","Anas acuta","L18869141","Railroad Grade Road, Bridger, Montana, US (45.086, -108.665)","2025-06-08 17:26",3,45.0857916,-108.6654141,TRUE,FALSE,TRUE,"S248386339"
"501","norpin","Northern Pintail","Anas acuta","L47266381","Marsh Off Double O Road, Burns, Oregon, US (43.285, -119.178)","2025-06-08 17:22",10,43.2847192,-119.1782172,TRUE,FALSE,TRUE,"S248741055"
"502","norpin","Northern Pintail","Anas acuta","L6475311","Little Egypt Park","2025-06-08 17:22",1,48.1561005,-103.0394253,TRUE,FALSE,FALSE,"S248327313"
"503","norpin","Northern Pintail","Anas acuta","L47188917","US-83, Max, ND","2025-06-08 17:15",NA,47.966078,-101.292972,TRUE,FALSE,TRUE,"S248387022"
"504","norpin","Northern Pintail","Anas acuta","L560859","Russell Lakes SWA","2025-06-08 16:57",1,37.9427084,-106.1422205,TRUE,FALSE,FALSE,"S248344595"
"505","norpin","Northern Pintail","Anas acuta","L47184368","OO Ranch Rd, Princeton US-OR 43.28480, -119.17794","2025-06-08 16:51",1,43.284798,-119.177943,TRUE,FALSE,TRUE,"S248366518"
"506","norpin","Northern Pintail","Anas acuta","L47195044","Dalton Hwy, Barrow US-AK 68.65772, -149.27644","2025-06-08 16:30",5,68.657725,-149.276435,TRUE,FALSE,TRUE,"S248416354"
"507","norpin","Northern Pintail","Anas acuta","L47193190","Kuzitrin Rd, Nome US-AK 65.13542, -164.74544","2025-06-08 16:22",6,65.135417,-164.745442,TRUE,FALSE,TRUE,"S248407213"
"508","norpin","Northern Pintail","Anas acuta","L12845887","Savoonga (town)","2025-06-08 16:10",4,63.6942256,-170.479153,TRUE,FALSE,FALSE,"S248372522"
"509","norpin","Northern Pintail","Anas acuta","L455722","Para/McCain's Ponds","2025-06-08 15:57",4,46.8574296,-119.1854596,TRUE,FALSE,FALSE,"S248347324"
"510","norpin","Northern Pintail","Anas acuta","L725716","Sierra Valley--Harriet Ln. (PLU Co.)","2025-06-08 15:48",1,39.7283134,-120.3056145,TRUE,FALSE,FALSE,"S248340690"
"511","norpin","Northern Pintail","Anas acuta","L35618118","Rim Lake","2025-06-08 15:46",1,41.7009735,-107.2874496,TRUE,FALSE,FALSE,"S248655760"
"512","norpin","Northern Pintail","Anas acuta","L47186436","117th St, Claremont US-SD 45.69001, -97.95290","2025-06-08 15:30",1,45.690008,-97.952904,TRUE,FALSE,TRUE,"S248375951"
"513","norpin","Northern Pintail","Anas acuta","L151122","Antelope Island SP--Causeway","2025-06-08 15:29",1,41.08841,-112.186714,TRUE,FALSE,FALSE,"S248389313"
"514","norpin","Northern Pintail","Anas acuta","L2791309","Minersville Reservoir -- North Side","2025-06-08 14:57",6,38.254358,-112.8065872,TRUE,FALSE,FALSE,"S248315737"
"515","norpin","Northern Pintail","Anas acuta","L14170265","Dougal Reservoir","2025-06-08 14:47",4,42.6593399,-117.0016111,TRUE,FALSE,FALSE,"S248333400"
"516","norpin","Northern Pintail","Anas acuta","L2183174","Spring Lake - Walworth County","2025-06-08 14:20",1,45.4490524,-99.8502731,TRUE,FALSE,FALSE,"S250148241"
"517","norpin","Northern Pintail","Anas acuta","L10320742","Eden Landing--kayak launch","2025-06-08 14:09",1,37.618094,-122.122961,TRUE,FALSE,FALSE,"S248336420"
"518","norpin","Northern Pintail","Anas acuta","L47188681","Kougarok Rd, Nome US-AK 65.30247, -164.76475","2025-06-08 13:55",3,65.302467,-164.764752,TRUE,FALSE,TRUE,"S248385994"
"519","norpin","Northern Pintail","Anas acuta","L259782","Parker River NWR--Bill Forward Pool","2025-06-08 13:53",1,42.7368477,-70.7942462,TRUE,FALSE,FALSE,"S248233619"
"520","norpin","Northern Pintail","Anas acuta","L47176752","S-208, Whitewater US-MT 48.71850, -107.66086","2025-06-08 13:43",50,48.718497,-107.660864,TRUE,FALSE,TRUE,"S248329824"
"521","norpin","Northern Pintail","Anas acuta","L47154274","6733 North Dakota 36, Edmunds, North Dakota, US (47.168, -99.074)","2025-06-08 13:17",3,47.167794,-99.0744774,TRUE,FALSE,TRUE,"S248236315"
"522","norpin","Northern Pintail","Anas acuta","L4803017","Shoreline Dr. NE","2025-06-08 13:11",1,48.222271,-94.6116614,TRUE,FALSE,FALSE,"S248514153"
"523","norpin","Northern Pintail","Anas acuta","L996720","Enterprise WMA","2025-06-08 13:00",1,45.4193591,-117.3054886,TRUE,FALSE,FALSE,"S248282230"
"524","norpin","Northern Pintail","Anas acuta","L9551185","Alsop Lake","2025-06-08 12:58",1,41.3937405,-105.7882591,TRUE,FALSE,FALSE,"S249293814"
"525","norpin","Northern Pintail","Anas acuta","L2257847","Kougarok Rd.--Kougarok River","2025-06-08 12:48",8,65.4336489,-164.6678172,TRUE,FALSE,FALSE,"S248398210"
"526","norpin","Northern Pintail","Anas acuta","L1363519","Strever Farm Road, Pine Plains","2025-06-08 12:37",1,41.9457427,-73.6491438,TRUE,TRUE,FALSE,"S248365725"
"527","norpin","Northern Pintail","Anas acuta","L685834","Alaska Maritime NWR--Buldir Island","2025-06-08 12:37",4,52.3504409,175.9172058,TRUE,FALSE,FALSE,"S248410993"
"528","norpin","Northern Pintail","Anas acuta","L47159560","217 Trail Lakes","2025-06-08 12:20",3,42.029231,-102.220006,TRUE,FALSE,TRUE,"S248257064"
"529","norpin","Northern Pintail","Anas acuta","L47162461","Pond near Bullhead Drop","2025-06-08 12:10",1,48.3847547,-112.2066555,TRUE,FALSE,TRUE,"S248268297"
"530","norpin","Northern Pintail","Anas acuta","L47243010","Mid point between start of Bennett Rd. To Centennial Marsh","2025-06-08 12:08",1,43.229101,-115.295709,TRUE,FALSE,TRUE,"S248630916"
"531","norpin","Northern Pintail","Anas acuta","L47153171","McCarty Lake","2025-06-08 11:59",2,42.005228,-102.099174,TRUE,FALSE,TRUE,"S248232205"
"532","norpin","Northern Pintail","Anas acuta","L47161326","Summer Lake—Windbreak Dike","2025-06-08 11:57",4,42.933411,-120.767727,TRUE,FALSE,TRUE,"S248263966"
"533","norpin","Northern Pintail","Anas acuta","L376055","Mandan Experiment Station","2025-06-08 11:36",2,46.8112664,-100.9126507,TRUE,FALSE,FALSE,"S248221349"
"534","norpin","Northern Pintail","Anas acuta","L752930","Hotchkiss Ln.--WTP Ponds (restricted access)","2025-06-08 11:33",2,43.5551186,-119.0707684,TRUE,FALSE,FALSE,"S248246898"
"535","norpin","Northern Pintail","Anas acuta","L1024345","Maxwell NWR--Lake 13","2025-06-08 11:22",3,36.5810737,-104.5828056,TRUE,FALSE,FALSE,"S248239655"
"536","norpin","Northern Pintail","Anas acuta","L14750583","Bird Sanctuaire","2025-06-08 11:10",1,40.964067,-111.924475,TRUE,FALSE,TRUE,"S248225303"
"537","norpin","Northern Pintail","Anas acuta","L25267917","Double O Rd.--Cote Lake","2025-06-08 11:06",1,43.3823515,-119.320019,TRUE,FALSE,FALSE,"S248263826"
"538","norpin","Northern Pintail","Anas acuta","L11327559","ND Co Rd 4 Sloughs","2025-06-08 11:00",NA,47.9052092,-97.9912223,TRUE,FALSE,TRUE,"S248271511"
"539","norpin","Northern Pintail","Anas acuta","L32420252","Nome-Teller Road:  from Sinuk River bridge to MP 34 quarry road","2025-06-08 10:43",2,64.718221,-165.92042,TRUE,FALSE,TRUE,"S248423969"
"540","norpin","Northern Pintail","Anas acuta","L32863155","Dalton Highway, Anchorage, Alaska, US (69.006, -148.817)","2025-06-08 10:33",NA,69.0060513,-148.8171094,TRUE,FALSE,TRUE,"S248260000"
"541","norpin","Northern Pintail","Anas acuta","L33912736","Battle Mountain BBS—Echave Reservoir","2025-06-08 10:33",1,42.244202,-117.613845,TRUE,FALSE,TRUE,"S248877144"
"542","norpin","Northern Pintail","Anas acuta","L35294745","Kaycee WY BBS Stops 46-50","2025-06-08 10:29",2,43.4064863,-106.683259,TRUE,FALSE,TRUE,"S248324565"
"543","norpin","Northern Pintail","Anas acuta","L47286511","Tin City Beach S of Runway","2025-06-08 10:06",8,65.5558148,-167.9287961,TRUE,FALSE,TRUE,"S248835934"
"544","norpin","Northern Pintail","Anas acuta","L14599102","ND HWY 1 btw Lakota and Cty Rd 1","2025-06-08 10:00",4,48.1230416,-98.3392988,TRUE,FALSE,TRUE,"S248268856"
"545","norpin","Northern Pintail","Anas acuta","L7503475","Denali NP&P--Kettle Ponds","2025-06-08 10:00",2,63.4427971,-150.6493807,TRUE,FALSE,FALSE,"S249039672"
"546","norpin","Northern Pintail","Anas acuta","L47147752","Double O Road, Burns, Oregon, US (43.285, -119.176)","2025-06-08 09:57",15,43.2854153,-119.1763401,TRUE,FALSE,TRUE,"S248211398"
"547","norpin","Northern Pintail","Anas acuta","L47170972","Willow Creek Reservoir","2025-06-08 09:56",2,39.0229301,-111.7505075,TRUE,FALSE,TRUE,"S248304993"
"548","norpin","Northern Pintail","Anas acuta","L47266903","Eldorado lakes","2025-06-08 09:52",12,64.544516,-164.886503,TRUE,FALSE,TRUE,"S248743477"
"549","norpin","Northern Pintail","Anas acuta","L212070","Glover Lane & GSL Nature Center","2025-06-08 09:32",1,40.9650238,-111.9299004,TRUE,FALSE,FALSE,"S248207732"
"550","norpin","Northern Pintail","Anas acuta","L589213","Modoc NWR","2025-06-08 09:27",2,41.4575229,-120.5219078,TRUE,FALSE,FALSE,"S248354416"
"551","norpin","Northern Pintail","Anas acuta","L47286447","Tin City--Lagoon Creek","2025-06-08 09:22",1,65.5550228,-167.9077471,TRUE,FALSE,TRUE,"S248835604"
"552","norpin","Northern Pintail","Anas acuta","L47128244","70th St NE, Cando US-ND (48.4285,-99.1406)","2025-06-08 09:20",70,48.428507,-99.140617,TRUE,FALSE,TRUE,"S248131217"
"553","norpin","Northern Pintail","Anas acuta","L46524373","SD HWY 18 near Martin","2025-06-08 09:15",1,43.2157722,-101.5443203,TRUE,FALSE,TRUE,"S248504836"
"554","norpin","Northern Pintail","Anas acuta","L47492038","Kidder 53rd St SE, ephemeral puddles 0.66 mi E of 38th Ave SE","2025-06-08 09:05",2,46.646605,-99.647242,TRUE,FALSE,TRUE,"S249802699"
"555","norpin","Northern Pintail","Anas acuta","L387773","Richland Creek WMA (N. Unit)(Navarro Co) PPW-W 019","2025-06-08 09:03",1,32.0072107,-96.0808261,TRUE,FALSE,FALSE,"S248144514"
"556","norpin","Northern Pintail","Anas acuta","L35293862","Kaycee WY BBS Stops 36-40","2025-06-08 09:00",3,43.441655,-106.685265,TRUE,FALSE,TRUE,"S248313582"
"557","norpin","Northern Pintail","Anas acuta","L11075645","ND Nelson Co. - Cty Rd 1","2025-06-08 09:00",4,48.1516109,-98.2640065,TRUE,FALSE,TRUE,"S248265903"
"558","norpin","Northern Pintail","Anas acuta","L20201569","Alice WPA","2025-06-08 08:51",1,46.7745447,-97.5143541,TRUE,FALSE,FALSE,"S248130657"
"559","norpin","Northern Pintail","Anas acuta","L8847238","Ladd Marsh WMA Auto Tour Road","2025-06-08 08:50",1,45.2604995,-117.9527951,TRUE,FALSE,TRUE,"S248339779"
"560","norpin","Northern Pintail","Anas acuta","L47492025","Kidder 53rd St SE, potholes 0.5 mi E of ND 3","2025-06-08 08:49",1,46.646938,-99.757187,TRUE,FALSE,TRUE,"S249802625"
"561","norpin","Northern Pintail","Anas acuta","L3336283","Casto Reservoir Area","2025-06-08 08:45",3,38.727472,-108.6761355,TRUE,TRUE,FALSE,"S248407962"
"562","norpin","Northern Pintail","Anas acuta","L262792","Iowa Dodd Beef/Tyson Ponds","2025-06-08 08:42",1,46.1288528,-118.8985787,TRUE,FALSE,FALSE,"S248185288"
"563","norpin","Northern Pintail","Anas acuta","L24685840","Nome-Teller road, from end of pavement in Nome to Penny River bridge","2025-06-08 08:26",5,64.541616,-165.40917,TRUE,FALSE,TRUE,"S248420914"
"564","norpin","Northern Pintail","Anas acuta","L35293362","Kaycee WY BBS Stops 31-35","2025-06-08 08:12",4,43.496269,-106.694326,TRUE,FALSE,TRUE,"S248307055"
"565","norpin","Northern Pintail","Anas acuta","L47138913","2187 Nebraska 250, Lakeside, Nebraska, US (42.147, -102.425)","2025-06-08 07:56",2,42.1474931,-102.4249233,TRUE,FALSE,TRUE,"S248176277"
"566","norpin","Northern Pintail","Anas acuta","L447435","Hatfield Lake","2025-06-08 07:29",2,44.1232081,-121.198554,TRUE,FALSE,FALSE,"S248197170"
"567","norpin","Northern Pintail","Anas acuta","L47147825","Frenchglen Highway, Burns, Oregon, US (43.315, -118.976)","2025-06-08 07:18",9,43.3145398,-118.9758108,TRUE,FALSE,TRUE,"S248211653"
"568","norpin","Northern Pintail","Anas acuta","L39115182","Parker River National Wildlife Refuge, Newbury US-MA 42.78646, -70.80874","2025-06-08 07:08",1,42.786456,-70.808744,TRUE,FALSE,TRUE,"S249774333"
"569","norpin","Northern Pintail","Anas acuta","L299782","Burlington Lake (Goldeneye Reservoir)","2025-06-08 06:59",12,43.019333,-106.7073727,TRUE,FALSE,FALSE,"S248188009"
"570","norpin","Northern Pintail","Anas acuta","L129046","Parker River NWR","2025-06-08 06:52",1,42.7639008,-70.8022995,TRUE,FALSE,FALSE,"S248140967"
"571","norpin","Northern Pintail","Anas acuta","L32339978","Nebraska 2, Alliance, Nebraska, US (42.074, -102.65)","2025-06-08 06:29",1,42.0737494,-102.6504448,TRUE,FALSE,TRUE,"S248056558"
"572","norpin","Northern Pintail","Anas acuta","L4318634","Bowdoin NWR--third 5 mi. Auto Tour Route","2025-06-08 06:24",10,48.3753633,-107.6999617,TRUE,FALSE,FALSE,"S248497125"
"573","norpin","Northern Pintail","Anas acuta","L47266102","Morristown Area","2025-06-08 04:25",7,45.93911,-101.720816,TRUE,FALSE,TRUE,"S248739827"
"574","norpin","Northern Pintail","Anas acuta","L9297170","Second Bridge--lagoon & wetlands","2025-06-07 23:17",28,66.8949965,-162.566362,TRUE,FALSE,FALSE,"S247986961"
"575","norpin","Northern Pintail","Anas acuta","L272215","Wyoming Hereford Ranch Reservoir #1","2025-06-07 20:08",1,41.1167222,-104.7379491,TRUE,FALSE,FALSE,"S247935900"
"576","norpin","Northern Pintail","Anas acuta","L7599866","Kougarok Rd.--Mile 64 Lake","2025-06-07 20:01",1,65.1727249,-164.8244584,TRUE,FALSE,FALSE,"S249537907"
"577","norpin","Northern Pintail","Anas acuta","L11794143","Stebbins (town)","2025-06-07 20:01",7,63.5173757,-162.2867359,TRUE,FALSE,FALSE,"S247946031"
"578","norpin","Northern Pintail","Anas acuta","L632896","Lake Belleview","2025-06-07 19:50",1,27.9465497,-82.7934623,TRUE,TRUE,FALSE,"S247908349"
"579","norpin","Northern Pintail","Anas acuta","L3100663","Kotzebue Loop road east portion","2025-06-07 19:17",5,66.8666805,-162.5456429,TRUE,FALSE,TRUE,"S247993546"
"580","norpin","Northern Pintail","Anas acuta","L934440","Kidder 31st Ave SE, 44th to 42nd St SE","2025-06-07 19:06",4,46.7921857,-99.806478,TRUE,FALSE,TRUE,"S249051045"
"581","norpin","Northern Pintail","Anas acuta","L46989842","Stebbins Saint Michael, Stebbins US-AK 63.52406, -162.22643","2025-06-07 19:05",4,63.524058,-162.226433,TRUE,FALSE,TRUE,"S247946054"
"582","norpin","Northern Pintail","Anas acuta","L1303189","Fort Stevens SP--Parking Area D","2025-06-07 18:34",3,46.2265811,-123.9901543,TRUE,FALSE,FALSE,"S247922987"
"583","norpin","Northern Pintail","Anas acuta","L109176","Camas NWR","2025-06-07 18:03",8,43.9509896,-112.2557731,TRUE,FALSE,FALSE,"S247930300"
"584","norpin","Northern Pintail","Anas acuta","L47155188","Flagstaff Lake Rd, Plush US-OR 42.56317, -119.80823","2025-06-07 17:45",1,42.563174,-119.808233,TRUE,FALSE,TRUE,"S248240223"
"585","norpin","Northern Pintail","Anas acuta","L941892","Denali Hwy.--Maclaren River Bridge","2025-06-07 17:37",12,63.1197993,-146.5311384,TRUE,FALSE,FALSE,"S247997659"
"586","norpin","Northern Pintail","Anas acuta","L251001","Sheep Lake","2025-06-07 17:18",2,47.2400462,-117.920324,TRUE,FALSE,FALSE,"S247913828"
"587","norpin","Northern Pintail","Anas acuta","L47085015","Narrows-Princeton Rd, Princeton US-OR 43.24098, -118.89295","2025-06-07 17:15",6,43.240977,-118.892953,TRUE,FALSE,TRUE,"S247930618"
"588","norpin","Northern Pintail","Anas acuta","L47076059","47th St SW, Belfield US-ND 46.73125, -103.19161","2025-06-07 17:05",1,46.731252,-103.19161,TRUE,FALSE,TRUE,"S247885346"
"589","norpin","Northern Pintail","Anas acuta","L1653083","Flight Lake","2025-06-07 16:07",4,45.1716209,-99.9390269,TRUE,FALSE,FALSE,"S247943086"
"590","norpin","Northern Pintail","Anas acuta","L47072691","Hettinger Backroad (5th Ave)","2025-06-07 15:57",4,46.061047,-102.759462,TRUE,FALSE,TRUE,"S247870015"
"591","norpin","Northern Pintail","Anas acuta","L47267023","Lower Eldorado","2025-06-07 15:53",2,64.548401,-164.924595,TRUE,FALSE,TRUE,"S248743944"
"592","norpin","Northern Pintail","Anas acuta","L166589","Big Lake","2025-06-07 15:32",NA,45.88409,-109.046524,TRUE,FALSE,FALSE,"S247914559"
"593","norpin","Northern Pintail","Anas acuta","L355479","Moose Lake WTP","2025-06-07 15:24",2,46.4401,-92.80241,TRUE,TRUE,FALSE,"S247839522"
"594","norpin","Northern Pintail","Anas acuta","L47069850","Enderline - 49th St SE & 140th Ave SE","2025-06-07 15:21",2,46.7020745,-97.5404107,TRUE,FALSE,TRUE,"S247859652"
"595","norpin","Northern Pintail","Anas acuta","L47083731","Dalton Highway, Anchorage, Alaska, US (69.006, -148.817)","2025-06-07 15:05",10,69.0064363,-148.8166572,TRUE,FALSE,TRUE,"S247924965"
"596","norpin","Northern Pintail","Anas acuta","L16315953","Kougarok Rd.--Mile 60.5 Pond","2025-06-07 15:03",5,65.1382668,-164.7529518,TRUE,FALSE,FALSE,"S247939254"
"597","norpin","Northern Pintail","Anas acuta","L47083774","Dalton Highway, Anchorage, Alaska, US (68.985, -148.828)","2025-06-07 14:49",4,68.9845759,-148.8275851,TRUE,FALSE,TRUE,"S247925219"
