"","speciesCode","comName","sciName","locId","locName","obsDt","howMany","lat","lng","obsValid","obsReviewed","locationPrivate","subId"
"1","brespa","Brewer's Sparrow","Spizella breweri","L566943","Wolf Creek Summit","2025-06-09 14:54",2,40.4823726,-111.0319734,TRUE,FALSE,FALSE,"S248694654"
"2","brespa","Brewer's Sparrow","Spizella breweri","L892109","Malheur NWR -- Sod House Lane","2025-06-09 13:21",1,43.2622062,-118.7086487,TRUE,FALSE,TRUE,"S248660809"
"3","brespa","Brewer's Sparrow","Spizella breweri","L267594","Jim Bridger Power Plant","2025-06-09 11:20",7,41.7372475,-108.7876511,TRUE,FALSE,FALSE,"S248617043"
"4","brespa","Brewer's Sparrow","Spizella breweri","L47241529","Little Juniper Road, Riley, Oregon, US (43.173, -119.874)","2025-06-09 11:19",3,43.1730985,-119.8736804,TRUE,FALSE,TRUE,"S248624875"
"5","brespa","Brewer's Sparrow","Spizella breweri","L47234670","Merkt Creek, Moffat, Colorado, US (38.382, -106.023)","2025-06-09 11:12",NA,38.381643,-106.0232907,TRUE,FALSE,TRUE,"S248596059"
"6","brespa","Brewer's Sparrow","Spizella breweri","L47238992","Little Juniper Road, Riley, Oregon, US (43.186, -119.892)","2025-06-09 11:02",4,43.1861445,-119.8917666,TRUE,FALSE,TRUE,"S248613926"
"7","brespa","Brewer's Sparrow","Spizella breweri","L47256360","59843, Helmville US-MT 46.96017, -113.07816","2025-06-09 10:42",1,46.960171,-113.078156,TRUE,FALSE,TRUE,"S248692709"
"8","brespa","Brewer's Sparrow","Spizella breweri","L33101230","Baxter Pass BBS 50","2025-06-09 10:38",2,39.66433,-108.993487,TRUE,FALSE,TRUE,"S248650885"
"9","brespa","Brewer's Sparrow","Spizella breweri","L33101254","Baxter Pass BBS 49","2025-06-09 10:34",1,39.658081,-108.992643,TRUE,FALSE,TRUE,"S248638587"
"10","brespa","Brewer's Sparrow","Spizella breweri","L33101311","Baxter Pass BBS 48","2025-06-09 10:30",3,39.650586,-108.990597,TRUE,FALSE,TRUE,"S248638673"
"11","brespa","Brewer's Sparrow","Spizella breweri","L4487946","Bonneville Point","2025-06-09 10:29",2,43.4913818,-116.0401297,TRUE,FALSE,FALSE,"S248589255"
"12","brespa","Brewer's Sparrow","Spizella breweri","L47230782","1506–1550 WY-72, Elk Mountain US-WY 41.71021, -106.44154","2025-06-09 10:20",1,41.710209,-106.441538,TRUE,FALSE,TRUE,"S248579184"
"13","brespa","Brewer's Sparrow","Spizella breweri","L47247030","Baxter Pass BBS 46","2025-06-09 10:19",1,39.6375333,-108.98392,TRUE,FALSE,TRUE,"S248648726"
"14","brespa","Brewer's Sparrow","Spizella breweri","L915760","Diamond Craters","2025-06-09 10:17",2,43.078167,-118.7549114,TRUE,FALSE,FALSE,"S248601168"
"15","brespa","Brewer's Sparrow","Spizella breweri","L47242582","North Wenas Road, Selah, Washington, US (46.908, -120.694)","2025-06-09 10:15",1,46.9084688,-120.6939276,TRUE,FALSE,TRUE,"S248629135"
"16","brespa","Brewer's Sparrow","Spizella breweri","L33101358","Baxter Pass BBS 45","2025-06-09 10:13",2,39.631518,-108.981636,TRUE,FALSE,TRUE,"S248638312"
"17","brespa","Brewer's Sparrow","Spizella breweri","L14280540","I82--Exit 11 shrub steppe","2025-06-09 10:13",3,46.8420485,-120.378372,TRUE,FALSE,FALSE,"S248609186"
"18","brespa","Brewer's Sparrow","Spizella breweri","L299580","University of Utah Campus","2025-06-09 10:10",1,40.763703,-111.8423486,TRUE,FALSE,FALSE,"S248584786"
"19","brespa","Brewer's Sparrow","Spizella breweri","L281058","Arapaho NWR","2025-06-09 10:10",1,40.6404523,-106.2767773,TRUE,FALSE,FALSE,"S248586496"
"20","brespa","Brewer's Sparrow","Spizella breweri","L14925515","N School House Rd, Mountain Home US-ID 43.27802, -115.12587","2025-06-09 10:08",3,43.278015,-115.125874,TRUE,FALSE,TRUE,"S248591609"
"21","brespa","Brewer's Sparrow","Spizella breweri","L47233433","25901–25957 Vantage Hwy, Ellensburg US-WA 46.97435, -120.20890","2025-06-09 09:52",1,46.974354,-120.208897,TRUE,FALSE,TRUE,"S248590913"
"22","brespa","Brewer's Sparrow","Spizella breweri","L47228229","CR-400, Elk Mountain US-WY 41.72963, -106.48089","2025-06-09 09:49",1,41.729633,-106.480894,TRUE,FALSE,TRUE,"S248563882"
"23","brespa","Brewer's Sparrow","Spizella breweri","L47226198","CR-400, Hanna US-WY 41.73184, -106.51856","2025-06-09 09:23",2,41.731843,-106.518562,TRUE,FALSE,TRUE,"S248555202"
"24","brespa","Brewer's Sparrow","Spizella breweri","L47225801","CR-400, Elk Mountain US-WY 41.72878, -106.52597","2025-06-09 09:19",1,41.728779,-106.52597,TRUE,FALSE,TRUE,"S248553476"
"25","brespa","Brewer's Sparrow","Spizella breweri","L157588","Camas Centennial Marsh","2025-06-09 09:15",2,43.26451,-114.99878,TRUE,FALSE,FALSE,"S248622199"
"26","brespa","Brewer's Sparrow","Spizella breweri","L934951","Pawnee NG Bird Tour--Stops 1-4 and Murphy's Pasture","2025-06-09 09:10",1,40.6827563,-104.3537387,TRUE,FALSE,FALSE,"S248650476"
"27","brespa","Brewer's Sparrow","Spizella breweri","L30387547","Washoe Co. Regional Archery Facility","2025-06-09 09:09",1,39.708404,-119.8275951,TRUE,FALSE,FALSE,"S248628763"
"28","brespa","Brewer's Sparrow","Spizella breweri","L47224703","CR-400, Hanna US-WY 41.72319, -106.54436","2025-06-09 09:05",1,41.723187,-106.54436,TRUE,FALSE,TRUE,"S248548840"
"29","brespa","Brewer's Sparrow","Spizella breweri","L47248485","N Long Draw, Monticello US-UT 37.92493, -109.22732","2025-06-09 08:56",1,37.924928,-109.227325,TRUE,FALSE,TRUE,"S248655397"
"30","brespa","Brewer's Sparrow","Spizella breweri","L32978360","Kinikin Rd","2025-06-09 08:51",3,38.4080628,-107.7807326,TRUE,FALSE,TRUE,"S248601941"
"31","brespa","Brewer's Sparrow","Spizella breweri","L35540863","North Sheep Rock","2025-06-09 08:51",2,41.5875788,-122.1976511,TRUE,FALSE,TRUE,"S248600564"
"32","brespa","Brewer's Sparrow","Spizella breweri","L47236235","Highway 395 N, Burns US-OR 43.71764, -119.00634","2025-06-09 08:47",1,43.71764,-119.006337,TRUE,FALSE,TRUE,"S248602823"
"33","brespa","Brewer's Sparrow","Spizella breweri","L623661","Hebgen Lake","2025-06-09 08:41",2,44.8019369,-111.2568718,TRUE,FALSE,FALSE,"S248697073"
"34","brespa","Brewer's Sparrow","Spizella breweri","L47222477","CR-26, Walden US-CO 40.56697, -106.44671","2025-06-09 08:39",2,40.566969,-106.446705,TRUE,FALSE,TRUE,"S248539304"
"35","brespa","Brewer's Sparrow","Spizella breweri","L47239158","PJ-32","2025-06-09 08:38",3,43.608712,-108.019251,TRUE,FALSE,TRUE,"S248614653"
"36","brespa","Brewer's Sparrow","Spizella breweri","L47222706","South Dry Creek Road, Red Lodge, Montana, US (45.186, -109.201)","2025-06-09 08:30",3,45.186461,-109.2013213,TRUE,FALSE,TRUE,"S248540470"
"37","brespa","Brewer's Sparrow","Spizella breweri","L47248364","59843, Helmville US-MT 46.83225, -112.98988","2025-06-09 08:30",1,46.832255,-112.989882,TRUE,FALSE,TRUE,"S248656969"
"38","brespa","Brewer's Sparrow","Spizella breweri","L7351336","Luke Lynch Wildlife Habitat Management Area","2025-06-09 08:27",2,42.8968117,-109.8576701,TRUE,FALSE,FALSE,"S248552388"
"39","brespa","Brewer's Sparrow","Spizella breweri","L47229385","N Bennett Mountain Rd, Atlanta US-ID 43.30218, -115.28883","2025-06-09 08:19",1,43.302182,-115.28883,TRUE,FALSE,TRUE,"S248568675"
"40","brespa","Brewer's Sparrow","Spizella breweri","L19393655","57 and ME 3/4 Roads Area, Collbran, Colorado, US (39.207, -107.99)","2025-06-09 08:17",2,39.2070703,-107.989834,TRUE,FALSE,TRUE,"S248538311"
"41","brespa","Brewer's Sparrow","Spizella breweri","L47242135","Hungry Mountain Rd","2025-06-09 08:13",1,39.7054574,-119.8131155,TRUE,FALSE,TRUE,"S248628154"
"42","brespa","Brewer's Sparrow","Spizella breweri","L390863","Indian Creek Reservoir","2025-06-09 08:11",1,43.3878656,-116.0129213,TRUE,FALSE,FALSE,"S248652060"
"43","brespa","Brewer's Sparrow","Spizella breweri","L47224772","34059–34099 Whitney Rd, Hereford US-OR 44.55587, -118.17673","2025-06-09 07:57",3,44.555872,-118.176726,TRUE,FALSE,TRUE,"S248549162"
"44","brespa","Brewer's Sparrow","Spizella breweri","L3155877","Intake 2, Bishop Creek","2025-06-09 07:55",1,37.2475137,-118.5846663,TRUE,FALSE,FALSE,"S248592682"
"45","brespa","Brewer's Sparrow","Spizella breweri","L24623380","Sheep Corral Gulch","2025-06-09 07:52",8,45.0882102,-113.0622728,TRUE,FALSE,TRUE,"S248634456"
"46","brespa","Brewer's Sparrow","Spizella breweri","L598381","Chickahominy Reservoir","2025-06-09 07:45",2,43.5485481,-119.6205139,TRUE,FALSE,FALSE,"S248558681"
"47","brespa","Brewer's Sparrow","Spizella breweri","L47235684","32268–32344 Whitney Rd, Hereford US-OR 44.53091, -118.15048","2025-06-09 07:41",2,44.530909,-118.150485,TRUE,FALSE,TRUE,"S248600639"
"48","brespa","Brewer's Sparrow","Spizella breweri","L24811311","Bridger-Teton National Forest, Daniel US-WY 43.03222, -110.40656","2025-06-09 07:41",4,43.032218,-110.406561,TRUE,FALSE,TRUE,"S248581832"
"49","brespa","Brewer's Sparrow","Spizella breweri","L13344660","Soft Rock State Lands","2025-06-09 07:37",2,46.3235231,-114.0340878,TRUE,FALSE,FALSE,"S248582616"
"50","brespa","Brewer's Sparrow","Spizella breweri","L33100872","Baxter Pass BBS 22","2025-06-09 07:35",2,39.573927,-108.925244,TRUE,FALSE,TRUE,"S248636776"
"51","brespa","Brewer's Sparrow","Spizella breweri","L19270508","Parker Lake Trail and lake","2025-06-09 07:30",2,37.8455701,-119.1404753,TRUE,FALSE,TRUE,"S248620455"
"52","brespa","Brewer's Sparrow","Spizella breweri","L33100822","Baxter Pass BBS 21","2025-06-09 07:28",2,39.567561,-108.917957,TRUE,FALSE,TRUE,"S248636655"
"53","brespa","Brewer's Sparrow","Spizella breweri","L388970","Umptanum Road (Kittitas Co.)","2025-06-09 07:27",1,46.9117689,-120.6026745,TRUE,FALSE,FALSE,"S248615192"
"54","brespa","Brewer's Sparrow","Spizella breweri","L33100789","Baxter Pass BBS 20","2025-06-09 07:23",1,39.562949,-108.912928,TRUE,FALSE,TRUE,"S248636602"
"55","brespa","Brewer's Sparrow","Spizella breweri","L46566574","Bodie House","2025-06-09 07:18",1,38.123403,-118.864804,TRUE,FALSE,TRUE,"S248530898"
"56","brespa","Brewer's Sparrow","Spizella breweri","L47236065","Ramona and Buddy’s Meadow (Private property)","2025-06-09 07:13",2,43.80384,-118.971787,TRUE,FALSE,TRUE,"S248602165"
"57","brespa","Brewer's Sparrow","Spizella breweri","L32266569","Grand Teton NP--Windy Point Turnout","2025-06-09 07:09",3,43.677025,-110.7245192,TRUE,FALSE,FALSE,"S248503885"
"58","brespa","Brewer's Sparrow","Spizella breweri","L47221287","97754, Prineville US-OR 44.19388, -120.65218","2025-06-09 07:08",1,44.193884,-120.65218,TRUE,FALSE,TRUE,"S248534496"
"59","brespa","Brewer's Sparrow","Spizella breweri","L47214628","CR-400, Saratoga US-WY 41.68587, -106.68301","2025-06-09 07:05",1,41.685873,-106.683008,TRUE,FALSE,TRUE,"S248504037"
"60","brespa","Brewer's Sparrow","Spizella breweri","L47222703","21998 County Road 26, Rangely, Colorado, US (39.69, -108.564)","2025-06-09 07:04",1,39.6900072,-108.5644496,TRUE,FALSE,TRUE,"S248540458"
"61","brespa","Brewer's Sparrow","Spizella breweri","L47219495","Central Oregon Highway, Oregon, US (43.589, -120.067)","2025-06-09 07:04",3,43.5890498,-120.0673401,TRUE,FALSE,TRUE,"S248526361"
"62","brespa","Brewer's Sparrow","Spizella breweri","L33100515","Baxter Pass BBS 16","2025-06-09 07:00",2,39.537312,-108.922596,TRUE,FALSE,TRUE,"S248636212"
"63","brespa","Brewer's Sparrow","Spizella breweri","L47218294","14951–14965 SE Paulina Hwy, Prineville US-OR 44.21891, -120.64159","2025-06-09 06:52",3,44.218907,-120.641593,TRUE,FALSE,TRUE,"S248521162"
"64","brespa","Brewer's Sparrow","Spizella breweri","L47179933","CR-400, Saratoga US-WY 41.68563, -106.70574","2025-06-09 06:48",1,41.685629,-106.705745,TRUE,FALSE,TRUE,"S248499183"
"65","brespa","Brewer's Sparrow","Spizella breweri","L33103909","Baxter Pass BBS 14","2025-06-09 06:47",2,39.524731,-108.933355,TRUE,FALSE,TRUE,"S248636076"
"66","brespa","Brewer's Sparrow","Spizella breweri","L47189004","21 Mountain Vista Ln, Bondurant","2025-06-09 06:41",1,43.158333,-110.370631,TRUE,FALSE,TRUE,"S248498236"
"67","brespa","Brewer's Sparrow","Spizella breweri","L33098763","Baxter Pass BBS 13","2025-06-09 06:40",1,39.520092,-108.937657,TRUE,FALSE,TRUE,"S248635086"
"68","brespa","Brewer's Sparrow","Spizella breweri","L47213789","Bear Canyon Road, Bridger, Montana, US (45.027, -108.612)","2025-06-09 06:40",2,45.0271521,-108.6116935,TRUE,FALSE,TRUE,"S248500142"
"69","brespa","Brewer's Sparrow","Spizella breweri","L47063651","Pathfinder Ranch","2025-06-09 06:39",7,42.542565,-107.010577,TRUE,FALSE,TRUE,"S248523837"
"70","brespa","Brewer's Sparrow","Spizella breweri","L36355878","Red Lakes","2025-06-09 06:34",3,44.49404,-109.078146,TRUE,FALSE,TRUE,"S248507609"
"71","brespa","Brewer's Sparrow","Spizella breweri","L33098635","Baxter Pass BBS 12","2025-06-09 06:33",2,39.513761,-108.937891,TRUE,FALSE,TRUE,"S248635039"
"72","brespa","Brewer's Sparrow","Spizella breweri","L33098535","Baxter Pass BBS 11","2025-06-09 06:27",1,39.507181,-108.942548,TRUE,FALSE,TRUE,"S248634975"
"73","brespa","Brewer's Sparrow","Spizella breweri","L1210095","Antelope Island SP--Road to Garr Ranch","2025-06-09 06:09",1,40.9836063,-112.1903591,TRUE,FALSE,FALSE,"S248562121"
"74","brespa","Brewer's Sparrow","Spizella breweri","L33098330","Baxter Pass BBS 8","2025-06-09 06:07",1,39.490542,-108.958258,TRUE,FALSE,TRUE,"S248634529"
"75","brespa","Brewer's Sparrow","Spizella breweri","L47210603","Bear Canyon Road, Bridger, Montana, US (45.039, -108.607)","2025-06-09 06:03",3,45.0392476,-108.6071554,TRUE,FALSE,TRUE,"S248485255"
"76","brespa","Brewer's Sparrow","Spizella breweri","L1136539","Brothers Rest Area","2025-06-09 06:03",4,43.8134579,-120.5990347,TRUE,FALSE,FALSE,"S248506454"
"77","brespa","Brewer's Sparrow","Spizella breweri","L338770","San Luis Lakes SWA","2025-06-09 05:37",15,37.6758424,-105.7240451,TRUE,FALSE,FALSE,"S248493676"
"78","brespa","Brewer's Sparrow","Spizella breweri","L47208247","300–436 CR-400, Saratoga US-WY 41.68467, -106.77082","2025-06-09 05:36",1,41.684666,-106.770817,TRUE,FALSE,TRUE,"S248473070"
"79","brespa","Brewer's Sparrow","Spizella breweri","L18817281","Coalmont Lek--ARRIVE IN DARK, STAY IN CAR, DO NOT DISTURB DISPLAYING BIRDS!","2025-06-09 05:34",1,40.5465243,-106.440112,TRUE,FALSE,FALSE,"S248517648"
"80","brespa","Brewer's Sparrow","Spizella breweri","L47210598","CR-26, Walden US-CO (40.5557,-106.4362)","2025-06-09 05:22",1,40.55565,-106.436161,TRUE,FALSE,TRUE,"S248485229"
"81","brespa","Brewer's Sparrow","Spizella breweri","L3563381","Abajo Mountains--Foy Lake","2025-06-09 05:17",4,37.9018387,-109.5100048,TRUE,FALSE,FALSE,"S248655006"
"82","brespa","Brewer's Sparrow","Spizella breweri","L47225875","WY-CAR BLM (41.2858, -107.8956)","2025-06-09 05:10",29,41.285804,-107.895637,TRUE,FALSE,TRUE,"S248553835"
"83","brespa","Brewer's Sparrow","Spizella breweri","L47229122","81640, Maybell US-CO (40.9675,-108.5101)","2025-06-09 05:07",4,40.967484,-108.510053,TRUE,FALSE,TRUE,"S248567707"
"84","brespa","Brewer's Sparrow","Spizella breweri","L45678316","Umatilla Army Depot (Restricted Access)","2025-06-09 04:54",1,45.860735,-119.403554,TRUE,FALSE,TRUE,"S248619150"
"85","brespa","Brewer's Sparrow","Spizella breweri","L44895153","Parker Mountain >9000ft (big sage and aspen)","2025-06-09 04:34",42,38.299487,-111.860981,TRUE,FALSE,TRUE,"S248539240"
"86","brespa","Brewer's Sparrow","Spizella breweri","L7949645","Grand Teton NP--Timbered Pullout","2025-06-08 21:22",1,43.59778,-110.697828,TRUE,FALSE,FALSE,"S248386854"
"87","brespa","Brewer's Sparrow","Spizella breweri","L20170219","Mono Lake--Mono Lake Trail","2025-06-08 20:52",10,37.9731075,-119.1243777,TRUE,FALSE,FALSE,"S248390585"
"88","brespa","Brewer's Sparrow","Spizella breweri","L2923096","Bobolink Lookout","2025-06-08 19:17",1,44.0656797,-118.9476442,TRUE,FALSE,FALSE,"S248398049"
"89","brespa","Brewer's Sparrow","Spizella breweri","L47187202","Road C NW, Waterville US-WA 47.75053, -119.81374","2025-06-08 19:01",3,47.750534,-119.813735,TRUE,FALSE,TRUE,"S248379351"
"90","brespa","Brewer's Sparrow","Spizella breweri","L47191624","US395 N of Seneca, Oregon, US (44.163, -118.982)","2025-06-08 19:01",1,44.162904,-118.9815465,TRUE,FALSE,TRUE,"S248399610"
"91","brespa","Brewer's Sparrow","Spizella breweri","L47184308","CR-400, Saratoga US-WY 41.71755, -106.55022","2025-06-08 18:26",2,41.717546,-106.550224,TRUE,FALSE,TRUE,"S248366216"
"92","brespa","Brewer's Sparrow","Spizella breweri","L47190130","Juniper Tree Nesting Site","2025-06-08 18:24",4,43.3575475,-118.9797477,TRUE,FALSE,TRUE,"S248392668"
"93","brespa","Brewer's Sparrow","Spizella breweri","L47235667","5312–5318 Juniper Mountain Rd, Brogan US-OR 44.26624, -117.69199","2025-06-08 18:13",6,44.266239,-117.691992,TRUE,FALSE,TRUE,"S248600536"
"94","brespa","Brewer's Sparrow","Spizella breweri","L30569452","HWY 91 - Schuler Lane to Apex","2025-06-08 18:07",1,45.3053373,-112.641669,TRUE,FALSE,FALSE,"S248385126"
"95","brespa","Brewer's Sparrow","Spizella breweri","L47183905","Mud Springs Road, Idaho, US (43.733, -111.58)","2025-06-08 17:48",2,43.7330551,-111.5801544,TRUE,FALSE,TRUE,"S248364467"
"96","brespa","Brewer's Sparrow","Spizella breweri","L47178424","Antelope Flats Rd, Moose US-WY 43.65474, -110.62395","2025-06-08 17:15",1,43.654743,-110.623952,TRUE,FALSE,TRUE,"S248337451"
"97","brespa","Brewer's Sparrow","Spizella breweri","L7209244","Muddy Creek Wetlands","2025-06-08 17:10",2,41.3186888,-107.7732182,TRUE,FALSE,FALSE,"S248371147"
"98","brespa","Brewer's Sparrow","Spizella breweri","L497666","Bridgeport Reservoir","2025-06-08 17:08",2,38.2977508,-119.2256927,TRUE,FALSE,FALSE,"S248365647"
"99","brespa","Brewer's Sparrow","Spizella breweri","L945354","Wild Horse Wind Energy Site","2025-06-08 17:02",3,46.9814235,-120.201416,TRUE,FALSE,FALSE,"S248400363"
"100","brespa","Brewer's Sparrow","Spizella breweri","L46968277","Salmon-Challis National Forest, Arco US-ID 43.73098, -113.08476","2025-06-08 16:59",5,43.730975,-113.084759,TRUE,FALSE,TRUE,"S248330511"
"101","brespa","Brewer's Sparrow","Spizella breweri","L47173288","Wamsutter Rd, Rawlins US-WY 41.51922, -107.90764","2025-06-08 16:02",1,41.519222,-107.907636,TRUE,FALSE,TRUE,"S248313696"
"102","brespa","Brewer's Sparrow","Spizella breweri","L5658729","Howe Ranch (restricted access)","2025-06-08 15:53",1,40.6572177,-107.248562,TRUE,FALSE,FALSE,"S248363288"
"103","brespa","Brewer's Sparrow","Spizella breweri","L35618118","Rim Lake","2025-06-08 15:46",6,41.7009735,-107.2874496,TRUE,FALSE,FALSE,"S248655760"
"104","brespa","Brewer's Sparrow","Spizella breweri","L270049","East Canyon--Big Mtn Pass to East Canyon Reservoir","2025-06-08 15:14",1,40.8521245,-111.624527,TRUE,FALSE,FALSE,"S248308206"
"105","brespa","Brewer's Sparrow","Spizella breweri","L717281","Maddalena Ranch","2025-06-08 15:03",2,39.7905996,-120.3437233,TRUE,FALSE,FALSE,"S248327073"
"106","brespa","Brewer's Sparrow","Spizella breweri","L2791309","Minersville Reservoir -- North Side","2025-06-08 14:57",4,38.254358,-112.8065872,TRUE,FALSE,FALSE,"S248315737"
"107","brespa","Brewer's Sparrow","Spizella breweri","L434106","Martis Creek Wildlife Area","2025-06-08 14:51",2,39.2971442,-120.1367426,TRUE,FALSE,FALSE,"S248310964"
"108","brespa","Brewer's Sparrow","Spizella breweri","L3604400","Johnny Behind the Rocks","2025-06-08 14:49",3,42.6956053,-108.5445571,TRUE,FALSE,FALSE,"S248365975"
"109","brespa","Brewer's Sparrow","Spizella breweri","L515634","Arapaho NWR--Auto Loop","2025-06-08 14:43",2,40.6686604,-106.322937,TRUE,FALSE,FALSE,"S248289898"
"110","brespa","Brewer's Sparrow","Spizella breweri","L47248648","Highway 789, Wyoming, US (41.624, -107.759)","2025-06-08 14:38",6,41.6239804,-107.7586344,TRUE,FALSE,TRUE,"S248656046"
"111","brespa","Brewer's Sparrow","Spizella breweri","L9323780","Hart Mountain--Hilltop Reservoir","2025-06-08 14:34",2,42.563017,-119.695151,TRUE,FALSE,FALSE,"S248601374"
"112","brespa","Brewer's Sparrow","Spizella breweri","L47170911","Harper Westfall Rd, Westfall US-OR 43.97256, -117.69991","2025-06-08 14:29",1,43.972562,-117.699909,TRUE,FALSE,TRUE,"S248303273"
"113","brespa","Brewer's Sparrow","Spizella breweri","L1238066","Grand Teton NP--Antelope Flats","2025-06-08 14:24",2,43.6720933,-110.6453705,TRUE,FALSE,FALSE,"S248287903"
"114","brespa","Brewer's Sparrow","Spizella breweri","L47192089","28203–28205 N Wenas Rd, Selah US-WA 46.89952, -120.65157","2025-06-08 14:03",1,46.899521,-120.651567,TRUE,FALSE,TRUE,"S248402114"
"115","brespa","Brewer's Sparrow","Spizella breweri","L47240813","Muskrat Rd, Shoshoni US-WY (43.0552,-108.0127)","2025-06-08 14:02",2,43.055184,-108.012682,TRUE,FALSE,TRUE,"S248621728"
"116","brespa","Brewer's Sparrow","Spizella breweri","L7320788","Cache Valley","2025-06-08 14:00",1,41.6068688,-111.9190636,TRUE,FALSE,TRUE,"S248316046"
"117","brespa","Brewer's Sparrow","Spizella breweri","L1209278","Craters of the Moon National Monument--Tree Molds Trail","2025-06-08 13:59",5,43.4263813,-113.5494961,TRUE,FALSE,FALSE,"S248302899"
"118","brespa","Brewer's Sparrow","Spizella breweri","L1031149","Ryegrass Rest Area (I-90 westbound)","2025-06-08 13:38",3,46.9473326,-120.2088833,TRUE,FALSE,FALSE,"S248289742"
"119","brespa","Brewer's Sparrow","Spizella breweri","L47172319","8107 Grass Valley Rd, Rifle US-CO 39.63748, -107.70305","2025-06-08 13:37",1,39.63748,-107.703051,TRUE,FALSE,TRUE,"S248309241"
"120","brespa","Brewer's Sparrow","Spizella breweri","L19729025","Castle Rock Creek","2025-06-08 13:34",2,43.3258982,-115.3102266,TRUE,FALSE,FALSE,"S248295820"
"121","brespa","Brewer's Sparrow","Spizella breweri","L897833","Durr Road","2025-06-08 13:27",2,46.9223452,-120.5701149,TRUE,FALSE,FALSE,"S248294297"
"122","brespa","Brewer's Sparrow","Spizella breweri","L1548108","Saratoga Lake and Storer Wetlands","2025-06-08 13:19",2,41.471583,-106.7899704,TRUE,FALSE,FALSE,"S248271195"
"123","brespa","Brewer's Sparrow","Spizella breweri","L47171818","Silver Creek Road, Riley, Oregon, US (43.69, -119.633)","2025-06-08 13:12",2,43.6898477,-119.6325198,TRUE,FALSE,TRUE,"S248307015"
"124","brespa","Brewer's Sparrow","Spizella breweri","L14218773","Othello--McManamon Road grain storage facility","2025-06-08 12:57",8,46.8527494,-119.1731753,TRUE,FALSE,FALSE,"S248312803"
"125","brespa","Brewer's Sparrow","Spizella breweri","L24481287","Windstar Ranch","2025-06-08 12:51",1,39.302401,-106.9733,TRUE,FALSE,FALSE,"S248311695"
"126","brespa","Brewer's Sparrow","Spizella breweri","L3919677","Peanut Lake","2025-06-08 12:49",1,38.8830491,-106.9983172,TRUE,FALSE,FALSE,"S248287463"
"127","brespa","Brewer's Sparrow","Spizella breweri","L19779056","Bannack Bench Road--Badger Gulch","2025-06-08 12:46",1,45.0771774,-113.0719867,TRUE,FALSE,TRUE,"S248526829"
"128","brespa","Brewer's Sparrow","Spizella breweri","L25267885","Double O Road, Hines, Oregon, US (43.501, -119.308)","2025-06-08 12:23",3,43.5013903,-119.3079854,TRUE,FALSE,TRUE,"S248306919"
"129","brespa","Brewer's Sparrow","Spizella breweri","L47243010","Mid point between start of Bennett Rd. To Centennial Marsh","2025-06-08 12:08",3,43.229101,-115.295709,TRUE,FALSE,TRUE,"S248630916"
"130","brespa","Brewer's Sparrow","Spizella breweri","L18733811","Cat Creek Rd from Hwy 20 to Bennett Mountain Rd","2025-06-08 12:03",1,43.292571,-115.3221452,TRUE,FALSE,FALSE,"S248408774"
"131","brespa","Brewer's Sparrow","Spizella breweri","L47130235","Salmon-Challis National Forest, Arco US-ID (43.7310,-113.0845)","2025-06-08 11:37",1,43.730969,-113.08452,TRUE,FALSE,TRUE,"S248217623"
"132","brespa","Brewer's Sparrow","Spizella breweri","L1369120","Ryegrass Rest Area (I-90 eastbound)","2025-06-08 11:37",1,46.9413778,-120.2034142,TRUE,FALSE,FALSE,"S248250160"
"133","brespa","Brewer's Sparrow","Spizella breweri","L47085757","Sweetwater County Archery Complex","2025-06-08 11:35",2,41.469946,-109.318528,TRUE,FALSE,TRUE,"S248241532"
"134","brespa","Brewer's Sparrow","Spizella breweri","L338217","DeWeese Reservoir SWA","2025-06-08 11:34",1,38.2043251,-105.4633317,TRUE,FALSE,FALSE,"S248303364"
"135","brespa","Brewer's Sparrow","Spizella breweri","L47177472","Mud Flat Rd, Jordan Valley US-ID 42.58183, -116.68390","2025-06-08 11:29",1,42.581826,-116.683897,TRUE,FALSE,TRUE,"S248333031"
"136","brespa","Brewer's Sparrow","Spizella breweri","L26125559","Moon Reservoir","2025-06-08 11:23",1,43.4082471,-119.3989641,TRUE,FALSE,FALSE,"S248263891"
"137","brespa","Brewer's Sparrow","Spizella breweri","L3743791","North Wenas Road","2025-06-08 11:08",1,46.9045271,-120.7248603,TRUE,FALSE,FALSE,"S248324193"
"138","brespa","Brewer's Sparrow","Spizella breweri","L47157388","Old Hwy 89, Truckee US-CA 39.39664, -120.18188","2025-06-08 11:04",5,39.396642,-120.181882,TRUE,FALSE,TRUE,"S248248566"
"139","brespa","Brewer's Sparrow","Spizella breweri","L47172723","Brock Creek","2025-06-08 11:00",1,44.9822653,-112.3696083,TRUE,FALSE,TRUE,"S248312427"
"140","brespa","Brewer's Sparrow","Spizella breweri","L47156705","Twin Creek Sagebrush","2025-06-08 11:00",1,42.705635,-108.476407,TRUE,FALSE,TRUE,"S248246075"
"141","brespa","Brewer's Sparrow","Spizella breweri","L47173088","Road to Howe Ranch","2025-06-08 10:57",2,40.651773,-107.303706,TRUE,FALSE,TRUE,"S248312721"
"142","brespa","Brewer's Sparrow","Spizella breweri","L1147305","Little Firehole Road","2025-06-08 10:56",1,41.4300214,-109.3453091,TRUE,FALSE,FALSE,"S248216121"
"143","brespa","Brewer's Sparrow","Spizella breweri","L47161254","Double O Road, Princeton, Oregon, US (43.347, -119.29)","2025-06-08 10:56",2,43.347268,-119.2900189,TRUE,FALSE,TRUE,"S248263699"
"144","brespa","Brewer's Sparrow","Spizella breweri","L11327191","Earley Park road","2025-06-08 10:50",4,41.774232,-112.060252,TRUE,FALSE,TRUE,"S248302616"
"145","brespa","Brewer's Sparrow","Spizella breweri","L824120","Kyburz Flat area","2025-06-08 10:48",2,39.50414,-120.2400398,TRUE,FALSE,FALSE,"S248359936"
"146","brespa","Brewer's Sparrow","Spizella breweri","L47177261","Mud Flat Rd, Jordan Valley US-ID 42.58574, -116.62631","2025-06-08 10:38",2,42.585737,-116.626315,TRUE,FALSE,TRUE,"S248332116"
"147","brespa","Brewer's Sparrow","Spizella breweri","L2888316","Spanish Creek Road--Upper 4 miles","2025-06-08 10:33",1,45.4798815,-111.3663483,TRUE,FALSE,FALSE,"S248259372"
"148","brespa","Brewer's Sparrow","Spizella breweri","L4469524","Glade Park area","2025-06-08 10:30",1,38.9947728,-108.7418175,TRUE,FALSE,FALSE,"S248331749"
"149","brespa","Brewer's Sparrow","Spizella breweri","L47177226","Mud Flat Rd, Jordan Valley US-ID 42.58848, -116.61278","2025-06-08 10:20",2,42.588476,-116.612776,TRUE,FALSE,TRUE,"S248331985"
"150","brespa","Brewer's Sparrow","Spizella breweri","L47191870","Parke Creek Rd riparian area","2025-06-08 10:15",4,47.04421,-120.292105,TRUE,FALSE,TRUE,"S248401056"
"151","brespa","Brewer's Sparrow","Spizella breweri","L47151588","2849 Rock Creek Road, Hansen, Idaho, US (42.406, -114.307)","2025-06-08 10:15",3,42.4055979,-114.3071728,TRUE,FALSE,TRUE,"S248226395"
"152","brespa","Brewer's Sparrow","Spizella breweri","L47146094","44632–44698 OR-31, Paisley US-OR 42.74443, -120.76000","2025-06-08 09:59",1,42.744427,-120.760004,TRUE,FALSE,TRUE,"S248204758"
"153","brespa","Brewer's Sparrow","Spizella breweri","L47171428","Bear Canyon Road (Carbon Co.)","2025-06-08 09:50",3,45.0230413,-108.6129034,TRUE,FALSE,TRUE,"S248306903"
"154","brespa","Brewer's Sparrow","Spizella breweri","L2883075","Tetonia (town)","2025-06-08 09:50",1,43.81381,-111.160142,TRUE,FALSE,FALSE,"S248166706"
"155","brespa","Brewer's Sparrow","Spizella breweri","L7327660","WDFW/Audubon site-2018-Parke Creek-61861","2025-06-08 09:45",4,47.0751989,-120.23326,TRUE,FALSE,FALSE,"S248391831"
"156","brespa","Brewer's Sparrow","Spizella breweri","L47144633","82935, Green River US-WY 41.11821, -109.28104","2025-06-08 09:44",1,41.118208,-109.28104,TRUE,FALSE,TRUE,"S248198728"
"157","brespa","Brewer's Sparrow","Spizella breweri","L47163317","CR-9, Rock Springs US-WY 41.36973, -109.32080","2025-06-08 09:43",8,41.369729,-109.320804,TRUE,FALSE,TRUE,"S248271964"
"158","brespa","Brewer's Sparrow","Spizella breweri","L2387212","Independent Mine","2025-06-08 09:39",2,44.34187,-120.35639,TRUE,FALSE,FALSE,"S248355895"
"159","brespa","Brewer's Sparrow","Spizella breweri","L338763","Totten Reservoir","2025-06-08 09:36",1,37.364487,-108.530594,TRUE,FALSE,FALSE,"S248366878"
"160","brespa","Brewer's Sparrow","Spizella breweri","L47163301","48 Swingley Rd, Livingston US-MT 45.66659, -110.49650","2025-06-08 09:31",2,45.66659,-110.496501,TRUE,FALSE,TRUE,"S248271908"
"161","brespa","Brewer's Sparrow","Spizella breweri","L47167677","Firebrand Pass Trail, East Glacier Park US-MT 48.37187, -113.27986","2025-06-08 09:30",1,48.371873,-113.279865,TRUE,FALSE,TRUE,"S248290318"
"162","brespa","Brewer's Sparrow","Spizella breweri","L21225537","Hollenbaugh Road","2025-06-08 09:22",1,38.406558,-105.88091,TRUE,FALSE,TRUE,"S248175766"
"163","brespa","Brewer's Sparrow","Spizella breweri","L273052","Flaming Gorge NRA--Firehole Canyon Campground","2025-06-08 09:19",1,41.3502681,-109.4452858,TRUE,FALSE,FALSE,"S248222697"
"164","brespa","Brewer's Sparrow","Spizella breweri","L46976084","Mud Flat Rd, Jordan Valley US-ID 42.59896, -116.55695","2025-06-08 09:14",8,42.59896,-116.556949,TRUE,FALSE,TRUE,"S248331707"
"165","brespa","Brewer's Sparrow","Spizella breweri","L27754987","Silver Lining Trail West","2025-06-08 09:13",10,43.511779,-114.28352,TRUE,FALSE,TRUE,"S248368016"
"166","brespa","Brewer's Sparrow","Spizella breweri","L2926838","Steens Mountain Loop--Page Springs to East Rim","2025-06-08 09:10",9,42.8095068,-118.8475227,TRUE,FALSE,FALSE,"S248237506"
"167","brespa","Brewer's Sparrow","Spizella breweri","L503433","Old Laramie River Road","2025-06-08 09:05",8,41.4808335,-105.7518629,TRUE,FALSE,FALSE,"S248365688"
"168","brespa","Brewer's Sparrow","Spizella breweri","L47184564","6 Rail Bed Road, Bridger, Montana, US (45.065, -108.656)","2025-06-08 09:03",1,45.0651513,-108.656222,TRUE,FALSE,TRUE,"S248367522"
"169","brespa","Brewer's Sparrow","Spizella breweri","L47190895","Kemp-Breeze State Wildlife Area-Kemp Unit","2025-06-08 09:03",1,40.046009,-106.174694,TRUE,FALSE,TRUE,"S248396380"
"170","brespa","Brewer's Sparrow","Spizella breweri","L338300","Sierra Valley--Marble Hot Springs Rd.","2025-06-08 09:02",10,39.7627625,-120.3465128,TRUE,FALSE,FALSE,"S248250253"
"171","brespa","Brewer's Sparrow","Spizella breweri","L47157035","97903, Brogan US-OR 44.27728, -117.65652","2025-06-08 09:02",3,44.27728,-117.656518,TRUE,FALSE,TRUE,"S248247287"
"172","brespa","Brewer's Sparrow","Spizella breweri","L46899496","Douglas Pass Area","2025-06-08 09:01",5,39.6531589,-108.7882425,TRUE,FALSE,TRUE,"S248164899"
"173","brespa","Brewer's Sparrow","Spizella breweri","L45758957","Heeney 2 BBS route 17478 Stop 46","2025-06-08 08:57",3,39.944549,-106.178653,TRUE,FALSE,TRUE,"S248287239"
"174","brespa","Brewer's Sparrow","Spizella breweri","L31157017","Oma and Pop","2025-06-08 08:55",3,39.0153985,-119.7090231,TRUE,FALSE,TRUE,"S248234346"
"175","brespa","Brewer's Sparrow","Spizella breweri","L9034845","Rocky Mountain Arsenal NWR--Wildlife Drive","2025-06-08 08:53",2,39.8537552,-104.8238524,TRUE,FALSE,FALSE,"S248216773"
"176","brespa","Brewer's Sparrow","Spizella breweri","L47175526","Granite Rd, Jackson US-WY 43.31741, -110.45275","2025-06-08 08:48",1,43.317414,-110.452755,TRUE,FALSE,TRUE,"S248324382"
"177","brespa","Brewer's Sparrow","Spizella breweri","L47083990","4560–4598 S 16 1/2 Rd, Glade Park US-CO 38.95348, -108.73644","2025-06-08 08:48",1,38.953483,-108.736435,TRUE,FALSE,TRUE,"S248392706"
"178","brespa","Brewer's Sparrow","Spizella breweri","L47177142","Mud Flat Rd, Murphy US-ID 42.66736, -116.43973","2025-06-08 08:48",6,42.66736,-116.439734,TRUE,FALSE,TRUE,"S248331582"
"179","brespa","Brewer's Sparrow","Spizella breweri","L3336283","Casto Reservoir Area","2025-06-08 08:45",2,38.727472,-108.6761355,TRUE,FALSE,FALSE,"S248407962"
"180","brespa","Brewer's Sparrow","Spizella breweri","L1543769","River Fork Ranch","2025-06-08 08:37",6,38.9972034,-119.8248929,TRUE,FALSE,FALSE,"S248268675"
"181","brespa","Brewer's Sparrow","Spizella breweri","L47149273","6069–6073 John Day Hwy, Ironside US-OR 44.30909, -117.88223","2025-06-08 08:37",1,44.30909,-117.882232,TRUE,FALSE,TRUE,"S248217254"
"182","brespa","Brewer's Sparrow","Spizella breweri","L46148315","Slaughterhouse Gulch","2025-06-08 08:31",3,43.4725981,-114.2479631,TRUE,FALSE,TRUE,"S248242559"
"183","brespa","Brewer's Sparrow","Spizella breweri","L47169600","Dry Valley Highway, Riley US-OR 43.18735, -119.89277","2025-06-08 08:27",4,43.187352,-119.892771,TRUE,FALSE,TRUE,"S248297996"
"184","brespa","Brewer's Sparrow","Spizella breweri","L46947603","Mud Flat Rd, Murphy US-ID 42.68252, -116.42765","2025-06-08 08:26",3,42.682519,-116.427655,TRUE,FALSE,TRUE,"S248331405"
"185","brespa","Brewer's Sparrow","Spizella breweri","L1569901","Logan Canyon--Willow Creek Trail","2025-06-08 08:22",2,41.7778123,-111.585976,TRUE,FALSE,FALSE,"S248277544"
"186","brespa","Brewer's Sparrow","Spizella breweri","L47129310","81523, Glade Park US-CO (39.1785,-109.0149)","2025-06-08 08:20",2,39.178522,-109.014933,TRUE,FALSE,TRUE,"S248136387"
"187","brespa","Brewer's Sparrow","Spizella breweri","L594990","Sussex","2025-06-08 08:16",2,43.6978517,-106.2961578,TRUE,FALSE,FALSE,"S248132715"
"188","brespa","Brewer's Sparrow","Spizella breweri","L15292709","Divide Road, Colorado, US (38.667, -108.698)","2025-06-08 08:15",1,38.6667182,-108.6978588,TRUE,FALSE,TRUE,"S248544138"
"189","brespa","Brewer's Sparrow","Spizella breweri","L47192459","Uncompahgre Divide Rd @ boundary, Whitewater US-CO 38.77328, -108.61285","2025-06-08 08:03",1,38.773283,-108.612849,TRUE,FALSE,TRUE,"S248403646"
"190","brespa","Brewer's Sparrow","Spizella breweri","L1217975","Hawkins Preserve","2025-06-08 08:01",1,37.3344054,-108.5947037,TRUE,FALSE,FALSE,"S248141346"
"191","brespa","Brewer's Sparrow","Spizella breweri","L159619","Malheur NWR--Headquarters","2025-06-08 07:58",1,43.2658741,-118.8448941,TRUE,FALSE,FALSE,"S248198626"
"192","brespa","Brewer's Sparrow","Spizella breweri","L47166343","1391 S Thorp Hwy, Ellensburg US-WA 47.00803, -120.60829","2025-06-08 07:57",4,47.008029,-120.608291,TRUE,FALSE,TRUE,"S248284572"
"193","brespa","Brewer's Sparrow","Spizella breweri","L26136352","West Avon Preserve (limited access Dec 15-Apr 15)","2025-06-08 07:54",6,39.6510713,-106.5452102,TRUE,FALSE,FALSE,"S248107623"
"194","brespa","Brewer's Sparrow","Spizella breweri","L1569886","Sun Mountain Lodge parking area and trails","2025-06-08 07:51",3,48.478042,-120.2568462,TRUE,FALSE,FALSE,"S248170972"
"195","brespa","Brewer's Sparrow","Spizella breweri","L653300","Crowley Lake--north side","2025-06-08 07:45",6,37.6471312,-118.7381744,TRUE,FALSE,FALSE,"S248504825"
"196","brespa","Brewer's Sparrow","Spizella breweri","L47133915","East 1212 to stone barn","2025-06-08 07:43",12,44.502403,-108.73529,TRUE,FALSE,TRUE,"S248156087"
"197","brespa","Brewer's Sparrow","Spizella breweri","L40801448","Moses Coulee--Olson Rd.","2025-06-08 07:40",3,47.5257067,-119.7425008,TRUE,FALSE,FALSE,"S248640758"
"198","brespa","Brewer's Sparrow","Spizella breweri","L47186879","Marsh Island Ranch (Private)","2025-06-08 07:40",1,41.9974229,-121.8371042,TRUE,FALSE,TRUE,"S248383986"
"199","brespa","Brewer's Sparrow","Spizella breweri","L720724","Crowley Lek","2025-06-08 07:24",1,37.625177,-118.7858105,TRUE,FALSE,FALSE,"S248158703"
"200","brespa","Brewer's Sparrow","Spizella breweri","L285637","Calliope Crossing","2025-06-08 07:23",2,44.3507699,-121.5526056,TRUE,FALSE,FALSE,"S248205634"
"201","brespa","Brewer's Sparrow","Spizella breweri","L47127353","Emigrant Trail Road, Alcova US-WY 42.54549, -107.03178","2025-06-08 07:20",5,42.545489,-107.031778,TRUE,FALSE,TRUE,"S248127295"
"202","brespa","Brewer's Sparrow","Spizella breweri","L342880","Grouse Mtn.--Buttermilks","2025-06-08 07:15",10,37.3036194,-118.6025556,TRUE,FALSE,FALSE,"S248313242"
"203","brespa","Brewer's Sparrow","Spizella breweri","L47190162","20618–20852 Little Park Rd, Glade Park US-CO 38.98608, -108.66348","2025-06-08 07:14",2,38.986081,-108.663481,TRUE,FALSE,TRUE,"S248392818"
"204","brespa","Brewer's Sparrow","Spizella breweri","L37459514","Frenchglen Highway, Burns, Oregon, US (43.357, -118.98)","2025-06-08 07:08",2,43.3568611,-118.9795592,TRUE,FALSE,TRUE,"S248263157"
"205","brespa","Brewer's Sparrow","Spizella breweri","L463650","Coleman Canyon Road (Kittitas County)","2025-06-08 07:07",1,47.1286661,-120.3947067,TRUE,FALSE,FALSE,"S248293462"
"206","brespa","Brewer's Sparrow","Spizella breweri","L46821116","Two Ponds","2025-06-08 07:05",3,40.281309,-120.099268,TRUE,FALSE,TRUE,"S248279044"
"207","brespa","Brewer's Sparrow","Spizella breweri","L22871600","S Rd--Feedlot and Pigasus Area","2025-06-08 06:45",1,39.2821049,-108.9522149,TRUE,FALSE,FALSE,"S248381729"
"208","brespa","Brewer's Sparrow","Spizella breweri","L258157","Sun Lakes SP","2025-06-08 06:37",1,47.58902,-119.39275,TRUE,FALSE,FALSE,"S248283141"
"209","brespa","Brewer's Sparrow","Spizella breweri","L32544015","35623–35627 OR-205, Frenchglen US-OR 42.82664, -118.94130","2025-06-08 06:30",1,42.82664,-118.941297,TRUE,FALSE,TRUE,"S248233762"
"210","brespa","Brewer's Sparrow","Spizella breweri","L11669971","Jackson National Fish Hatchery","2025-06-08 06:16",3,43.535246,-110.733841,TRUE,FALSE,FALSE,"S248085362"
"211","brespa","Brewer's Sparrow","Spizella breweri","L45756964","Heeney 2 BBS route 17478 Stop 12","2025-06-08 06:06",1,39.798262,-106.135,TRUE,FALSE,TRUE,"S248281239"
"212","brespa","Brewer's Sparrow","Spizella breweri","L45756922","Heeney 2 BBS route 17478 Stop 11","2025-06-08 06:01",2,39.792108,-106.139938,TRUE,FALSE,TRUE,"S248281153"
"213","brespa","Brewer's Sparrow","Spizella breweri","L47149509","WY-SWE BLM (41.0330, -108.0675)","2025-06-08 06:00",35,41.033023,-108.067519,TRUE,FALSE,TRUE,"S248218123"
"214","brespa","Brewer's Sparrow","Spizella breweri","L46986079","PMs. 83422, Driggs US-ID 43.77315, -111.08999","2025-06-08 05:58",4,43.773148,-111.089987,TRUE,FALSE,TRUE,"S248121567"
"215","brespa","Brewer's Sparrow","Spizella breweri","L47144829","Marble Hot Springs, Beckwourth US-CA 39.75556, -120.35718","2025-06-08 05:57",2,39.755556,-120.357178,TRUE,FALSE,TRUE,"S248199567"
"216","brespa","Brewer's Sparrow","Spizella breweri","L208918","Sweetwater Wetlands","2025-06-08 05:45",1,32.2790144,-111.0216061,TRUE,TRUE,FALSE,"S248227592"
"217","brespa","Brewer's Sparrow","Spizella breweri","L25458343","Kamas BBS","2025-06-08 05:24",5,40.6463166,-111.3136858,TRUE,FALSE,TRUE,"S248367243"
"218","brespa","Brewer's Sparrow","Spizella breweri","L47146642","Red Rim-Daley WHMA","2025-06-08 05:15",15,41.741219,-107.501598,TRUE,FALSE,TRUE,"S248206896"
"219","brespa","Brewer's Sparrow","Spizella breweri","L3801183","Sand Wash Basin","2025-06-08 05:15",12,40.6882531,-108.3990955,TRUE,FALSE,FALSE,"S248139764"
"220","brespa","Brewer's Sparrow","Spizella breweri","L483934","Bobcat Ridge Natural Area","2025-06-08 05:13",1,40.4793042,-105.2262032,TRUE,FALSE,FALSE,"S248601827"
"221","brespa","Brewer's Sparrow","Spizella breweri","L11816107","Ririe Reservoir--General","2025-06-08 04:39",1,43.5599073,-111.7355896,TRUE,FALSE,FALSE,"S248547973"
"222","brespa","Brewer's Sparrow","Spizella breweri","L26811094","116–120 Warm Lake Hwy, Cascade US-ID 44.52790, -116.01851","2025-06-07 21:51",3,44.527897,-116.018512,TRUE,FALSE,TRUE,"S247942195"
"223","brespa","Brewer's Sparrow","Spizella breweri","L47085905","CR-75, Green River US-WY (41.3095,-109.3806)","2025-06-07 21:28",1,41.309506,-109.380633,TRUE,FALSE,TRUE,"S247939883"
"224","brespa","Brewer's Sparrow","Spizella breweri","L47090293","Buckbrush Road, Westfall, Oregon, US (44.029, -117.718)","2025-06-07 21:06",1,44.0287813,-117.71833,TRUE,FALSE,TRUE,"S247954402"
"225","brespa","Brewer's Sparrow","Spizella breweri","L47090296","Harper-Westfall Road, Westfall, Oregon, US (43.932, -117.669)","2025-06-07 20:29",2,43.931652,-117.6688609,TRUE,FALSE,TRUE,"S247954423"
"226","brespa","Brewer's Sparrow","Spizella breweri","L20016646","Meiss Lake Sams Neck Rd.","2025-06-07 20:00",2,41.8954448,-121.9895957,TRUE,FALSE,FALSE,"S247935424"
"227","brespa","Brewer's Sparrow","Spizella breweri","L46971514","Grantsville WTP - No Public Access","2025-06-07 19:56",3,40.6156696,-112.4440484,TRUE,FALSE,TRUE,"S248311226"
"228","brespa","Brewer's Sparrow","Spizella breweri","L46776759","Five Corners","2025-06-07 19:42",2,42.1863715,-120.4343957,TRUE,FALSE,TRUE,"S247941019"
"229","brespa","Brewer's Sparrow","Spizella breweri","L46524364","Simonson Casita","2025-06-07 19:40",1,40.537485,-111.400676,TRUE,FALSE,TRUE,"S247933989"
"230","brespa","Brewer's Sparrow","Spizella breweri","L24913529","Ruh-Red Rd. (sagebrush habitat only)","2025-06-07 19:24",2,43.381245,-118.9416723,TRUE,FALSE,FALSE,"S247932845"
"231","brespa","Brewer's Sparrow","Spizella breweri","L7664061","Saguache CR GYY","2025-06-07 19:24",2,38.4203768,-106.8874454,TRUE,FALSE,FALSE,"S248356065"
"232","brespa","Brewer's Sparrow","Spizella breweri","L19329507","Teton Science School--Jackson Campus","2025-06-07 18:48",3,43.490344,-110.811574,TRUE,FALSE,FALSE,"S247910420"
"233","brespa","Brewer's Sparrow","Spizella breweri","L47082411","Frenchglen Highway Sagebrush Flat","2025-06-07 18:21",3,43.2389884,-118.9529002,TRUE,FALSE,TRUE,"S247919136"
"234","brespa","Brewer's Sparrow","Spizella breweri","L47180724","Loop Rd, Moore US-ID 43.46096, -113.55776","2025-06-07 18:13",3,43.460959,-113.557765,TRUE,FALSE,TRUE,"S248349444"
"235","brespa","Brewer's Sparrow","Spizella breweri","L447375","Fort Rock SP","2025-06-07 18:02",1,43.3731122,-121.0696793,TRUE,FALSE,FALSE,"S247924000"
"236","brespa","Brewer's Sparrow","Spizella breweri","L9053813","Burmester Road, Grantsville, Utah, US (40.681, -112.442)","2025-06-07 17:55",1,40.6811299,-112.442065,TRUE,FALSE,TRUE,"S247898253"
"237","brespa","Brewer's Sparrow","Spizella breweri","L47083357","Sawtooth National Forest, Twin Falls US-ID 42.13786, -114.34832","2025-06-07 17:54",1,42.137856,-114.348324,TRUE,FALSE,TRUE,"S247923438"
"238","brespa","Brewer's Sparrow","Spizella breweri","L47087210","Road 20 N.E.","2025-06-07 17:50",1,47.911481,-119.379573,TRUE,FALSE,TRUE,"S247940220"
"239","brespa","Brewer's Sparrow","Spizella breweri","L47146755","Magic Springs Road","2025-06-07 17:47",6,42.214279,-114.496551,TRUE,FALSE,TRUE,"S248207306"
"240","brespa","Brewer's Sparrow","Spizella breweri","L47146549","1600 North Rd, Shoshone Basin Road","2025-06-07 17:09",4,42.230128,-114.582188,TRUE,FALSE,TRUE,"S248206495"
"241","brespa","Brewer's Sparrow","Spizella breweri","L47078678","74914–75084 Bear Flat Rd, Silver Lake US-OR 43.10741, -121.27472","2025-06-07 17:02",5,43.107405,-121.27472,TRUE,FALSE,TRUE,"S247901440"
"242","brespa","Brewer's Sparrow","Spizella breweri","L15185989","74052–74870 Bear Flat Rd, Silver Lake US-OR 43.10771, -121.30443","2025-06-07 16:53",3,43.107712,-121.304426,TRUE,FALSE,TRUE,"S247901224"
"243","brespa","Brewer's Sparrow","Spizella breweri","L3812976","Larimer CR 5 from CR 82 to 92 (bird from road)","2025-06-07 16:43",2,40.885908,-104.9812424,TRUE,FALSE,FALSE,"S247889270"
"244","brespa","Brewer's Sparrow","Spizella breweri","L157943","Little Camas Reservoir","2025-06-07 16:39",1,43.34624,-115.387566,TRUE,FALSE,FALSE,"S248222414"
"245","brespa","Brewer's Sparrow","Spizella breweri","L2738756","Sutton Mountain Wilderness Area--Black Canyon","2025-06-07 16:05",3,44.70336,-120.178162,TRUE,FALSE,FALSE,"S248298171"
"246","brespa","Brewer's Sparrow","Spizella breweri","L47069377","Nebo Loop Rd, Fairview US-UT (39.9434,-111.6574)","2025-06-07 15:58",1,39.943361,-111.657426,TRUE,FALSE,TRUE,"S247855984"
"247","brespa","Brewer's Sparrow","Spizella breweri","L47081722","14252–14268 N Cotton Thomas Rd, Park Valley US-UT 41.84220, -113.79760","2025-06-07 15:43",4,41.842198,-113.797605,TRUE,FALSE,TRUE,"S247916202"
"248","brespa","Brewer's Sparrow","Spizella breweri","L3662688","Henry Road, north","2025-06-07 15:36",5,42.6191178,-104.04984,TRUE,FALSE,FALSE,"S247872514"
"249","brespa","Brewer's Sparrow","Spizella breweri","L7398757","Poison Creek Reservoir","2025-06-07 15:24",1,44.0136974,-118.9142078,TRUE,FALSE,FALSE,"S247902309"
"250","brespa","Brewer's Sparrow","Spizella breweri","L24844822","Klamath Marsh National Wildlife Refuge, Chiloquin US-OR 42.93831, -121.57646","2025-06-07 15:06",1,42.938313,-121.576458,TRUE,FALSE,TRUE,"S247869470"
"251","brespa","Brewer's Sparrow","Spizella breweri","L15279916","Big Indian Gorge Trail","2025-06-07 15:03",3,42.65636,-118.722431,TRUE,FALSE,TRUE,"S248370752"
"252","brespa","Brewer's Sparrow","Spizella breweri","L47066302","Divide Road, Colorado, US (38.785, -108.603)","2025-06-07 15:00",1,38.7850143,-108.6030616,TRUE,FALSE,TRUE,"S247843565"
"253","brespa","Brewer's Sparrow","Spizella breweri","L47069985","Oregon 205, Oregon, US (42.828, -118.941)","2025-06-07 14:42",1,42.8280584,-118.9406135,TRUE,FALSE,TRUE,"S247858116"
"254","brespa","Brewer's Sparrow","Spizella breweri","L339970","Antelope Valley (SIE Co.)","2025-06-07 14:29",1,39.635475,-120.2980111,TRUE,FALSE,FALSE,"S247884264"
"255","brespa","Brewer's Sparrow","Spizella breweri","L47084030","21160 Little Park Rd, Glade Park US-CO 38.98735, -108.65488","2025-06-07 13:57",1,38.98735,-108.65488,TRUE,FALSE,TRUE,"S247926307"
"256","brespa","Brewer's Sparrow","Spizella breweri","L4610990","Long Tom Reservoir","2025-06-07 13:51",1,43.28764,-115.5789614,TRUE,FALSE,FALSE,"S248222176"
"257","brespa","Brewer's Sparrow","Spizella breweri","L47085754","CR-9, Rock Springs US-WY 41.37806, -109.33457","2025-06-07 13:39",5,41.378056,-109.33457,TRUE,FALSE,TRUE,"S247933738"
"258","brespa","Brewer's Sparrow","Spizella breweri","L7553991","Filippini Rd.","2025-06-07 13:27",3,39.6925592,-120.3292394,TRUE,FALSE,FALSE,"S247827889"
"259","brespa","Brewer's Sparrow","Spizella breweri","L2961788","Williams Fork Reservoir","2025-06-07 13:20",1,40.0165063,-106.2103271,TRUE,FALSE,FALSE,"S247939290"
"260","brespa","Brewer's Sparrow","Spizella breweri","L47252194","Basin and Range NM, Cold Spring 1","2025-06-07 13:08",1,37.714288,-115.410218,TRUE,FALSE,FALSE,"S248672596"
"261","brespa","Brewer's Sparrow","Spizella breweri","L46869273","Lotus Drive, Fish Haven","2025-06-07 13:07",1,42.0624632,-111.3969286,TRUE,FALSE,TRUE,"S247799864"
"262","brespa","Brewer's Sparrow","Spizella breweri","L47083173","36–98 East Rd, Bickleton US-WA 45.98598, -120.28921","2025-06-07 13:05",1,45.985985,-120.289209,TRUE,FALSE,TRUE,"S247922502"
"263","brespa","Brewer's Sparrow","Spizella breweri","L510112","Gunnison CR 38","2025-06-07 12:58",1,38.4522194,-106.9300004,TRUE,FALSE,FALSE,"S247808600"
"264","brespa","Brewer's Sparrow","Spizella breweri","L25722099","CTNF access Packsaddle","2025-06-07 12:33",6,43.77123,-111.290906,TRUE,FALSE,TRUE,"S247887620"
"265","brespa","Brewer's Sparrow","Spizella breweri","L884270","Great Sand Dunes NP--Pinyon Flats Campground","2025-06-07 12:25",1,37.74517,-105.50334,TRUE,FALSE,FALSE,"S248151850"
"266","brespa","Brewer's Sparrow","Spizella breweri","L1665567","Cabin Lake","2025-06-07 12:15",2,43.4907878,-121.0597096,TRUE,FALSE,FALSE,"S247830134"
"267","brespa","Brewer's Sparrow","Spizella breweri","L497626","Mono Lake--South Tufa area ","2025-06-07 12:14",3,37.9418284,-119.0278316,TRUE,FALSE,FALSE,"S247826029"
"268","brespa","Brewer's Sparrow","Spizella breweri","L695504","Fee Reservoir","2025-06-07 11:56",2,41.8352931,-120.0263214,TRUE,FALSE,FALSE,"S247871396"
"269","brespa","Brewer's Sparrow","Spizella breweri","L47058908","Old Hwy 89, Truckee US-CA 39.39747, -120.18281","2025-06-07 11:50",46,39.397472,-120.182813,TRUE,FALSE,TRUE,"S247814953"
"270","brespa","Brewer's Sparrow","Spizella breweri","L3891988","Douglas Mountain","2025-06-07 11:45",4,40.6006595,-108.7721586,TRUE,FALSE,FALSE,"S248370484"
"271","brespa","Brewer's Sparrow","Spizella breweri","L47072545","Piney Creek, Newcastle US-WY","2025-06-07 11:32",2,43.638263,-104.993267,TRUE,FALSE,TRUE,"S247869484"
"272","brespa","Brewer's Sparrow","Spizella breweri","L751035","Hwy. 205 (Catlow Valley Rd.)--Roaring Springs Ranch pulloff","2025-06-07 11:31",1,42.6567921,-118.9861518,TRUE,FALSE,FALSE,"S248370828"
"273","brespa","Brewer's Sparrow","Spizella breweri","L298474","Elkhead Creek Reservoir (Moffat Co.)","2025-06-07 11:30",5,40.56221,-107.3816,TRUE,FALSE,FALSE,"S247820888"
"274","brespa","Brewer's Sparrow","Spizella breweri","L47055665","Cabin Lake Road, Fort Rock, Oregon, US (43.381, -121.054)","2025-06-07 11:17",1,43.3811069,-121.0538041,TRUE,FALSE,TRUE,"S247802631"
"275","brespa","Brewer's Sparrow","Spizella breweri","L33613436","King Mountain Lookout","2025-06-07 11:12",4,43.8104713,-118.8689455,TRUE,FALSE,TRUE,"S247856393"
"276","brespa","Brewer's Sparrow","Spizella breweri","L47042226","CR-1, Rangely US-CO 40.11759, -108.85973","2025-06-07 11:02",1,40.117593,-108.859734,TRUE,FALSE,TRUE,"S247750851"
"277","brespa","Brewer's Sparrow","Spizella breweri","L109364","Long Valley","2025-06-07 10:55",1,37.6717,-118.7917,TRUE,FALSE,FALSE,"S247783777"
"278","brespa","Brewer's Sparrow","Spizella breweri","L47042241","W Fork Cherokee Creek, Craig US-CO 40.94806, -108.09708","2025-06-07 10:55",1,40.948061,-108.097079,TRUE,FALSE,TRUE,"S247750942"
"279","brespa","Brewer's Sparrow","Spizella breweri","L32846642","70405–70453 Kinikin Rd, Montrose US-CO 38.41101, -107.77247","2025-06-07 10:36",2,38.41101,-107.772473,TRUE,FALSE,TRUE,"S247799861"
"280","brespa","Brewer's Sparrow","Spizella breweri","L47039795","W Fork Cherokee Creek, Craig US-CO 41.00095, -108.04353","2025-06-07 10:33",2,41.000952,-108.043532,TRUE,FALSE,TRUE,"S247741430"
"281","brespa","Brewer's Sparrow","Spizella breweri","L3771551","National Museum of Wildlife Art area","2025-06-07 10:25",1,43.521015,-110.747948,TRUE,FALSE,FALSE,"S247825803"
"282","brespa","Brewer's Sparrow","Spizella breweri","L47185377","CR-202, Princeton US-OR 42.35640, -118.85341","2025-06-07 10:22",2,42.356404,-118.853411,TRUE,FALSE,TRUE,"S248371207"
"283","brespa","Brewer's Sparrow","Spizella breweri","L47185402","13608–13622 CR-202, Princeton US-OR 42.33311, -118.78083","2025-06-07 10:12",8,42.333108,-118.780832,TRUE,FALSE,TRUE,"S248371286"
"284","brespa","Brewer's Sparrow","Spizella breweri","L47040864","Dairy Fork, Fairview US-UT 39.97330, -111.33833","2025-06-07 10:06",2,39.973298,-111.33833,TRUE,FALSE,TRUE,"S247745838"
"285","brespa","Brewer's Sparrow","Spizella breweri","L47050076","Panum Crater Rim Trail, Lee Vining US-CA 37.92569, -119.04894","2025-06-07 09:53",1,37.925686,-119.048944,TRUE,FALSE,TRUE,"S247780997"
"286","brespa","Brewer's Sparrow","Spizella breweri","L580464","Kenney Reservoir","2025-06-07 09:50",2,40.1223219,-108.7090302,TRUE,FALSE,FALSE,"S247742496"
"287","brespa","Brewer's Sparrow","Spizella breweri","L47046722","Frenchglen Highway, Burns, Oregon, US (43.263, -118.96)","2025-06-07 09:49",1,43.2629565,-118.9601048,TRUE,FALSE,TRUE,"S247768040"
"288","brespa","Brewer's Sparrow","Spizella breweri","L47078763","Forest Service Road 16, Prairie City US-OR 44.17977, -118.60182","2025-06-07 09:48",2,44.179767,-118.601823,TRUE,FALSE,TRUE,"S247901857"
"289","brespa","Brewer's Sparrow","Spizella breweri","L3728498","Divide Road--Dominguez Forest Road 408 area","2025-06-07 09:46",4,38.6220341,-108.6667156,TRUE,FALSE,FALSE,"S247841247"
"290","brespa","Brewer's Sparrow","Spizella breweri","L753048","Malheur NWR--Central Patrol Rd.","2025-06-07 09:41",1,43.2024856,-118.8875628,TRUE,FALSE,FALSE,"S247801514"
"291","brespa","Brewer's Sparrow","Spizella breweri","L47072507","H2-O Waterfowl PA Browns Lk Rd","2025-06-07 09:39",2,46.9477033,-113.0274302,TRUE,FALSE,TRUE,"S247870672"
"292","brespa","Brewer's Sparrow","Spizella breweri","L47063153","701 2 Medicine Road, Montana, US (48.485, -113.356)","2025-06-07 09:39",NA,48.4853114,-113.3561923,TRUE,FALSE,TRUE,"S247831038"
"293","brespa","Brewer's Sparrow","Spizella breweri","L4318610","Bowdoin NWR--second 5 mi. Auto Tour Route","2025-06-07 09:28",1,48.4081921,-107.6499653,TRUE,FALSE,FALSE,"S247742696"
"294","brespa","Brewer's Sparrow","Spizella breweri","L167924","Rocky Mountain Arsenal NWR","2025-06-07 09:19",1,39.8209707,-104.8680639,TRUE,FALSE,FALSE,"S247730564"
"295","brespa","Brewer's Sparrow","Spizella breweri","L34677090","Neighborhood Near Northwest 93rd Street, Terrebonne, Oregon, US (44.347, -121.284)","2025-06-07 09:12",4,44.3472632,-121.2836109,TRUE,FALSE,TRUE,"S247751049"
"296","brespa","Brewer's Sparrow","Spizella breweri","L917602","Steel Canyon","2025-06-07 09:06",2,41.9898637,-112.1166369,TRUE,FALSE,FALSE,"S247835480"
"297","brespa","Brewer's Sparrow","Spizella breweri","L1195594","Bear Canyon","2025-06-07 09:05",2,45.0826119,-108.5253525,TRUE,FALSE,FALSE,"S248315159"
"298","brespa","Brewer's Sparrow","Spizella breweri","L15719487","Toyn Creek, below Harrison Pass, Ruby Mountains","2025-06-07 08:56",4,40.3336053,-115.513606,TRUE,FALSE,TRUE,"S247863061"
"299","brespa","Brewer's Sparrow","Spizella breweri","L2442153","Rocky Mountain Arsenal NWR--Bluestem Loop Trail","2025-06-07 08:53",1,39.8114371,-104.8207712,TRUE,FALSE,FALSE,"S247751920"
"300","brespa","Brewer's Sparrow","Spizella breweri","L47046993","Cedar Birch Spring, Oakley, Idaho, US (42.195, -114.002)","2025-06-07 08:51",4,42.1947466,-114.0015212,TRUE,FALSE,TRUE,"S247769133"
"301","brespa","Brewer's Sparrow","Spizella breweri","L47033529","Picnic Grounds Road, Lee Vining, California, US (37.973, -119.132)","2025-06-07 08:47",4,37.9729748,-119.1323421,TRUE,FALSE,TRUE,"S247716511"
"302","brespa","Brewer's Sparrow","Spizella breweri","L269282","Rabbit and Owl Springs","2025-06-07 08:44",1,41.4003602,-113.8623409,TRUE,FALSE,FALSE,"S247915992"
"303","brespa","Brewer's Sparrow","Spizella breweri","L705105","Shevlin Park","2025-06-07 08:43",1,44.0703821,-121.3840771,TRUE,FALSE,FALSE,"S247795944"
"304","brespa","Brewer's Sparrow","Spizella breweri","L47073057","Grand Mesa Uncompahgre and Gunnison National Forests, Whitewater US-CO 39.00530, -108.20563","2025-06-07 08:39",2,39.005303,-108.205631,TRUE,FALSE,TRUE,"S247871550"
"305","brespa","Brewer's Sparrow","Spizella breweri","L267480","Rio Blanco SWA--Rio Blanco Lake","2025-06-07 08:38",1,40.0881027,-108.2080536,TRUE,FALSE,FALSE,"S247699395"
"306","brespa","Brewer's Sparrow","Spizella breweri","L47092058","Round Valley Reservoir","2025-06-07 08:34",1,42.1391182,-121.0722,TRUE,FALSE,TRUE,"S247962779"
"307","brespa","Brewer's Sparrow","Spizella breweri","L47070920","Dirt rd off highway 20","2025-06-07 08:30",6,43.64286,-120.19542,TRUE,FALSE,TRUE,"S247862914"
"308","brespa","Brewer's Sparrow","Spizella breweri","L188841","Grand Mesa--Lands End Observatory (not intended for Lands End Road)","2025-06-07 08:00",2,39.025166,-108.22416,TRUE,FALSE,FALSE,"S247936376"
"309","brespa","Brewer's Sparrow","Spizella breweri","L505947","80116 - WLD","2025-06-07 08:00",1,39.3715304,-104.7806454,TRUE,FALSE,TRUE,"S247928151"
"310","brespa","Brewer's Sparrow","Spizella breweri","L47084355","Sand Ridge Rd, S of Bluelight","2025-06-07 07:55",7,46.0050541,-120.1422199,TRUE,FALSE,TRUE,"S247930245"
"311","brespa","Brewer's Sparrow","Spizella breweri","L47002461","Grand Mesa Uncompahgre and Gunnison National Forests, Whitewater US-CO 39.00508, -108.20573","2025-06-07 07:54",1,39.005081,-108.205727,TRUE,FALSE,TRUE,"S247871242"
"312","brespa","Brewer's Sparrow","Spizella breweri","L47019646","81144, Monte Vista US-CO 37.48416, -106.20986","2025-06-07 07:50",1,37.484164,-106.209864,TRUE,FALSE,TRUE,"S247658367"
"313","brespa","Brewer's Sparrow","Spizella breweri","L1386538","Lake Mountains--Soldiers Pass Rd.","2025-06-07 07:49",3,40.1978113,-111.9699798,TRUE,FALSE,FALSE,"S247783875"
"314","brespa","Brewer's Sparrow","Spizella breweri","L32676225","County Road 5-11A, Fort Rock, Oregon, US (43.371, -121.055)","2025-06-07 07:43",2,43.3706034,-121.0546942,TRUE,FALSE,TRUE,"S247721975"
"315","brespa","Brewer's Sparrow","Spizella breweri","L795551","Ash Valley Rd.--vagrant trap and vicinity","2025-06-07 07:42",1,41.04845,-120.5438805,TRUE,FALSE,FALSE,"S247730756"
"316","brespa","Brewer's Sparrow","Spizella breweri","L20014294","Lake Chelan BBS—Stops 32-40","2025-06-07 07:34",1,47.818424,-120.050333,TRUE,FALSE,TRUE,"S247850117"
"317","brespa","Brewer's Sparrow","Spizella breweri","L4743775","Chevallier Dr. - Sage Flats","2025-06-07 07:21",2,46.7764085,-112.1883286,TRUE,FALSE,FALSE,"S247660677"
"318","brespa","Brewer's Sparrow","Spizella breweri","L47048000","Miners Coulee Road N of Oilmont Hwy","2025-06-07 07:16",2,48.7830231,-111.4699744,TRUE,FALSE,TRUE,"S247773248"
"319","brespa","Brewer's Sparrow","Spizella breweri","L47016380","West Avon Preserve Hiking Trail, Avon US-CO 39.65113, -106.54239","2025-06-07 07:16",6,39.651132,-106.542386,TRUE,FALSE,TRUE,"S247643328"
"320","brespa","Brewer's Sparrow","Spizella breweri","L46520624","Bethel Ridge Rd (Off Of Nile Loop)","2025-06-07 07:13",1,46.81628,-120.9435355,TRUE,FALSE,TRUE,"S247944810"
"321","brespa","Brewer's Sparrow","Spizella breweri","L2094999","Ponderosa Grove CG","2025-06-07 06:58",1,37.0885956,-112.6730006,TRUE,FALSE,FALSE,"S247710087"
"322","brespa","Brewer's Sparrow","Spizella breweri","L7477079","Prospect Creek","2025-06-07 06:48",1,43.8453426,-116.2915938,TRUE,FALSE,TRUE,"S247667220"
"323","brespa","Brewer's Sparrow","Spizella breweri","L47019781","Fields-Denio ephemeral pool","2025-06-07 06:47",2,42.1041,-118.576587,TRUE,FALSE,TRUE,"S247659032"
"324","brespa","Brewer's Sparrow","Spizella breweri","L47055507","4500 South 16 1/2 Road, Glade Park, Colorado, US (38.953, -108.736)","2025-06-07 06:46",1,38.9534728,-108.7362802,TRUE,FALSE,TRUE,"S247931713"
"325","brespa","Brewer's Sparrow","Spizella breweri","L47019305","29901–29999 US-26, Unity US-OR 44.46829, -118.21455","2025-06-07 06:42",1,44.468287,-118.214553,TRUE,FALSE,TRUE,"S247656765"
"326","brespa","Brewer's Sparrow","Spizella breweri","L47066016","West end vantage highway","2025-06-07 06:41",12,46.989487,-120.273438,TRUE,FALSE,TRUE,"S247842488"
"327","brespa","Brewer's Sparrow","Spizella breweri","L15816893","Harrison Creek, Ruby Mountains, Elko County, NV 40.31556, -115.49191","2025-06-07 06:40",3,40.315565,-115.491908,TRUE,FALSE,TRUE,"S247862510"
"328","brespa","Brewer's Sparrow","Spizella breweri","L47035169","Badlands Rock Trail","2025-06-07 06:26",3,43.954161,-121.014477,TRUE,FALSE,TRUE,"S247723834"
"329","brespa","Brewer's Sparrow","Spizella breweri","L268758","Cameo & Coal Canyon","2025-06-07 06:24",1,39.1550275,-108.3274215,TRUE,FALSE,FALSE,"S248383042"
"330","brespa","Brewer's Sparrow","Spizella breweri","L4511627","Sand Creek Rd","2025-06-07 06:16",7,44.0563201,-111.6335821,TRUE,FALSE,TRUE,"S247781339"
"331","brespa","Brewer's Sparrow","Spizella breweri","L10204965","Peavine Peak--Summit Area","2025-06-07 06:15",1,39.5827522,-119.9275613,TRUE,FALSE,FALSE,"S247668299"
"332","brespa","Brewer's Sparrow","Spizella breweri","L47010464","26107–26201 SH-13, Meeker US-CO 39.85450, -107.95590","2025-06-07 06:13",3,39.854503,-107.955904,TRUE,FALSE,TRUE,"S247612806"
"333","brespa","Brewer's Sparrow","Spizella breweri","L33094279","Humboldt-Toiyabe National Forest, Verdi US-NV 39.48567, -119.96846","2025-06-07 06:10",5,39.485669,-119.968455,TRUE,FALSE,TRUE,"S247769770"
"334","brespa","Brewer's Sparrow","Spizella breweri","L47066572","31U Road, Redvale, Colorado, US (38.042, -108.496)","2025-06-07 05:41",3,38.0416657,-108.4956427,TRUE,FALSE,TRUE,"S247844539"
"335","brespa","Brewer's Sparrow","Spizella breweri","L47036696","WY-SWE BLM (41.0318, -107.9677)","2025-06-07 05:30",21,41.031833,-107.967748,TRUE,FALSE,TRUE,"S247728876"
"336","brespa","Brewer's Sparrow","Spizella breweri","L47165734","Forest Service Road 164, Green River US-WY (41.0400,-109.5970)","2025-06-07 05:14",31,41.039976,-109.596964,TRUE,FALSE,TRUE,"S248281897"
"337","brespa","Brewer's Sparrow","Spizella breweri","L6094784","Smoke Creek Ranch Rd.","2025-06-07 04:44",4,40.4855224,-120.1871789,TRUE,FALSE,FALSE,"S247628466"
"338","brespa","Brewer's Sparrow","Spizella breweri","L46989034","Forest Service Road 164, Green River US-WY 41.03854, -109.58610","2025-06-06 21:24",1,41.038541,-109.586104,TRUE,FALSE,TRUE,"S247515826"
"339","brespa","Brewer's Sparrow","Spizella breweri","L46991354","Succor Creek Road, Jordan Valley, Oregon, US (43.229, -117.058)","2025-06-06 19:57",1,43.2285229,-117.0577599,TRUE,FALSE,TRUE,"S247525813"
"340","brespa","Brewer's Sparrow","Spizella breweri","L46986110","Forest Service Road 150, Green River US-WY 41.02877, -109.57741","2025-06-06 19:31",2,41.028774,-109.577411,TRUE,FALSE,TRUE,"S247503475"
"341","brespa","Brewer's Sparrow","Spizella breweri","L781326","State Line Park Rd. (CA side only)","2025-06-06 19:11",2,41.9927695,-120.3267073,TRUE,FALSE,FALSE,"S247740523"
"342","brespa","Brewer's Sparrow","Spizella breweri","L2236250","Lee Vining Creek Trail","2025-06-06 18:33",4,37.9578482,-119.1170668,TRUE,FALSE,FALSE,"S247513344"
"343","brespa","Brewer's Sparrow","Spizella breweri","L46987419","Roadside nf 31","2025-06-06 17:35",3,43.829324,-118.9914292,TRUE,FALSE,TRUE,"S247508913"
"344","brespa","Brewer's Sparrow","Spizella breweri","L3017252","Minnie's Gap","2025-06-06 16:58",2,41.0065566,-109.4264996,TRUE,FALSE,FALSE,"S247469092"
"345","brespa","Brewer's Sparrow","Spizella breweri","L46980446","Henry Road--Wyoming Side","2025-06-06 16:24",2,42.6372015,-104.053409,TRUE,FALSE,TRUE,"S247477938"
"346","brespa","Brewer's Sparrow","Spizella breweri","L2456697","Hwy. 205--Wright's Point","2025-06-06 16:15",2,43.4430451,-118.9985687,TRUE,FALSE,FALSE,"S247514809"
"347","brespa","Brewer's Sparrow","Spizella breweri","L450424","Riverbend Ponds Natural Area","2025-06-06 16:15",1,40.5728595,-105.0278807,TRUE,FALSE,FALSE,"S247493984"
"348","brespa","Brewer's Sparrow","Spizella breweri","L47036920","Boundary Peak Trail, Goldfield US-NV 37.86991, -118.30542","2025-06-06 16:04",4,37.86991,-118.305421,TRUE,FALSE,TRUE,"S247729751"
"349","brespa","Brewer's Sparrow","Spizella breweri","L46993609","Blue Lakes (No Public Access)","2025-06-06 15:53",3,40.6252564,-112.4402893,TRUE,FALSE,TRUE,"S247535535"
"350","brespa","Brewer's Sparrow","Spizella breweri","L158596","Scratchgravel Hills","2025-06-06 15:32",1,46.6789,-112.0847,TRUE,FALSE,FALSE,"S247461763"
"351","brespa","Brewer's Sparrow","Spizella breweri","L36448622","Wyasket Bottom, Ouray NWR","2025-06-06 14:31",1,40.13917,-109.614298,TRUE,FALSE,TRUE,"S247531619"
"352","brespa","Brewer's Sparrow","Spizella breweri","L33345000","Bennett Mountain Road-Climate Watch 11","2025-06-06 14:15",10,43.2772349,-115.3316852,TRUE,FALSE,TRUE,"S247478042"
"353","brespa","Brewer's Sparrow","Spizella breweri","L33343680","Bennett Mountain Road-Climate Watch 10","2025-06-06 13:47",1,43.2836301,-115.3293161,TRUE,FALSE,TRUE,"S247478438"
"354","brespa","Brewer's Sparrow","Spizella breweri","L33347400","Bennett Mountain Road- Climate Watch 9","2025-06-06 13:45",2,43.2844958,-115.3235188,TRUE,FALSE,TRUE,"S247478969"
"355","brespa","Brewer's Sparrow","Spizella breweri","L46976091","Divide Road, Whitewater US-CO 38.66162, -108.70416","2025-06-06 13:37",1,38.661617,-108.704156,TRUE,FALSE,TRUE,"S247456386"
"356","brespa","Brewer's Sparrow","Spizella breweri","L33327758","Bennett Mountain Road-Climate Watch 7","2025-06-06 13:36",2,43.2890067,-115.2988496,TRUE,FALSE,TRUE,"S247480025"
"357","brespa","Brewer's Sparrow","Spizella breweri","L695743","Moffat CR3 (Timberlake area)","2025-06-06 13:30",9,40.8699757,-107.6530766,TRUE,FALSE,FALSE,"S247823769"
"358","brespa","Brewer's Sparrow","Spizella breweri","L33327677","Bennett Mountain Road-Climate Watch 6","2025-06-06 13:29",1,43.2895444,-115.3084472,TRUE,FALSE,TRUE,"S247491235"
"359","brespa","Brewer's Sparrow","Spizella breweri","L4692626","Divide Road--Thimble Point Forest Road #417 Area","2025-06-06 13:29",2,38.756841,-108.620637,TRUE,FALSE,FALSE,"S247463654"
"360","brespa","Brewer's Sparrow","Spizella breweri","L33327927","Bennett Mountain Road-Climate Watch 8","2025-06-06 13:17",1,43.2887705,-115.2953057,TRUE,FALSE,TRUE,"S247490353"
"361","brespa","Brewer's Sparrow","Spizella breweri","L47134443","Four Jeffrey Campground","2025-06-06 13:15",1,37.2492142,-118.5702634,TRUE,FALSE,TRUE,"S248161820"
"362","brespa","Brewer's Sparrow","Spizella breweri","L47085758","Bennett Mountain Road - Climate Watch 5","2025-06-06 12:52",1,43.2889,-115.313701,TRUE,FALSE,TRUE,"S247488727"
"363","brespa","Brewer's Sparrow","Spizella breweri","L24889114","Gyp Springs Rd, Bridger US-MT 45.05308, -108.52312","2025-06-06 12:29",3,45.053083,-108.523117,TRUE,FALSE,TRUE,"S248395436"
"364","brespa","Brewer's Sparrow","Spizella breweri","L33315312","NORTH CAT CREEK RD- CLIMATE WATCH 4","2025-06-06 12:29",2,43.2881699,-115.3186087,TRUE,FALSE,TRUE,"S247488044"
"365","brespa","Brewer's Sparrow","Spizella breweri","L2953779","Independence Rock State Historic Site","2025-06-06 12:27",1,42.4944094,-107.1327281,TRUE,FALSE,FALSE,"S247399375"
"366","brespa","Brewer's Sparrow","Spizella breweri","L46976066","Vantage Highway, Ellensburg, Washington, US (46.976, -120.231)","2025-06-06 12:25",1,46.9760099,-120.230644,TRUE,FALSE,TRUE,"S247456263"
"367","brespa","Brewer's Sparrow","Spizella breweri","L46989945","Elk lake road","2025-06-06 12:15",3,44.616624,-111.656104,TRUE,FALSE,TRUE,"S247519658"
"368","brespa","Brewer's Sparrow","Spizella breweri","L392722","Quilomene Wildlife Area/Old Vantage Highway","2025-06-06 12:06",1,46.9685395,-120.1808167,TRUE,FALSE,FALSE,"S247456510"
"369","brespa","Brewer's Sparrow","Spizella breweri","L46975801","CR-122, Meeker US-CO 40.01252, -108.43152","2025-06-06 12:00",3,40.012521,-108.431523,TRUE,FALSE,TRUE,"S247454869"
"370","brespa","Brewer's Sparrow","Spizella breweri","L2216585","Antelope Reservoir","2025-06-06 11:51",2,42.9043251,-117.2354507,TRUE,FALSE,FALSE,"S247483185"
"371","brespa","Brewer's Sparrow","Spizella breweri","L33304280","Castle Rocks- Climate Watch 6","2025-06-06 11:42",2,43.3209224,-115.3333267,TRUE,FALSE,TRUE,"S247481006"
"372","brespa","Brewer's Sparrow","Spizella breweri","L933251","Pathfinder NWR--Steamboat Lake","2025-06-06 11:38",1,42.5456823,-107.0750713,TRUE,FALSE,FALSE,"S247365866"
"373","brespa","Brewer's Sparrow","Spizella breweri","L46975773","27681–28589 CR-122, Meeker US-CO 40.04404, -108.34784","2025-06-06 11:36",6,40.044036,-108.347838,TRUE,FALSE,TRUE,"S247454747"
"374","brespa","Brewer's Sparrow","Spizella breweri","L3729129","Divide Road--Divide Forks Campground Area","2025-06-06 11:30",1,38.682813,-108.689096,TRUE,FALSE,FALSE,"S247447241"
"375","brespa","Brewer's Sparrow","Spizella breweri","L11453370","Nevada State Department Transportation Ranch","2025-06-06 11:20",1,40.064024,-114.614858,TRUE,FALSE,FALSE,"S247378444"
"376","brespa","Brewer's Sparrow","Spizella breweri","L1414701","Laguna Madre","2025-06-06 11:19",2,36.6054787,-104.6393876,TRUE,FALSE,FALSE,"S247370398"
"377","brespa","Brewer's Sparrow","Spizella breweri","L304071","Browns Park NWR","2025-06-06 11:11",3,40.8318656,-108.9722729,TRUE,FALSE,FALSE,"S247470088"
"378","brespa","Brewer's Sparrow","Spizella breweri","L46975737","CR-20, Meeker US-CO 40.04690, -108.27466","2025-06-06 11:08",5,40.046898,-108.274664,TRUE,FALSE,TRUE,"S247454590"
"379","brespa","Brewer's Sparrow","Spizella breweri","L33303703","Castle Rock- Climate Watch-4","2025-06-06 11:00",2,43.3264379,-115.3135514,TRUE,FALSE,TRUE,"S247492304"
"380","brespa","Brewer's Sparrow","Spizella breweri","L47088870","36–98 East Rd, Bickleton US-WA 45.98603, -120.28924","2025-06-06 10:47",1,45.986031,-120.289244,TRUE,FALSE,TRUE,"S247947601"
"381","brespa","Brewer's Sparrow","Spizella breweri","L25404054","GTNP bike path Moose to Jenny Lake","2025-06-06 10:37",2,43.751774,-110.722326,TRUE,FALSE,TRUE,"S248238228"
"382","brespa","Brewer's Sparrow","Spizella breweri","L5980295","Browns Park NWR--Swinging Bridge CG","2025-06-06 10:34",2,40.827934,-109.030502,TRUE,FALSE,FALSE,"S247469161"
"383","brespa","Brewer's Sparrow","Spizella breweri","L46948699","Mud Flat Rd, Grand View US-ID 42.67794, -116.43611","2025-06-06 10:20",2,42.677939,-116.436113,TRUE,FALSE,TRUE,"S247456410"
"384","brespa","Brewer's Sparrow","Spizella breweri","L1219737","Sierra Valley--Marble Hot Springs Rd. bridge","2025-06-06 10:15",2,39.7555406,-120.3542966,TRUE,FALSE,FALSE,"S247919749"
"385","brespa","Brewer's Sparrow","Spizella breweri","L33303499","Castle Rocks - Climate Watch 3","2025-06-06 10:11",1,43.3293446,-115.2927874,TRUE,FALSE,TRUE,"S247492516"
"386","brespa","Brewer's Sparrow","Spizella breweri","L46993334","US95 Mp10 S to Jordan Valley, Oregon, US (43.12, -117.054)","2025-06-06 09:42",1,43.120213,-117.0541342,TRUE,FALSE,TRUE,"S247534301"
"387","brespa","Brewer's Sparrow","Spizella breweri","L46987725","Brushy Ridge Trail, Colorado, US (38.619, -108.65)","2025-06-06 09:37",2,38.6192718,-108.6502213,TRUE,FALSE,TRUE,"S247510048"
"388","brespa","Brewer's Sparrow","Spizella breweri","L11278097","Garcon Gulch Rd.","2025-06-06 09:28",5,47.687555,-114.5005448,TRUE,FALSE,FALSE,"S247338165"
"389","brespa","Brewer's Sparrow","Spizella breweri","L47076948","E Camp Creek Rd, Unity US-OR 44.33916, -118.10574","2025-06-06 09:26",4,44.33916,-118.105741,TRUE,FALSE,TRUE,"S247889453"
"390","brespa","Brewer's Sparrow","Spizella breweri","L32087191","Boise Foothills Motorcycle Trail - 8th Street to Boise Ridge Road","2025-06-06 09:17",12,43.6722969,-116.1004908,TRUE,FALSE,TRUE,"S247398659"
"391","brespa","Brewer's Sparrow","Spizella breweri","L570840","Lida","2025-06-06 09:15",1,37.4557659,-117.4995625,TRUE,FALSE,FALSE,"S248336107"
"392","brespa","Brewer's Sparrow","Spizella breweri","L19539797","Rio Blanco SWA--Roselund Unit (east access)","2025-06-06 09:11",1,40.064766,-108.163455,TRUE,FALSE,FALSE,"S247454289"
"393","brespa","Brewer's Sparrow","Spizella breweri","L20332140","Plumas National Forest, Oroville US-CA (39.8046,-121.4831)","2025-06-06 09:05",2,39.804604,-121.483118,TRUE,TRUE,TRUE,"S247376810"
"394","brespa","Brewer's Sparrow","Spizella breweri","L1051463","Logan Bridge","2025-06-06 08:42",1,45.8861248,-111.4421368,TRUE,FALSE,FALSE,"S247303835"
"395","brespa","Brewer's Sparrow","Spizella breweri","L46993103","Owyhee County--US95 S from Marsing, Idaho, US (43.533, -116.852)","2025-06-06 08:42",1,43.5333447,-116.8515622,TRUE,FALSE,TRUE,"S247533372"
"396","brespa","Brewer's Sparrow","Spizella breweri","L28915323","Ramo Flat Road","2025-06-06 08:40",6,45.1942535,-117.8621775,TRUE,FALSE,TRUE,"S247460834"
"397","brespa","Brewer's Sparrow","Spizella breweri","L5750423","Rio Mesa Station (restricted access)","2025-06-06 08:40",1,38.7992853,-109.2046978,TRUE,FALSE,FALSE,"S247442552"
"398","brespa","Brewer's Sparrow","Spizella breweri","L3397778","Pacific Crest Trail--Three Fingered Jack (Santiam Pass north to Minto Pass)","2025-06-06 08:37",1,44.4311245,-121.8488803,TRUE,TRUE,FALSE,"S247418488"
"399","brespa","Brewer's Sparrow","Spizella breweri","L46976169","3334–3618 Divide Road, Whitewater US-CO 38.73023, -108.63085","2025-06-06 08:33",1,38.73023,-108.630851,TRUE,FALSE,TRUE,"S247456810"
"400","brespa","Brewer's Sparrow","Spizella breweri","L24889182","Lidy Hot Springs","2025-06-06 08:29",15,44.1263,-112.5497267,TRUE,FALSE,TRUE,"S247314184"
"401","brespa","Brewer's Sparrow","Spizella breweri","L47088014","98926, Ellensburg US-WA 47.02258, -120.21323","2025-06-06 08:22",4,47.022584,-120.213228,TRUE,FALSE,TRUE,"S247943609"
"402","brespa","Brewer's Sparrow","Spizella breweri","L47043731","59843, Helmville US-MT 46.83423, -112.97527","2025-06-06 08:21",2,46.834235,-112.975269,TRUE,FALSE,TRUE,"S247756540"
"403","brespa","Brewer's Sparrow","Spizella breweri","L46956425","Slaughter Gulch","2025-06-06 08:08",1,44.984369,-116.470279,TRUE,FALSE,TRUE,"S247368211"
"404","brespa","Brewer's Sparrow","Spizella breweri","L46942641","101–323 NW Pinecrest Dr, Prineville US-OR 44.29833, -120.92701","2025-06-06 08:04",4,44.298331,-120.927007,TRUE,FALSE,TRUE,"S247312691"
"405","brespa","Brewer's Sparrow","Spizella breweri","L46941065","6313 Umptanum Road, Ellensburg, Washington, US (46.939, -120.578)","2025-06-06 08:03",1,46.9385795,-120.5778675,TRUE,FALSE,TRUE,"S248029411"
"406","brespa","Brewer's Sparrow","Spizella breweri","L46942520","10899–12475 Umptanum Rd, Ellensburg US-WA 46.91004, -120.61299","2025-06-06 08:03",1,46.91004,-120.612991,TRUE,FALSE,TRUE,"S247312165"
"407","brespa","Brewer's Sparrow","Spizella breweri","L269512","Cameron Seep","2025-06-06 08:00",1,35.8753596,-111.4072412,TRUE,FALSE,FALSE,"S247317251"
"408","brespa","Brewer's Sparrow","Spizella breweri","L46941600","Small pond","2025-06-06 07:59",1,37.631665,-118.895963,TRUE,FALSE,TRUE,"S247307872"
"409","brespa","Brewer's Sparrow","Spizella breweri","L47076864","27801–27893 US-26, Unity US-OR 44.43299, -118.15057","2025-06-06 07:52",3,44.432986,-118.15057,TRUE,FALSE,TRUE,"S247889102"
"410","brespa","Brewer's Sparrow","Spizella breweri","L46946971","Killpecker Sand Dunes","2025-06-06 07:49",6,41.967042,-109.08237,TRUE,FALSE,TRUE,"S247330110"
"411","brespa","Brewer's Sparrow","Spizella breweri","L46938469","SH-22, Dubois US-ID 44.15828, -112.45746","2025-06-06 07:37",14,44.158279,-112.45746,TRUE,FALSE,TRUE,"S247294208"
"412","brespa","Brewer's Sparrow","Spizella breweri","L144114","Conboy Lake NWR","2025-06-06 07:36",1,45.9799995,-121.3330002,TRUE,FALSE,FALSE,"S247496384"
"413","brespa","Brewer's Sparrow","Spizella breweri","L35539869","Chimney Creek, Spring Creek US-NV (40.6919,-115.6202)","2025-06-06 07:35",3,40.691949,-115.6204102,TRUE,FALSE,TRUE,"S247309586"
"414","brespa","Brewer's Sparrow","Spizella breweri","L7073848","Columbia NWR (Grant Co. portion)","2025-06-06 07:30",2,46.949149,-119.2563772,TRUE,FALSE,FALSE,"S247382099"
"415","brespa","Brewer's Sparrow","Spizella breweri","L2137091","Bench Road--lower","2025-06-06 07:30",2,45.8537283,-111.555469,TRUE,FALSE,FALSE,"S247402851"
"416","brespa","Brewer's Sparrow","Spizella breweri","L46942398","CR-17, Superior US-WY 41.93589, -109.03226","2025-06-06 07:29",1,41.935887,-109.032257,TRUE,FALSE,TRUE,"S247311650"
"417","brespa","Brewer's Sparrow","Spizella breweri","L46939997","10463–10897 Umptanum Rd, Ellensburg US-WA 46.91933, -120.59044","2025-06-06 07:27",3,46.919327,-120.590442,TRUE,FALSE,TRUE,"S247301057"
"418","brespa","Brewer's Sparrow","Spizella breweri","L272180","Hutton Lake NWR","2025-06-06 07:23",2,41.1748206,-105.7118777,TRUE,FALSE,FALSE,"S247309183"
"419","brespa","Brewer's Sparrow","Spizella breweri","L46980178","Sunrise Pass Rd, Minden US-NV","2025-06-06 07:20",3,39.042828,-119.616427,TRUE,FALSE,TRUE,"S247476559"
"420","brespa","Brewer's Sparrow","Spizella breweri","L4405601","La Plata CR 136 between Rds 141 & 128","2025-06-06 07:19",3,37.1895188,-108.0178785,TRUE,FALSE,FALSE,"S247296957"
"421","brespa","Brewer's Sparrow","Spizella breweri","L46942447","CR-17, Superior US-WY 41.92238, -108.90297","2025-06-06 07:16",2,41.92238,-108.902973,TRUE,FALSE,TRUE,"S247311871"
"422","brespa","Brewer's Sparrow","Spizella breweri","L9349876","Sand Ridge Road--Old growth sage tract","2025-06-06 07:16",8,45.996084,-120.1135881,TRUE,FALSE,FALSE,"S247947080"
"423","brespa","Brewer's Sparrow","Spizella breweri","L5247551","Saddle Rock City Park","2025-06-06 07:15",1,47.3979614,-120.3327692,TRUE,FALSE,FALSE,"S247296023"
"424","brespa","Brewer's Sparrow","Spizella breweri","L46973497","Beacon Ridge Road, Ellensburg, Washington, US (46.986, -120.202)","2025-06-06 07:10",1,46.9858431,-120.2021142,TRUE,FALSE,TRUE,"S247444520"
"425","brespa","Brewer's Sparrow","Spizella breweri","L46989564","Sweetwater Sisters","2025-06-06 07:10",6,38.529632,-119.2992534,TRUE,FALSE,TRUE,"S247519995"
"426","brespa","Brewer's Sparrow","Spizella breweri","L3635451","Carson Hole Area","2025-06-06 07:09",1,38.7367787,-108.6225986,TRUE,FALSE,FALSE,"S247573573"
"427","brespa","Brewer's Sparrow","Spizella breweri","L2923263","Eagle Rock","2025-06-06 07:09",8,44.1959591,-120.6501818,TRUE,FALSE,FALSE,"S247360302"
"428","brespa","Brewer's Sparrow","Spizella breweri","L46873089","98926, Ellensburg US-WA 46.98456, -120.20121","2025-06-06 07:08",5,46.984562,-120.201214,TRUE,FALSE,TRUE,"S247943391"
"429","brespa","Brewer's Sparrow","Spizella breweri","L19970521","Sand Ridge Road, Bickleton, Washington, US (46.014, -120.15)","2025-06-06 07:00",7,46.0139291,-120.1504796,TRUE,FALSE,TRUE,"S247947036"
"430","brespa","Brewer's Sparrow","Spizella breweri","L41820570","Above Tuff Campground","2025-06-06 06:57",3,37.563659,-118.664655,TRUE,FALSE,TRUE,"S247320725"
"431","brespa","Brewer's Sparrow","Spizella breweri","L46934370","SH-22, Dubois US-ID 44.17415, -112.36303","2025-06-06 06:51",14,44.174148,-112.36303,TRUE,FALSE,TRUE,"S247275138"
"432","brespa","Brewer's Sparrow","Spizella breweri","L46982133","Glade Park, Miller Canyon Ranch Rd","2025-06-06 06:50",1,38.952882,-108.733996,TRUE,FALSE,TRUE,"S247485612"
"433","brespa","Brewer's Sparrow","Spizella breweri","L13470924","Custer NF--West Short Pines unit","2025-06-06 06:41",2,45.4300632,-103.9453707,TRUE,FALSE,FALSE,"S247258915"
"434","brespa","Brewer's Sparrow","Spizella breweri","L46959438","84732, Greenwich US-UT 38.34666, -112.10869","2025-06-06 06:40",4,38.346661,-112.108687,TRUE,FALSE,TRUE,"S247380317"
"435","brespa","Brewer's Sparrow","Spizella breweri","L46935645","84747, Loa US-UT 38.32452, -111.82793","2025-06-06 06:29",33,38.324523,-111.827928,TRUE,FALSE,TRUE,"S247281334"
"436","brespa","Brewer's Sparrow","Spizella breweri","L42311757","Beck Lake Park","2025-06-06 06:28",1,44.511121,-109.058229,TRUE,FALSE,TRUE,"S247277525"
"437","brespa","Brewer's Sparrow","Spizella breweri","L47022053","Kelly Prairie Lookout","2025-06-06 06:23",1,45.16384,-119.277805,TRUE,FALSE,TRUE,"S247669410"
"438","brespa","Brewer's Sparrow","Spizella breweri","L46934087","Unnamed Road, Mack, Colorado, US (39.173, -109.02) Rabbit Valley","2025-06-06 06:15",1,39.1729779,-109.0195286,TRUE,FALSE,TRUE,"S247273570"
"439","brespa","Brewer's Sparrow","Spizella breweri","L44895259","Parker Mountain <9000ft (black sage)","2025-06-06 06:09",34,38.240991,-111.773929,TRUE,FALSE,TRUE,"S247360604"
"440","brespa","Brewer's Sparrow","Spizella breweri","L291549","Rabbit Valley","2025-06-06 06:08",2,39.187059,-109.019087,TRUE,FALSE,FALSE,"S247432748"
"441","brespa","Brewer's Sparrow","Spizella breweri","L46970570","Tufted Duck Spot","2025-06-06 06:03",1,46.1985079,-112.7733761,TRUE,FALSE,TRUE,"S247432680"
"442","brespa","Brewer's Sparrow","Spizella breweri","L278422","Crowley Lake","2025-06-06 06:02",10,37.6066162,-118.7464142,TRUE,FALSE,FALSE,"S247310932"
"443","brespa","Brewer's Sparrow","Spizella breweri","L46930926","SH-22, Dubois US-ID 44.17594, -112.26278","2025-06-06 05:59",14,44.175936,-112.262776,TRUE,FALSE,TRUE,"S247257577"
"444","brespa","Brewer's Sparrow","Spizella breweri","L47088700","Pine Creek Rd - east side","2025-06-06 05:54",6,46.019716,-120.356694,TRUE,FALSE,TRUE,"S247946985"
"445","brespa","Brewer's Sparrow","Spizella breweri","L46955742","BLM Parcel, Kaycee US-WY (43.7325,-106.7706)","2025-06-06 05:45",2,43.732514,-106.770574,TRUE,FALSE,TRUE,"S247365393"
"446","brespa","Brewer's Sparrow","Spizella breweri","L47066343","Montrose, Colorado, US (38.44, -107.761)","2025-06-06 05:44",2,38.4400418,-107.761055,TRUE,FALSE,TRUE,"S247843697"
"447","brespa","Brewer's Sparrow","Spizella breweri","L36065774","Auto selected 43.66985, -110.58991","2025-06-06 05:43",1,43.66985,-110.58991,TRUE,FALSE,TRUE,"S247864570"
"448","brespa","Brewer's Sparrow","Spizella breweri","L958489","Minaret Vista Overlook","2025-06-06 05:31",2,37.6540525,-119.0579517,TRUE,FALSE,FALSE,"S247289824"
"449","brespa","Brewer's Sparrow","Spizella breweri","L46946898","BLM NE corner 17 area","2025-06-06 05:07",19,41.921226,-108.874071,TRUE,FALSE,TRUE,"S247365313"
"450","brespa","Brewer's Sparrow","Spizella breweri","L46965826","Humboldt-Toiyabe National Forest, Wellington US-NV 38.55925, -119.25160","2025-06-06 04:34",2,38.559252,-119.251596,TRUE,FALSE,TRUE,"S247409857"
"451","brespa","Brewer's Sparrow","Spizella breweri","L3008742","Island Lake","2025-06-06 03:45",1,40.6153207,-115.3816366,TRUE,FALSE,FALSE,"S247299133"
"452","brespa","Brewer's Sparrow","Spizella breweri","L46912805","BLM Parcel, Kaycee US-WY 43.81843, -106.80683","2025-06-05 21:04",1,43.818427,-106.806832,TRUE,FALSE,TRUE,"S247166991"
"453","brespa","Brewer's Sparrow","Spizella breweri","L14957714","Rd C","2025-06-05 20:10",1,47.3260171,-119.6404013,TRUE,FALSE,TRUE,"S247170502"
"454","brespa","Brewer's Sparrow","Spizella breweri","L46912447","3222 Crowley Lake Dr, Mammoth Lakes US-CA 37.57105, -118.76729","2025-06-05 19:13",7,37.571054,-118.767288,TRUE,FALSE,TRUE,"S247165470"
"455","brespa","Brewer's Sparrow","Spizella breweri","L46875467","Dolores Canyon Access Roads","2025-06-05 18:51",1,37.766148,-108.867387,TRUE,FALSE,TRUE,"S247174422"
"456","brespa","Brewer's Sparrow","Spizella breweri","L3002399","Laurel Sewage Pond","2025-06-05 18:32",1,37.619064,-118.8779034,TRUE,FALSE,FALSE,"S247156371"
"457","brespa","Brewer's Sparrow","Spizella breweri","L46927927","Bear Canyon Road, Bridger, Montana, US","2025-06-05 18:16",2,45.0270998,-108.6105376,TRUE,FALSE,TRUE,"S247240756"
"458","brespa","Brewer's Sparrow","Spizella breweri","L33113975","Upper Cherry Spr. Road, Burns, Oregon, US (43.562, -119.142)","2025-06-05 17:50",2,43.5621789,-119.1417322,TRUE,FALSE,TRUE,"S247158130"
"459","brespa","Brewer's Sparrow","Spizella breweri","L11772813","Zetroc House","2025-06-05 17:44",1,37.3709122,-108.5462504,TRUE,FALSE,TRUE,"S247154842"
"460","brespa","Brewer's Sparrow","Spizella breweri","L19495672","Taos Landfill, Taos US-NM 36.46122, -105.65871","2025-06-05 17:33",1,36.461218,-105.658712,TRUE,FALSE,TRUE,"S247124748"
"461","brespa","Brewer's Sparrow","Spizella breweri","L46914547","Malheur NWR - Narrows-Princeton Rd","2025-06-05 17:12",2,43.163819,-118.942335,TRUE,FALSE,TRUE,"S247175481"
"462","brespa","Brewer's Sparrow","Spizella breweri","L46902862","Moonshine Arch TH","2025-06-05 16:54",5,40.551843,-109.537738,TRUE,FALSE,TRUE,"S247112624"
"463","brespa","Brewer's Sparrow","Spizella breweri","L46987069","US20--East of Brothers--43.70625, -120.30408","2025-06-05 16:31",1,43.706246,-120.30408,TRUE,FALSE,TRUE,"S247507352"
"464","brespa","Brewer's Sparrow","Spizella breweri","L47078456","State Highway 245, Baker City US-OR 44.58168, -117.83941","2025-06-05 16:02",2,44.581683,-117.839411,TRUE,FALSE,TRUE,"S247900372"
"465","brespa","Brewer's Sparrow","Spizella breweri","L3762782","S Van Tassel Rd (town to Niobrara CR 6)","2025-06-05 15:59",2,42.6401973,-104.0972898,TRUE,FALSE,FALSE,"S247095819"
"466","brespa","Brewer's Sparrow","Spizella breweri","L5850627","Grand Lake Metropolitan Recreation Trails","2025-06-05 15:50",1,40.2510677,-105.8543873,TRUE,FALSE,FALSE,"S247117390"
"467","brespa","Brewer's Sparrow","Spizella breweri","L46897657","83221, Blackfoot US-ID 43.35720, -112.64763","2025-06-05 15:01",1,43.357202,-112.647633,TRUE,FALSE,TRUE,"S247086400"
"468","brespa","Brewer's Sparrow","Spizella breweri","L989410","Johnson Valley Reservoir","2025-06-05 14:34",12,38.6143198,-111.6378752,TRUE,FALSE,FALSE,"S247374677"
"469","brespa","Brewer's Sparrow","Spizella breweri","L434119","Martis Creek Lake (PLA Co.)","2025-06-05 14:30",3,39.3153083,-120.1177311,TRUE,FALSE,FALSE,"S247943723"
"470","brespa","Brewer's Sparrow","Spizella breweri","L46847109","Old Bonanza Hwy, Jensen US-UT (40.0866,-109.2005)","2025-06-05 14:29",1,40.086571,-109.200544,TRUE,FALSE,TRUE,"S247096460"
"471","brespa","Brewer's Sparrow","Spizella breweri","L11473244","Ellensburg--Umptanum Road (NE)","2025-06-05 14:04",1,46.9462221,-120.5717452,TRUE,FALSE,FALSE,"S247170273"
"472","brespa","Brewer's Sparrow","Spizella breweri","L4352610","WDFW/Audubon site-2016-Umptanum Rd East-54731","2025-06-05 13:44",2,46.90702,-120.62454,TRUE,FALSE,FALSE,"S247091604"
"473","brespa","Brewer's Sparrow","Spizella breweri","L4098701","Bickleton","2025-06-05 13:00",1,45.9963057,-120.3032541,TRUE,FALSE,FALSE,"S247527039"
"474","brespa","Brewer's Sparrow","Spizella breweri","L46909725","97920, Westfall US-OR 44.11767, -117.98497","2025-06-05 12:58",2,44.11767,-117.984968,TRUE,FALSE,TRUE,"S247152199"
"475","brespa","Brewer's Sparrow","Spizella breweri","L4352615","WDFW/Audubon site-2016-Umptanum Rd West-54726","2025-06-05 12:16",1,46.90824,-120.68719,TRUE,FALSE,FALSE,"S247091450"
"476","brespa","Brewer's Sparrow","Spizella breweri","L46888268","9852–10406 Umptanum Rd, Ellensburg US-WA 46.91762, -120.59394","2025-06-05 11:54",4,46.917623,-120.593936,TRUE,FALSE,TRUE,"S247042382"
"477","brespa","Brewer's Sparrow","Spizella breweri","L27762565","Hyrum City Park and Campground","2025-06-05 11:51",1,41.627205,-111.687867,TRUE,FALSE,TRUE,"S247065902"
"478","brespa","Brewer's Sparrow","Spizella breweri","L2029167","Sierra Valley--Power Station","2025-06-05 11:46",10,39.7569694,-120.3706913,TRUE,FALSE,FALSE,"S247041199"
"479","brespa","Brewer's Sparrow","Spizella breweri","L2936973","Big Sandy Reservoir (Sweetwater Co)","2025-06-05 11:41",7,42.2513359,-109.4346171,TRUE,FALSE,FALSE,"S247028445"
"480","brespa","Brewer's Sparrow","Spizella breweri","L32644116","Mud Flat Rd, Bruneau US-ID 42.60565, -116.53697","2025-06-05 11:39",1,42.60565,-116.536967,TRUE,FALSE,TRUE,"S247135223"
"481","brespa","Brewer's Sparrow","Spizella breweri","L32644100","Mud Flat Rd, Jordan Valley US-ID 42.60877, -116.53073","2025-06-05 11:31",1,42.608771,-116.530732,TRUE,FALSE,TRUE,"S247135071"
"482","brespa","Brewer's Sparrow","Spizella breweri","L3222141","Badger Mountain Road","2025-06-05 11:30",1,47.5859495,-120.1391459,TRUE,FALSE,FALSE,"S247132477"
"483","brespa","Brewer's Sparrow","Spizella breweri","L7955214","Craters of the Moon National Monument--Devil's Orchard","2025-06-05 11:22",2,43.4511477,-113.5372487,TRUE,FALSE,FALSE,"S247154031"
"484","brespa","Brewer's Sparrow","Spizella breweri","L32644048","Mud Flat Rd, Jordan Valley US-ID 42.62155, -116.50473","2025-06-05 11:17",1,42.621549,-116.504735,TRUE,FALSE,TRUE,"S247134474"
"485","brespa","Brewer's Sparrow","Spizella breweri","L46898555","59854, Ovando US-MT 47.05174, -113.26567","2025-06-05 11:10",1,47.051741,-113.265666,TRUE,FALSE,TRUE,"S247090776"
"486","brespa","Brewer's Sparrow","Spizella breweri","L32644022","Mud Flat Rd, Jordan Valley US-ID 42.63071, -116.48465","2025-06-05 11:10",1,42.630709,-116.484654,TRUE,FALSE,TRUE,"S247134159"
"487","brespa","Brewer's Sparrow","Spizella breweri","L24954989","20 Jack Pine. Jackson, Wyoming","2025-06-05 10:53",2,43.323256,-110.436701,TRUE,FALSE,TRUE,"S247308007"
"488","brespa","Brewer's Sparrow","Spizella breweri","L2213814","Eby Creek Mesa Trails","2025-06-05 10:30",7,39.6688996,-106.8380566,TRUE,FALSE,FALSE,"S247014321"
"489","brespa","Brewer's Sparrow","Spizella breweri","L46886561","Bumble Bee Spring Rd, Cedar City US-UT 37.55794, -113.17684","2025-06-05 10:30",1,37.55794,-113.176843,TRUE,FALSE,TRUE,"S247034256"
"490","brespa","Brewer's Sparrow","Spizella breweri","L14928088","Sierra Valley Preserve West","2025-06-05 10:28",5,39.787836,-120.377748,TRUE,FALSE,FALSE,"S247029257"
"491","brespa","Brewer's Sparrow","Spizella breweri","L46887007","Morrissey Rd, Newcastle US-WY","2025-06-05 10:25",2,43.752289,-104.244743,TRUE,FALSE,TRUE,"S247036576"
"492","brespa","Brewer's Sparrow","Spizella breweri","L46876614","Teton Pass Highway, Wilson, Wyoming, US (43.498, -110.862)","2025-06-05 10:16",1,43.4980349,-110.8621915,TRUE,FALSE,TRUE,"S246991127"
"493","brespa","Brewer's Sparrow","Spizella breweri","L46987196","Catlow Valley--CR-202--42.32599, -118.76278","2025-06-05 10:09",3,42.32599,-118.76278,TRUE,FALSE,TRUE,"S247507802"
"494","brespa","Brewer's Sparrow","Spizella breweri","L6310353","Cottonwood Reservoir, Wilsall US-MT (46.0383,-110.6934)","2025-06-05 09:59",2,46.038344,-110.693401,TRUE,FALSE,TRUE,"S247144891"
"495","brespa","Brewer's Sparrow","Spizella breweri","L20644895","Eagle Pass Interpretive Area","2025-06-05 09:55",5,44.477286,-108.7266806,TRUE,FALSE,TRUE,"S247003713"
"496","brespa","Brewer's Sparrow","Spizella breweri","L46902733","Heart Mountain Ranch Preserve Trail","2025-06-05 09:50",2,44.6794257,-109.0765142,TRUE,FALSE,TRUE,"S247114935"
"497","brespa","Brewer's Sparrow","Spizella breweri","L46879499","89815, Spring Creek US-NV 40.69175, -115.62154","2025-06-05 09:32",4,40.691751,-115.621537,TRUE,FALSE,TRUE,"S247003632"
"498","brespa","Brewer's Sparrow","Spizella breweri","L46912863","Steens Mountain Loop, Oregon, US (42.718, -118.99)","2025-06-05 09:25",2,42.7184241,-118.9902789,TRUE,FALSE,TRUE,"S247167337"
"499","brespa","Brewer's Sparrow","Spizella breweri","L6874125","Parker Lake","2025-06-05 09:22",3,37.8357508,-119.1557515,TRUE,FALSE,FALSE,"S247106008"
"500","brespa","Brewer's Sparrow","Spizella breweri","L46877273","Chimney Creek Rd, Spring Creek US-NV 40.69619, -115.62387","2025-06-05 09:15",1,40.696195,-115.62387,TRUE,FALSE,TRUE,"S246993861"
"501","brespa","Brewer's Sparrow","Spizella breweri","L1184023","Black Mtn. lookout (LAS Co.)","2025-06-05 09:12",1,40.1146692,-120.3211364,TRUE,FALSE,FALSE,"S247396328"
"502","brespa","Brewer's Sparrow","Spizella breweri","L1405322","Antelope Island SP--White Rock Bay & Corrals","2025-06-05 09:04",2,41.0276519,-112.2504556,TRUE,FALSE,FALSE,"S247255603"
"503","brespa","Brewer's Sparrow","Spizella breweri","L44650730","Parker Mountain (Aspen), Greenwich, UT","2025-06-05 09:02",3,38.315844,-111.882025,TRUE,FALSE,TRUE,"S247504267"
"504","brespa","Brewer's Sparrow","Spizella breweri","L46909240","1 mile NE of Poison Creek Rec. Area.","2025-06-05 09:01",4,42.7666059,-116.2817622,TRUE,FALSE,TRUE,"S247150735"
"505","brespa","Brewer's Sparrow","Spizella breweri","L30542641","Rim Lake","2025-06-05 08:53",2,41.695337,-107.285187,TRUE,FALSE,TRUE,"S246973161"
"506","brespa","Brewer's Sparrow","Spizella breweri","L33551309","Fields east of Maxwell NA parking lot","2025-06-05 08:40",1,40.55968,-105.139601,TRUE,FALSE,TRUE,"S247003411"
"507","brespa","Brewer's Sparrow","Spizella breweri","L46881200","Picabo Desert Rd","2025-06-05 08:35",2,43.234238,-114.311711,TRUE,FALSE,TRUE,"S247010827"
"508","brespa","Brewer's Sparrow","Spizella breweri","L7361149","Cedar Mountains--Hastings Pass Rd.","2025-06-05 08:35",1,40.71005,-112.928323,TRUE,FALSE,FALSE,"S247032775"
"509","brespa","Brewer's Sparrow","Spizella breweri","L46871518","Quealy, Wyoming, US (41.354, -108.792)","2025-06-05 08:29",NA,41.3538099,-108.7917828,TRUE,FALSE,TRUE,"S246968036"
"510","brespa","Brewer's Sparrow","Spizella breweri","L46875247","Tree Molds Trail","2025-06-05 08:25",13,43.4272444,-113.5487235,TRUE,FALSE,TRUE,"S246985210"
"511","brespa","Brewer's Sparrow","Spizella breweri","L29010822","Beaverhead Trail System","2025-06-05 08:25",7,45.2178618,-112.6742888,TRUE,FALSE,FALSE,"S248369867"
"512","brespa","Brewer's Sparrow","Spizella breweri","L37773241","Rawlins water supply","2025-06-05 08:23",1,41.713175,-107.268163,TRUE,FALSE,TRUE,"S246962780"
"513","brespa","Brewer's Sparrow","Spizella breweri","L249812","Blacks Creek Bird Reserve","2025-06-05 08:12",1,43.4584433,-116.1426544,TRUE,FALSE,FALSE,"S247012095"
"514","brespa","Brewer's Sparrow","Spizella breweri","L46871791","Loveland Lane Trail","2025-06-05 08:09",1,42.0323328,-111.4250705,TRUE,FALSE,TRUE,"S246969283"
"515","brespa","Brewer's Sparrow","Spizella breweri","L10664013","Snowshoe Creek Drainage","2025-06-05 08:04",1,38.9238889,-107.2969444,TRUE,FALSE,TRUE,"S247400443"
"516","brespa","Brewer's Sparrow","Spizella breweri","L3882767","Yellowstone NP--Hayden Valley--Alum Creek","2025-06-05 08:04",1,44.6774641,-110.4858524,TRUE,FALSE,FALSE,"S247159731"
"517","brespa","Brewer's Sparrow","Spizella breweri","L46912034","Wellsandt Road from Danekas to Cow Lake Road 47.21903, -118.14114","2025-06-05 08:02",2,47.219027,-118.141143,TRUE,FALSE,TRUE,"S247163572"
"518","brespa","Brewer's Sparrow","Spizella breweri","L46879326","MT gov lands","2025-06-05 07:48",3,47.029899,-113.300705,TRUE,FALSE,TRUE,"S247003055"
"519","brespa","Brewer's Sparrow","Spizella breweri","L190743","Antelope Island SP","2025-06-05 07:11",2,41.0465405,-112.2383881,TRUE,FALSE,FALSE,"S247255182"
"520","brespa","Brewer's Sparrow","Spizella breweri","L923892","South Valley Park","2025-06-05 07:01",1,39.5661984,-105.1530486,TRUE,TRUE,FALSE,"S246985903"
"521","brespa","Brewer's Sparrow","Spizella breweri","L46861989","Our Backyard Trail, Avon US-CO 39.65196, -106.54221","2025-06-05 06:38",2,39.651957,-106.542206,TRUE,FALSE,TRUE,"S246918200"
"522","brespa","Brewer's Sparrow","Spizella breweri","L2266960","Dinosaur NM--Green River CG","2025-06-05 06:29",2,40.4214275,-109.2435676,TRUE,FALSE,FALSE,"S247096668"
"523","brespa","Brewer's Sparrow","Spizella breweri","L46863263","White Lakes B","2025-06-05 06:04",1,48.1738172,-119.5619875,TRUE,FALSE,TRUE,"S246925251"
"524","brespa","Brewer's Sparrow","Spizella breweri","L8593755","Dry Gulch Preserve","2025-06-05 05:43",1,47.3852459,-120.3386038,TRUE,FALSE,FALSE,"S246978953"
"525","brespa","Brewer's Sparrow","Spizella breweri","L46888027","LOWER SNAKE CREEK BREEDING BIRD SURVEY, GREAT BASIN NP(38.919, -114.142)","2025-06-05 05:22",2,38.9187233,-114.1423133,TRUE,FALSE,TRUE,"S247041376"
"526","brespa","Brewer's Sparrow","Spizella breweri","L46844714","82923, Boulder US-WY 42.71680, -109.91118","2025-06-05 05:12",52,42.716796,-109.91118,TRUE,TRUE,TRUE,"S247062461"
"527","brespa","Brewer's Sparrow","Spizella breweri","L18348336","Little Thunder Reservoir","2025-06-04 19:23",3,43.690398,-105.378616,TRUE,FALSE,FALSE,"S246823688"
"528","brespa","Brewer's Sparrow","Spizella breweri","L46905396","89447, Yerington US-NV 39.06999, -119.29794","2025-06-04 18:58",1,39.069988,-119.297935,TRUE,FALSE,TRUE,"S247126528"
"529","brespa","Brewer's Sparrow","Spizella breweri","L46844164","Matlock","2025-06-04 16:59",1,36.763718,-118.356905,TRUE,FALSE,TRUE,"S246824473"
"530","brespa","Brewer's Sparrow","Spizella breweri","L32226556","Lawen Lane, Princeton, Oregon, US (43.404, -118.803)","2025-06-04 16:55",1,43.4037296,-118.8026942,TRUE,FALSE,TRUE,"S246837917"
"531","brespa","Brewer's Sparrow","Spizella breweri","L46814615","Pike and San Isabel National Forests, Buena Vista US-CO 38.97101, -106.20151","2025-06-04 16:25",5,38.971008,-106.201508,TRUE,FALSE,TRUE,"S247474874"
"532","brespa","Brewer's Sparrow","Spizella breweri","L46845957","4280 Veterans Memorial Highway, Winnemucca, Nevada, US (41.157, -117.685)","2025-06-04 14:30",1,41.1571465,-117.6850143,TRUE,FALSE,TRUE,"S246832662"
"533","brespa","Brewer's Sparrow","Spizella breweri","L5540147","Harman Rd.","2025-06-04 14:13",3,43.745864,-120.3579891,TRUE,FALSE,FALSE,"S246751730"
"534","brespa","Brewer's Sparrow","Spizella breweri","L7653194","Camp Crook Rd--Brewer’s Bend","2025-06-04 13:58",2,45.996515,-103.9619357,TRUE,FALSE,FALSE,"S246733023"
"535","brespa","Brewer's Sparrow","Spizella breweri","L46837184","Mudflat Road- Between Poison Creek Recreation Site and Perjue Canyon","2025-06-04 13:30",3,42.757621,-116.296747,TRUE,FALSE,TRUE,"S246787960"
"536","brespa","Brewer's Sparrow","Spizella breweri","L861269","Peter Skene Ogden SP","2025-06-04 13:06",1,44.391606,-121.1943483,TRUE,FALSE,FALSE,"S246757400"
"537","brespa","Brewer's Sparrow","Spizella breweri","L46825412","North Wenas Road, Selah, Washington, US (46.883, -120.773)","2025-06-04 12:53",1,46.8825402,-120.7729821,TRUE,FALSE,TRUE,"S246729734"
"538","brespa","Brewer's Sparrow","Spizella breweri","L46837286","Mudflat Rd - 1 mile before Poison Creek Recreation Site","2025-06-04 12:40",5,42.766183,-116.28092,TRUE,FALSE,TRUE,"S246788651"
"539","brespa","Brewer's Sparrow","Spizella breweri","L3294622","Northern Great Basin Experimental Range (NGBER)","2025-06-04 12:17",4,43.4903837,-119.7123215,TRUE,FALSE,FALSE,"S246827059"
"540","brespa","Brewer's Sparrow","Spizella breweri","L4766090","Yellowstone NP--Specimen Ridge Trail, West End","2025-06-04 12:15",2,44.9118446,-110.3873795,TRUE,FALSE,FALSE,"S246782873"
"541","brespa","Brewer's Sparrow","Spizella breweri","L9805805","Cow Creek Trail","2025-06-04 11:58",6,43.6014438,-114.4249822,TRUE,FALSE,FALSE,"S246799202"
"542","brespa","Brewer's Sparrow","Spizella breweri","L46816372","Ely Highway, Milford, Utah, US (38.425, -113.115)","2025-06-04 11:49",3,38.4245646,-113.1149625,TRUE,FALSE,TRUE,"S246691640"
"543","brespa","Brewer's Sparrow","Spizella breweri","L9401567","Edmunds Powerline Rd, Edwards US-CO (39.6616,-106.5823)","2025-06-04 11:47",2,39.661617,-106.582322,TRUE,FALSE,TRUE,"S246698580"
"544","brespa","Brewer's Sparrow","Spizella breweri","L46827128","Divide Road, Colorado, US (38.765, -108.621)","2025-06-04 11:31",1,38.7652688,-108.6206885,TRUE,FALSE,TRUE,"S246737658"
"545","brespa","Brewer's Sparrow","Spizella breweri","L14170413","Juniper Mountain Loop Road, Murphy, Idaho, US (42.625, -116.988)","2025-06-04 10:52",3,42.625255,-116.9883326,TRUE,FALSE,TRUE,"S246703985"
"546","brespa","Brewer's Sparrow","Spizella breweri","L11696167","Greenhorn Gulch","2025-06-04 10:36",5,43.5941634,-114.4162222,TRUE,FALSE,FALSE,"S246800486"
"547","brespa","Brewer's Sparrow","Spizella breweri","L795536","Karlo Rd. Watchable Wildlife Area","2025-06-04 10:35",1,40.5846343,-120.2563047,TRUE,FALSE,FALSE,"S247942746"
"548","brespa","Brewer's Sparrow","Spizella breweri","L31945387","Corinne Trail","2025-06-04 10:22",3,45.073488,-113.056701,TRUE,FALSE,TRUE,"S246673633"
"549","brespa","Brewer's Sparrow","Spizella breweri","L11365006","66500 Kinikin Road, Montrose, Colorado, US (38.43, -107.847)","2025-06-04 10:15",2,38.4298065,-107.8468961,TRUE,FALSE,TRUE,"S246746320"
"550","brespa","Brewer's Sparrow","Spizella breweri","L46101312","UWC","2025-06-04 10:12",10,46.834193,-112.975341,TRUE,FALSE,TRUE,"S246764799"
"551","brespa","Brewer's Sparrow","Spizella breweri","L46823082","Forest Service Rd, Orovada US-NV 41.67042, -117.54730","2025-06-04 09:41",4,41.670422,-117.5473,TRUE,FALSE,TRUE,"S246719460"
"552","brespa","Brewer's Sparrow","Spizella breweri","L46822053","84714, Beryl US-UT 37.99090, -113.93652","2025-06-04 09:32",9,37.9909,-113.93652,TRUE,FALSE,TRUE,"S246715291"
"553","brespa","Brewer's Sparrow","Spizella breweri","L733448","Sage Hen Rest Area","2025-06-04 09:24",8,43.5314692,-119.3212652,TRUE,FALSE,FALSE,"S246679326"
"554","brespa","Brewer's Sparrow","Spizella breweri","L2949801","Henry Road (NE)","2025-06-04 09:05",1,42.6556769,-104.0504837,TRUE,FALSE,TRUE,"S246826716"
"555","brespa","Brewer's Sparrow","Spizella breweri","L43331455","End of Buffalo Canyon Rd","2025-06-04 08:58",7,40.485397,-118.233608,TRUE,FALSE,TRUE,"S246669053"
"556","brespa","Brewer's Sparrow","Spizella breweri","L504323","East Tintic Mountains--Dividend Rd.","2025-06-04 08:50",6,39.9556503,-112.0613515,TRUE,TRUE,FALSE,"S246714993"
"557","brespa","Brewer's Sparrow","Spizella breweri","L7824213","River Run Ski Lodge","2025-06-04 08:38",1,43.6712137,-114.3668975,TRUE,FALSE,FALSE,"S246675197"
"558","brespa","Brewer's Sparrow","Spizella breweri","L46739225","Colton Trail, ANF","2025-06-04 08:36",1,40.68616,-109.50553,TRUE,FALSE,TRUE,"S246650893"
"559","brespa","Brewer's Sparrow","Spizella breweri","L276539","Clark Canyon Reservoir","2025-06-04 08:36",1,44.9898026,-112.8612471,TRUE,FALSE,FALSE,"S246633579"
"560","brespa","Brewer's Sparrow","Spizella breweri","L46813163","Masonic Rd, Bridgeport US-CA (38.3118,-119.1985)","2025-06-04 08:27",4,38.311817,-119.198543,TRUE,FALSE,TRUE,"S246677910"
"561","brespa","Brewer's Sparrow","Spizella breweri","L46807569","Narrows-Princeton Rd, Princeton US-OR 43.23755, -118.89076","2025-06-04 08:25",1,43.23755,-118.890757,TRUE,FALSE,TRUE,"S246653705"
"562","brespa","Brewer's Sparrow","Spizella breweri","L151122","Antelope Island SP--Causeway","2025-06-04 08:18",1,41.08841,-112.186714,TRUE,FALSE,FALSE,"S246756626"
"563","brespa","Brewer's Sparrow","Spizella breweri","L741001","Donner Camp Picnic Area","2025-06-04 08:15",2,39.3735873,-120.1783276,TRUE,FALSE,FALSE,"S246826382"
"564","brespa","Brewer's Sparrow","Spizella breweri","L18216732","Route from Home to Canal (38.290877; -111.429870)","2025-06-04 08:15",1,38.2908251,-111.43017,TRUE,FALSE,TRUE,"S246677028"
"565","brespa","Brewer's Sparrow","Spizella breweri","L11942449","Hwy 95 And Leslie Gulch Rd., Jordan Valley, Idaho, US (43.309, -116.982)","2025-06-04 08:15",1,43.3085192,-116.9820983,TRUE,FALSE,TRUE,"S246817047"
"566","brespa","Brewer's Sparrow","Spizella breweri","L46845097","Plano Road","2025-06-04 08:15",1,44.559088,-117.4159851,TRUE,FALSE,TRUE,"S246829238"
