"","speciesCode","comName","sciName","locId","locName","obsDt","howMany","lat","lng","obsValid","obsReviewed","locationPrivate","subId"
"1","easwpw1","Eastern Whip-poor-will","Antrostomus vociferus","L47801495","Taylor Ridge Campground, Brown County State Park, Indiana, US (39.145, -86.248)","2025-06-16 16:10",1,39.1446295,-86.2477063,TRUE,FALSE,TRUE,"S251163573"
"2","easwpw1","Eastern Whip-poor-will","Antrostomus vociferus","L47775004","2265–2285 Ten Rod Rd, Exeter US-RI 41.57557, -71.73637","2025-06-16 10:36",1,41.575566,-71.736367,TRUE,FALSE,TRUE,"S251044670"
"3","easwpw1","Eastern Whip-poor-will","Antrostomus vociferus","L32483215","6526 Badger Road, Florence, Wisconsin, US (45.956, -88.276)","2025-06-16 07:11",1,45.9557698,-88.2756743,TRUE,FALSE,TRUE,"S251021532"
"4","easwpw1","Eastern Whip-poor-will","Antrostomus vociferus","L45731018","Restricted Access, Maple Hill Sw SE, Juniper Road, Burgaw US-NC 34.52120, -77.68171","2025-06-16 05:23",3,34.521202,-77.681714,TRUE,FALSE,TRUE,"S251180763"
"5","easwpw1","Eastern Whip-poor-will","Antrostomus vociferus","L47763740","2502 Secretarys Road, Scottsville, Virginia, US (37.898, -78.459)","2025-06-16 05:10",3,37.8976309,-78.4590007,TRUE,FALSE,TRUE,"S250985263"
"6","easwpw1","Eastern Whip-poor-will","Antrostomus vociferus","L46668718","Autryville SE—Gip Rd, Fayetteville US-NC (34.91583, -78.65226)","2025-06-16 05:06",2,34.915833,-78.652263,TRUE,FALSE,TRUE,"S251036809"
"7","easwpw1","Eastern Whip-poor-will","Antrostomus vociferus","L47758249","Hunt Rd, Roscommon US-MI 44.53783, -84.39086","2025-06-16 05:04",3,44.537829,-84.390863,TRUE,FALSE,TRUE,"S250957707"
"8","easwpw1","Eastern Whip-poor-will","Antrostomus vociferus","L28821829","Union Yard","2025-06-16 04:59",1,39.382797,-74.940888,TRUE,FALSE,TRUE,"S250949433"
"9","easwpw1","Eastern Whip-poor-will","Antrostomus vociferus","L47757679","2157 County Road 708, Scottsville, Virginia, US (37.898, -78.473)","2025-06-16 04:55",1,37.8975749,-78.473442,TRUE,FALSE,TRUE,"S250955156"
"10","easwpw1","Eastern Whip-poor-will","Antrostomus vociferus","L47763487","Hollybush-Loafers Oak Loop","2025-06-16 04:44",1,37.0911606,-76.926296,TRUE,FALSE,TRUE,"S250985482"
"11","easwpw1","Eastern Whip-poor-will","Antrostomus vociferus","L727513","Greenwood SWA","2025-06-16 04:38",1,44.1035272,-89.4910978,TRUE,FALSE,FALSE,"S251000378"
"12","easwpw1","Eastern Whip-poor-will","Antrostomus vociferus","L7506826","Uncasville BBS 1","2025-06-16 04:33",1,41.4179507,-72.1526992,TRUE,FALSE,TRUE,"S251172928"
"13","easwpw1","Eastern Whip-poor-will","Antrostomus vociferus","L47759752","3 Outer Loop Road, Morganton, Georgia, US (34.935, -84.143)","2025-06-16 04:30",1,34.9348546,-84.1432479,TRUE,FALSE,TRUE,"S250964556"
"14","easwpw1","Eastern Whip-poor-will","Antrostomus vociferus","L31754240","HOME","2025-06-16 04:12",1,44.609453,-73.630773,TRUE,FALSE,TRUE,"S250943089"
"15","easwpw1","Eastern Whip-poor-will","Antrostomus vociferus","L47749562","12500 Country Club Mall Road, La Vale, Maryland, US (39.624, -78.836)","2025-06-16 00:30",1,39.6242634,-78.8359974,TRUE,FALSE,TRUE,"S250916287"
"16","easwpw1","Eastern Whip-poor-will","Antrostomus vociferus","L47758083","Nightjar Spot","2025-06-15 23:52",2,39.5778211,-74.5724105,TRUE,FALSE,TRUE,"S250957045"
"17","easwpw1","Eastern Whip-poor-will","Antrostomus vociferus","L34568905","Harbor Road","2025-06-15 22:46",3,45.025486,-87.73671,TRUE,FALSE,TRUE,"S250920680"
"18","easwpw1","Eastern Whip-poor-will","Antrostomus vociferus","L9190633","Velvet Green","2025-06-15 22:40",1,42.8766198,-86.1931242,TRUE,FALSE,TRUE,"S250905615"
"19","easwpw1","Eastern Whip-poor-will","Antrostomus vociferus","L2456392","Home","2025-06-15 22:40",1,43.8203818,-73.4929803,TRUE,FALSE,TRUE,"S250903524"
"20","easwpw1","Eastern Whip-poor-will","Antrostomus vociferus","L24519122","Fresh Start","2025-06-15 22:01",1,42.941374,-85.396474,TRUE,TRUE,TRUE,"S250896838"
"21","easwpw1","Eastern Whip-poor-will","Antrostomus vociferus","L33485162","Seven Lakes Dr the U-turn spot","2025-06-15 22:01",2,41.21287,-74.122513,TRUE,FALSE,TRUE,"S250897133"
"22","easwpw1","Eastern Whip-poor-will","Antrostomus vociferus","L29715191","3701 Newt Fulford Road, Bloomington, Indiana, US (39.281, -86.496)","2025-06-15 21:52",NA,39.2813737,-86.4962659,TRUE,FALSE,TRUE,"S250895365"
"23","easwpw1","Eastern Whip-poor-will","Antrostomus vociferus","L47510713","Woodlea","2025-06-15 21:44",1,43.137531,-90.236031,TRUE,FALSE,TRUE,"S250903936"
"24","easwpw1","Eastern Whip-poor-will","Antrostomus vociferus","L18184445","Cabin","2025-06-15 21:24",1,44.410912,-83.622468,TRUE,FALSE,TRUE,"S250904300"
"25","easwpw1","Eastern Whip-poor-will","Antrostomus vociferus","L47774026","No.Gulf Rd-Belchertown","2025-06-15 21:05",2,42.3513893,-72.4367102,TRUE,FALSE,TRUE,"S251039060"
"26","easwpw1","Eastern Whip-poor-will","Antrostomus vociferus","L16909299","4761","2025-06-15 21:03",1,38.169754,-78.658768,TRUE,FALSE,TRUE,"S250888054"
"27","easwpw1","Eastern Whip-poor-will","Antrostomus vociferus","L21075657","Home (WI)","2025-06-15 20:58",3,44.2903756,-89.7996643,TRUE,FALSE,TRUE,"S251126201"
"28","easwpw1","Eastern Whip-poor-will","Antrostomus vociferus","L6707983","Cathy and Gerald DeNeal home","2025-06-15 20:57",2,37.6190628,-88.4855792,TRUE,FALSE,TRUE,"S250919905"
"29","easwpw1","Eastern Whip-poor-will","Antrostomus vociferus","L14460401","Cedar Pond, Milan US-NH (44.5948,-71.2697)","2025-06-15 20:55",2,44.594771,-71.269686,TRUE,FALSE,TRUE,"S250883713"
"30","easwpw1","Eastern Whip-poor-will","Antrostomus vociferus","L17857844","Magnolia Dr, Olive Hill US-KY 38.19955, -83.07006","2025-06-15 20:44",3,38.199547,-83.070058,TRUE,FALSE,TRUE,"S250882652"
"31","easwpw1","Eastern Whip-poor-will","Antrostomus vociferus","L47746847","Fire Tower Road, Parsons, Tennessee, US (35.639, -88.066)","2025-06-15 20:35",4,35.6392039,-88.0657693,TRUE,FALSE,TRUE,"S250903346"
"32","easwpw1","Eastern Whip-poor-will","Antrostomus vociferus","L3577681","Burrs Mill Road","2025-06-15 20:30",1,39.9067735,-74.6623135,TRUE,FALSE,FALSE,"S251111855"
"33","easwpw1","Eastern Whip-poor-will","Antrostomus vociferus","L2257298","Kennebunk Plains--Maguire Rd.","2025-06-15 19:55",5,43.3940482,-70.6263399,TRUE,FALSE,FALSE,"S250884289"
"34","easwpw1","Eastern Whip-poor-will","Antrostomus vociferus","L468673","Frances A. Crane WMA","2025-06-15 19:37",3,41.6348031,-70.5607738,TRUE,FALSE,FALSE,"S250889656"
"35","easwpw1","Eastern Whip-poor-will","Antrostomus vociferus","L30964472","Jordan Game Land--Transis Camp Power Line & Trails ONLY","2025-06-15 19:30",4,35.859583,-78.985623,TRUE,FALSE,FALSE,"S251093138"
"36","easwpw1","Eastern Whip-poor-will","Antrostomus vociferus","L6948925","286 Baker Drive, Monterey, TN","2025-06-15 19:17",1,36.1038813,-85.2301669,TRUE,FALSE,TRUE,"S250898917"
"37","easwpw1","Eastern Whip-poor-will","Antrostomus vociferus","L16427948","Otter Lake County Park","2025-06-15 18:52",1,45.08744,-90.95544,TRUE,FALSE,FALSE,"S250865600"
"38","easwpw1","Eastern Whip-poor-will","Antrostomus vociferus","L11607627","Bird Central","2025-06-15 15:30",1,41.4183177,-75.1358349,TRUE,FALSE,TRUE,"S250792622"
"39","easwpw1","Eastern Whip-poor-will","Antrostomus vociferus","L351948","Johnson's Shut-Ins SP","2025-06-15 09:55",NA,37.5399083,-90.8431306,TRUE,FALSE,FALSE,"S251052268"
"40","easwpw1","Eastern Whip-poor-will","Antrostomus vociferus","L11715222","Fort Liberty North / West (Restricted Military Access)","2025-06-15 05:50",2,35.1859952,-79.2587246,TRUE,FALSE,FALSE,"S250593176"
"41","easwpw1","Eastern Whip-poor-will","Antrostomus vociferus","L43170501","Puncheon Camp Branch, Indian Creek, Menifee, KY (Private Property)","2025-06-15 05:45",1,37.9188062,-83.6863176,TRUE,FALSE,TRUE,"S250893024"
"42","easwpw1","Eastern Whip-poor-will","Antrostomus vociferus","L32285905","Gross Point Dawn","2025-06-15 05:26",5,33.565325,-82.389707,TRUE,FALSE,TRUE,"S250523897"
"43","easwpw1","Eastern Whip-poor-will","Antrostomus vociferus","L47653512","Lawrence County, Ohio Texas Hollow Road BBS Starting Spot","2025-06-15 05:16",1,38.686213,-82.6160097,TRUE,FALSE,TRUE,"S250490988"
"44","easwpw1","Eastern Whip-poor-will","Antrostomus vociferus","L46871676","122 Valentine Acres Rd, Clearville US-PA (39.7395,-78.5437)","2025-06-15 05:06",3,39.739493,-78.543732,TRUE,FALSE,TRUE,"S250490877"
"45","easwpw1","Eastern Whip-poor-will","Antrostomus vociferus","L210368","Oak Openings Preserve Metropark","2025-06-15 05:00",6,41.551807,-83.8502312,TRUE,FALSE,FALSE,"S250868866"
"46","easwpw1","Eastern Whip-poor-will","Antrostomus vociferus","L17980431","Dalton Rd, Mill Spring (private road)","2025-06-15 05:00",1,35.3164263,-82.1437048,TRUE,FALSE,TRUE,"S250491503"
"47","easwpw1","Eastern Whip-poor-will","Antrostomus vociferus","L34867117","St. Croix Campground","2025-06-15 05:00",1,45.764457,-92.776924,TRUE,FALSE,TRUE,"S250522916"
"48","easwpw1","Eastern Whip-poor-will","Antrostomus vociferus","L47652739","Jakes Rocks Rd, Sheffield US-PA 41.83382, -79.01693","2025-06-15 04:59",1,41.833821,-79.016931,TRUE,FALSE,TRUE,"S250487870"
"49","easwpw1","Eastern Whip-poor-will","Antrostomus vociferus","L47488554","Starrs Trail, Roscommon US-MI 44.53660, -84.39485","2025-06-15 04:58",2,44.536603,-84.394852,TRUE,FALSE,TRUE,"S250504277"
"50","easwpw1","Eastern Whip-poor-will","Antrostomus vociferus","L47654741","Pine Lake Camp, Westfield US-WI 43.93285, -89.57328","2025-06-15 04:26",1,43.932854,-89.573281,TRUE,FALSE,TRUE,"S250495470"
"51","easwpw1","Eastern Whip-poor-will","Antrostomus vociferus","L47652842","Jakes Rocks Rd, Sheffield US-PA (41.8361,-79.0264)","2025-06-15 04:17",1,41.836138,-79.026427,TRUE,FALSE,TRUE,"S250488268"
"52","easwpw1","Eastern Whip-poor-will","Antrostomus vociferus","L198255","Wells","2025-06-15 04:15",3,43.32199,-70.5809,TRUE,FALSE,TRUE,"S250700564"
"53","easwpw1","Eastern Whip-poor-will","Antrostomus vociferus","L4513997","Warbler Creek Farm","2025-06-15 04:08",3,37.4221027,-79.5502889,TRUE,FALSE,TRUE,"S250672899"
"54","easwpw1","Eastern Whip-poor-will","Antrostomus vociferus","L47652700","Jakes Rocks Rd—pullout","2025-06-15 04:06",1,41.837052,-79.024802,TRUE,FALSE,TRUE,"S250487730"
"55","easwpw1","Eastern Whip-poor-will","Antrostomus vociferus","L47713970","Wannebo and FS 252","2025-06-15 04:02",5,46.659802,-91.069001,TRUE,FALSE,TRUE,"S250760700"
"56","easwpw1","Eastern Whip-poor-will","Antrostomus vociferus","L4225264","Briery Branch Gap","2025-06-15 03:57",4,38.4820277,-79.2208779,TRUE,FALSE,FALSE,"S250726849"
"57","easwpw1","Eastern Whip-poor-will","Antrostomus vociferus","L9527731","5MR Turkey Creek Rd 05","2025-06-15 03:18",1,37.174134,-84.832049,TRUE,FALSE,TRUE,"S250635348"
"58","easwpw1","Eastern Whip-poor-will","Antrostomus vociferus","L13104176","Guinea Rd, Charlotte VT","2025-06-14 23:15",1,44.30947,-73.213277,TRUE,FALSE,TRUE,"S250434556"
"59","easwpw1","Eastern Whip-poor-will","Antrostomus vociferus","L47585181","4267 MN-61, Two Harbors US-MN 47.22236, -91.35188","2025-06-14 22:28",1,47.222355,-91.351884,TRUE,FALSE,TRUE,"S250438679"
"60","easwpw1","Eastern Whip-poor-will","Antrostomus vociferus","L2185875","Oak Openings--Girdham Rd. @ Reed Rd.","2025-06-14 22:06",2,41.5492505,-83.854351,TRUE,FALSE,FALSE,"S250423551"
"61","easwpw1","Eastern Whip-poor-will","Antrostomus vociferus","L47656645","1106–1178 NY-812, Harrisville US-NY 44.21812, -75.36998","2025-06-14 22:02",3,44.21812,-75.369978,TRUE,FALSE,TRUE,"S250503095"
"62","easwpw1","Eastern Whip-poor-will","Antrostomus vociferus","L47690208","N Manistee River Rd, Grayling","2025-06-14 22:00",1,44.6974795,-84.83002,TRUE,FALSE,TRUE,"S250666787"
"63","easwpw1","Eastern Whip-poor-will","Antrostomus vociferus","L1557788","Oak Openings--Girdham Rd. Sand Dunes","2025-06-14 21:54",2,41.5546927,-83.8525559,TRUE,FALSE,FALSE,"S250422075"
"64","easwpw1","Eastern Whip-poor-will","Antrostomus vociferus","L16196765","7001–7485 Bowens Mill Rd, Middleville US-MI 42.65252, -85.43298","2025-06-14 21:45",1,42.652521,-85.432976,TRUE,FALSE,TRUE,"S250420424"
"65","easwpw1","Eastern Whip-poor-will","Antrostomus vociferus","L11106572","Morgan Manor","2025-06-14 21:45",1,41.4572444,-75.683492,TRUE,FALSE,TRUE,"S250420022"
"66","easwpw1","Eastern Whip-poor-will","Antrostomus vociferus","L17059290","Mosier Marsh","2025-06-14 21:43",1,43.638186,-73.436351,TRUE,FALSE,TRUE,"S250419542"
"67","easwpw1","Eastern Whip-poor-will","Antrostomus vociferus","L47577407","St. Croix Pines Campground","2025-06-14 21:37",1,45.8907484,-92.4588616,TRUE,FALSE,TRUE,"S250428217"
"68","easwpw1","Eastern Whip-poor-will","Antrostomus vociferus","L47744394","Patterson Run Road, Harrisville, PA","2025-06-14 21:35",1,39.9755634,-78.0524855,TRUE,FALSE,TRUE,"S250893041"
"69","easwpw1","Eastern Whip-poor-will","Antrostomus vociferus","L609946","Andrus Lake CG","2025-06-14 21:33",1,46.7034,-85.03778,TRUE,FALSE,FALSE,"S250422306"
"70","easwpw1","Eastern Whip-poor-will","Antrostomus vociferus","L47637427","2478 Glencarin Rd, Rogers US-KY 37.75994, -83.66496","2025-06-14 21:30",1,37.759944,-83.664959,TRUE,FALSE,TRUE,"S250417452"
"71","easwpw1","Eastern Whip-poor-will","Antrostomus vociferus","L25822955","Scheck's Place Trail Camp","2025-06-14 21:27",2,44.6524386,-85.4465675,TRUE,FALSE,TRUE,"S250420259"
"72","easwpw1","Eastern Whip-poor-will","Antrostomus vociferus","L4754020","Cherokee NF--Unaka Mountain Rd.","2025-06-14 21:25",2,36.13107,-82.30814,TRUE,FALSE,FALSE,"S250438318"
"73","easwpw1","Eastern Whip-poor-will","Antrostomus vociferus","L47660099","Halterman Hollow Lane (private)","2025-06-14 21:21",2,38.4619115,-79.5485369,TRUE,FALSE,TRUE,"S250415865"
"74","easwpw1","Eastern Whip-poor-will","Antrostomus vociferus","L39977128","103 Elmwood Terr, Huddleston US-VA 37.06705, -79.53702","2025-06-14 21:20",2,37.067053,-79.537021,TRUE,FALSE,TRUE,"S250416625"
"75","easwpw1","Eastern Whip-poor-will","Antrostomus vociferus","L24728053","Porch","2025-06-14 21:13",1,36.841839,-92.572727,TRUE,FALSE,TRUE,"S250424726"
"76","easwpw1","Eastern Whip-poor-will","Antrostomus vociferus","L31582603","04010, Brownfield US-ME (43.9138,-70.9861)","2025-06-14 21:09",1,43.913839,-70.986115,TRUE,FALSE,TRUE,"S250413591"
"77","easwpw1","Eastern Whip-poor-will","Antrostomus vociferus","L47640617","Tacoma Lake Rd, Carbondale","2025-06-14 21:05",1,37.629074,-89.087179,TRUE,FALSE,TRUE,"S250429331"
"78","easwpw1","Eastern Whip-poor-will","Antrostomus vociferus","L1300576","Oak Glen WMA","2025-06-14 20:59",2,40.9797037,-96.9908237,TRUE,TRUE,FALSE,"S250427023"
"79","easwpw1","Eastern Whip-poor-will","Antrostomus vociferus","L32712776","West Saugerties Road","2025-06-14 20:57",1,42.0795825,-74.066041,TRUE,FALSE,TRUE,"S250410820"
"80","easwpw1","Eastern Whip-poor-will","Antrostomus vociferus","L19743036","Rock Creek Rd","2025-06-14 20:52",2,36.1288661,-82.3553691,TRUE,FALSE,TRUE,"S250438507"
"81","easwpw1","Eastern Whip-poor-will","Antrostomus vociferus","L15208712","PRIVATE ACCESS Malone","2025-06-14 20:52",2,44.72458,-74.20704,TRUE,FALSE,TRUE,"S250423636"
"82","easwpw1","Eastern Whip-poor-will","Antrostomus vociferus","L312441","Weldon Spring CA--Lost Valley Trail","2025-06-14 20:51",1,38.661,-90.758,TRUE,FALSE,FALSE,"S250434566"
"83","easwpw1","Eastern Whip-poor-will","Antrostomus vociferus","L716702","The Cabin, New Creek Mtn Estates, Grant Co","2025-06-14 20:50",5,39.0256435,-79.2185175,TRUE,FALSE,TRUE,"S250413341"
"84","easwpw1","Eastern Whip-poor-will","Antrostomus vociferus","L18544218","Sand Bay SF--Boat Launch, Lake Bonaparte","2025-06-14 20:49",2,44.160681,-75.39009,TRUE,FALSE,FALSE,"S250502745"
"85","easwpw1","Eastern Whip-poor-will","Antrostomus vociferus","L15515104","Jim's cabin","2025-06-14 20:47",3,37.8296013,-91.1279831,TRUE,FALSE,TRUE,"S250424759"
"86","easwpw1","Eastern Whip-poor-will","Antrostomus vociferus","L43802168","1738–2034 Logsdon Valley Rd, Munfordville US-KY 37.26778, -85.95813","2025-06-14 20:31",1,37.267785,-85.95813,TRUE,FALSE,TRUE,"S250424337"
"87","easwpw1","Eastern Whip-poor-will","Antrostomus vociferus","L6146686","Surry Forest (BHHT)","2025-06-14 20:26",4,44.4999337,-68.5615969,TRUE,TRUE,FALSE,"S250412272"
"88","easwpw1","Eastern Whip-poor-will","Antrostomus vociferus","L23594029","Stumpy's Private Yard, Errol NH","2025-06-14 20:24",1,44.8016334,-71.1748965,TRUE,FALSE,TRUE,"S250581232"
"89","easwpw1","Eastern Whip-poor-will","Antrostomus vociferus","L1326888","Crex Meadows SWA--Dike 1","2025-06-14 20:16",1,45.8589589,-92.6030579,TRUE,FALSE,FALSE,"S250428830"
"90","easwpw1","Eastern Whip-poor-will","Antrostomus vociferus","L47736486","Auto selected 35.08139, -84.64844","2025-06-14 20:16",1,35.081386,-84.64844,TRUE,FALSE,TRUE,"S250854642"
"91","easwpw1","Eastern Whip-poor-will","Antrostomus vociferus","L724290","Cedars of Lebanon SF--Vesta Cedar Glade SNA","2025-06-14 18:53",1,36.0770072,-86.3986864,TRUE,FALSE,FALSE,"S250427842"
"92","easwpw1","Eastern Whip-poor-will","Antrostomus vociferus","L167477","Kennebunk Plains","2025-06-14 18:35",3,43.40066,-70.62553,TRUE,FALSE,FALSE,"S250422628"
"93","easwpw1","Eastern Whip-poor-will","Antrostomus vociferus","L167247","Jones Beach SP","2025-06-14 18:34",1,40.5945237,-73.5104002,TRUE,TRUE,FALSE,"S250428916"
"94","easwpw1","Eastern Whip-poor-will","Antrostomus vociferus","L129046","Parker River NWR","2025-06-14 17:54",11,42.7639008,-70.8022995,TRUE,FALSE,FALSE,"S250432589"
"95","easwpw1","Eastern Whip-poor-will","Antrostomus vociferus","L207394","Myles Standish SF","2025-06-14 16:30",1,41.858,-70.667,TRUE,FALSE,FALSE,"S250861690"
"96","easwpw1","Eastern Whip-poor-will","Antrostomus vociferus","L1190280","Forbes SF--Spruce Flats Bog Area (Westmoreland Co.)","2025-06-14 14:52",1,40.1218789,-79.1749907,TRUE,FALSE,FALSE,"S250356788"
"97","easwpw1","Eastern Whip-poor-will","Antrostomus vociferus","L13741484","But n Ben (Private)","2025-06-14 14:04",1,39.133634,-78.5856413,TRUE,FALSE,TRUE,"S250432462"
"98","easwpw1","Eastern Whip-poor-will","Antrostomus vociferus","L39409734","2315 Wickline Rd, Beaver US-OH 39.12905, -82.80808","2025-06-14 10:08",2,39.129055,-82.808084,TRUE,FALSE,TRUE,"S250919023"
"99","easwpw1","Eastern Whip-poor-will","Antrostomus vociferus","L20720620","The Cabin","2025-06-14 09:46",2,40.8211398,-92.6461942,TRUE,FALSE,TRUE,"S250214831"
"100","easwpw1","Eastern Whip-poor-will","Antrostomus vociferus","L5991814","Shenandoah NP--Hazel Mountain Trail","2025-06-14 09:31",1,38.6383566,-78.3136261,TRUE,FALSE,FALSE,"S250406302"
"101","easwpw1","Eastern Whip-poor-will","Antrostomus vociferus","L47729762","44465 Sawmill Rd, Redwood US-NY 44.31070, -75.72940","2025-06-14 09:11",3,44.310699,-75.729396,TRUE,FALSE,TRUE,"S250824004"
"102","easwpw1","Eastern Whip-poor-will","Antrostomus vociferus","L2885876","White Oak Branch WMA","2025-06-14 08:39",1,39.6037947,-74.9793291,TRUE,FALSE,FALSE,"S250779303"
"103","easwpw1","Eastern Whip-poor-will","Antrostomus vociferus","L4269370","Indigo Hill, Whipple, Ohio","2025-06-14 08:08",2,39.541845,-81.323901,TRUE,FALSE,TRUE,"S250413288"
"104","easwpw1","Eastern Whip-poor-will","Antrostomus vociferus","L781564","Cherokee NF--Rock Creek Recreation Area","2025-06-14 05:53",3,36.1373895,-82.3531723,TRUE,FALSE,FALSE,"S250251204"
"105","easwpw1","Eastern Whip-poor-will","Antrostomus vociferus","L47726922","Huron-Manistee National Forests, Holton US-MI 43.47736, -86.19465","2025-06-14 05:45",1,43.477361,-86.194654,TRUE,FALSE,TRUE,"S250827042"
"106","easwpw1","Eastern Whip-poor-will","Antrostomus vociferus","L47461896","Kairos Campground - West Virginia Side","2025-06-14 05:32",1,37.39864,-80.8730704,TRUE,FALSE,TRUE,"S250097423"
"107","easwpw1","Eastern Whip-poor-will","Antrostomus vociferus","L4995305","*Little Biscuit Mini Farm","2025-06-14 05:31",1,36.2688088,-82.3749518,TRUE,FALSE,TRUE,"S250098178"
"108","easwpw1","Eastern Whip-poor-will","Antrostomus vociferus","L1856902","Plum Branch","2025-06-14 05:22",2,35.9332696,-82.2344897,TRUE,FALSE,TRUE,"S250096816"
"109","easwpw1","Eastern Whip-poor-will","Antrostomus vociferus","L47562646","Stop 1","2025-06-14 05:18",1,38.277993,-92.901916,TRUE,FALSE,TRUE,"S250108493"
"110","easwpw1","Eastern Whip-poor-will","Antrostomus vociferus","L911544","State Game Lands 33--Sandy Ridge","2025-06-14 05:15",1,40.8280502,-78.1475759,TRUE,FALSE,FALSE,"S250220605"
"111","easwpw1","Eastern Whip-poor-will","Antrostomus vociferus","L6177456","Home, FM","2025-06-14 05:00",2,38.1525068,-90.4023263,TRUE,FALSE,TRUE,"S250422754"
"112","easwpw1","Eastern Whip-poor-will","Antrostomus vociferus","L886747","Mazomanie Oak Barrens SNA","2025-06-14 04:30",2,43.2409511,-89.7463006,TRUE,FALSE,FALSE,"S250280599"
"113","easwpw1","Eastern Whip-poor-will","Antrostomus vociferus","L279857","Connetquot River SP","2025-06-14 04:15",1,40.7709151,-73.1553978,TRUE,FALSE,FALSE,"S250530105"
"114","easwpw1","Eastern Whip-poor-will","Antrostomus vociferus","L47556361","4225 Peak Drive, Massanutten, Virginia, US (38.405, -78.758)","2025-06-14 04:08",1,38.4050123,-78.7576735,TRUE,FALSE,TRUE,"S250083870"
"115","easwpw1","Eastern Whip-poor-will","Antrostomus vociferus","L47552764","Parent’s House","2025-06-14 02:22",1,43.02303,-71.512301,TRUE,FALSE,TRUE,"S250066692"
"116","easwpw1","Eastern Whip-poor-will","Antrostomus vociferus","L1024347","Kings Gap Environmental Education Center","2025-06-14 02:00",2,40.0924937,-77.2678006,TRUE,FALSE,FALSE,"S251039447"
"117","easwpw1","Eastern Whip-poor-will","Antrostomus vociferus","L28021088","DriftlessBliss LLC","2025-06-14 01:06",1,43.0591,-90.0938,TRUE,FALSE,TRUE,"S250065702"
"118","easwpw1","Eastern Whip-poor-will","Antrostomus vociferus","L23204975","Wayne National Forest, Nelsonville US-OH 39.49592, -82.25403","2025-06-13 21:51",1,39.495919,-82.254026,TRUE,FALSE,TRUE,"S250034427"
"119","easwpw1","Eastern Whip-poor-will","Antrostomus vociferus","L47548160","Munger Shaw and Taft","2025-06-13 21:48",1,47.006663,-92.340229,TRUE,FALSE,TRUE,"S250043487"
"120","easwpw1","Eastern Whip-poor-will","Antrostomus vociferus","L11042310","Bullhead Pond","2025-06-13 21:45",1,44.8187202,-91.3917627,TRUE,FALSE,TRUE,"S250285099"
"121","easwpw1","Eastern Whip-poor-will","Antrostomus vociferus","L21064293","McLaughlin House—12323 Kenwood Dr, Petersburg US-PA","2025-06-13 21:37",1,40.668716,-77.842354,TRUE,FALSE,TRUE,"S250032098"
"122","easwpw1","Eastern Whip-poor-will","Antrostomus vociferus","L47552886","Halfway Rd, E of Huffgard","2025-06-13 21:36",1,46.445183,-91.520779,TRUE,FALSE,TRUE,"S250067232"
"123","easwpw1","Eastern Whip-poor-will","Antrostomus vociferus","L47545759","7500 East Allens Creek Road, Bloomington, Indiana, US (39.033, -86.417)","2025-06-13 21:36",2,39.0326397,-86.417287,TRUE,FALSE,TRUE,"S250033765"
"124","easwpw1","Eastern Whip-poor-will","Antrostomus vociferus","L25436723","Montello Casa","2025-06-13 21:30",1,43.7848071,-89.3195188,TRUE,FALSE,TRUE,"S250060140"
"125","easwpw1","Eastern Whip-poor-will","Antrostomus vociferus","L47548348","182 Muchado Hill Rd, Alton US-NH 43.38133, -71.20326","2025-06-13 21:30",2,43.381332,-71.203263,TRUE,FALSE,TRUE,"S250044279"
"126","easwpw1","Eastern Whip-poor-will","Antrostomus vociferus","L9186550","Highway 303 Agricultural Fields","2025-06-13 21:29",1,36.185211,-93.91492,TRUE,FALSE,TRUE,"S250242499"
"127","easwpw1","Eastern Whip-poor-will","Antrostomus vociferus","L5938609","Lonesome Bay SF","2025-06-13 21:28",4,44.43347,-75.659865,TRUE,FALSE,FALSE,"S250036563"
"128","easwpw1","Eastern Whip-poor-will","Antrostomus vociferus","L2029064","Sideling Hill Visitor Center","2025-06-13 21:22",1,39.7185266,-78.2806134,TRUE,FALSE,FALSE,"S250889675"
"129","easwpw1","Eastern Whip-poor-will","Antrostomus vociferus","L47549054","34868–34898 E 320th Ave, Gilman City US-MO 40.20596, -93.82116","2025-06-13 21:19",1,40.20596,-93.821159,TRUE,FALSE,TRUE,"S250047511"
"130","easwpw1","Eastern Whip-poor-will","Antrostomus vociferus","L24290154","2720 Mountain Road, Suffield, Connecticut, US (42.013, -72.726)home","2025-06-13 21:18",2,42.0133067,-72.7261779,TRUE,FALSE,TRUE,"S250737664"
"131","easwpw1","Eastern Whip-poor-will","Antrostomus vociferus","L27034520","10513 Bottom Creek Road, Bent Mountain, Virginia, US (37.151, -80.139) Yard Birds","2025-06-13 21:18",1,37.1510645,-80.1394945,TRUE,FALSE,TRUE,"S250029616"
"132","easwpw1","Eastern Whip-poor-will","Antrostomus vociferus","L22511919","Leech Creek Public Fishing Area","2025-06-13 21:14",1,43.5202595,-89.68745,TRUE,FALSE,TRUE,"S250037502"
"133","easwpw1","Eastern Whip-poor-will","Antrostomus vociferus","L40548942","3 Briar Rd, Truro US-MA 41.97348, -70.07226","2025-06-13 21:13",1,41.973475,-70.072258,TRUE,FALSE,TRUE,"S250027759"
"134","easwpw1","Eastern Whip-poor-will","Antrostomus vociferus","L2503185","War Eagle Mill","2025-06-13 21:12",2,36.2673116,-93.9430864,TRUE,FALSE,FALSE,"S250037331"
"135","easwpw1","Eastern Whip-poor-will","Antrostomus vociferus","L6580389","Rural home site","2025-06-13 21:09",1,39.8529613,-78.6028647,TRUE,FALSE,TRUE,"S250027761"
"136","easwpw1","Eastern Whip-poor-will","Antrostomus vociferus","L47547799","77 Morgan Rd.","2025-06-13 21:07",1,47.716786,-90.500757,TRUE,FALSE,TRUE,"S250042072"
"137","easwpw1","Eastern Whip-poor-will","Antrostomus vociferus","L3609722","Knox Scout Reservation","2025-06-13 21:00",2,33.7706573,-82.2957408,TRUE,FALSE,TRUE,"S250028735"
"138","easwpw1","Eastern Whip-poor-will","Antrostomus vociferus","L1966977","Home","2025-06-13 21:00",1,39.6217224,-74.6656179,TRUE,FALSE,TRUE,"S250260118"
"139","easwpw1","Eastern Whip-poor-will","Antrostomus vociferus","L47545184","Ritter’s Hidden Valley","2025-06-13 20:56",4,39.261816,-78.469401,TRUE,FALSE,TRUE,"S250031384"
"140","easwpw1","Eastern Whip-poor-will","Antrostomus vociferus","L19334167","Church on Hamilton rd","2025-06-13 20:52",1,38.757243,-83.390769,TRUE,FALSE,TRUE,"S250044457"
"141","easwpw1","Eastern Whip-poor-will","Antrostomus vociferus","L39515970","945 Little Mountain Drive, Romney, WestVirginia, US (39.237, -78.829)","2025-06-13 20:50",4,39.2369708,-78.8287611,TRUE,FALSE,TRUE,"S251183939"
"142","easwpw1","Eastern Whip-poor-will","Antrostomus vociferus","L47552822","Halfway Rd between Church and Webster","2025-06-13 20:47",1,46.445431,-91.479159,TRUE,FALSE,TRUE,"S250066969"
"143","easwpw1","Eastern Whip-poor-will","Antrostomus vociferus","L19179510","PA-487, Lopez US-PA 41.40452, -76.28413","2025-06-13 20:46",4,41.404517,-76.284134,TRUE,FALSE,TRUE,"S250036739"
"144","easwpw1","Eastern Whip-poor-will","Antrostomus vociferus","L9657397","Flagstaff Road Bridge","2025-06-13 20:45",2,45.1963949,-70.4582271,TRUE,FALSE,FALSE,"S250027347"
"145","easwpw1","Eastern Whip-poor-will","Antrostomus vociferus","L15816127","Hartley Lake","2025-06-13 20:45",NA,47.5632742,-93.2992149,TRUE,FALSE,TRUE,"S250892462"
"146","easwpw1","Eastern Whip-poor-will","Antrostomus vociferus","L303100","Belleplain SF--Sunset Bridge & triangle area","2025-06-13 20:41",1,39.2420852,-74.876593,TRUE,FALSE,FALSE,"S250582573"
"147","easwpw1","Eastern Whip-poor-will","Antrostomus vociferus","L17556612","Maxwell Ridge, West Union US-WV 39.25242, -80.74493","2025-06-13 20:34",3,39.252418,-80.744932,TRUE,FALSE,TRUE,"S250031464"
"148","easwpw1","Eastern Whip-poor-will","Antrostomus vociferus","L815510","USFWS Karner Blue Easement, Concord","2025-06-13 20:30",2,43.2081475,-71.4938092,TRUE,FALSE,FALSE,"S250024866"
"149","easwpw1","Eastern Whip-poor-will","Antrostomus vociferus","L37498221","End Old Schoolhouse Road","2025-06-13 20:28",3,44.6787253,-69.7626908,TRUE,FALSE,TRUE,"S250361167"
"150","easwpw1","Eastern Whip-poor-will","Antrostomus vociferus","L566195","Gardner Airport","2025-06-13 20:27",1,42.5544713,-72.0183849,TRUE,FALSE,FALSE,"S250029664"
"151","easwpw1","Eastern Whip-poor-will","Antrostomus vociferus","L47548981","4800 Hebbertsburg Road, Crab Orchard, Tennessee, US (35.961, -84.831)","2025-06-13 20:21",2,35.96075,-84.8312077,TRUE,FALSE,TRUE,"S250047173"
"152","easwpw1","Eastern Whip-poor-will","Antrostomus vociferus","L47547878","21033 Wolf Lake Trail, Bovey US-MN 47.56424, -93.29972","2025-06-13 19:08",2,47.564239,-93.29972,TRUE,FALSE,TRUE,"S250042382"
"153","easwpw1","Eastern Whip-poor-will","Antrostomus vociferus","L383829","Waubonsie SP","2025-06-13 17:50",2,40.6785551,-95.6919479,TRUE,FALSE,FALSE,"S250850190"
"154","easwpw1","Eastern Whip-poor-will","Antrostomus vociferus","L13927886","198 Longhorn Road, Elkland, Missouri, US (37.429, -93.07)","2025-06-13 17:48",1,37.428696,-93.070078,TRUE,FALSE,TRUE,"S250039817"
"155","easwpw1","Eastern Whip-poor-will","Antrostomus vociferus","L2457358","Altona Flat Rock--Dam Area","2025-06-13 17:45",9,44.83916,-73.57087,TRUE,FALSE,FALSE,"S250038767"
"156","easwpw1","Eastern Whip-poor-will","Antrostomus vociferus","L18196565","Cherries","2025-06-13 15:56",1,41.416777,-70.64874,TRUE,FALSE,TRUE,"S250025456"
"157","easwpw1","Eastern Whip-poor-will","Antrostomus vociferus","L507075","Buckhorn SP","2025-06-13 14:18",2,43.9363492,-90.0092915,TRUE,FALSE,FALSE,"S249937575"
"158","easwpw1","Eastern Whip-poor-will","Antrostomus vociferus","L47323091","Echo Lake Campground","2025-06-13 09:51",3,48.171147,-92.492046,TRUE,FALSE,TRUE,"S250019118"
"159","easwpw1","Eastern Whip-poor-will","Antrostomus vociferus","L4304119","Barzen Home","2025-06-13 09:00",1,43.2056993,-89.9144697,TRUE,FALSE,TRUE,"S250025299"
"160","easwpw1","Eastern Whip-poor-will","Antrostomus vociferus","L46967199","Guard Camp Road, Toccoa US-GA 34.53656, -83.41356","2025-06-13 06:10",2,34.536557,-83.413561,TRUE,FALSE,TRUE,"S249870464"
"161","easwpw1","Eastern Whip-poor-will","Antrostomus vociferus","L47742578","blue heron campground","2025-06-13 06:00",2,36.6780566,-84.5191097,TRUE,FALSE,TRUE,"S250885236"
"162","easwpw1","Eastern Whip-poor-will","Antrostomus vociferus","L47512416","Grandfather Mountain SE: 8042–8044 Pineola Rd, Newland US-NC 36.00747, -81.80098","2025-06-13 05:33",5,36.007475,-81.800978,TRUE,FALSE,TRUE,"S249894305"
"163","easwpw1","Eastern Whip-poor-will","Antrostomus vociferus","L718772","Todd Lake","2025-06-13 05:30",NA,38.3654,-79.2087,TRUE,FALSE,FALSE,"S250829221"
"164","easwpw1","Eastern Whip-poor-will","Antrostomus vociferus","L19455172","BBSMunson4","2025-06-13 05:28",2,40.9236981,-78.0829715,TRUE,FALSE,TRUE,"S249835408"
"165","easwpw1","Eastern Whip-poor-will","Antrostomus vociferus","L47483255","Allens Creek Road","2025-06-13 05:26",4,39.0343839,-86.4092573,TRUE,FALSE,TRUE,"S249757597"
"166","easwpw1","Eastern Whip-poor-will","Antrostomus vociferus","L19454969","BBSMunson1","2025-06-13 05:12",1,40.9149943,-78.0608808,TRUE,FALSE,TRUE,"S249835739"
"167","easwpw1","Eastern Whip-poor-will","Antrostomus vociferus","L4245938","Dry Run Road","2025-06-13 05:00",1,37.2920534,-80.3312346,TRUE,FALSE,TRUE,"S249777914"
"168","easwpw1","Eastern Whip-poor-will","Antrostomus vociferus","L47519588","approx location of EWPW heard fr Narrow Ln","2025-06-13 04:57",1,39.7954813,-78.6885946,TRUE,FALSE,TRUE,"S249924022"
"169","easwpw1","Eastern Whip-poor-will","Antrostomus vociferus","L47481966","569–699 Narrow Ln, Bedford US-PA 39.79245, -78.67515","2025-06-13 04:56",2,39.792445,-78.675146,TRUE,FALSE,TRUE,"S249752301"
"170","easwpw1","Eastern Whip-poor-will","Antrostomus vociferus","L47584518","624–754 Sulphur Springs Rd, Williamsport US-PA 41.19114, -76.99300","2025-06-13 04:54",1,41.191138,-76.993004,TRUE,FALSE,TRUE,"S250209305"
"171","easwpw1","Eastern Whip-poor-will","Antrostomus vociferus","L47482056","US-PA 41.19110, -76.99279","2025-06-13 04:51",1,41.191101,-76.992789,TRUE,FALSE,TRUE,"S249752675"
"172","easwpw1","Eastern Whip-poor-will","Antrostomus vociferus","L16410842","Camp Loucon -- 8044 Anneta Rd, Leitchfield US-KY","2025-06-13 04:47",1,37.384825,-86.238785,TRUE,FALSE,TRUE,"S249901557"
"173","easwpw1","Eastern Whip-poor-will","Antrostomus vociferus","L47418038","M-18, Roscommon US-MI 44.53508, -84.42619","2025-06-13 04:45",8,44.535085,-84.426186,TRUE,FALSE,TRUE,"S249766619"
"174","easwpw1","Eastern Whip-poor-will","Antrostomus vociferus","L47504523","State Game Lands 75 - White Pine NW","2025-06-13 04:45",1,41.4652355,-77.213573,TRUE,FALSE,TRUE,"S249861489"
"175","easwpw1","Eastern Whip-poor-will","Antrostomus vociferus","L47519202","SE block area west of Bethel Church","2025-06-13 04:41",1,39.7741746,-78.6746083,TRUE,FALSE,TRUE,"S249922542"
"176","easwpw1","Eastern Whip-poor-will","Antrostomus vociferus","L46732124","2024 Bedford Valley Rd, Bedford US-PA 39.77399, -78.69033","2025-06-13 04:40",1,39.773989,-78.690332,TRUE,FALSE,TRUE,"S249749712"
"177","easwpw1","Eastern Whip-poor-will","Antrostomus vociferus","L1626028","Black Moshannon SP","2025-06-13 04:37",3,40.9022852,-78.0561984,TRUE,FALSE,FALSE,"S249835812"
"178","easwpw1","Eastern Whip-poor-will","Antrostomus vociferus","L15134022","Maryland Point Rd, Nanjemoy","2025-06-13 04:35",1,38.4041284,-77.2017216,TRUE,FALSE,TRUE,"S249766607"
"179","easwpw1","Eastern Whip-poor-will","Antrostomus vociferus","L46784415","Lake Gordon Rd, Bedford US-PA 39.75334, -78.69280","2025-06-13 04:22",1,39.753337,-78.692797,TRUE,FALSE,TRUE,"S249748177"
"180","easwpw1","Eastern Whip-poor-will","Antrostomus vociferus","L47480484","656–698 Bedford Valley Rd, Bedford US-PA 39.73804, -78.70790","2025-06-13 04:19",2,39.738043,-78.707904,TRUE,FALSE,TRUE,"S249746093"
"181","easwpw1","Eastern Whip-poor-will","Antrostomus vociferus","L47484769","MD 6 / Holly Springs Rd Jct, Nanjemoy","2025-06-13 04:16",1,38.4168563,-77.1877171,TRUE,FALSE,TRUE,"S249764510"
"182","easwpw1","Eastern Whip-poor-will","Antrostomus vociferus","L12160475","M-89 & 46th St.","2025-06-13 04:00",1,42.593725,-85.9970824,TRUE,FALSE,TRUE,"S249743989"
"183","easwpw1","Eastern Whip-poor-will","Antrostomus vociferus","L14745928","46th St, Allegan US-MI 42.58883, -85.99644","2025-06-13 03:56",2,42.588831,-85.996438,TRUE,FALSE,TRUE,"S249743379"
"184","easwpw1","Eastern Whip-poor-will","Antrostomus vociferus","L7278602","46th Street, Allegan, Michigan, US (42.582, -85.996)","2025-06-13 03:49",2,42.5817045,-85.9962059,TRUE,FALSE,TRUE,"S249742582"
"185","easwpw1","Eastern Whip-poor-will","Antrostomus vociferus","L9251765","46th Street, Fennville, Michigan, US (42.57, -85.996)","2025-06-13 03:34",1,42.5698537,-85.9960021,TRUE,FALSE,TRUE,"S249740672"
"186","easwpw1","Eastern Whip-poor-will","Antrostomus vociferus","L25201620","46th Street, Fennville, Michigan, US (42.564, -85.996)","2025-06-13 03:30",2,42.56423,-85.9957741,TRUE,FALSE,TRUE,"S249740190"
"187","easwpw1","Eastern Whip-poor-will","Antrostomus vociferus","L25201588","46th Street, Fennville, Michigan, US (42.561, -85.996)","2025-06-13 03:24",4,42.5611645,-85.9957801,TRUE,FALSE,TRUE,"S249739598"
"188","easwpw1","Eastern Whip-poor-will","Antrostomus vociferus","L1154629","Allegan SGA--46th St. between 118th Ave. and 121st Ave.","2025-06-13 03:19",2,42.5567606,-85.995607,TRUE,FALSE,FALSE,"S249738892"
"189","easwpw1","Eastern Whip-poor-will","Antrostomus vociferus","L15134127","MD 224 Riverside Rd, Nanjemoy","2025-06-13 03:19",1,38.3896252,-77.1669403,TRUE,FALSE,TRUE,"S249763794"
"190","easwpw1","Eastern Whip-poor-will","Antrostomus vociferus","L872899","Allegan SGA-Headquarters","2025-06-13 03:11",1,42.5491917,-85.9947968,TRUE,FALSE,TRUE,"S249737744"
"191","easwpw1","Eastern Whip-poor-will","Antrostomus vociferus","L1563763","Allegan SGA--46th St (116th Ave to 118th Ave)","2025-06-13 03:07",1,42.5428956,-85.9949022,TRUE,FALSE,FALSE,"S249737252"
"192","easwpw1","Eastern Whip-poor-will","Antrostomus vociferus","L17803765","243 Spring Rd, Randolph Center US-VT 43.91696, -72.52366","2025-06-13 03:00",1,43.916957,-72.523658,TRUE,FALSE,TRUE,"S249791344"
"193","easwpw1","Eastern Whip-poor-will","Antrostomus vociferus","L2865409","Bashakill State WMA--Haven Rd. (causeway bridge)","2025-06-13 02:55",1,41.5356812,-74.5166769,TRUE,FALSE,FALSE,"S249741366"
"194","easwpw1","Eastern Whip-poor-will","Antrostomus vociferus","L7699533","116th Avenue, Pullman, Michigan, US (42.535, -86.009)","2025-06-13 02:53",1,42.5353872,-86.0088816,TRUE,FALSE,TRUE,"S249735567"
"195","easwpw1","Eastern Whip-poor-will","Antrostomus vociferus","L11738595","Otto Ln","2025-06-13 02:52",2,39.622881,-79.149551,TRUE,FALSE,TRUE,"S250369647"
"196","easwpw1","Eastern Whip-poor-will","Antrostomus vociferus","L10482667","Allegan SGA--48th St and 116th Ave","2025-06-13 02:49",1,42.5357049,-86.0143185,TRUE,FALSE,TRUE,"S249734908"
"197","easwpw1","Eastern Whip-poor-will","Antrostomus vociferus","L761597","Doncaster State Forest","2025-06-13 01:47",1,38.5010269,-77.203331,TRUE,FALSE,FALSE,"S249761138"
"198","easwpw1","Eastern Whip-poor-will","Antrostomus vociferus","L26644833","326 Lyndeborough Road, New Boston, New Hampshire, US (42.945, -71.725)","2025-06-13 01:10",1,42.944623,-71.7247513,TRUE,FALSE,TRUE,"S249866019"
"199","easwpw1","Eastern Whip-poor-will","Antrostomus vociferus","L20829821","41 Beckwith Rd, Oakdale US-CT 41.43704, -72.21260","2025-06-13 00:37",2,41.437043,-72.212604,TRUE,FALSE,TRUE,"S249720005"
"200","easwpw1","Eastern Whip-poor-will","Antrostomus vociferus","L47615351","953 Vauxhall Street Extension, Waterford, Connecticut, US (41.413, -72.161)","2025-06-13 00:22",1,41.4128458,-72.1610825,TRUE,FALSE,TRUE,"S250325458"
"201","easwpw1","Eastern Whip-poor-will","Antrostomus vociferus","L47026491","282 New Hampshire 153, Middleton, New Hampshire, US (43.478, -71.044)","2025-06-12 23:30",NA,43.4783136,-71.0443488,TRUE,FALSE,TRUE,"S249714435"
"202","easwpw1","Eastern Whip-poor-will","Antrostomus vociferus","L12219476","220 Fire St, Oakdale US-CT 41.42561, -72.16410","2025-06-12 23:27",1,41.425614,-72.164101,TRUE,FALSE,TRUE,"S249713573"
"203","easwpw1","Eastern Whip-poor-will","Antrostomus vociferus","L27386449","5MR 1704 Home","2025-06-12 22:00",1,37.167747,-84.851174,TRUE,FALSE,TRUE,"S249716175"
"204","easwpw1","Eastern Whip-poor-will","Antrostomus vociferus","L40935895","119 Pleasant View Dr, Lake Luzerne US-NY 43.26680, -73.83438","2025-06-12 21:59",2,43.266805,-73.834378,TRUE,FALSE,TRUE,"S249703443"
"205","easwpw1","Eastern Whip-poor-will","Antrostomus vociferus","L41951105","Casparis Rd - South Connellsville NE","2025-06-12 21:48",1,39.9774982,-79.5514219,TRUE,FALSE,TRUE,"S249706177"
"206","easwpw1","Eastern Whip-poor-will","Antrostomus vociferus","L33935498","Deward road","2025-06-12 21:45",3,44.9011746,-84.8509725,TRUE,FALSE,TRUE,"S250001733"
"207","easwpw1","Eastern Whip-poor-will","Antrostomus vociferus","L3397473","Kistler home","2025-06-12 21:34",1,37.3011287,-85.9885955,TRUE,FALSE,TRUE,"S249707656"
"208","easwpw1","Eastern Whip-poor-will","Antrostomus vociferus","L2462463","Rocky Gap SP--camping loop","2025-06-12 21:29",1,39.7113795,-78.6453509,TRUE,FALSE,FALSE,"S249705322"
"209","easwpw1","Eastern Whip-poor-will","Antrostomus vociferus","L2481458","Camp Ripley","2025-06-12 21:25",1,46.0865669,-94.3478394,TRUE,FALSE,FALSE,"S249707838"
"210","easwpw1","Eastern Whip-poor-will","Antrostomus vociferus","L25288105","South half of valley - 6681 Leaches Crossing Rd","2025-06-12 21:24",1,43.137053,-90.235999,TRUE,FALSE,TRUE,"S249707041"
"211","easwpw1","Eastern Whip-poor-will","Antrostomus vociferus","L47511999","Private Property bordering Game Lands 50. 852 Walters Mill Road, Somerset, Pennsylvania, US
Do Not Trespass onto Private Properties!","2025-06-12 21:18",3,39.9688873,-79.0652712,TRUE,FALSE,TRUE,"S249818790"
"212","easwpw1","Eastern Whip-poor-will","Antrostomus vociferus","L46070045","SGL 99 - Butler Knob SW section","2025-06-12 21:15",9,40.2787564,-77.9705524,TRUE,FALSE,TRUE,"S249792188"
"213","easwpw1","Eastern Whip-poor-will","Antrostomus vociferus","L31103679","Harriman SP Lake Welch Drive","2025-06-12 21:11",2,41.231048,-74.089409,TRUE,FALSE,TRUE,"S249697969"
"214","easwpw1","Eastern Whip-poor-will","Antrostomus vociferus","L13697267","1672 Marshall Graves Rd, Yanceyville US-NC 36.33406, -79.38427","2025-06-12 21:10",2,36.334062,-79.384268,TRUE,FALSE,TRUE,"S249697903"
"215","easwpw1","Eastern Whip-poor-will","Antrostomus vociferus","L39167148","Home","2025-06-12 21:08",NA,37.7573395,-80.4010239,TRUE,FALSE,TRUE,"S249696717"
"216","easwpw1","Eastern Whip-poor-will","Antrostomus vociferus","L47470103","24 Arundel Rd, Raymond US-ME 43.90289, -70.41204","2025-06-12 21:06",1,43.902888,-70.412035,TRUE,FALSE,TRUE,"S249695798"
"217","easwpw1","Eastern Whip-poor-will","Antrostomus vociferus","L31853363","May Hollow Road, Cameron CW","2025-06-12 21:06",1,41.4575411,-78.2077452,TRUE,FALSE,TRUE,"S249696152"
"218","easwpw1","Eastern Whip-poor-will","Antrostomus vociferus","L47470091","24 Arundel Rd, Raymond US-ME 43.90288, -70.41206","2025-06-12 21:05",1,43.902875,-70.412061,TRUE,FALSE,TRUE,"S249695741"
"219","easwpw1","Eastern Whip-poor-will","Antrostomus vociferus","L16864584","Strongwater Brook Open Space","2025-06-12 21:03",1,42.5042672,-70.932167,TRUE,FALSE,FALSE,"S249697401"
"220","easwpw1","Eastern Whip-poor-will","Antrostomus vociferus","L481406","Nauset Light Beach, Eastham","2025-06-12 21:00",1,41.8586304,-69.9517322,TRUE,FALSE,FALSE,"S249701589"
"221","easwpw1","Eastern Whip-poor-will","Antrostomus vociferus","L45476468","SGL 99 - Orbisonia NW section","2025-06-12 20:58",10,40.2379792,-77.9846287,TRUE,FALSE,TRUE,"S249791388"
"222","easwpw1","Eastern Whip-poor-will","Antrostomus vociferus","L34200077","Harriman SP- Beech Trail parking and environs","2025-06-12 20:56",1,41.253155,-74.066246,TRUE,FALSE,TRUE,"S249698644"
"223","easwpw1","Eastern Whip-poor-will","Antrostomus vociferus","L2908444","Big Woods WMA","2025-06-12 20:55",1,36.9283428,-77.0800996,TRUE,FALSE,FALSE,"S249701899"
"224","easwpw1","Eastern Whip-poor-will","Antrostomus vociferus","L2399623","Manuel F. Correllus SF","2025-06-12 20:51",2,41.3932127,-70.5934238,TRUE,FALSE,FALSE,"S249698167"
"225","easwpw1","Eastern Whip-poor-will","Antrostomus vociferus","L25380972","Harriman SP Tiorati Brook Rd Fields and Red Cross Trail","2025-06-12 20:40",3,41.258354,-74.080549,TRUE,FALSE,TRUE,"S249699690"
"226","easwpw1","Eastern Whip-poor-will","Antrostomus vociferus","L5791694","Old Nash Hwy across from Lowe's","2025-06-12 20:39",1,35.9907287,-86.5514946,TRUE,FALSE,TRUE,"S249708585"
"227","easwpw1","Eastern Whip-poor-will","Antrostomus vociferus","L47476363","KS: Doniphan Co.","2025-06-12 20:21",1,39.649124,-95.047509,TRUE,FALSE,TRUE,"S249725721"
"228","easwpw1","Eastern Whip-poor-will","Antrostomus vociferus","L818668","Fowler Farm","2025-06-12 20:05",1,43.2961677,-70.915761,TRUE,FALSE,TRUE,"S249704061"
"229","easwpw1","Eastern Whip-poor-will","Antrostomus vociferus","L10030566","Surry Hill (KLT)","2025-06-12 19:19",3,44.401809,-70.041062,TRUE,TRUE,FALSE,"S249699428"
"230","easwpw1","Eastern Whip-poor-will","Antrostomus vociferus","L2867399","Wharton SF--Carranza Rd","2025-06-12 19:11",1,39.775877,-74.626932,TRUE,FALSE,FALSE,"S249696850"
"231","easwpw1","Eastern Whip-poor-will","Antrostomus vociferus","L47473526","2353–2501 Secretarys Rd, Scottsville US-VA 37.89765, -78.45916","2025-06-12 18:58",5,37.897651,-78.459163,TRUE,FALSE,TRUE,"S249710824"
"232","easwpw1","Eastern Whip-poor-will","Antrostomus vociferus","L728087","Cedars of Lebanon SP","2025-06-12 18:00",2,36.0757422,-86.3105679,TRUE,FALSE,FALSE,"S249945360"
"233","easwpw1","Eastern Whip-poor-will","Antrostomus vociferus","L6485482","Ozark National Scenic Riverways--Bay Creek Campground","2025-06-12 16:09",2,37.1168,-91.499505,TRUE,FALSE,FALSE,"S250365150"
"234","easwpw1","Eastern Whip-poor-will","Antrostomus vociferus","L17961675","Knobs State Forest","2025-06-12 15:33",14,37.8896896,-85.6908524,TRUE,FALSE,FALSE,"S249713125"
"235","easwpw1","Eastern Whip-poor-will","Antrostomus vociferus","L46123998","2108 County Highway 3, Two Harbors, Minnesota, US (47.085, -91.603)","2025-06-12 12:46",1,47.0854214,-91.6029059,TRUE,FALSE,TRUE,"S250020340"
"236","easwpw1","Eastern Whip-poor-will","Antrostomus vociferus","L10996584","First Mountain State Forest","2025-06-12 12:34",NA,38.4311548,-78.6773586,TRUE,FALSE,FALSE,"S250008472"
"237","easwpw1","Eastern Whip-poor-will","Antrostomus vociferus","L420764","Ozark National Scenic Riverways--Alley Spring","2025-06-12 11:04",1,37.1545192,-91.4415908,TRUE,FALSE,FALSE,"S249571235"
"238","easwpw1","Eastern Whip-poor-will","Antrostomus vociferus","L47454646","17776, Waterville US-PA 41.44950, -77.35027","2025-06-12 05:53",3,41.449504,-77.350272,TRUE,FALSE,TRUE,"S249617221"
"239","easwpw1","Eastern Whip-poor-will","Antrostomus vociferus","L47456105","Andrews SE Unnamed Road, Hayesville, North Carolina, US (35.138, -83.786)","2025-06-12 05:45",1,35.1376118,-83.7864073,TRUE,FALSE,TRUE,"S249623655"
"240","easwpw1","Eastern Whip-poor-will","Antrostomus vociferus","L34459650","Hidden Forest","2025-06-12 05:29",1,36.277457,-81.596729,TRUE,FALSE,TRUE,"S249460607"
"241","easwpw1","Eastern Whip-poor-will","Antrostomus vociferus","L46881409","Murchisontown SE - 1–787 Briggs Rd, Cameron US-NC (35.2615,-79.1853)","2025-06-12 05:21",2,35.261539,-79.185349,TRUE,FALSE,TRUE,"S249605680"
"242","easwpw1","Eastern Whip-poor-will","Antrostomus vociferus","L39798434","6278 Sparta Rd, North Wilkesboro US-NC 36.26514, -81.18748","2025-06-12 05:18",2,36.265144,-81.187477,TRUE,FALSE,TRUE,"S249433161"
"243","easwpw1","Eastern Whip-poor-will","Antrostomus vociferus","L47427165","Forest Rd, Fayetteville US-PA (39.8304,-77.5077)","2025-06-12 05:13",1,39.83045,-77.507711,TRUE,FALSE,TRUE,"S249499518"
"244","easwpw1","Eastern Whip-poor-will","Antrostomus vociferus","L47460370","Dawson Crossroads SE - Barnhill Rd 36.13850, -77.55838","2025-06-12 05:09",1,36.138505,-77.558385,TRUE,FALSE,TRUE,"S249642718"
"245","easwpw1","Eastern Whip-poor-will","Antrostomus vociferus","L47487286","Atlas Point Count: 3766_2","2025-06-12 05:06",1,41.0058098,-77.2118301,TRUE,FALSE,TRUE,"S249776737"
"246","easwpw1","Eastern Whip-poor-will","Antrostomus vociferus","L7383740","Begin Center Road At Mt. Vernon Rd, Eupora, MS (33.559, -89.39)","2025-06-12 05:05",1,33.5590234,-89.3900647,TRUE,FALSE,TRUE,"S250744092"
"247","easwpw1","Eastern Whip-poor-will","Antrostomus vociferus","L47414047","Quehanna Highway, Karthaus, Pennsylvania, US (41.202, -78.164)","2025-06-12 05:02",2,41.2016653,-78.1637761,TRUE,FALSE,TRUE,"S249430648"
"248","easwpw1","Eastern Whip-poor-will","Antrostomus vociferus","L47413928","3224 Quehanna Highway, Karthaus Township, Pennsylvania, US (41.172, -78.14)","2025-06-12 04:59",2,41.1717887,-78.1398796,TRUE,FALSE,TRUE,"S249430178"
"249","easwpw1","Eastern Whip-poor-will","Antrostomus vociferus","L11515444","260 Anglin Valley Lane, Stoneville, North Carolina, US (36.528, -79.953)","2025-06-12 04:53",2,36.5279338,-79.9532412,TRUE,FALSE,TRUE,"S249629985"
"250","easwpw1","Eastern Whip-poor-will","Antrostomus vociferus","L47416441","5180–5194 Cragford Rd, Ashland US-AL 33.25744, -85.74835","2025-06-12 04:53",3,33.257437,-85.748349,TRUE,FALSE,TRUE,"S249440765"
"251","easwpw1","Eastern Whip-poor-will","Antrostomus vociferus","L47451613","Claresville SE, Jordan Mill Rd, (36.5150,-77.4073)","2025-06-12 04:52",1,36.514965,-77.407276,TRUE,FALSE,TRUE,"S249604155"
"252","easwpw1","Eastern Whip-poor-will","Antrostomus vociferus","L47413478","562 Pine Glen Road, Karthaus, Pennsylvania, US (41.068, -78.035)","2025-06-12 04:44",1,41.0675675,-78.0349351,TRUE,FALSE,TRUE,"S249428459"
"253","easwpw1","Eastern Whip-poor-will","Antrostomus vociferus","L26469237","N Down River Rd Jack Pines (2018 cut)","2025-06-12 04:44",1,44.6841537,-84.6373343,TRUE,FALSE,FALSE,"S249428684"
"254","easwpw1","Eastern Whip-poor-will","Antrostomus vociferus","L46711181","4091 Big Ivy Rd, Purlear US-NC 36.25753, -81.37714","2025-06-12 04:43",1,36.257534,-81.377137,TRUE,FALSE,TRUE,"S249428245"
"255","easwpw1","Eastern Whip-poor-will","Antrostomus vociferus","L47427048","Swift Run Rd, Fayetteville US-PA (39.8197,-77.4936)","2025-06-12 04:43",8,39.819705,-77.493638,TRUE,FALSE,TRUE,"S249498899"
"256","easwpw1","Eastern Whip-poor-will","Antrostomus vociferus","L10464379","Union Valley Road--Powerline Cut (Restricted Access)","2025-06-12 04:41",1,41.0913073,-74.4134537,TRUE,FALSE,FALSE,"S249429839"
"257","easwpw1","Eastern Whip-poor-will","Antrostomus vociferus","L18089607","Michaux SF--Rothrock Rd. Pipeline Intersection","2025-06-12 04:40",2,39.8267881,-77.5033205,TRUE,FALSE,FALSE,"S249499083"
"258","easwpw1","Eastern Whip-poor-will","Antrostomus vociferus","L46710444","1095–1261 Lump Rd, Purlear US-NC 36.26881, -81.38166","2025-06-12 04:36",1,36.268811,-81.381659,TRUE,FALSE,TRUE,"S249427503"
"259","easwpw1","Eastern Whip-poor-will","Antrostomus vociferus","L47451928","Murchisontown SE - 1049–1435 McKoy Town Rd, Cameron US-NC (35.2697,-79.1474)","2025-06-12 04:30",1,35.269736,-79.147414,TRUE,FALSE,TRUE,"S249605472"
"260","easwpw1","Eastern Whip-poor-will","Antrostomus vociferus","L31737180","Randall Road, Galeton, Pennsylvania, US (41.588, -77.602)","2025-06-12 04:30",1,41.5876134,-77.6020547,TRUE,FALSE,TRUE,"S249430495"
"261","easwpw1","Eastern Whip-poor-will","Antrostomus vociferus","L47347476","Hunt Rd, Roscommon US-MI 44.54173, -84.39137","2025-06-12 04:29",4,44.541727,-84.391366,TRUE,FALSE,TRUE,"S249438056"
"262","easwpw1","Eastern Whip-poor-will","Antrostomus vociferus","L47413020","1279 Green Pond Road, Rockaway Township, New Jersey, US (41.033, -74.453)","2025-06-12 04:26",1,41.0334603,-74.453121,TRUE,FALSE,TRUE,"S249426467"
"263","easwpw1","Eastern Whip-poor-will","Antrostomus vociferus","L47626614","17776, Waterville US-PA (41.4576,-77.3263)","2025-06-12 04:18",3,41.457645,-77.326321,TRUE,FALSE,TRUE,"S250369688"
"264","easwpw1","Eastern Whip-poor-will","Antrostomus vociferus","L41089803","Hildebrant - Private","2025-06-12 04:00",2,45.1911718,-92.7340259,TRUE,FALSE,TRUE,"S249972939"
"265","easwpw1","Eastern Whip-poor-will","Antrostomus vociferus","L32143445","77–99 Upper Walnut Hill Rd, East Lyme US-CT 41.43467, -72.25013","2025-06-12 03:53",1,41.434673,-72.25013,TRUE,FALSE,TRUE,"S249422549"
"266","easwpw1","Eastern Whip-poor-will","Antrostomus vociferus","L32143576","Holmes rd powerline","2025-06-12 03:53",2,41.434926,-72.265538,TRUE,FALSE,TRUE,"S249423673"
"267","easwpw1","Eastern Whip-poor-will","Antrostomus vociferus","L269211","Bear Bottoms","2025-06-12 03:29",1,45.7272044,-88.0972179,TRUE,FALSE,TRUE,"S249642376"
"268","easwpw1","Eastern Whip-poor-will","Antrostomus vociferus","L47411442","645–937 Bowman Hill Rd, Accident US-MD 39.64142, -79.25999","2025-06-12 02:32",1,39.641416,-79.259993,TRUE,FALSE,TRUE,"S249420002"
"269","easwpw1","Eastern Whip-poor-will","Antrostomus vociferus","L358781","Indian Hills CA","2025-06-12 02:19",1,40.3331327,-92.2527981,TRUE,FALSE,FALSE,"S249418473"
"270","easwpw1","Eastern Whip-poor-will","Antrostomus vociferus","L12815645","Nothstein Preserve","2025-06-12 01:58",1,41.1292401,-75.2685808,TRUE,FALSE,FALSE,"S249410219"
"271","easwpw1","Eastern Whip-poor-will","Antrostomus vociferus","L23082520","Dry Run Rd — Bittinger CE","2025-06-12 01:44",1,39.549948,-79.176306,TRUE,FALSE,TRUE,"S249558081"
"272","easwpw1","Eastern Whip-poor-will","Antrostomus vociferus","L13271135","Hoosier National Forest, Norman US-IN 38.98903, -86.36792","2025-06-12 01:34",1,38.998,-86.347,TRUE,FALSE,TRUE,"S249412543"
"273","easwpw1","Eastern Whip-poor-will","Antrostomus vociferus","L19648647","1–367 Frank Brenneman Rd, Swanton US-MD 39.57382, -79.20005","2025-06-12 01:16",1,39.573825,-79.200051,TRUE,FALSE,TRUE,"S249508389"
"274","easwpw1","Eastern Whip-poor-will","Antrostomus vociferus","L1173059","Huron NF--Wagner Lake CG","2025-06-12 01:00",3,44.5534252,-84.1476946,TRUE,FALSE,FALSE,"S249451199"
"275","easwpw1","Eastern Whip-poor-will","Antrostomus vociferus","L47409094","312–348 Sellers Rd, Davisville US-MO 37.77190, -91.17459","2025-06-12 00:48",1,37.771897,-91.174588,TRUE,FALSE,TRUE,"S249408248"
"276","easwpw1","Eastern Whip-poor-will","Antrostomus vociferus","L11639514","2562–3014 Dry Run Rd, Swanton US-MD 39.55429, -79.19438","2025-06-12 00:44",3,39.554295,-79.194385,TRUE,FALSE,TRUE,"S249508899"
"277","easwpw1","Eastern Whip-poor-will","Antrostomus vociferus","L33721724","3781–3881 Dry Run Rd, Swanton US-MD 39.55008, -79.17715","2025-06-12 00:34",2,39.550079,-79.177148,TRUE,FALSE,TRUE,"S249509107"
"278","easwpw1","Eastern Whip-poor-will","Antrostomus vociferus","L47407891","4800–4806 Dry Run Rd, Swanton US-MD 39.53977, -79.16597","2025-06-12 00:32",6,39.539766,-79.165968,TRUE,FALSE,TRUE,"S249401250"
"279","easwpw1","Eastern Whip-poor-will","Antrostomus vociferus","L47615166","Superior National Forest (General)- Echo Lake Area","2025-06-12",1,48.1339778,-92.4611528,TRUE,FALSE,TRUE,"S250325669"
"280","easwpw1","Eastern Whip-poor-will","Antrostomus vociferus","L4586592","211 Darby Hill Road, Rockingham","2025-06-11 23:47",1,43.1687807,-72.4709744,TRUE,FALSE,TRUE,"S249440070"
"281","easwpw1","Eastern Whip-poor-will","Antrostomus vociferus","L4589805","Mackinac Lane feeders","2025-06-11 23:41",1,46.255372,-87.3848248,TRUE,FALSE,TRUE,"S249395970"
"282","easwpw1","Eastern Whip-poor-will","Antrostomus vociferus","L761517","Indiana Dunes NP--Miller Woods and Douglas Center","2025-06-11 23:30",6,41.6068592,-87.2712385,TRUE,FALSE,FALSE,"S249624607"
"283","easwpw1","Eastern Whip-poor-will","Antrostomus vociferus","L10316732","Doten Rd., Chiltonville","2025-06-11 23:11",1,41.928473,-70.607044,TRUE,FALSE,FALSE,"S249552737"
"284","easwpw1","Eastern Whip-poor-will","Antrostomus vociferus","L7618695","Lick Creek Farm","2025-06-11 22:55",1,35.666228,-87.908201,TRUE,FALSE,TRUE,"S249397707"
"285","easwpw1","Eastern Whip-poor-will","Antrostomus vociferus","L11630857","AFW10","2025-06-11 22:54",1,40.8433758,-78.1158727,TRUE,FALSE,TRUE,"S249523160"
"286","easwpw1","Eastern Whip-poor-will","Antrostomus vociferus","L28330230","Barn Island Boat Launch","2025-06-11 22:54",3,41.337584,-71.87589,TRUE,FALSE,FALSE,"S249524685"
"287","easwpw1","Eastern Whip-poor-will","Antrostomus vociferus","L45313359","4500–4916 Lick Creek Rd, Linden US-TN 35.67528, -87.91714","2025-06-11 22:51",2,35.67528,-87.917138,TRUE,FALSE,TRUE,"S249397898"
"288","easwpw1","Eastern Whip-poor-will","Antrostomus vociferus","L9142080","Lick Creek beaver ponds","2025-06-11 22:48",1,35.680922,-87.925847,TRUE,FALSE,TRUE,"S249397908"
"289","easwpw1","Eastern Whip-poor-will","Antrostomus vociferus","L164839","Sand Ridge State Forest","2025-06-11 22:42",NA,40.393044,-89.86709,TRUE,FALSE,FALSE,"S249395939"
"290","easwpw1","Eastern Whip-poor-will","Antrostomus vociferus","L31631276","Smith Cemetery Rd, Linden US-TN","2025-06-11 22:41",1,35.6999,-87.930824,TRUE,FALSE,TRUE,"S249397922"
"291","easwpw1","Eastern Whip-poor-will","Antrostomus vociferus","L26177107","Home","2025-06-11 22:37",1,39.291413,-79.5698,TRUE,FALSE,TRUE,"S249389174"
"292","easwpw1","Eastern Whip-poor-will","Antrostomus vociferus","L47407208","SR-438, Linden US-TN 35.69395, -87.92553","2025-06-11 22:35",3,35.693948,-87.925527,TRUE,FALSE,TRUE,"S249397868"
"293","easwpw1","Eastern Whip-poor-will","Antrostomus vociferus","L47405116","7216 Currier Road, Loudon, New Hampshire, US (43.312, -71.462)","2025-06-11 22:31",3,43.3124692,-71.4624861,TRUE,FALSE,TRUE,"S249388332"
"294","easwpw1","Eastern Whip-poor-will","Antrostomus vociferus","L47407186","Porter Hollow Rd, Linden US-TN","2025-06-11 22:28",3,35.68825,-87.952579,TRUE,FALSE,TRUE,"S249397772"
"295","easwpw1","Eastern Whip-poor-will","Antrostomus vociferus","L11630838","AFW7","2025-06-11 22:25",3,40.8588207,-78.0773234,TRUE,FALSE,TRUE,"S249523380"
"296","easwpw1","Eastern Whip-poor-will","Antrostomus vociferus","L47407190","12001–12763 SR-438, Linden US-TN 35.68182, -87.94544","2025-06-11 22:20",1,35.681816,-87.945436,TRUE,FALSE,TRUE,"S249397786"
"297","easwpw1","Eastern Whip-poor-will","Antrostomus vociferus","L47407236","12765–13237 SR-438, Linden US-TN 35.67211, -87.94120","2025-06-11 22:16",1,35.672108,-87.9412,TRUE,FALSE,TRUE,"S249398020"
"298","easwpw1","Eastern Whip-poor-will","Antrostomus vociferus","L11630836","AFW6","2025-06-11 22:14",2,40.8682522,-78.0596154,TRUE,FALSE,TRUE,"S249523428"
"299","easwpw1","Eastern Whip-poor-will","Antrostomus vociferus","L3650940","Bergen Lake Yard, shore & Lake","2025-06-11 22:12",1,46.9913097,-92.3280019,TRUE,FALSE,TRUE,"S249393109"
"300","easwpw1","Eastern Whip-poor-will","Antrostomus vociferus","L47407242","13239–13859 SR-438, Linden US-TN 35.66709, -87.93903","2025-06-11 22:09",2,35.667085,-87.93903,TRUE,FALSE,TRUE,"S249398044"
"301","easwpw1","Eastern Whip-poor-will","Antrostomus vociferus","L47434244","3104 Little Valley Road, Blain, Pennsylvania, US (40.366, -77.532)","2025-06-11 22:08",2,40.3661271,-77.5323578,TRUE,FALSE,TRUE,"S249532926"
"302","easwpw1","Eastern Whip-poor-will","Antrostomus vociferus","L47407247","13239–13859 SR-438, Linden US-TN 35.66178, -87.94086","2025-06-11 22:07",2,35.661782,-87.940858,TRUE,FALSE,TRUE,"S249398071"
"303","easwpw1","Eastern Whip-poor-will","Antrostomus vociferus","L14285264","14221 SR-438, Linden US-TN (35.6591,-87.9479)","2025-06-11 22:05",1,35.65907,-87.947897,TRUE,FALSE,TRUE,"S249398088"
"304","easwpw1","Eastern Whip-poor-will","Antrostomus vociferus","L11630832","AFW5","2025-06-11 22:05",1,40.8766914,-78.0505858,TRUE,FALSE,TRUE,"S249523550"
"305","easwpw1","Eastern Whip-poor-will","Antrostomus vociferus","L3773766","Sleeping Bears Dunes NL--D.H. Day CG","2025-06-11 22:00",1,44.899371,-86.0208678,TRUE,FALSE,FALSE,"S249384082"
"306","easwpw1","Eastern Whip-poor-will","Antrostomus vociferus","L47456070","Andrews SE Unnamed Road, Hayesville, North Carolina, US (35.137, -83.79)","2025-06-11 21:57",1,35.1366439,-83.7900515,TRUE,FALSE,TRUE,"S249623386"
"307","easwpw1","Eastern Whip-poor-will","Antrostomus vociferus","L11630761","AFW4","2025-06-11 21:55",1,40.8881568,-78.0392066,TRUE,FALSE,TRUE,"S249523641"
"308","easwpw1","Eastern Whip-poor-will","Antrostomus vociferus","L46458920","1496 McKees Gap Road, Warfordsburg, Pennsylvania, US (39.797, -78.301)","2025-06-11 21:49",2,39.7966297,-78.3007432,TRUE,FALSE,TRUE,"S249382609"
"309","easwpw1","Eastern Whip-poor-will","Antrostomus vociferus","L11630752","AFW3","2025-06-11 21:46",5,40.8831963,-78.0214599,TRUE,FALSE,TRUE,"S249523711"
"310","easwpw1","Eastern Whip-poor-will","Antrostomus vociferus","L47237397","Camp Woodruff","2025-06-11 21:41",1,34.93435,-84.140375,TRUE,FALSE,TRUE,"S249384796"
"311","easwpw1","Eastern Whip-poor-will","Antrostomus vociferus","L47434075","Little Valley Rd 2","2025-06-11 21:39",1,40.3984161,-77.4818478,TRUE,FALSE,TRUE,"S249532525"
"312","easwpw1","Eastern Whip-poor-will","Antrostomus vociferus","L47456046","Andrews SE Unnamed Road, Hayesville, North Carolina, US (35.135, -83.791)","2025-06-11 21:38",1,35.1353459,-83.7912749,TRUE,FALSE,TRUE,"S249623289"
"313","easwpw1","Eastern Whip-poor-will","Antrostomus vociferus","L47403545","Stud Mill Rd, Aurora US-ME 44.96887, -68.44330","2025-06-11 21:37",1,44.968872,-68.443299,TRUE,FALSE,TRUE,"S249380958"
"314","easwpw1","Eastern Whip-poor-will","Antrostomus vociferus","L11630742","AFW2","2025-06-11 21:35",5,40.8899395,-78.0081552,TRUE,FALSE,TRUE,"S249523782"
"315","easwpw1","Eastern Whip-poor-will","Antrostomus vociferus","L5693271","Secretarys Road","2025-06-11 21:35",3,37.8997899,-78.4470874,TRUE,FALSE,FALSE,"S250282610"
"316","easwpw1","Eastern Whip-poor-will","Antrostomus vociferus","L47403417","Stud Mill Rd, Aurora US-ME 44.97103, -68.43472","2025-06-11 21:33",1,44.97103,-68.434716,TRUE,FALSE,TRUE,"S249380344"
"317","easwpw1","Eastern Whip-poor-will","Antrostomus vociferus","L9490646","Royalston & Streeter Rd.","2025-06-11 21:30",2,44.4293475,-71.8328473,TRUE,FALSE,TRUE,"S249451736"
"318","easwpw1","Eastern Whip-poor-will","Antrostomus vociferus","L47405185","Aging DEEP cuts (~10-15 yrs)","2025-06-11 21:29",10,41.492112,-71.858848,TRUE,TRUE,TRUE,"S249388575"
"319","easwpw1","Eastern Whip-poor-will","Antrostomus vociferus","L47403279","Stud Mill Rd, Aurora US-ME 44.97335, -68.42865","2025-06-11 21:28",1,44.973348,-68.428652,TRUE,FALSE,TRUE,"S249379754"
"320","easwpw1","Eastern Whip-poor-will","Antrostomus vociferus","L7123074","Natural Bridge CW - Sideway Farm","2025-06-11 21:28",1,37.69438,-79.60621,TRUE,FALSE,TRUE,"S249379583"
"321","easwpw1","Eastern Whip-poor-will","Antrostomus vociferus","L47407256","8050–8448 US-412, Linden US-TN 35.61824, -87.96524","2025-06-11 21:27",1,35.618237,-87.965237,TRUE,FALSE,TRUE,"S249398108"
"322","easwpw1","Eastern Whip-poor-will","Antrostomus vociferus","L15132143","401–415 Little Valley Rd, Ickesburg US-PA 40.40590, -77.46530","2025-06-11 21:27",1,40.405896,-77.465296,TRUE,FALSE,TRUE,"S249531238"
"323","easwpw1","Eastern Whip-poor-will","Antrostomus vociferus","L8692333","Home","2025-06-11 21:26",1,35.1893715,-82.7904044,TRUE,FALSE,TRUE,"S249378930"
"324","easwpw1","Eastern Whip-poor-will","Antrostomus vociferus","L11630736","AFW1","2025-06-11 21:24",5,40.9013295,-77.9948428,TRUE,FALSE,TRUE,"S249523920"
"325","easwpw1","Eastern Whip-poor-will","Antrostomus vociferus","L8466195","TN--Hendon Rd. (central, Hendon)","2025-06-11 21:23",1,35.4227336,-85.2415972,TRUE,FALSE,TRUE,"S249447290"
"326","easwpw1","Eastern Whip-poor-will","Antrostomus vociferus","L47456021","Andrews SE Unnamed Road, Hayesville, North Carolina, US (35.136, -83.789)","2025-06-11 21:22",2,35.1361041,-83.788529,TRUE,FALSE,TRUE,"S249623193"
"327","easwpw1","Eastern Whip-poor-will","Antrostomus vociferus","L25000948","2019–2051 Secretarys Rd, Scottsville US-VA 37.89778, -78.47341","2025-06-11 21:18",2,37.897783,-78.47341,TRUE,FALSE,TRUE,"S249377794"
"328","easwpw1","Eastern Whip-poor-will","Antrostomus vociferus","L1039806","Presque Isle SP--B Trail","2025-06-11 21:17",4,42.1698765,-80.0984859,TRUE,FALSE,FALSE,"S249383788"
"329","easwpw1","Eastern Whip-poor-will","Antrostomus vociferus","L22656712","200 Hickory Hill Lane, Linden, Pennsylvania, US (41.278, -77.108)","2025-06-11 21:15",1,41.277755,-77.1079284,TRUE,FALSE,TRUE,"S249382779"
"330","easwpw1","Eastern Whip-poor-will","Antrostomus vociferus","L47432743","Hannah Run Road, Arbovale","2025-06-11 21:15",1,38.4450406,-79.8262931,TRUE,FALSE,TRUE,"S249528500"
"331","easwpw1","Eastern Whip-poor-will","Antrostomus vociferus","L47407290","Perry-Decatur Gravel Quarry, Linden US-TN","2025-06-11 21:14",1,35.6348,-87.949826,TRUE,FALSE,TRUE,"S249398245"
"332","easwpw1","Eastern Whip-poor-will","Antrostomus vociferus","L2151022","9524 Stone Creek Ridge Road","2025-06-11 21:13",1,40.5254988,-77.9215193,TRUE,FALSE,TRUE,"S249376291"
"333","easwpw1","Eastern Whip-poor-will","Antrostomus vociferus","L9351821","Martin Kings Road (Brown-headed Nuthatch spot)","2025-06-11 21:10",5,37.9139403,-78.4053578,TRUE,FALSE,FALSE,"S250281797"
"334","easwpw1","Eastern Whip-poor-will","Antrostomus vociferus","L47743996","Schooley/Pleasant Ridge Road Harrisonville, PA","2025-06-11 21:10",1,39.9635495,-78.0764434,TRUE,FALSE,TRUE,"S250891392"
"335","easwpw1","Eastern Whip-poor-will","Antrostomus vociferus","L8464202","yard, Stillwater Township","2025-06-11 21:09",2,41.1176028,-74.8670514,TRUE,FALSE,TRUE,"S249375971"
"336","easwpw1","Eastern Whip-poor-will","Antrostomus vociferus","L47456000","Andrews SE Unnamed Road, Hayesville, North Carolina, US (35.135, -83.785)","2025-06-11 21:06",2,35.1351409,-83.7853703,TRUE,FALSE,TRUE,"S249623095"
"337","easwpw1","Eastern Whip-poor-will","Antrostomus vociferus","L24110919","West Saugerties Road","2025-06-11 21:04",1,42.0775953,-74.0670615,TRUE,FALSE,TRUE,"S249395505"
"338","easwpw1","Eastern Whip-poor-will","Antrostomus vociferus","L15147723","Home","2025-06-11 21:02",2,33.983181,-80.7104645,TRUE,FALSE,TRUE,"S249373907"
"339","easwpw1","Eastern Whip-poor-will","Antrostomus vociferus","L47407306","134–498 Buckfork Rd, Linden US-TN 35.60822, -87.93215","2025-06-11 21:00",1,35.608216,-87.932146,TRUE,FALSE,TRUE,"S249398296"
"340","easwpw1","Eastern Whip-poor-will","Antrostomus vociferus","L11610716","Stepping Stones, Montauk","2025-06-11 21:00",2,41.0464757,-71.9234562,TRUE,FALSE,TRUE,"S249439556"
"341","easwpw1","Eastern Whip-poor-will","Antrostomus vociferus","L11623442","Oneida Lake--Preston Hill Gravel","2025-06-11 21:00",1,43.2752842,-75.7727929,TRUE,TRUE,TRUE,"S249377915"
"342","easwpw1","Eastern Whip-poor-will","Antrostomus vociferus","L814250","Airport Marsh, Whitefield","2025-06-11 21:00",1,44.3666307,-71.5564442,TRUE,FALSE,FALSE,"S249631763"
"343","easwpw1","Eastern Whip-poor-will","Antrostomus vociferus","L367500","Scott Cemetery","2025-06-11 21:00",2,38.9340426,-79.9591827,TRUE,FALSE,TRUE,"S249470055"
"344","easwpw1","Eastern Whip-poor-will","Antrostomus vociferus","L1496693","Goshen Pass","2025-06-11 21:00",2,37.932531,-79.440395,TRUE,FALSE,TRUE,"S249385785"
"345","easwpw1","Eastern Whip-poor-will","Antrostomus vociferus","L3395030","Green Briar","2025-06-11 20:59",1,42.559055,-71.8377757,TRUE,FALSE,TRUE,"S249374121"
"346","easwpw1","Eastern Whip-poor-will","Antrostomus vociferus","L17205884","Buckfork Rd, Linden US-TN","2025-06-11 20:56",2,35.619243,-87.923252,TRUE,FALSE,TRUE,"S249398446"
"347","easwpw1","Eastern Whip-poor-will","Antrostomus vociferus","L47350394","Baldwin Fields","2025-06-11 20:53",2,35.517835,-82.651965,TRUE,FALSE,TRUE,"S249377020"
"348","easwpw1","Eastern Whip-poor-will","Antrostomus vociferus","L47407331","Linden Farm Rd, Linden US-TN","2025-06-11 20:47",1,35.620515,-87.903848,TRUE,FALSE,TRUE,"S249398414"
"349","easwpw1","Eastern Whip-poor-will","Antrostomus vociferus","L24922709","Sampson Rd","2025-06-11 20:45",9,36.1313422,-81.5464082,TRUE,FALSE,TRUE,"S249521017"
"350","easwpw1","Eastern Whip-poor-will","Antrostomus vociferus","L47402047","2803–3097 Tree Farm Rd, Hillsborough US-NC 36.02558, -79.15046","2025-06-11 20:44",3,36.02558,-79.150456,TRUE,FALSE,TRUE,"S249373612"
"351","easwpw1","Eastern Whip-poor-will","Antrostomus vociferus","L47407314","4271–4311 US-412, Linden US-TN 35.61747, -87.89676","2025-06-11 20:43",1,35.617472,-87.89676,TRUE,FALSE,TRUE,"S249398335"
"352","easwpw1","Eastern Whip-poor-will","Antrostomus vociferus","L47407308","3812 US-412, Linden US-TN 35.61662, -87.88944","2025-06-11 20:39",1,35.616617,-87.88944,TRUE,FALSE,TRUE,"S249398313"
"353","easwpw1","Eastern Whip-poor-will","Antrostomus vociferus","L47401667","Stud Mill Rd, Aurora US-ME 44.97581, -68.41786","2025-06-11 20:39",2,44.975811,-68.417864,TRUE,FALSE,TRUE,"S249371785"
"354","easwpw1","Eastern Whip-poor-will","Antrostomus vociferus","L47407302","2956 US-412, Linden US-TN 35.62124, -87.87556","2025-06-11 20:37",1,35.621244,-87.875562,TRUE,FALSE,TRUE,"S249398280"
"355","easwpw1","Eastern Whip-poor-will","Antrostomus vociferus","L47405654","FR 111 at Rte 337 Rd (3005), Tidioute, Pennsylvania, US (41.717, -79.28)","2025-06-11 20:35",1,41.7166146,-79.2802016,TRUE,FALSE,TRUE,"S249390788"
"356","easwpw1","Eastern Whip-poor-will","Antrostomus vociferus","L47401578","104 Whitcomb Road, Sportsman Club Swanzey, New Hampshire, US (42.863, -72.269)","2025-06-11 20:34",1,42.8627979,-72.2690506,TRUE,FALSE,TRUE,"S249371282"
"357","easwpw1","Eastern Whip-poor-will","Antrostomus vociferus","L47402803","411–507 Miltonberger Rd, Orrtanna US-PA 39.94127, -77.40460","2025-06-11 20:32",1,39.941266,-77.404604,TRUE,TRUE,TRUE,"S249377377"
"358","easwpw1","Eastern Whip-poor-will","Antrostomus vociferus","L47407295","490 Fire Tower Rd, Linden US-TN 35.63155, -87.87133","2025-06-11 20:31",1,35.631548,-87.871332,TRUE,FALSE,TRUE,"S249398262"
"359","easwpw1","Eastern Whip-poor-will","Antrostomus vociferus","L46492411","620–736 Maguire Rd, Kennebunk US-ME 43.39247, -70.62131","2025-06-11 20:31",2,43.392469,-70.621308,TRUE,FALSE,TRUE,"S250361473"
"360","easwpw1","Eastern Whip-poor-will","Antrostomus vociferus","L19332736","Smiths Corner, Blackwater Dam Flood Control Area, Salisbury","2025-06-11 20:30",1,43.351811,-71.7905551,TRUE,FALSE,FALSE,"S249388074"
"361","easwpw1","Eastern Whip-poor-will","Antrostomus vociferus","L47250725","Beaver Lake Prairie (Indiana DNR)","2025-06-11 20:29",1,41.0822696,-87.4246018,TRUE,FALSE,FALSE,"S249381021"
"362","easwpw1","Eastern Whip-poor-will","Antrostomus vociferus","L2817114","North Star Camp","2025-06-11 20:22",1,46.3874087,-94.1648269,TRUE,FALSE,FALSE,"S249390815"
"363","easwpw1","Eastern Whip-poor-will","Antrostomus vociferus","L697441","Bass River State Forest--Lake Absegami","2025-06-11 20:05",3,39.6257882,-74.4292402,TRUE,FALSE,FALSE,"S249382914"
"364","easwpw1","Eastern Whip-poor-will","Antrostomus vociferus","L35585785","Walden-Parke Preserve, BLT","2025-06-11 20:00",2,44.8664395,-68.762033,TRUE,FALSE,FALSE,"S249517412"
"365","easwpw1","Eastern Whip-poor-will","Antrostomus vociferus","L46183489","Whiskey rd 40.9076423,-72.919693","2025-06-11 20:00",2,40.9079195,-72.9208732,TRUE,FALSE,TRUE,"S249390764"
"366","easwpw1","Eastern Whip-poor-will","Antrostomus vociferus","L2301929","Hobbs SP-CA--Sinking Stream Trail","2025-06-11 19:40",1,36.2953256,-93.9595681,TRUE,FALSE,FALSE,"S249519869"
"367","easwpw1","Eastern Whip-poor-will","Antrostomus vociferus","L47399098","32 Swan Lakes Estates Loop, Hardinsburg US-KY 37.84061, -86.58441","2025-06-11 18:53",1,37.840608,-86.584409,TRUE,FALSE,TRUE,"S249357666"
"368","easwpw1","Eastern Whip-poor-will","Antrostomus vociferus","L47326504","Viking Refuge (Restricted Access), Celina US-TN 36.47638, -85.57112","2025-06-11 17:57",1,36.476377,-85.571123,TRUE,FALSE,TRUE,"S249375485"
"369","easwpw1","Eastern Whip-poor-will","Antrostomus vociferus","L35376835","348 Polpis Road, Nantucket, Massachusetts, US (41.292, -69.988)Caines Pond","2025-06-11 17:50",1,41.2916149,-69.9880864,TRUE,FALSE,TRUE,"S249377317"
"370","easwpw1","Eastern Whip-poor-will","Antrostomus vociferus","L47444311","400 Beach Rd, Cedar Run US-PA 41.52781, -77.44255","2025-06-11 09:25",NA,41.52781,-77.442555,TRUE,FALSE,TRUE,"S249573433"
"371","easwpw1","Eastern Whip-poor-will","Antrostomus vociferus","L38102533","Norwich Bluff Trail","2025-06-11 09:00",5,46.6587004,-89.3847764,TRUE,FALSE,FALSE,"S251080052"
"372","easwpw1","Eastern Whip-poor-will","Antrostomus vociferus","L31282146","home","2025-06-11 08:39",1,46.1230354,-87.872261,TRUE,FALSE,TRUE,"S249240589"
"373","easwpw1","Eastern Whip-poor-will","Antrostomus vociferus","L47406982","8568 Jackson River Road, Monterey, Virginia, US (38.313, -79.657)","2025-06-11 08:04",1,38.313132,-79.6574185,TRUE,FALSE,TRUE,"S249396832"
"374","easwpw1","Eastern Whip-poor-will","Antrostomus vociferus","L47511634","801 Zen Forest Rd, Turners Station US-KY 38.60055, -85.13124","2025-06-11 07:04",1,38.600546,-85.131241,TRUE,FALSE,TRUE,"S249891141"
"375","easwpw1","Eastern Whip-poor-will","Antrostomus vociferus","L24842228","Home","2025-06-11 05:30",1,42.494935,-86.066077,TRUE,FALSE,TRUE,"S249102597"
"376","easwpw1","Eastern Whip-poor-will","Antrostomus vociferus","L47360553","Broadway SE Harrington Rd, Broadway US-NC 35.40668, -79.00959","2025-06-11 05:28",1,35.406681,-79.009595,TRUE,FALSE,TRUE,"S249188154"
"377","easwpw1","Eastern Whip-poor-will","Antrostomus vociferus","L46251128","Pin Hook SE—Angola Bay GL, Maple Hill US-NC (34.6470,-77.7673)","2025-06-11 05:23",1,34.647009,-77.767273,TRUE,FALSE,TRUE,"S249430302"
"378","easwpw1","Eastern Whip-poor-will","Antrostomus vociferus","L46800041","Broadway SE Blanch Johnson Rd, Broadway US-NC 35.41448, -79.00545","2025-06-11 05:11",2,35.414482,-79.005449,TRUE,FALSE,TRUE,"S249187429"
"379","easwpw1","Eastern Whip-poor-will","Antrostomus vociferus","L47405432","Kings River Campsite","2025-06-11 05:10",1,36.202744,-93.642091,TRUE,FALSE,TRUE,"S249389829"
"380","easwpw1","Eastern Whip-poor-will","Antrostomus vociferus","L47342930","Odessa and Turney Ranch Rd.  44.46377, -84.33090","2025-06-11 05:03",1,44.463765,-84.330899,TRUE,FALSE,TRUE,"S249098524"
"381","easwpw1","Eastern Whip-poor-will","Antrostomus vociferus","L47341573","4846 South Straits Highway, Indian River, Michigan, US (45.392, -84.63)","2025-06-11 04:59",1,45.3919525,-84.6299221,TRUE,FALSE,TRUE,"S249092957"
"382","easwpw1","Eastern Whip-poor-will","Antrostomus vociferus","L46799716","Broadway SE Blanch Johnson Rd, Broadway US-NC 35.41443, -79.00129","2025-06-11 04:55",1,35.414431,-79.001292,TRUE,FALSE,TRUE,"S249186467"
"383","easwpw1","Eastern Whip-poor-will","Antrostomus vociferus","L7615730","Minnewaska trail","2025-06-11 04:45",2,41.7093809,-74.1959953,TRUE,FALSE,TRUE,"S249471126"
"384","easwpw1","Eastern Whip-poor-will","Antrostomus vociferus","L342693","Canaan CA","2025-06-11 04:45",3,38.3362806,-91.5876111,TRUE,FALSE,FALSE,"S249104909"
"385","easwpw1","Eastern Whip-poor-will","Antrostomus vociferus","L5976939","Foundry Hill Road","2025-06-11 04:45",5,40.6644537,-80.8607912,TRUE,FALSE,TRUE,"S249159110"
"386","easwpw1","Eastern Whip-poor-will","Antrostomus vociferus","L47335660","Perry Holt Rd, West Branch US-MI 44.49901, -84.28973","2025-06-11 04:43",8,44.499013,-84.289729,TRUE,FALSE,TRUE,"S249277995"
"387","easwpw1","Eastern Whip-poor-will","Antrostomus vociferus","L47777210","Birch Hill WMA--River Road","2025-06-11 04:42",3,42.6318051,-72.1155657,TRUE,FALSE,TRUE,"S251054729"
"388","easwpw1","Eastern Whip-poor-will","Antrostomus vociferus","L10379796","Van Orden Road--Powerline Cut (Restricted Access)","2025-06-11 04:41",2,41.0747545,-74.4385563,TRUE,FALSE,FALSE,"S249237420"
"389","easwpw1","Eastern Whip-poor-will","Antrostomus vociferus","L45420064","KIWA Field House (Private)","2025-06-11 04:36",1,44.715712,-84.392692,TRUE,FALSE,TRUE,"S249091752"
"390","easwpw1","Eastern Whip-poor-will","Antrostomus vociferus","L25030648","Burnette and Sarah Eagon Nature Education Preserve","2025-06-11 04:29",1,44.595821,-89.264858,TRUE,FALSE,FALSE,"S249096933"
"391","easwpw1","Eastern Whip-poor-will","Antrostomus vociferus","L47404393","Stakeout Yellow Rail","2025-06-11 04:19",1,44.3358025,-84.8255292,TRUE,FALSE,TRUE,"S249099441"
"392","easwpw1","Eastern Whip-poor-will","Antrostomus vociferus","L47343160","Stakeout Yellow Rail","2025-06-11 04:19",1,44.33576,-84.825979,TRUE,FALSE,TRUE,"S249099440"
"393","easwpw1","Eastern Whip-poor-will","Antrostomus vociferus","L36998408","Mayo Road Home","2025-06-11 04:15",1,46.596618,-94.343327,TRUE,FALSE,TRUE,"S249102351"
"394","easwpw1","Eastern Whip-poor-will","Antrostomus vociferus","L46810874","Wade SE - 7000–7340 Barefoot Rd, Wade US-NC 35.13548, -78.64831","2025-06-11 04:08",1,35.135484,-78.64831,TRUE,FALSE,TRUE,"S249260363"
"395","easwpw1","Eastern Whip-poor-will","Antrostomus vociferus","L46810892","Wade SE - 7000–7340 Barefoot Rd, Wade US-NC 35.14156, -78.64520","2025-06-11 04:02",2,35.141563,-78.6452,TRUE,FALSE,TRUE,"S249259991"
"396","easwpw1","Eastern Whip-poor-will","Antrostomus vociferus","L43899123","9 Dunning Way, Plattsburgh US-NY (44.6684,-73.4857)","2025-06-11 03:46",1,44.668399,-73.485691,TRUE,FALSE,TRUE,"S249083512"
"397","easwpw1","Eastern Whip-poor-will","Antrostomus vociferus","L47324820","Postcard Cabins - Wild Rose","2025-06-11 01:11",1,44.151172,-89.143097,TRUE,FALSE,TRUE,"S249071921"
"398","easwpw1","Eastern Whip-poor-will","Antrostomus vociferus","L47334814","7850 S Grayling Rd, Grayling US-MI (44.5712,-84.7112)","2025-06-11 00:11",1,44.571154,-84.711196,TRUE,FALSE,TRUE,"S249060026"
"399","easwpw1","Eastern Whip-poor-will","Antrostomus vociferus","L32078696","NJS - Johnsonville 399151 - Stop 2","2025-06-10 23:30",1,37.923774,-85.098487,TRUE,FALSE,TRUE,"S249290778"
"400","easwpw1","Eastern Whip-poor-will","Antrostomus vociferus","L47334899","Cove Hollow Trail","2025-06-10 23:19",1,37.639831,-89.291352,TRUE,FALSE,TRUE,"S249060643"
"401","easwpw1","Eastern Whip-poor-will","Antrostomus vociferus","L15835953","Cindy’s","2025-06-10 22:58",5,37.069672,-79.523688,TRUE,FALSE,TRUE,"S249458973"
"402","easwpw1","Eastern Whip-poor-will","Antrostomus vociferus","L47334515","2734 Lick Creek Rd, Linden US-TN 35.65112, -87.88884","2025-06-10 22:54",1,35.651121,-87.888837,TRUE,FALSE,TRUE,"S249058690"
"403","easwpw1","Eastern Whip-poor-will","Antrostomus vociferus","L47333525","382 Blue Ball Road, Centre Hall, Pennsylvania, US (40.896, -77.627)","2025-06-10 22:39",4,40.8959436,-77.6268174,TRUE,FALSE,TRUE,"S249054527"
"404","easwpw1","Eastern Whip-poor-will","Antrostomus vociferus","L47324653","80 Heath Road, Corinth, New York, US (43.21, -73.832)","2025-06-10 22:35",NA,43.2102478,-73.8321971,TRUE,FALSE,TRUE,"S249163175"
"405","easwpw1","Eastern Whip-poor-will","Antrostomus vociferus","L13459213","Kirby property (and vicinity), Mt. Zion","2025-06-10 22:33",1,38.8861384,-81.1410497,TRUE,FALSE,TRUE,"S249049507"
"406","easwpw1","Eastern Whip-poor-will","Antrostomus vociferus","L46277298","382 Blue Ball Road, Gregg Township, Pennsylvania, US (40.899, -77.624)","2025-06-10 22:24",2,40.8993482,-77.6238427,TRUE,FALSE,TRUE,"S249054612"
"407","easwpw1","Eastern Whip-poor-will","Antrostomus vociferus","L211434","Crane Beach (TTOR)","2025-06-10 22:24",3,42.6839598,-70.7667586,TRUE,FALSE,FALSE,"S249051986"
"408","easwpw1","Eastern Whip-poor-will","Antrostomus vociferus","L47334158","Stanley Hinson Rd, Linden US-TN 35.55155, -87.67227","2025-06-10 22:19",1,35.551553,-87.672271,TRUE,FALSE,TRUE,"S249057072"
"409","easwpw1","Eastern Whip-poor-will","Antrostomus vociferus","L47617114","8000 Mecum Road Southeast, Kalkaska, Michigan, US (44.641, -85.012)","2025-06-10 22:17",5,44.6409014,-85.0123765,TRUE,FALSE,TRUE,"S250332418"
"410","easwpw1","Eastern Whip-poor-will","Antrostomus vociferus","L47333966","Stanley Hinson Rd, Hohenwald US-TN 35.55306, -87.67857","2025-06-10 22:14",2,35.553056,-87.678569,TRUE,FALSE,TRUE,"S249056339"
"411","easwpw1","Eastern Whip-poor-will","Antrostomus vociferus","L47333885","Old State Hwy 20, Linden US-TN 35.55766, -87.69446","2025-06-10 22:05",1,35.557658,-87.694462,TRUE,FALSE,TRUE,"S249055970"
"412","easwpw1","Eastern Whip-poor-will","Antrostomus vociferus","L33872142","514–564 Tomhicken Rd, Hazle Township US-PA (40.9708,-76.0785)","2025-06-10 22:03",1,40.970765,-76.078459,TRUE,FALSE,TRUE,"S249056371"
"413","easwpw1","Eastern Whip-poor-will","Antrostomus vociferus","L47432324","Lakeshore/Tunnel Bypass trail junction","2025-06-10 22:00",1,35.4602152,-83.5466431,TRUE,FALSE,TRUE,"S249524239"
"414","easwpw1","Eastern Whip-poor-will","Antrostomus vociferus","L1666832","North Manitou Island--Village and Campground","2025-06-10 21:58",3,45.1217932,-85.9773549,TRUE,FALSE,FALSE,"S249280734"
"415","easwpw1","Eastern Whip-poor-will","Antrostomus vociferus","L47333893","Old State Hwy 20, Linden US-TN 35.56584, -87.70230","2025-06-10 21:57",4,35.565845,-87.702296,TRUE,FALSE,TRUE,"S249056004"
"416","easwpw1","Eastern Whip-poor-will","Antrostomus vociferus","L47333873","Old State Hwy 20, Linden US-TN 35.56935, -87.70765","2025-06-10 21:55",4,35.56935,-87.707651,TRUE,FALSE,TRUE,"S249055934"
"417","easwpw1","Eastern Whip-poor-will","Antrostomus vociferus","L47333919","Old State Hwy 20, Linden US-TN 35.57235, -87.71224","2025-06-10 21:51",4,35.572353,-87.712238,TRUE,FALSE,TRUE,"S249056118"
"418","easwpw1","Eastern Whip-poor-will","Antrostomus vociferus","L1354321","Whispering Pines Farm","2025-06-10 21:51",1,39.4463562,-78.8828163,TRUE,FALSE,TRUE,"S249146675"
"419","easwpw1","Eastern Whip-poor-will","Antrostomus vociferus","L47333911","Old Hohenwald Rd, Linden US-TN 35.57728, -87.71678","2025-06-10 21:48",1,35.577279,-87.716783,TRUE,FALSE,TRUE,"S249056077"
"420","easwpw1","Eastern Whip-poor-will","Antrostomus vociferus","L47333683","Washington Township, Indiana, US (39.343, -86.442)","2025-06-10 21:46",2,39.342749,-86.4421228,TRUE,FALSE,TRUE,"S249055159"
"421","easwpw1","Eastern Whip-poor-will","Antrostomus vociferus","L47333934","Old Hohenwald Rd, Linden US-TN 35.58141, -87.72232","2025-06-10 21:43",2,35.581409,-87.722316,TRUE,FALSE,TRUE,"S249056208"
"422","easwpw1","Eastern Whip-poor-will","Antrostomus vociferus","L47333951","Old Hohenwald Rd, Linden US-TN 35.58393, -87.72748","2025-06-10 21:41",2,35.58393,-87.727475,TRUE,FALSE,TRUE,"S249056283"
"423","easwpw1","Eastern Whip-poor-will","Antrostomus vociferus","L47333944","6882 Old Hohenwald Rd, Linden US-TN 35.58811, -87.73184","2025-06-10 21:36",2,35.588107,-87.731845,TRUE,FALSE,TRUE,"S249056250"
"424","easwpw1","Eastern Whip-poor-will","Antrostomus vociferus","L47339673","4884 Leetonia Road, Gaines, Pennsylvania, US (41.621, -77.547)","2025-06-10 21:35",2,41.6207856,-77.5468057,TRUE,FALSE,TRUE,"S249085221"
"425","easwpw1","Eastern Whip-poor-will","Antrostomus vociferus","L47332457","W5423 Schnagl Road, Trego, Wisconsin, US (45.94, -91.813)","2025-06-10 21:35",1,45.9396903,-91.8129342,TRUE,FALSE,TRUE,"S249049926"
"426","easwpw1","Eastern Whip-poor-will","Antrostomus vociferus","L47339686","4884 Leetonia Road, Gaines, Pennsylvania, US (41.617, -77.537)","2025-06-10 21:33",1,41.6173963,-77.5368382,TRUE,FALSE,TRUE,"S249085264"
"427","easwpw1","Eastern Whip-poor-will","Antrostomus vociferus","L47333957","6680 Old Hohenwald Rd, Linden US-TN 35.59076, -87.73738","2025-06-10 21:33",1,35.590762,-87.737382,TRUE,FALSE,TRUE,"S249056304"
"428","easwpw1","Eastern Whip-poor-will","Antrostomus vociferus","L47334129","Old Hohenwald Rd, Linden US-TN 35.58780, -87.74202","2025-06-10 21:31",1,35.587802,-87.742022,TRUE,FALSE,TRUE,"S249056970"
"429","easwpw1","Eastern Whip-poor-will","Antrostomus vociferus","L19047390","187  Birds Eye View Lane, Fleetwood, North Carolina, US (36.283, -81.458)","2025-06-10 21:31",1,36.2829709,-81.4581244,TRUE,FALSE,TRUE,"S249041137"
"430","easwpw1","Eastern Whip-poor-will","Antrostomus vociferus","L47387079","Range Road","2025-06-10 21:30",31,46.6316273,-91.0482233,TRUE,TRUE,TRUE,"S249310635"
"431","easwpw1","Eastern Whip-poor-will","Antrostomus vociferus","L47339695","4884 Leetonia Road, Gaines, Pennsylvania, US (41.612, -77.522)","2025-06-10 21:29",2,41.6115267,-77.5217904,TRUE,FALSE,TRUE,"S249085305"
"432","easwpw1","Eastern Whip-poor-will","Antrostomus vociferus","L26178195","Otter Circle Yard (Private Property)","2025-06-10 21:28",1,39.762697,-74.297654,TRUE,FALSE,TRUE,"S249170114"
"433","easwpw1","Eastern Whip-poor-will","Antrostomus vociferus","L47334010","Old Hohenwald Rd, Linden US-TN 35.58753, -87.74919","2025-06-10 21:25",2,35.587527,-87.749191,TRUE,FALSE,TRUE,"S249056516"
"434","easwpw1","Eastern Whip-poor-will","Antrostomus vociferus","L1397498","1290 Moose Run Road Bellefonte, PA 16823","2025-06-10 21:25",1,40.9749324,-77.8144401,TRUE,FALSE,TRUE,"S249042198"
"435","easwpw1","Eastern Whip-poor-will","Antrostomus vociferus","L47333991","Old Hohenwald Rd, Linden US-TN 35.58869, -87.75618","2025-06-10 21:21",2,35.588691,-87.756185,TRUE,FALSE,TRUE,"S249056435"
"436","easwpw1","Eastern Whip-poor-will","Antrostomus vociferus","L47333982","Old Hohenwald Rd, Linden US-TN 35.58782, -87.76257","2025-06-10 21:18",2,35.587822,-87.762574,TRUE,FALSE,TRUE,"S249056400"
"437","easwpw1","Eastern Whip-poor-will","Antrostomus vociferus","L47331921","Unnamed Road, Herod, Illinois, US (37.515, -88.453)","2025-06-10 21:17",3,37.5151615,-88.4527474,TRUE,FALSE,TRUE,"S249047439"
"438","easwpw1","Eastern Whip-poor-will","Antrostomus vociferus","L47334020","Old Hohenwald Rd, Linden US-TN 35.59182, -87.76640","2025-06-10 21:14",1,35.591822,-87.766403,TRUE,FALSE,TRUE,"S249056567"
"439","easwpw1","Eastern Whip-poor-will","Antrostomus vociferus","L47331017","4123–4199 Evitts Creek Rd, Bedford US-PA 39.84351, -78.61246","2025-06-10 21:14",1,39.84351,-78.612461,TRUE,FALSE,TRUE,"S249043231"
"440","easwpw1","Eastern Whip-poor-will","Antrostomus vociferus","L47331036","3773 Evitts Creek Rd, Bedford US-PA 39.83108, -78.61579","2025-06-10 21:13",1,39.83108,-78.615788,TRUE,FALSE,TRUE,"S249043326"
"441","easwpw1","Eastern Whip-poor-will","Antrostomus vociferus","L19029064","245 S Woodlawn Dr, Crawford US-GA 33.88090, -83.15558","2025-06-10 21:13",1,33.880898,-83.155577,TRUE,FALSE,TRUE,"S249037519"
"442","easwpw1","Eastern Whip-poor-will","Antrostomus vociferus","L7606609","Crystal power lines Milan NH","2025-06-10 21:12",6,44.6302451,-71.3270187,TRUE,FALSE,TRUE,"S249058754"
"443","easwpw1","Eastern Whip-poor-will","Antrostomus vociferus","L47334122","Old Hohenwald Rd, Linden US-TN 35.59243, -87.77305","2025-06-10 21:11",1,35.592433,-87.773053,TRUE,FALSE,TRUE,"S249056943"
"444","easwpw1","Eastern Whip-poor-will","Antrostomus vociferus","L47334046","Old Hohenwald Rd, Linden US-TN (35.5922,-87.7796)","2025-06-10 21:07",1,35.592161,-87.779613,TRUE,FALSE,TRUE,"S249056681"
"445","easwpw1","Eastern Whip-poor-will","Antrostomus vociferus","L22531770","1672 Marshall Graves Rd, Yanceyville US-NC 36.33436, -79.38387","2025-06-10 21:07",2,36.334363,-79.383874,TRUE,FALSE,TRUE,"S249462451"
"446","easwpw1","Eastern Whip-poor-will","Antrostomus vociferus","L47353692","500–834 Emerson Cook Rd, Pittsboro US-NC (35.7803,-79.2792)","2025-06-10 21:07",1,35.780295,-79.279163,TRUE,FALSE,TRUE,"S249154167"
"447","easwpw1","Eastern Whip-poor-will","Antrostomus vociferus","L38676580","311 N Cologne Ave, Egg Harbor City US-NJ 39.55110, -74.55544","2025-06-10 21:06",1,39.551095,-74.555442,TRUE,FALSE,TRUE,"S249035731"
"448","easwpw1","Eastern Whip-poor-will","Antrostomus vociferus","L19004576","Indiana Dunes SP--Campground","2025-06-10 21:05",1,41.6576733,-87.0553575,TRUE,FALSE,FALSE,"S249222652"
"449","easwpw1","Eastern Whip-poor-will","Antrostomus vociferus","L34865615","Sproul SF--Eddy Ridge Rd south of State Line Rd in atlas block 48C25","2025-06-10 21:04",9,41.1370562,-77.8527295,TRUE,FALSE,TRUE,"S249293223"
"450","easwpw1","Eastern Whip-poor-will","Antrostomus vociferus","L47334112","Old Hohenwald Rd, Linden US-TN 35.59133, -87.78600","2025-06-10 21:04",3,35.59133,-87.785998,TRUE,FALSE,TRUE,"S249056917"
"451","easwpw1","Eastern Whip-poor-will","Antrostomus vociferus","L32148520","Barn (Farm)","2025-06-10 21:02",1,37.830003,-84.01075,TRUE,FALSE,TRUE,"S249035964"
"452","easwpw1","Eastern Whip-poor-will","Antrostomus vociferus","L47334053","2802–3464 Old Hohenwald Rd, Linden US-TN 35.58861, -87.79179","2025-06-10 21:01",2,35.588609,-87.791789,TRUE,FALSE,TRUE,"S249056703"
"453","easwpw1","Eastern Whip-poor-will","Antrostomus vociferus","L47332911","Wildenberg Sand Prairie Park","2025-06-10 21:00",2,43.3740016,-89.540601,TRUE,FALSE,TRUE,"S249052568"
"454","easwpw1","Eastern Whip-poor-will","Antrostomus vociferus","L38747211","95 Brujo Way, Hot Springs Village US-AR 34.63720, -92.97557","2025-06-10 20:59",2,34.637198,-92.975571,TRUE,FALSE,TRUE,"S249045118"
"455","easwpw1","Eastern Whip-poor-will","Antrostomus vociferus","L43677155","500–834 Emerson Cook Rd, Pittsboro US-NC (35.7807,-79.2795)","2025-06-10 20:58",1,35.780697,-79.279494,TRUE,FALSE,TRUE,"S249035830"
"456","easwpw1","Eastern Whip-poor-will","Antrostomus vociferus","L47334056","2922 Old Hohenwald Rd, Linden US-TN 35.58627, -87.79803","2025-06-10 20:57",3,35.586268,-87.798032,TRUE,FALSE,TRUE,"S249056727"
"457","easwpw1","Eastern Whip-poor-will","Antrostomus vociferus","L47406988","Laurel Fork Road, Blue Grass, Virginia, US (38.5, -79.614)","2025-06-10 20:56",1,38.4999679,-79.6137457,TRUE,FALSE,TRUE,"S249396882"
"458","easwpw1","Eastern Whip-poor-will","Antrostomus vociferus","L31114540","446 Federal Hill Rd, Milford US-NH 42.78864, -71.62733","2025-06-10 20:56",1,42.788641,-71.62733,TRUE,FALSE,TRUE,"S249039769"
"459","easwpw1","Eastern Whip-poor-will","Antrostomus vociferus","L47334063","2272–2560 Old Hohenwald Rd, Linden US-TN 35.58747, -87.80530","2025-06-10 20:54",1,35.587469,-87.805305,TRUE,FALSE,TRUE,"S249056751"
"460","easwpw1","Eastern Whip-poor-will","Antrostomus vociferus","L827682","Union Springs","2025-06-10 20:54",NA,38.4731624,-79.0628743,TRUE,FALSE,TRUE,"S250803861"
"461","easwpw1","Eastern Whip-poor-will","Antrostomus vociferus","L6352559","Myers House","2025-06-10 20:51",3,37.4367094,-90.6354003,TRUE,FALSE,TRUE,"S249044894"
"462","easwpw1","Eastern Whip-poor-will","Antrostomus vociferus","L47330059","1514 KY-32, Sandy Hook US-KY 38.08025, -83.11160","2025-06-10 20:45",3,38.080253,-83.111595,TRUE,FALSE,TRUE,"S249038750"
"463","easwpw1","Eastern Whip-poor-will","Antrostomus vociferus","L47334070","2530 McGee Rd, Linden US-TN 35.60108, -87.81275","2025-06-10 20:45",1,35.601082,-87.812748,TRUE,FALSE,TRUE,"S249056772"
"464","easwpw1","Eastern Whip-poor-will","Antrostomus vociferus","L47392405","818","2025-06-10 20:44",1,37.145193,-91.450087,TRUE,FALSE,TRUE,"S249325133"
"465","easwpw1","Eastern Whip-poor-will","Antrostomus vociferus","L7661184","Kankakee Sands--Grace Teninga Discovery Trail","2025-06-10 20:36",1,41.088548,-87.418419,TRUE,FALSE,FALSE,"S249041455"
"466","easwpw1","Eastern Whip-poor-will","Antrostomus vociferus","L70754","Hitchcock Nature Center","2025-06-10 20:28",1,41.413235,-95.858,TRUE,FALSE,FALSE,"S249052301"
"467","easwpw1","Eastern Whip-poor-will","Antrostomus vociferus","L7385364","605 Jay Hutchings Rd, Sparta US-TN (35.9582,-85.6644)","2025-06-10 20:22",1,35.958227,-85.664364,TRUE,FALSE,TRUE,"S249040630"
"468","easwpw1","Eastern Whip-poor-will","Antrostomus vociferus","L47328990","Back field by garden","2025-06-10 20:13",1,35.217859,-82.859436,TRUE,FALSE,TRUE,"S249033351"
"469","easwpw1","Eastern Whip-poor-will","Antrostomus vociferus","L44684714","1103 Ridgeview Rd, Chester US-SC 34.70581, -81.27230","2025-06-10 19:58",1,34.705805,-81.272304,TRUE,FALSE,TRUE,"S249020169"
"470","easwpw1","Eastern Whip-poor-will","Antrostomus vociferus","L47333862","163–169 Hitchiti Rd, Hillsboro US-GA (33.0557,-83.6781)","2025-06-10 19:35",1,33.055691,-83.678054,TRUE,FALSE,TRUE,"S249055898"
"471","easwpw1","Eastern Whip-poor-will","Antrostomus vociferus","L47334049","S4415 McClurg Ln, Viroqua US-WI 43.57043, -91.00268","2025-06-10 19:34",1,43.570434,-91.002683,TRUE,FALSE,TRUE,"S249056692"
"472","easwpw1","Eastern Whip-poor-will","Antrostomus vociferus","L11689480","Mountain Division Trail--West","2025-06-10 19:12",2,44.0082861,-70.9869234,TRUE,FALSE,FALSE,"S249027254"
"473","easwpw1","Eastern Whip-poor-will","Antrostomus vociferus","L452324","Dawson Forest","2025-06-10 19:10",2,34.351178,-84.1397381,TRUE,FALSE,FALSE,"S249048105"
"474","easwpw1","Eastern Whip-poor-will","Antrostomus vociferus","L3400763","Quantuck Creek off S Country Rd.","2025-06-10 18:59",2,40.8327316,-72.6180303,TRUE,FALSE,FALSE,"S249036376"
"475","easwpw1","Eastern Whip-poor-will","Antrostomus vociferus","L151651","Chester Woods","2025-06-10 18:09",1,43.99408,-92.31904,TRUE,FALSE,FALSE,"S249049450"
"476","easwpw1","Eastern Whip-poor-will","Antrostomus vociferus","L6322209","Suminsby Park and Sargent Drive","2025-06-10 16:57",1,44.3361417,-68.304306,TRUE,FALSE,FALSE,"S248997412"
"477","easwpw1","Eastern Whip-poor-will","Antrostomus vociferus","L47333864","Moshannon SF 1","2025-06-10 15:57",1,40.858189,-78.073384,TRUE,FALSE,TRUE,"S249055911"
"478","easwpw1","Eastern Whip-poor-will","Antrostomus vociferus","L27053999","Caitlyn Farms/White Oak creek WMA","2025-06-10 08:24",1,35.3056269,-82.1345148,TRUE,FALSE,TRUE,"S248811630"
"479","easwpw1","Eastern Whip-poor-will","Antrostomus vociferus","L124353","Huntington Beach SP","2025-06-10 07:30",1,33.5083,-79.0659,TRUE,FALSE,FALSE,"S248851496"
"480","easwpw1","Eastern Whip-poor-will","Antrostomus vociferus","L43309888","The Loft Environs","2025-06-10 07:24",1,38.421859,-86.473482,TRUE,FALSE,TRUE,"S249140466"
"481","easwpw1","Eastern Whip-poor-will","Antrostomus vociferus","L46126126","10 Old Bend Road, Fort Edward, New York, US (43.266, -73.688)","2025-06-10 06:06",1,43.2655458,-73.6879021,TRUE,FALSE,TRUE,"S248781098"
"482","easwpw1","Eastern Whip-poor-will","Antrostomus vociferus","L47275029","200–382 Rowan-Cabarrus Rd, Gold Hill US-NC 35.50938, -80.30133","2025-06-10 05:39",1,35.50938,-80.301328,TRUE,FALSE,TRUE,"S248776699"
"483","easwpw1","Eastern Whip-poor-will","Antrostomus vociferus","L47418185","54 Grouse Ln, Brevard US-NC 35.13313, -82.68181","2025-06-10 05:38",1,35.133132,-82.681815,TRUE,FALSE,TRUE,"S249449864"
"484","easwpw1","Eastern Whip-poor-will","Antrostomus vociferus","L35877012","Marion Road","2025-06-10 05:25",1,33.0938497,-80.4659272,TRUE,TRUE,TRUE,"S248787808"
"485","easwpw1","Eastern Whip-poor-will","Antrostomus vociferus","L1399503","Black Walnut Creek Preserve","2025-06-10 05:15",1,41.4219182,-87.6672689,TRUE,FALSE,FALSE,"S248969284"
"486","easwpw1","Eastern Whip-poor-will","Antrostomus vociferus","L47273094","Marion East SE 7901–7979 NC-226, Nebo US-NC 35.64741, -81.89709","2025-06-10 05:13",1,35.647407,-81.897086,TRUE,FALSE,TRUE,"S248769112"
"487","easwpw1","Eastern Whip-poor-will","Antrostomus vociferus","L36413922","SUMMIT TRAILS - PRIVATE","2025-06-10 05:06",1,43.1980197,-86.0787447,TRUE,FALSE,TRUE,"S248767718"
"488","easwpw1","Eastern Whip-poor-will","Antrostomus vociferus","L6605567","Napeague SP--Promised Land","2025-06-10 05:02",1,41.0020549,-72.0773506,TRUE,FALSE,FALSE,"S248787526"
"489","easwpw1","Eastern Whip-poor-will","Antrostomus vociferus","L1588169","Tillinghast Pond Manangement Area","2025-06-10 04:45",3,41.6457021,-71.7574177,TRUE,FALSE,FALSE,"S248868279"
"490","easwpw1","Eastern Whip-poor-will","Antrostomus vociferus","L46741511","Mamers SE Peach Farm Rd, Lillington US-NC 35.40380, -78.90205","2025-06-10 04:44",2,35.403799,-78.902053,TRUE,FALSE,TRUE,"S248914439"
"491","easwpw1","Eastern Whip-poor-will","Antrostomus vociferus","L9110869","Treehaven UWSP","2025-06-10 04:44",1,45.4999998,-89.5504935,TRUE,FALSE,FALSE,"S248772836"
"492","easwpw1","Eastern Whip-poor-will","Antrostomus vociferus","L47123761","A-frame","2025-06-10 04:37",1,40.979323,-72.095102,TRUE,FALSE,TRUE,"S248764708"
"493","easwpw1","Eastern Whip-poor-will","Antrostomus vociferus","L46741322","Mamers SE Peach Farm Rd, Lillington US-NC 35.40721, -78.90330","2025-06-10 04:30",1,35.407208,-78.903302,TRUE,FALSE,TRUE,"S248914215"
"494","easwpw1","Eastern Whip-poor-will","Antrostomus vociferus","L39674124","Don Watts Camp","2025-06-10 03:00",2,41.712185,-79.2875632,TRUE,FALSE,TRUE,"S249008936"
"495","easwpw1","Eastern Whip-poor-will","Antrostomus vociferus","L47334718","Forest Service Road 3, West Portsmouth US-OH (38.7575,-83.2060)","2025-06-10 00:10",3,38.757547,-83.205959,TRUE,FALSE,TRUE,"S249059623"
"496","easwpw1","Eastern Whip-poor-will","Antrostomus vociferus","L37827710","Spruce Feeders","2025-06-10 00:00",2,44.0644385,-86.2256275,TRUE,FALSE,TRUE,"S250226601"
"497","easwpw1","Eastern Whip-poor-will","Antrostomus vociferus","L47265150","Main Forest Road, Martinsville, Indiana, US (39.317, -86.439)","2025-06-09 23:10",1,39.3169397,-86.4391706,TRUE,FALSE,TRUE,"S248735615"
"498","easwpw1","Eastern Whip-poor-will","Antrostomus vociferus","L47744151","Mountain Farms Lane, Breezewood, PA","2025-06-09 22:54",1,39.9462961,-78.2499927,TRUE,FALSE,TRUE,"S250892106"
"499","easwpw1","Eastern Whip-poor-will","Antrostomus vociferus","L1327553","Rifle River Trail yard","2025-06-09 22:15",1,44.2554843,-84.0673725,TRUE,FALSE,TRUE,"S248728539"
"500","easwpw1","Eastern Whip-poor-will","Antrostomus vociferus","L5071728","Cumberland SF--Forestry Office Trailhead","2025-06-09 22:08",2,37.5236456,-78.2822891,TRUE,FALSE,FALSE,"S248734103"
"501","easwpw1","Eastern Whip-poor-will","Antrostomus vociferus","L47279163","Unnamed Road, Kempton, Pennsylvania, US (40.616, -75.972)","2025-06-09 22:00",3,40.6161751,-75.9718165,TRUE,FALSE,TRUE,"S248797052"
"502","easwpw1","Eastern Whip-poor-will","Antrostomus vociferus","L1910330","Pumpkintown","2025-06-09 21:36",2,38.8930704,-80.0236416,TRUE,FALSE,TRUE,"S248730426"
"503","easwpw1","Eastern Whip-poor-will","Antrostomus vociferus","L611452","Pigeon Creek County Park","2025-06-09 21:28",1,42.93528,-86.08955,TRUE,FALSE,FALSE,"S248916764"
"504","easwpw1","Eastern Whip-poor-will","Antrostomus vociferus","L47182835","500–594 Joshua Falls Rd, Madison Heights US-VA 37.43588, -79.04994","2025-06-09 21:20",2,37.435877,-79.049937,TRUE,FALSE,TRUE,"S248832531"
"505","easwpw1","Eastern Whip-poor-will","Antrostomus vociferus","L47261671","6000 Industrial Park Rd, Athens US-OH 39.38184, -82.17349","2025-06-09 21:18",1,39.381842,-82.173488,TRUE,FALSE,TRUE,"S248719318"
"506","easwpw1","Eastern Whip-poor-will","Antrostomus vociferus","L13366536","254 Cumberland Road, Sanford, North Carolina, US (35.61, -79.187)","2025-06-09 21:13",1,35.6104078,-79.1871793,TRUE,FALSE,TRUE,"S248718894"
"507","easwpw1","Eastern Whip-poor-will","Antrostomus vociferus","L47266298","Strawband Beaver Rd, Philipsburg US-PA (40.8633,-78.0679)","2025-06-09 21:10",7,40.863297,-78.067859,TRUE,FALSE,TRUE,"S248740694"
"508","easwpw1","Eastern Whip-poor-will","Antrostomus vociferus","L47261073","677 Boy Scout Rd, Hustontown US-PA 40.08748, -77.97037","2025-06-09 21:02",1,40.087479,-77.97037,TRUE,FALSE,TRUE,"S248716573"
"509","easwpw1","Eastern Whip-poor-will","Antrostomus vociferus","L47468648","Clay Spur road , Shirleysburg","2025-06-09 21:00",1,40.285133,-77.8653181,TRUE,FALSE,TRUE,"S249688919"
"510","easwpw1","Eastern Whip-poor-will","Antrostomus vociferus","L5260471","Bayville Yard","2025-06-09 21:00",1,39.877,-74.175,TRUE,FALSE,TRUE,"S248716544"
"511","easwpw1","Eastern Whip-poor-will","Antrostomus vociferus","L16798480","Home 31067","2025-06-09 21:00",2,32.8301995,-82.9409638,TRUE,TRUE,TRUE,"S248737818"
"512","easwpw1","Eastern Whip-poor-will","Antrostomus vociferus","L18204080","5030 Burnley Road (private)","2025-06-09 20:58",1,38.174399,-78.351873,TRUE,FALSE,TRUE,"S248715976"
"513","easwpw1","Eastern Whip-poor-will","Antrostomus vociferus","L47262936","93–131 CR-109, Waterloo US-AL 34.92706, -88.09573","2025-06-09 20:55",1,34.927061,-88.09573,TRUE,FALSE,TRUE,"S248725038"
"514","easwpw1","Eastern Whip-poor-will","Antrostomus vociferus","L21869939","2052 Route 73 E, Sudbury US-VT 43.81221, -73.16079","2025-06-09 20:54",1,43.812213,-73.160788,TRUE,FALSE,TRUE,"S248723635"
"515","easwpw1","Eastern Whip-poor-will","Antrostomus vociferus","L27964539","Island Lake Recreation Area, Brighton US-MI 42.48849, -83.72135","2025-06-09 20:54",1,42.488485,-83.721346,TRUE,FALSE,TRUE,"S248718936"
"516","easwpw1","Eastern Whip-poor-will","Antrostomus vociferus","L3600013","Red River Gorge (Wolfe Co.)--Rock Bridge Road","2025-06-09 20:50",3,37.7692065,-83.5874176,TRUE,FALSE,FALSE,"S249019759"
"517","easwpw1","Eastern Whip-poor-will","Antrostomus vociferus","L47265045","Baxter Park Rd, Greenville US-ME","2025-06-09 20:50",3,45.795773,-68.893671,TRUE,FALSE,TRUE,"S248735086"
"518","easwpw1","Eastern Whip-poor-will","Antrostomus vociferus","L1864018","Hither Hills SP--Walking Dunes","2025-06-09 20:49",4,41.0128037,-72.0372128,TRUE,FALSE,FALSE,"S248714704"
"519","easwpw1","Eastern Whip-poor-will","Antrostomus vociferus","L47240587","10597 Prairie Rd, Bucyrus US-MO 37.43502, -92.05751","2025-06-09 20:45",4,37.435017,-92.057514,TRUE,FALSE,TRUE,"S248728387"
"520","easwpw1","Eastern Whip-poor-will","Antrostomus vociferus","L9387661","Unknown Location - (43.584, -74.004)","2025-06-09 20:40",1,43.5835713,-74.0038205,TRUE,FALSE,TRUE,"S248982512"
"521","easwpw1","Eastern Whip-poor-will","Antrostomus vociferus","L46536263","7301 Dunlavey Ridge Rd, Fraziers Bottom US-WV 38.63556, -82.00782","2025-06-09 20:35",1,38.635559,-82.00782,TRUE,FALSE,TRUE,"S248719463"
"522","easwpw1","Eastern Whip-poor-will","Antrostomus vociferus","L47261099","33339 Chinquapin Rd, Waverly US-VA 36.96911, -77.08546","2025-06-09 20:29",4,36.969112,-77.085455,TRUE,FALSE,TRUE,"S248716720"
"523","easwpw1","Eastern Whip-poor-will","Antrostomus vociferus","L1287966","Fort Custer SRA","2025-06-09 20:24",3,42.326697,-85.3473759,TRUE,TRUE,FALSE,"S248731148"
"524","easwpw1","Eastern Whip-poor-will","Antrostomus vociferus","L47289181","675 Phoenix Rd, Athens US-GA 33.87876, -83.35118","2025-06-09 20:18",2,33.87876,-83.351181,TRUE,FALSE,TRUE,"S248848618"
"525","easwpw1","Eastern Whip-poor-will","Antrostomus vociferus","L16794424","The HILL. (Private)","2025-06-09 19:45",2,43.5376445,-90.0776516,TRUE,FALSE,TRUE,"S248730721"
"526","easwpw1","Eastern Whip-poor-will","Antrostomus vociferus","L46034891","mells heating &air","2025-06-09 06:00",2,35.3691673,-81.6602707,TRUE,FALSE,TRUE,"S250358151"
"527","easwpw1","Eastern Whip-poor-will","Antrostomus vociferus","L47307136","Gold Hill SE 35.50914, -80.30131","2025-06-09 05:33",1,35.509136,-80.301306,TRUE,FALSE,TRUE,"S248934267"
