"","speciesCode","comName","sciName","locId","locName","obsDt","howMany","lat","lng","obsValid","obsReviewed","locationPrivate","subId"
"1","blctit4","Black-crested Titmouse","Baeolophus atricristatus","L481859","Lake Abilene","2025-05-28 18:00",1,32.2316256,-99.8920619,TRUE,FALSE,FALSE,"S243995235"
"2","blctit4","Black-crested Titmouse","Baeolophus atricristatus","L22059884","Balcones Woods and Quarries","2025-05-28 17:56",1,30.4047043,-97.7310452,TRUE,FALSE,TRUE,"S243987586"
"3","blctit4","Black-crested Titmouse","Baeolophus atricristatus","L464322","Abilene SP (PHP 008)","2025-05-28 17:00",4,32.233713,-99.8822021,TRUE,FALSE,FALSE,"S243978894"
"4","blctit4","Black-crested Titmouse","Baeolophus atricristatus","L43381915","7286 Dietz Elkhorn Road, Fair Oaks Ranch, Texas, US (29.73, -98.626)","2025-05-28 16:36",4,29.7300952,-98.6262197,TRUE,FALSE,TRUE,"S243968751"
"5","blctit4","Black-crested Titmouse","Baeolophus atricristatus","L4580695","Cedar Hill Cemetery","2025-05-28 15:37",1,30.6928402,-101.2059045,TRUE,FALSE,FALSE,"S243954060"
"6","blctit4","Black-crested Titmouse","Baeolophus atricristatus","L46238322","1514 Belclaire, San Antonio, Texas, US (29.617, -98.516)","2025-05-28 15:15",NA,29.6166086,-98.5160635,TRUE,FALSE,TRUE,"S243940461"
"7","blctit4","Black-crested Titmouse","Baeolophus atricristatus","L12360706","BRT Old Tank Loop Richter Ranch, Marble Falls US-TX 30.54661, -98.23969","2025-05-28 15:15",1,30.546615,-98.23969,TRUE,FALSE,TRUE,"S243944998"
"8","blctit4","Black-crested Titmouse","Baeolophus atricristatus","L46243474","Louise Hays Park, Kerrville US-TX (30.0442,-99.1427)","2025-05-28 15:10",7,30.044186,-99.142707,TRUE,FALSE,TRUE,"S243967043"
"9","blctit4","Black-crested Titmouse","Baeolophus atricristatus","L10431508","Kendall Ridge","2025-05-28 14:43",4,29.746836,-98.66557,TRUE,FALSE,TRUE,"S243942825"
"10","blctit4","Black-crested Titmouse","Baeolophus atricristatus","L46239664","22301 Hazy Hollow Cove, Spicewood US-TX 30.37640, -98.06989m","2025-05-28 14:25",NA,30.376399,-98.06989,TRUE,FALSE,TRUE,"S243947168"
"11","blctit4","Black-crested Titmouse","Baeolophus atricristatus","L17945506","Raymond Rimkus Park & Huebner Onion NA","2025-05-28 13:41",2,29.4988992,-98.6160787,TRUE,FALSE,FALSE,"S243926265"
"12","blctit4","Black-crested Titmouse","Baeolophus atricristatus","L17827080","Estero Llano Grande State Park, Weslaco US-TX 26.12654, -97.95660","2025-05-28 13:23",1,26.126535,-97.956605,TRUE,FALSE,TRUE,"S243976360"
"13","blctit4","Black-crested Titmouse","Baeolophus atricristatus","L45678362","San Antonio, Texas, US (29.531, -98.574)","2025-05-28 13:17",3,29.5305461,-98.5738728,TRUE,FALSE,TRUE,"S243895343"
"14","blctit4","Black-crested Titmouse","Baeolophus atricristatus","L14426326","288 County Road 376, Rising Star US-TX 32.15246, -99.08582","2025-05-28 13:11",1,32.152465,-99.085816,TRUE,FALSE,TRUE,"S243941970"
"15","blctit4","Black-crested Titmouse","Baeolophus atricristatus","L24091626","CR 1441","2025-05-28 12:32",1,27.9852668,-97.7020142,TRUE,FALSE,TRUE,"S243884281"
"16","blctit4","Black-crested Titmouse","Baeolophus atricristatus","L33668250","4101 Carnation Ave, McAllen US-TX 26.23457, -98.26073","2025-05-28 12:31",4,26.234568,-98.260727,TRUE,FALSE,TRUE,"S243888980"
"17","blctit4","Black-crested Titmouse","Baeolophus atricristatus","L8400277","Harper Park, Water Valley","2025-05-28 12:15",7,31.6600481,-100.7402301,TRUE,FALSE,FALSE,"S243897609"
"18","blctit4","Black-crested Titmouse","Baeolophus atricristatus","L1652988","North San Antonio Hills","2025-05-28 12:04",4,29.469856,-98.715316,TRUE,FALSE,TRUE,"S243942229"
"19","blctit4","Black-crested Titmouse","Baeolophus atricristatus","L9574787","Stone Oak at Parmer, Austin","2025-05-28 11:52",4,30.4373393,-97.7335794,TRUE,FALSE,TRUE,"S243876690"
"20","blctit4","Black-crested Titmouse","Baeolophus atricristatus","L305948","Milton Reimers Ranch Park","2025-05-28 11:42",4,30.3641504,-98.1237811,TRUE,FALSE,FALSE,"S243908444"
"21","blctit4","Black-crested Titmouse","Baeolophus atricristatus","L337013","Junction--Schreiner Pk (HOTW 091)","2025-05-28 11:25",2,30.4888807,-99.7590351,TRUE,FALSE,FALSE,"S243899045"
"22","blctit4","Black-crested Titmouse","Baeolophus atricristatus","L2262809","Big Bend NP--Chisos Basin Campground","2025-05-28 11:17",2,29.2761238,-103.3025122,TRUE,FALSE,FALSE,"S243940302"
"23","blctit4","Black-crested Titmouse","Baeolophus atricristatus","L22359857","233 Willow Bridge, Cibolo, Texas, US (29.609, -98.239)","2025-05-28 11:11",2,29.6086304,-98.239093,TRUE,FALSE,TRUE,"S243852486"
"24","blctit4","Black-crested Titmouse","Baeolophus atricristatus","L19636549","Backyard Leon Creek @ Old Babcock","2025-05-28 10:59",2,29.560102,-98.624976,TRUE,FALSE,TRUE,"S243853847"
"25","blctit4","Black-crested Titmouse","Baeolophus atricristatus","L7004915","Muir Lake (Lakeline Park)","2025-05-28 10:52",5,30.4859552,-97.8113177,TRUE,FALSE,FALSE,"S243884922"
"26","blctit4","Black-crested Titmouse","Baeolophus atricristatus","L22359607","108 Wistoria Court, Cibolo, Texas, US (29.606, -98.244)","2025-05-28 10:46",1,29.6060632,-98.2438083,TRUE,FALSE,TRUE,"S243843185"
"27","blctit4","Black-crested Titmouse","Baeolophus atricristatus","L13762134","5708 Lipan Apache Bend, Austin, Texas, US (30.327, -98.026)","2025-05-28 10:45",1,30.3272975,-98.0259952,TRUE,FALSE,TRUE,"S243850407"
"28","blctit4","Black-crested Titmouse","Baeolophus atricristatus","L13311681","#3 Dietert","2025-05-28 10:20",1,30.05,-99.157,TRUE,FALSE,TRUE,"S243891813"
"29","blctit4","Black-crested Titmouse","Baeolophus atricristatus","L269692","Lake Findley (Lake Alice)","2025-05-28 10:10",1,27.7888887,-98.0641977,TRUE,FALSE,FALSE,"S243993855"
"30","blctit4","Black-crested Titmouse","Baeolophus atricristatus","L22727308","Mac Wylie Golf Center","2025-05-28 09:56",1,29.5357086,-98.6302699,TRUE,FALSE,FALSE,"S243831880"
"31","blctit4","Black-crested Titmouse","Baeolophus atricristatus","L46218702","Boerne City Park, Boerne US-TX 29.78283, -98.70897","2025-05-28 09:55",1,29.782825,-98.708973,TRUE,FALSE,TRUE,"S243848257"
"32","blctit4","Black-crested Titmouse","Baeolophus atricristatus","L293455","Boerne City Lake Park","2025-05-28 09:53",3,29.8267792,-98.7707455,TRUE,FALSE,FALSE,"S243863565"
"33","blctit4","Black-crested Titmouse","Baeolophus atricristatus","L22359594","19349 County Road 382, Cibolo, Texas, US (29.61, -98.242)","2025-05-28 09:52",2,29.6100905,-98.2418713,TRUE,FALSE,TRUE,"S243824129"
"34","blctit4","Black-crested Titmouse","Baeolophus atricristatus","L375162","King Ranch--Santa Gertrudis Unit (CTC 087)","2025-05-28 09:40",1,27.5183197,-97.9093409,TRUE,FALSE,FALSE,"S243908704"
"35","blctit4","Black-crested Titmouse","Baeolophus atricristatus","L3223529","San Angelo--Spring Creek Park","2025-05-28 09:32",4,31.371852,-100.512521,TRUE,FALSE,FALSE,"S243840628"
"36","blctit4","Black-crested Titmouse","Baeolophus atricristatus","L130766","Hornsby Bend (HOTE 037)","2025-05-28 09:30",2,30.2181988,-97.6458054,TRUE,FALSE,FALSE,"S243828899"
"37","blctit4","Black-crested Titmouse","Baeolophus atricristatus","L14970460","#1s G Street","2025-05-28 09:15",1,30.0342613,-99.1389736,TRUE,FALSE,TRUE,"S243893984"
"38","blctit4","Black-crested Titmouse","Baeolophus atricristatus","L2590456","3650 CR 437 Cherokee, TX","2025-05-28 09:10",2,30.9623766,-98.6788054,TRUE,FALSE,TRUE,"S243988466"
"39","blctit4","Black-crested Titmouse","Baeolophus atricristatus","L46245643","30–32 Sierra Vista rd (Private Residence)","2025-05-28 09:08",1,30.372989,-103.738356,TRUE,FALSE,TRUE,"S243979394"
"40","blctit4","Black-crested Titmouse","Baeolophus atricristatus","L35084230","Allen Road W. of US277","2025-05-28 08:59",5,31.170107,-100.512894,TRUE,FALSE,FALSE,"S243833186"
"41","blctit4","Black-crested Titmouse","Baeolophus atricristatus","L4633391","Swede Creek","2025-05-28 08:52",6,29.8743472,-98.5808802,TRUE,FALSE,TRUE,"S243927687"
"42","blctit4","Black-crested Titmouse","Baeolophus atricristatus","L922129","Yellow House Canyon--CR7300 crossing","2025-05-28 08:52",1,33.4925199,-101.6235781,TRUE,FALSE,FALSE,"S243891428"
"43","blctit4","Black-crested Titmouse","Baeolophus atricristatus","L459607","Barton Creek Wilderness Park","2025-05-28 08:44",3,30.269106,-97.8241937,TRUE,FALSE,FALSE,"S243866612"
"44","blctit4","Black-crested Titmouse","Baeolophus atricristatus","L129053","Pedernales Falls State Park (HOTE 050)","2025-05-28 08:35",3,30.3067833,-98.2512236,TRUE,FALSE,FALSE,"S243928039"
"45","blctit4","Black-crested Titmouse","Baeolophus atricristatus","L2123616","Nicholas Dawson Park","2025-05-28 08:28",1,30.2523947,-97.7547169,TRUE,FALSE,FALSE,"S243803515"
"46","blctit4","Black-crested Titmouse","Baeolophus atricristatus","L10435182","San Marcos City Cemetery","2025-05-28 08:23",6,29.8884056,-97.9575124,TRUE,FALSE,FALSE,"S243820829"
"47","blctit4","Black-crested Titmouse","Baeolophus atricristatus","L1080032","Byrd Bottom","2025-05-28 08:22",7,31.1497426,-98.9241385,TRUE,FALSE,TRUE,"S243814006"
"48","blctit4","Black-crested Titmouse","Baeolophus atricristatus","L30852956","Honeydew Ridge, San Antonio US-TX 29.47988, -98.75098","2025-05-28 08:16",2,29.47988,-98.750981,TRUE,FALSE,TRUE,"S243826271"
"49","blctit4","Black-crested Titmouse","Baeolophus atricristatus","L46235217","Pedernales Falls State Park, Round Mountain US-TX 30.30817, -98.25776","2025-05-28 08:14",1,30.30817,-98.257763,TRUE,FALSE,TRUE,"S243925664"
"50","blctit4","Black-crested Titmouse","Baeolophus atricristatus","L209876","Frontera Audubon Center (LTC 058)","2025-05-28 08:12",1,26.1479755,-97.9897937,TRUE,FALSE,FALSE,"S243853130"
"51","blctit4","Black-crested Titmouse","Baeolophus atricristatus","L4816295","Pugh River Park","2025-05-28 07:59",6,31.1824345,-100.4946127,TRUE,FALSE,FALSE,"S243800966"
"52","blctit4","Black-crested Titmouse","Baeolophus atricristatus","L8923693","5805 Miramonte Dr, Austin US-TX (30.4165,-97.7558)","2025-05-28 07:45",1,30.416458,-97.755793,TRUE,FALSE,TRUE,"S243798662"
"53","blctit4","Black-crested Titmouse","Baeolophus atricristatus","L2291472","Lakeway City Park and Greenbelt","2025-05-28 07:45",2,30.3759482,-97.9672337,TRUE,FALSE,FALSE,"S243803408"
"54","blctit4","Black-crested Titmouse","Baeolophus atricristatus","L9125207","Bexar Co. Park/Waters at Deerfield","2025-05-28 07:42",4,29.6047902,-98.5172614,TRUE,FALSE,TRUE,"S243807664"
"55","blctit4","Black-crested Titmouse","Baeolophus atricristatus","L20485072","South Concho River low water crossing (Christoval)","2025-05-28 07:42",3,31.1872877,-100.500624,TRUE,FALSE,FALSE,"S243776773"
"56","blctit4","Black-crested Titmouse","Baeolophus atricristatus","L1255898","My Yard","2025-05-28 07:38",2,29.8169186,-98.6157703,TRUE,FALSE,TRUE,"S243861312"
"57","blctit4","Black-crested Titmouse","Baeolophus atricristatus","L6812261","TX-Burnet: Private Residence, Oak Ridge Dr, Marble Falls US-TX (30.5940,-98.2562)","2025-05-28 07:38",3,30.5938093,-98.2561295,TRUE,FALSE,TRUE,"S243812513"
"58","blctit4","Black-crested Titmouse","Baeolophus atricristatus","L5595477","144 world of tennis. lakeway Tx","2025-05-28 07:28",2,30.3527751,-97.9966307,TRUE,FALSE,TRUE,"S243806281"
"59","blctit4","Black-crested Titmouse","Baeolophus atricristatus","L482942","Pace Bend Park","2025-05-28 07:21",8,30.4417921,-98.0358982,TRUE,FALSE,FALSE,"S243838670"
"60","blctit4","Black-crested Titmouse","Baeolophus atricristatus","L29124624","BS Home Hgn US-TX (26.1483,-97.7852)","2025-05-28 07:09",1,26.148288,-97.785234,TRUE,FALSE,TRUE,"S243764051"
"61","blctit4","Black-crested Titmouse","Baeolophus atricristatus","L518531","1--Horizontal Heavens: Blanco/Comal County","2025-05-28 07:04",3,29.9445229,-98.407588,TRUE,FALSE,TRUE,"S243764697"
"62","blctit4","Black-crested Titmouse","Baeolophus atricristatus","L31719054","home Juniper Drive, Limpia Crossing","2025-05-28 07:00",2,30.620399,-103.985709,TRUE,FALSE,TRUE,"S243853776"
"63","blctit4","Black-crested Titmouse","Baeolophus atricristatus","L1867254","My house in Brackettville","2025-05-28 06:15",1,29.3195277,-100.4116973,TRUE,FALSE,TRUE,"S243768610"
"64","blctit4","Black-crested Titmouse","Baeolophus atricristatus","L42713217","800 South Cynthia Street, McAllen, Texas, US (26.194, -98.219)","2025-05-27 20:11",1,26.1939166,-98.2190029,TRUE,FALSE,TRUE,"S243667940"
"65","blctit4","Black-crested Titmouse","Baeolophus atricristatus","L19281469","449 County Road 195, Dublin US-TX 32.16449, -98.28609","2025-05-27 19:33",2,32.164491,-98.286089,TRUE,FALSE,TRUE,"S243661472"
"66","blctit4","Black-crested Titmouse","Baeolophus atricristatus","L1594975","Cross Plains City Park","2025-05-27 19:10",1,32.1211983,-99.1754246,TRUE,FALSE,FALSE,"S243677486"
"67","blctit4","Black-crested Titmouse","Baeolophus atricristatus","L464323","Kirby Lake (PHP 005)","2025-05-27 19:04",7,32.3724227,-99.7345734,TRUE,FALSE,FALSE,"S243656008"
"68","blctit4","Black-crested Titmouse","Baeolophus atricristatus","L31410073","Home","2025-05-27 18:54",2,29.642434,-98.467872,TRUE,FALSE,TRUE,"S243652186"
"69","blctit4","Black-crested Titmouse","Baeolophus atricristatus","L574289","Devine Lake Park","2025-05-27 18:49",5,30.5832667,-97.8826046,TRUE,FALSE,FALSE,"S243668290"
"70","blctit4","Black-crested Titmouse","Baeolophus atricristatus","L17048069","TX-Burnet: Hidden Falls Golf Course, Meadowlakes US-TX (30.5628,-98.2937)","2025-05-27 18:47",2,30.5628,-98.293666,TRUE,FALSE,TRUE,"S243659070"
"71","blctit4","Black-crested Titmouse","Baeolophus atricristatus","L7455324","South Llano River SP--Agarita Bird Blind","2025-05-27 18:30",3,30.4446572,-99.8044295,TRUE,FALSE,FALSE,"S243665288"
"72","blctit4","Black-crested Titmouse","Baeolophus atricristatus","L14920183","Hart Glen","2025-05-27 18:24",2,29.5609712,-98.604063,TRUE,FALSE,TRUE,"S243641250"
"73","blctit4","Black-crested Titmouse","Baeolophus atricristatus","L283468","South Llano River SP (HOTW 093)","2025-05-27 18:11",1,30.4391651,-99.8128617,TRUE,FALSE,FALSE,"S243637254"
"74","blctit4","Black-crested Titmouse","Baeolophus atricristatus","L1367882","Texas A&M--Kingsville","2025-05-27 17:47",3,27.5247858,-97.8817252,TRUE,FALSE,FALSE,"S243686378"
"75","blctit4","Black-crested Titmouse","Baeolophus atricristatus","L740880","Colorado Bend SP (HOTE 019)","2025-05-27 17:35",5,31.0221933,-98.4426498,TRUE,FALSE,FALSE,"S243680294"
"76","blctit4","Black-crested Titmouse","Baeolophus atricristatus","L470609","Sea Bee Park, Abilene","2025-05-27 17:24",3,32.5384381,-99.7138882,TRUE,FALSE,FALSE,"S243647115"
"77","blctit4","Black-crested Titmouse","Baeolophus atricristatus","L129016","Lost Maples SNA (HOTW 061)","2025-05-27 17:24",3,29.8155087,-99.5762582,TRUE,FALSE,FALSE,"S243646775"
"78","blctit4","Black-crested Titmouse","Baeolophus atricristatus","L18142706","Cody Park Lago Vista (limited access)","2025-05-27 17:15",1,30.4175251,-97.9993676,TRUE,FALSE,FALSE,"S243663925"
"79","blctit4","Black-crested Titmouse","Baeolophus atricristatus","L9251078","South Llano River SP--Acorn Blind","2025-05-27 17:03",1,30.4486098,-99.7991337,TRUE,FALSE,FALSE,"S243984143"
"80","blctit4","Black-crested Titmouse","Baeolophus atricristatus","L14468808","Foxfire Log Cabins","2025-05-27 16:42",2,29.7921834,-99.5753789,TRUE,FALSE,FALSE,"S243646844"
"81","blctit4","Black-crested Titmouse","Baeolophus atricristatus","L28449222","10849 East Lake Road, Abilene, Texas, US (32.605, -99.66)","2025-05-27 16:25",4,32.6049367,-99.6600017,TRUE,FALSE,TRUE,"S243617782"
"82","blctit4","Black-crested Titmouse","Baeolophus atricristatus","L18157260","Taylor residence","2025-05-27 16:14",2,30.428,-97.71449,TRUE,FALSE,TRUE,"S243817686"
"83","blctit4","Black-crested Titmouse","Baeolophus atricristatus","L30143909","East Lake Road, Abilene, Texas, US (32.578, -99.678)","2025-05-27 15:42",4,32.5779433,-99.6777833,TRUE,FALSE,TRUE,"S243600352"
"84","blctit4","Black-crested Titmouse","Baeolophus atricristatus","L9101671","South Llano River SP--Juniper blind","2025-05-27 15:37",2,30.4451176,-99.7978554,TRUE,FALSE,FALSE,"S243625003"
"85","blctit4","Black-crested Titmouse","Baeolophus atricristatus","L1742914","Devil's River SNA—Del Norte Unit—River Access N. of Dolan Falls","2025-05-27 15:21",1,29.8961309,-100.9958791,TRUE,FALSE,FALSE,"S243598722"
"86","blctit4","Black-crested Titmouse","Baeolophus atricristatus","L28590556","Unkley Jims","2025-05-27 15:10",5,29.753237,-98.129022,TRUE,FALSE,TRUE,"S243580573"
"87","blctit4","Black-crested Titmouse","Baeolophus atricristatus","L30985219","Transition Ranch","2025-05-27 15:00",3,29.456034,-100.28287,TRUE,FALSE,TRUE,"S243769271"
"88","blctit4","Black-crested Titmouse","Baeolophus atricristatus","L3889690","Sendero","2025-05-27 14:33",4,29.6708159,-98.4437936,TRUE,FALSE,TRUE,"S243569826"
"89","blctit4","Black-crested Titmouse","Baeolophus atricristatus","L30331233","Gaines Bend Dr, Graford US-TX 32.84394, -98.46370","2025-05-27 14:26",3,32.84394,-98.463703,TRUE,FALSE,TRUE,"S243590426"
"90","blctit4","Black-crested Titmouse","Baeolophus atricristatus","L8109381","2101 Travis Heights Blvd, Austin US-TX (30.2386,-97.7445)","2025-05-27 14:25",1,30.238554,-97.744489,TRUE,FALSE,TRUE,"S243635827"
"91","blctit4","Black-crested Titmouse","Baeolophus atricristatus","L46162065","601–603 County Road 120, San Saba US-TX 31.19810, -98.66097","2025-05-27 14:11",1,31.1981,-98.660972,TRUE,FALSE,TRUE,"S243560622"
"92","blctit4","Black-crested Titmouse","Baeolophus atricristatus","L1173933","hwy 16 ( private ranch)","2025-05-27 14:00",1,29.7357624,-99.1550446,TRUE,FALSE,TRUE,"S243847807"
"93","blctit4","Black-crested Titmouse","Baeolophus atricristatus","L810272","Home","2025-05-27 13:57",1,29.585062,-98.26095,TRUE,FALSE,TRUE,"S243564626"
"94","blctit4","Black-crested Titmouse","Baeolophus atricristatus","L2127084","Lost Maples SNA--West Trail","2025-05-27 13:39",4,29.8204657,-99.5879316,TRUE,FALSE,FALSE,"S243666630"
"95","blctit4","Black-crested Titmouse","Baeolophus atricristatus","L30610467","Williamson County","2025-05-27 12:56",2,30.5231564,-97.6046848,TRUE,FALSE,TRUE,"S243638008"
"96","blctit4","Black-crested Titmouse","Baeolophus atricristatus","L41164472","Yeager Creek RV Resort","2025-05-27 12:45",2,30.2136194,-98.2850497,TRUE,FALSE,TRUE,"S243548979"
"97","blctit4","Black-crested Titmouse","Baeolophus atricristatus","L788259","Cypress Bend Park, New Braunfels","2025-05-27 12:13",2,29.711165,-98.1059361,TRUE,FALSE,FALSE,"S243529278"
"98","blctit4","Black-crested Titmouse","Baeolophus atricristatus","L574897","Uvalde Fish Hatchery (HOTW 027)","2025-05-27 11:51",6,29.1869923,-99.8330212,TRUE,FALSE,FALSE,"S243530120"
"99","blctit4","Black-crested Titmouse","Baeolophus atricristatus","L46153539","Dogwood Ln, Cottonwood Shores US-TX 30.55960, -98.32897","2025-05-27 11:40",3,30.559601,-98.328968,TRUE,FALSE,TRUE,"S243523625"
"100","blctit4","Black-crested Titmouse","Baeolophus atricristatus","L12011580","Texas State Univ.—Theatre Center Ponds Area","2025-05-27 11:34",1,29.887555,-97.936635,TRUE,FALSE,FALSE,"S243519636"
"101","blctit4","Black-crested Titmouse","Baeolophus atricristatus","L46152688","645 Evergreen Lane, New Braunfels, Texas, US (29.705, -98.161)","2025-05-27 11:30",1,29.7046832,-98.1606629,TRUE,FALSE,TRUE,"S243519902"
"102","blctit4","Black-crested Titmouse","Baeolophus atricristatus","L374196","Junction WTP (HOTW 090)","2025-05-27 11:15",1,30.4978483,-99.7418475,TRUE,FALSE,FALSE,"S243523695"
"103","blctit4","Black-crested Titmouse","Baeolophus atricristatus","L24809102","Brackettville (Kinney Co. TX)","2025-05-27 11:14",4,29.314189,-100.4149827,TRUE,FALSE,TRUE,"S243499485"
"104","blctit4","Black-crested Titmouse","Baeolophus atricristatus","L9669890","Lake Creek Trail--East (Williamson Co.)","2025-05-27 10:44",4,30.4626635,-97.7598189,TRUE,FALSE,FALSE,"S243537345"
"105","blctit4","Black-crested Titmouse","Baeolophus atricristatus","L18976002","Davis Mtns SP--Interpretive Center","2025-05-27 10:40",1,30.5956658,-103.9304521,TRUE,FALSE,FALSE,"S243529007"
"106","blctit4","Black-crested Titmouse","Baeolophus atricristatus","L9368603","St. Andrew's Episcopal School (limited access)","2025-05-27 10:30",1,30.2442401,-97.8531354,TRUE,FALSE,FALSE,"S243572496"
"107","blctit4","Black-crested Titmouse","Baeolophus atricristatus","L9391304","Kerr WMA--Check Station area","2025-05-27 10:27",1,30.063393,-99.505582,TRUE,FALSE,FALSE,"S243496357"
"108","blctit4","Black-crested Titmouse","Baeolophus atricristatus","L7945206","South Llano River SP--Lora’s Bird Blind","2025-05-27 10:25",2,30.4394455,-99.8107186,TRUE,FALSE,FALSE,"S243535336"
"109","blctit4","Black-crested Titmouse","Baeolophus atricristatus","L18670311","Leon Creek Greenway--Leon Vista Trailhead","2025-05-27 10:24",3,29.5227707,-98.6248112,TRUE,FALSE,FALSE,"S243550849"
"110","blctit4","Black-crested Titmouse","Baeolophus atricristatus","L575718","Lake Sweetwater","2025-05-27 10:20",1,32.435613,-100.3115273,TRUE,FALSE,FALSE,"S243486274"
"111","blctit4","Black-crested Titmouse","Baeolophus atricristatus","L22740706","564 Ceremonial Ridge, San Antonio, Texas, US (29.682, -98.505)","2025-05-27 10:01",1,29.682101,-98.5054597,TRUE,FALSE,TRUE,"S243474192"
"112","blctit4","Black-crested Titmouse","Baeolophus atricristatus","L453211","Rockport Demo Bird Garden & Wetlands Pond (CTC 050)","2025-05-27 09:46",2,28.0483584,-97.042172,TRUE,FALSE,FALSE,"S243475249"
"113","blctit4","Black-crested Titmouse","Baeolophus atricristatus","L675704","Lake Travis--Bob Wentz Windy Point Pk","2025-05-27 09:46",1,30.4128174,-97.9008651,TRUE,FALSE,FALSE,"S243520366"
"114","blctit4","Black-crested Titmouse","Baeolophus atricristatus","L46140232","13438–13464 US-281, Evant US-TX 31.51316, -98.14847","2025-05-27 09:32",1,31.513159,-98.148473,TRUE,FALSE,TRUE,"S243461888"
"115","blctit4","Black-crested Titmouse","Baeolophus atricristatus","L46186771","Entrance Area Choke Canyon","2025-05-27 09:30",6,28.4658241,-98.3542871,TRUE,FALSE,TRUE,"S243687977"
"116","blctit4","Black-crested Titmouse","Baeolophus atricristatus","L3747162","Veteran's Memorial Dog Park, Cedar Park","2025-05-27 09:30",3,30.51988,-97.8692311,TRUE,FALSE,FALSE,"S243500884"
"117","blctit4","Black-crested Titmouse","Baeolophus atricristatus","L19965607","Kerr WMA—Schumacher Rd (Bobcat rd.)","2025-05-27 09:17",2,30.0663927,-99.5227704,TRUE,FALSE,FALSE,"S243481326"
"118","blctit4","Black-crested Titmouse","Baeolophus atricristatus","L516628","Devils River SNA— Del Norte Unit (HOTW 015)","2025-05-27 09:17",1,29.9406182,-100.9710073,TRUE,FALSE,FALSE,"S243470970"
"119","blctit4","Black-crested Titmouse","Baeolophus atricristatus","L46138844","26725 Timberline Drive, San Antonio, Texas, US (29.697, -98.49)","2025-05-27 09:07",1,29.6973923,-98.4899624,TRUE,FALSE,TRUE,"S243455273"
"120","blctit4","Black-crested Titmouse","Baeolophus atricristatus","L4742189","SW Snyder Nature Trail","2025-05-27 09:04",2,32.6952723,-100.9397301,TRUE,FALSE,FALSE,"S243459796"
"121","blctit4","Black-crested Titmouse","Baeolophus atricristatus","L24842859","Devils River Canyon BBS Stop #35","2025-05-27 09:01",2,30.2177943,-101.532372,TRUE,FALSE,TRUE,"S243992644"
"122","blctit4","Black-crested Titmouse","Baeolophus atricristatus","L717998","Balcones Canyonlands NWR--Doeskin Ranch","2025-05-27 08:55",1,30.6190048,-98.0728912,TRUE,FALSE,FALSE,"S243591967"
"123","blctit4","Black-crested Titmouse","Baeolophus atricristatus","L4161255","CC: San Benito- Agar peninsula","2025-05-27 08:50",1,26.1492318,-97.6283767,TRUE,FALSE,TRUE,"S243493590"
"124","blctit4","Black-crested Titmouse","Baeolophus atricristatus","L24842672","Devils River Canyon BBS Stop #31","2025-05-27 08:42",1,30.221041,-101.4995795,TRUE,FALSE,TRUE,"S243990786"
"125","blctit4","Black-crested Titmouse","Baeolophus atricristatus","L1236326","Devil's River--Baker's Crossing","2025-05-27 08:41",1,29.9662647,-101.1494493,TRUE,FALSE,FALSE,"S243740665"
"126","blctit4","Black-crested Titmouse","Baeolophus atricristatus","L45797997","Encino Park--Bubbling Creek","2025-05-27 08:30",1,29.6376647,-98.4305695,TRUE,FALSE,TRUE,"S243773375"
"127","blctit4","Black-crested Titmouse","Baeolophus atricristatus","L38714012","New Braunfels Yard List","2025-05-27 08:30",5,29.7291502,-98.1188171,TRUE,FALSE,TRUE,"S243626064"
"128","blctit4","Black-crested Titmouse","Baeolophus atricristatus","L10848593","Lake Corpus Christi","2025-05-27 08:16",2,28.0635168,-97.871232,TRUE,FALSE,FALSE,"S243541194"
"129","blctit4","Black-crested Titmouse","Baeolophus atricristatus","L7335929","100-198 Parkglen Drive, San Antonio, Texas, US (29.502, -98.513)","2025-05-27 08:12",4,29.5022167,-98.5133678,TRUE,FALSE,TRUE,"S243451645"
"130","blctit4","Black-crested Titmouse","Baeolophus atricristatus","L14735525","319 Zoeller Ln, Boerne US-TX","2025-05-27 08:08",5,29.971872,-98.76762,TRUE,FALSE,TRUE,"S243672173"
"131","blctit4","Black-crested Titmouse","Baeolophus atricristatus","L213585","Warbler Woods Bird Sanctuary","2025-05-27 08:07",4,29.609375,-98.2426827,TRUE,FALSE,FALSE,"S243490040"
"132","blctit4","Black-crested Titmouse","Baeolophus atricristatus","L37146806","McClelland Ranch (Private)","2025-05-27 08:07",3,29.7928248,-99.174295,TRUE,FALSE,TRUE,"S243433769"
"133","blctit4","Black-crested Titmouse","Baeolophus atricristatus","L31666691","Hamilton Greenbelt","2025-05-27 08:00",2,30.3618,-97.9785,TRUE,FALSE,TRUE,"S243444919"
"134","blctit4","Black-crested Titmouse","Baeolophus atricristatus","L24842327","Devils River Canyon BBS Stop #22","2025-05-27 08:00",1,30.2162927,-101.4327204,TRUE,FALSE,TRUE,"S243979459"
"135","blctit4","Black-crested Titmouse","Baeolophus atricristatus","L35784296","Penny Creek Yard","2025-05-27 07:57",3,30.41343,-97.754582,TRUE,FALSE,TRUE,"S243464886"
"136","blctit4","Black-crested Titmouse","Baeolophus atricristatus","L656678","Middle Concho Park","2025-05-27 07:55",5,31.3789943,-100.5202675,TRUE,FALSE,FALSE,"S243455184"
"137","blctit4","Black-crested Titmouse","Baeolophus atricristatus","L15840927","Stage Coach Stop","2025-05-27 07:55",2,30.212078,-97.824279,TRUE,FALSE,TRUE,"S243596429"
"138","blctit4","Black-crested Titmouse","Baeolophus atricristatus","L17510253","Sierra-Mesa 2.2 Loop","2025-05-27 07:48",4,30.349484,-97.763406,TRUE,FALSE,TRUE,"S243441064"
"139","blctit4","Black-crested Titmouse","Baeolophus atricristatus","L15935862","2545–2689 Logans Way, Blanco US-TX 30.03566, -98.38152","2025-05-27 07:48",2,30.035663,-98.381518,TRUE,FALSE,TRUE,"S243672859"
"140","blctit4","Black-crested Titmouse","Baeolophus atricristatus","L3451037","Boerne Lake","2025-05-27 07:46",4,29.8240748,-98.7686348,TRUE,FALSE,TRUE,"S243556835"
"141","blctit4","Black-crested Titmouse","Baeolophus atricristatus","L160560","Friedrich Wilderness Pk (HOTE 086)","2025-05-27 07:40",4,29.6406755,-98.6260967,TRUE,FALSE,FALSE,"S243462552"
"142","blctit4","Black-crested Titmouse","Baeolophus atricristatus","L9391316","Kerr WMA--Spring Trap","2025-05-27 07:38",3,30.06029,-99.493405,TRUE,FALSE,FALSE,"S243481407"
"143","blctit4","Black-crested Titmouse","Baeolophus atricristatus","L18495857","Turkey Barn Lane","2025-05-27 07:38",1,30.887998,-99.625703,TRUE,FALSE,TRUE,"S243445971"
"144","blctit4","Black-crested Titmouse","Baeolophus atricristatus","L13017923","Helotes Creek Greenway--Terra Oak Trailhead","2025-05-27 07:35",2,29.5063725,-98.6912115,TRUE,FALSE,FALSE,"S243463295"
"145","blctit4","Black-crested Titmouse","Baeolophus atricristatus","L3070865","La Lomita Wildlife Photography Ranch","2025-05-27 07:30",2,29.2002733,-99.8287296,TRUE,FALSE,FALSE,"S243767424"
"146","blctit4","Black-crested Titmouse","Baeolophus atricristatus","L803232","Muschalek Farms","2025-05-27 07:30",2,29.074897,-97.6535761,TRUE,FALSE,TRUE,"S243476296"
"147","blctit4","Black-crested Titmouse","Baeolophus atricristatus","L44379608","Preston Oaks retention pond","2025-05-27 07:23",1,30.42941,-97.71553,TRUE,FALSE,FALSE,"S243414084"
"148","blctit4","Black-crested Titmouse","Baeolophus atricristatus","L740762","James Kiehl River Bend Pk","2025-05-27 07:22",7,29.9723717,-98.8338447,TRUE,FALSE,FALSE,"S243592226"
"149","blctit4","Black-crested Titmouse","Baeolophus atricristatus","L3285798","Backyard","2025-05-27 07:19",1,31.7001752,-98.101202,TRUE,FALSE,TRUE,"S243446360"
"150","blctit4","Black-crested Titmouse","Baeolophus atricristatus","L23095756","Lower Little Ranches","2025-05-27 07:18",10,29.9922218,-98.060316,TRUE,FALSE,TRUE,"S243432845"
"151","blctit4","Black-crested Titmouse","Baeolophus atricristatus","L3406199","River Ranch Park","2025-05-27 07:18",6,30.6421782,-97.9248762,TRUE,FALSE,FALSE,"S243486609"
"152","blctit4","Black-crested Titmouse","Baeolophus atricristatus","L46131175","26329 Choctaw Pass Street, San Antonio, Texas, US (29.691, -98.489)","2025-05-27 07:10",1,29.6911814,-98.4889071,TRUE,FALSE,TRUE,"S243411190"
"153","blctit4","Black-crested Titmouse","Baeolophus atricristatus","L1494343","Leon Creek Greenway--Buddy Calk Trailhead/Earl Scott Pond area","2025-05-27 07:10",1,29.5563814,-98.6283979,TRUE,FALSE,FALSE,"S243465595"
"154","blctit4","Black-crested Titmouse","Baeolophus atricristatus","L20622786","Lakeline Station, Austin","2025-05-27 07:08",2,30.4810727,-97.7866566,TRUE,FALSE,FALSE,"S243426025"
"155","blctit4","Black-crested Titmouse","Baeolophus atricristatus","L23861380","Roy G Guerrero Park—Cliff Overlook Area","2025-05-27 07:07",2,30.243632,-97.697084,TRUE,FALSE,FALSE,"S243423666"
"156","blctit4","Black-crested Titmouse","Baeolophus atricristatus","L11910717","San Angelo Nature Trail","2025-05-27 07:00",4,31.3769242,-100.5332816,TRUE,FALSE,FALSE,"S243447825"
"157","blctit4","Black-crested Titmouse","Baeolophus atricristatus","L9582123","Fort Cavazos--East Range North (Bell Co.)(Restricted Access)","2025-05-27 06:55",8,31.1890797,-97.5681102,TRUE,FALSE,FALSE,"S243603122"
"158","blctit4","Black-crested Titmouse","Baeolophus atricristatus","L38064857","Georgetown Regional Trail","2025-05-27 06:53",1,30.6270342,-97.7002152,TRUE,FALSE,FALSE,"S243422622"
"159","blctit4","Black-crested Titmouse","Baeolophus atricristatus","L25604337","Private Residence 1500 Greystone Ranch Rd, Burnet US-TX 30.66089, -98.15604","2025-05-27 06:52",2,30.660891,-98.156039,TRUE,FALSE,TRUE,"S243600587"
"160","blctit4","Black-crested Titmouse","Baeolophus atricristatus","L46154833","7601 Hidden View Road, Canyon, Texas, US (35.037, -101.75)","2025-05-27 06:45",NA,35.0370115,-101.7502147,TRUE,FALSE,TRUE,"S243529306"
"161","blctit4","Black-crested Titmouse","Baeolophus atricristatus","L24819553","Devils River Canyon BBS Stop #5","2025-05-27 06:37",1,30.1660355,-101.3410006,TRUE,FALSE,TRUE,"S243790270"
"162","blctit4","Black-crested Titmouse","Baeolophus atricristatus","L14959959","Two C Land and Livestock","2025-05-27 06:30",1,33.6437665,-98.3000395,TRUE,FALSE,TRUE,"S243396667"
"163","blctit4","Black-crested Titmouse","Baeolophus atricristatus","L32243731","Freeman Park, Round Rock","2025-05-27 06:21",2,30.5241545,-97.6172161,TRUE,FALSE,FALSE,"S243435428"
"164","blctit4","Black-crested Titmouse","Baeolophus atricristatus","L566357","Yard - Northwest Hills","2025-05-27 06:06",4,30.3592119,-97.7832556,TRUE,FALSE,TRUE,"S243499342"
"165","blctit4","Black-crested Titmouse","Baeolophus atricristatus","L142170","Park Place","2025-05-27 05:50",4,29.8576916,-98.7555456,TRUE,FALSE,TRUE,"S243559642"
"166","blctit4","Black-crested Titmouse","Baeolophus atricristatus","L46109636","Greenbelt","2025-05-26 20:00",2,29.5337894,-98.3662451,TRUE,FALSE,TRUE,"S243304523"
"167","blctit4","Black-crested Titmouse","Baeolophus atricristatus","L38041147","Aegolius Basterds LRGV (Private Residence)","2025-05-26 19:55",1,26.1842336,-98.3811696,TRUE,FALSE,TRUE,"S243314068"
"168","blctit4","Black-crested Titmouse","Baeolophus atricristatus","L783521","Crescent Bend Nature Park (Bexar Co.)","2025-05-26 18:24",1,29.5502272,-98.2325739,TRUE,FALSE,FALSE,"S243283558"
"169","blctit4","Black-crested Titmouse","Baeolophus atricristatus","L12234452","2071 Saddlewood Boulevard, Kerrville, Texas, US (30.053, -99.198)","2025-05-26 18:11",4,30.0528666,-99.1976512,TRUE,FALSE,TRUE,"S243683248"
"170","blctit4","Black-crested Titmouse","Baeolophus atricristatus","L9464148","Tapatio Springs Hill Country Resort","2025-05-26 17:56",1,29.7758509,-98.8082457,TRUE,FALSE,FALSE,"S243270697"
"171","blctit4","Black-crested Titmouse","Baeolophus atricristatus","L40704482","Oak Brook Trail","2025-05-26 17:40",1,30.5144939,-97.741613,TRUE,FALSE,TRUE,"S243273976"
"172","blctit4","Black-crested Titmouse","Baeolophus atricristatus","L128890","Bentsen-Rio Grande Val. SP WBC (Mission) (LTC 069)","2025-05-26 17:00",1,26.1849709,-98.3793885,TRUE,FALSE,FALSE,"S243301455"
"173","blctit4","Black-crested Titmouse","Baeolophus atricristatus","L5992467","KINGS Fort Davis US-TX (restricted, private property)","2025-05-26 16:56",1,30.691044,-104.095562,TRUE,FALSE,TRUE,"S243332026"
"174","blctit4","Black-crested Titmouse","Baeolophus atricristatus","L18946365","Shady Valley main","2025-05-26 16:16",1,29.538013,-98.657984,TRUE,FALSE,TRUE,"S243221968"
"175","blctit4","Black-crested Titmouse","Baeolophus atricristatus","L13612586","Greatwood Estates/Private Home","2025-05-26 15:04",1,30.5992965,-97.9072402,TRUE,FALSE,TRUE,"S243201435"
"176","blctit4","Black-crested Titmouse","Baeolophus atricristatus","L275890","Collins' Ranch","2025-05-26 15:00",3,29.9644444,-99.0236111,TRUE,FALSE,TRUE,"S243327189"
"177","blctit4","Black-crested Titmouse","Baeolophus atricristatus","L2163245","Home-Las Cimas: balcony","2025-05-26 14:53",1,29.5148404,-98.5732794,TRUE,FALSE,TRUE,"S243178118"
"178","blctit4","Black-crested Titmouse","Baeolophus atricristatus","L497138","LRGV NWR--Cannon Road (LTC-050)","2025-05-26 14:45",3,26.0757882,-97.7853584,TRUE,FALSE,FALSE,"S243308393"
"179","blctit4","Black-crested Titmouse","Baeolophus atricristatus","L443142","Medina R. Crossing--Cagnon/Ponder Rds. (HOTE 115)","2025-05-26 14:41",3,29.3504773,-98.7073205,TRUE,FALSE,FALSE,"S243181400"
"180","blctit4","Black-crested Titmouse","Baeolophus atricristatus","L3769880","Cedar Park--Treeline West Retention Basin","2025-05-26 14:29",4,30.5146279,-97.8534507,TRUE,FALSE,FALSE,"S243336811"
"181","blctit4","Black-crested Titmouse","Baeolophus atricristatus","L40611816","Cortland River Place (restricted access)","2025-05-26 14:15",1,30.3902735,-97.8393902,TRUE,FALSE,TRUE,"S243659279"
"182","blctit4","Black-crested Titmouse","Baeolophus atricristatus","L4238431","Medina River Greenway--Pleasanton Rd Trailhead","2025-05-26 13:53",2,29.270249,-98.494046,TRUE,FALSE,FALSE,"S243181198"
"183","blctit4","Black-crested Titmouse","Baeolophus atricristatus","L128956","Eilers Park/Deep Eddy Community Garden","2025-05-26 13:40",3,30.2758007,-97.7720032,TRUE,FALSE,FALSE,"S243328832"
"184","blctit4","Black-crested Titmouse","Baeolophus atricristatus","L28476556","3624 Sayles Boulevard, Abilene, Texas, US (32.408, -99.749)","2025-05-26 13:23",1,32.4082444,-99.7489881,TRUE,FALSE,TRUE,"S243175459"
"185","blctit4","Black-crested Titmouse","Baeolophus atricristatus","L664117","Longhorn Cavern SP (HOTE 022)","2025-05-26 13:20",12,30.6849833,-98.3517167,TRUE,FALSE,FALSE,"S243818606"
"186","blctit4","Black-crested Titmouse","Baeolophus atricristatus","L3054716","Pedernales Falls State Park--Bird Blind area","2025-05-26 13:18",2,30.3252513,-98.2556275,TRUE,FALSE,FALSE,"S243169433"
"187","blctit4","Black-crested Titmouse","Baeolophus atricristatus","L29111531","Landa Park--Panther Canyon Nature Trail","2025-05-26 12:59",15,29.7156717,-98.1419887,TRUE,FALSE,FALSE,"S243150050"
"188","blctit4","Black-crested Titmouse","Baeolophus atricristatus","L357869","Lady Bird Johnson Wildflower Ctr (HOTE 047)","2025-05-26 12:35",1,30.1853476,-97.8745151,TRUE,FALSE,FALSE,"S243139809"
"189","blctit4","Black-crested Titmouse","Baeolophus atricristatus","L169375","Inks Lake SP (HOTE 021)","2025-05-26 12:31",3,30.7431179,-98.368218,TRUE,FALSE,FALSE,"S243276754"
"190","blctit4","Black-crested Titmouse","Baeolophus atricristatus","L44360676","Cypress Springs Park","2025-05-26 12:29",NA,29.873003,-98.440638,TRUE,FALSE,TRUE,"S243113868"
"191","blctit4","Black-crested Titmouse","Baeolophus atricristatus","L288849","Laguna Atascosa NWR--HQ and Kiskadee Trail","2025-05-26 12:04",1,26.2285086,-97.3475226,TRUE,FALSE,FALSE,"S243145934"
"192","blctit4","Black-crested Titmouse","Baeolophus atricristatus","L247135","Landa Park (HOTE 069)","2025-05-26 11:37",2,29.7117824,-98.1356484,TRUE,FALSE,FALSE,"S243113895"
"193","blctit4","Black-crested Titmouse","Baeolophus atricristatus","L355335","Government Canyon SNA (HOTE 085)","2025-05-26 11:28",8,29.5490104,-98.7641682,TRUE,FALSE,FALSE,"S243166908"
"194","blctit4","Black-crested Titmouse","Baeolophus atricristatus","L751202","Stillhouse Hollow Nature Preserve, Austin","2025-05-26 11:23",3,30.36909,-97.76199,TRUE,FALSE,FALSE,"S243127423"
"195","blctit4","Black-crested Titmouse","Baeolophus atricristatus","L302786","Hazel Bazemore County Park (CTC 078)","2025-05-26 11:21",4,27.8666445,-97.6416233,TRUE,FALSE,FALSE,"S243109181"
"196","blctit4","Black-crested Titmouse","Baeolophus atricristatus","L1529771","Jacob's Well Natural Area","2025-05-26 11:13",4,30.034777,-98.1262026,TRUE,FALSE,FALSE,"S243060381"
"197","blctit4","Black-crested Titmouse","Baeolophus atricristatus","L46071843","76877, San Saba US-TX (31.4294,-98.7400)","2025-05-26 11:05",2,31.429352,-98.740003,TRUE,FALSE,TRUE,"S243121647"
"198","blctit4","Black-crested Titmouse","Baeolophus atricristatus","L4337796","Hamilton Co.--CR211 wetlands","2025-05-26 11:05",1,31.7685658,-98.0868816,TRUE,FALSE,FALSE,"S243102250"
"199","blctit4","Black-crested Titmouse","Baeolophus atricristatus","L46071468","USA-TX-01203, Grid 19913 (29.32586, -98.78032) - Jungman Rd South--Road Closed Sign - LEGO (10/12)","2025-05-26 11:04",5,29.3258321,-98.7803162,TRUE,FALSE,TRUE,"S243120033"
"200","blctit4","Black-crested Titmouse","Baeolophus atricristatus","L128950","Davis Mountains  SP (FWTX 23)","2025-05-26 10:55",1,30.5962706,-103.9347249,TRUE,FALSE,FALSE,"S243180443"
"201","blctit4","Black-crested Titmouse","Baeolophus atricristatus","L46073172","USA-TX-01203, Grid 19913 (29.32213, -98.7803) - Jungman Rd South--Entrance - LEGO (08/12)","2025-05-26 10:44",1,29.3222904,-98.780255,TRUE,FALSE,TRUE,"S243127137"
"202","blctit4","Black-crested Titmouse","Baeolophus atricristatus","L24018447","Classen-Steubing Ranch Park","2025-05-26 10:39",1,29.629643,-98.4787556,TRUE,FALSE,FALSE,"S243088266"
"203","blctit4","Black-crested Titmouse","Baeolophus atricristatus","L4462886","Balcones Canyonlands NWR--Cactus Rocks Trail","2025-05-26 10:30",3,30.5055449,-97.9798198,TRUE,FALSE,FALSE,"S243064369"
"204","blctit4","Black-crested Titmouse","Baeolophus atricristatus","L486383","Commons Ford Ranch Metro Park","2025-05-26 10:21",1,30.3373826,-97.8930759,TRUE,FALSE,FALSE,"S243164815"
"205","blctit4","Black-crested Titmouse","Baeolophus atricristatus","L10904828","290–344 Holiday Rd, Comfort US-TX 29.92340, -98.89035","2025-05-26 10:15",5,29.9234,-98.890346,TRUE,FALSE,TRUE,"S243155879"
"206","blctit4","Black-crested Titmouse","Baeolophus atricristatus","L46081407","Blaschke Homestead","2025-05-26 10:12",4,28.718045,-98.05524,TRUE,FALSE,TRUE,"S243163112"
"207","blctit4","Black-crested Titmouse","Baeolophus atricristatus","L5105826","Kerrville--Dietert Center at Guadalupe River","2025-05-26 10:03",2,30.0506966,-99.1577643,TRUE,FALSE,FALSE,"S243038801"
"208","blctit4","Black-crested Titmouse","Baeolophus atricristatus","L45170076","362 Tegner Creek Rd, Hunt US-TX 30.04917, -99.32847","2025-05-26 09:44",1,30.049169,-99.328471,TRUE,FALSE,TRUE,"S243302931"
"209","blctit4","Black-crested Titmouse","Baeolophus atricristatus","L1118835","Kreutzberg Canyon Natural Area","2025-05-26 09:32",2,29.8947283,-98.6431674,TRUE,FALSE,FALSE,"S243211589"
"210","blctit4","Black-crested Titmouse","Baeolophus atricristatus","L18585094","TX6 picnic area N. of Crowell","2025-05-26 09:18",1,34.0265482,-99.7238875,TRUE,FALSE,FALSE,"S242989036"
"211","blctit4","Black-crested Titmouse","Baeolophus atricristatus","L14254283","Robert L.B. Tobin Land Bridge","2025-05-26 09:17",2,29.5586235,-98.5246281,TRUE,FALSE,FALSE,"S243019417"
"212","blctit4","Black-crested Titmouse","Baeolophus atricristatus","L4790127","Olds Creek Bird Sanctuary","2025-05-26 09:15",2,30.6211468,-103.9823824,TRUE,FALSE,TRUE,"S243332051"
"213","blctit4","Black-crested Titmouse","Baeolophus atricristatus","L4867701","Strawn Yard","2025-05-26 09:11",1,32.546081,-98.503782,TRUE,FALSE,TRUE,"S243151028"
"214","blctit4","Black-crested Titmouse","Baeolophus atricristatus","L572560","Choke Canyon SP--South Shore Unit (Live Oak Co.)","2025-05-26 08:58",4,28.472577,-98.2512474,TRUE,FALSE,FALSE,"S242997516"
"215","blctit4","Black-crested Titmouse","Baeolophus atricristatus","L21680516","Chinquapin House","2025-05-26 08:54",3,29.580652,-98.709173,TRUE,FALSE,TRUE,"S242971992"
"216","blctit4","Black-crested Titmouse","Baeolophus atricristatus","L3466792","my yard","2025-05-26 08:41",1,27.9171921,-97.1575643,TRUE,FALSE,TRUE,"S242964968"
"217","blctit4","Black-crested Titmouse","Baeolophus atricristatus","L129065","Resaca de la Palma SP WBC (Brownsville) (LTC 048)","2025-05-26 08:41",1,25.9965839,-97.5690513,TRUE,FALSE,FALSE,"S242985018"
"218","blctit4","Black-crested Titmouse","Baeolophus atricristatus","L17601144","KCNA (lower blind)","2025-05-26 08:33",2,29.8974122,-98.643218,TRUE,FALSE,TRUE,"S243182091"
"219","blctit4","Black-crested Titmouse","Baeolophus atricristatus","L249889","Edinburg Scenic Wetlands WBC (LTC 061)","2025-05-26 08:30",1,26.2905822,-98.1351909,TRUE,FALSE,FALSE,"S242963038"
"220","blctit4","Black-crested Titmouse","Baeolophus atricristatus","L24473644","ACME Ranch - Private Residence","2025-05-26 08:30",4,30.4762762,-98.0517192,TRUE,FALSE,TRUE,"S242992863"
"221","blctit4","Black-crested Titmouse","Baeolophus atricristatus","L46035968","Warbler Vista Trails, Leander US-TX 30.49669, -97.97783","2025-05-26 08:29",1,30.496688,-97.977826,TRUE,FALSE,TRUE,"S242951568"
"222","blctit4","Black-crested Titmouse","Baeolophus atricristatus","L4241205","Griffin - Snider Yard Harlingen TX","2025-05-26 08:19",1,26.220541,-97.693782,TRUE,FALSE,TRUE,"S243690253"
"223","blctit4","Black-crested Titmouse","Baeolophus atricristatus","L11481342","15915 Fisher Hollow Trail (HOME) TX 30.47996, -97.88411","2025-05-26 08:19",4,30.479959,-97.884108,TRUE,FALSE,TRUE,"S243042659"
"224","blctit4","Black-crested Titmouse","Baeolophus atricristatus","L568478","Kickapoo Cavern SP (Kinney Co.)","2025-05-26 08:19",6,29.61154,-100.4533,TRUE,FALSE,FALSE,"S243120948"
"225","blctit4","Black-crested Titmouse","Baeolophus atricristatus","L17601026","KCNA (upper blind)","2025-05-26 08:18",2,29.8947586,-98.643722,TRUE,FALSE,TRUE,"S243178659"
"226","blctit4","Black-crested Titmouse","Baeolophus atricristatus","L1276813","Kuykendall Ranch Ranch House Area (Private)","2025-05-26 08:16",2,28.4562162,-98.6989939,TRUE,FALSE,TRUE,"S243028938"
"227","blctit4","Black-crested Titmouse","Baeolophus atricristatus","L11950361","Barnett Ranch, Mills Co. (restricted access)","2025-05-26 08:13",5,31.4437005,-98.7424494,TRUE,FALSE,FALSE,"S243121343"
"228","blctit4","Black-crested Titmouse","Baeolophus atricristatus","L9638727","Cori","2025-05-26 08:10",2,30.349492,-97.763615,TRUE,FALSE,TRUE,"S242957283"
"229","blctit4","Black-crested Titmouse","Baeolophus atricristatus","L5278787","US-TX-Medina","2025-05-26 08:08",2,29.828795,-99.236472,TRUE,FALSE,TRUE,"S243007098"
"230","blctit4","Black-crested Titmouse","Baeolophus atricristatus","L270814","Shoal Creek Greenbelt--Pease District Park area","2025-05-26 08:06",3,30.28609,-97.75507,TRUE,FALSE,FALSE,"S242951021"
"231","blctit4","Black-crested Titmouse","Baeolophus atricristatus","L16011104","La Paloma","2025-05-26 08:03",1,27.8635606,-98.4142976,TRUE,FALSE,TRUE,"S242993277"
"232","blctit4","Black-crested Titmouse","Baeolophus atricristatus","L389105","Baker Sanctuary","2025-05-26 08:00",4,30.4833186,-97.8707503,TRUE,FALSE,FALSE,"S242973092"
"233","blctit4","Black-crested Titmouse","Baeolophus atricristatus","L7330592","Johnson Ponds area, Alpine","2025-05-26 08:00",1,30.3660623,-103.6742771,TRUE,FALSE,FALSE,"S242952962"
"234","blctit4","Black-crested Titmouse","Baeolophus atricristatus","L246733","Guadalupe River SP (HOTE 077)","2025-05-26 07:58",1,29.8736946,-98.4859303,TRUE,FALSE,FALSE,"S243518174"
"235","blctit4","Black-crested Titmouse","Baeolophus atricristatus","L46055356","76943, Ozona US-TX (29.9788,-101.1690)","2025-05-26 07:46",2,29.978812,-101.169003,TRUE,FALSE,TRUE,"S243050343"
"236","blctit4","Black-crested Titmouse","Baeolophus atricristatus","L17600825","Camp Alzafar Rd (front point)","2025-05-26 07:45",2,29.8740305,-98.6556078,TRUE,FALSE,TRUE,"S243168633"
"237","blctit4","Black-crested Titmouse","Baeolophus atricristatus","L1281109","Schulle Canyon Natural Area","2025-05-26 07:42",3,29.8940433,-97.9551718,TRUE,FALSE,FALSE,"S242944183"
"238","blctit4","Black-crested Titmouse","Baeolophus atricristatus","L45861742","809 Lake Ridge Rd, Kerrville US-TX (30.1536,-99.1583)","2025-05-26 07:41",3,30.153591,-99.158292,TRUE,FALSE,TRUE,"S243042308"
"239","blctit4","Black-crested Titmouse","Baeolophus atricristatus","L2080893","Frank L. Madla Nat. Area","2025-05-26 07:40",2,29.6051927,-98.6813057,TRUE,FALSE,FALSE,"S242998177"
"240","blctit4","Black-crested Titmouse","Baeolophus atricristatus","L18550285","5921 Mustang Valley Trail, Wimberley, Texas, US (30.021, -98.179)","2025-05-26 07:29",9,30.0214615,-98.1790292,TRUE,FALSE,TRUE,"S242940277"
"241","blctit4","Black-crested Titmouse","Baeolophus atricristatus","L27854413","Crescent Bend Nature Park — Cibolo Creek (Guadalupe Co.)","2025-05-26 07:28",1,29.5546627,-98.2335483,TRUE,FALSE,FALSE,"S242906565"
"242","blctit4","Black-crested Titmouse","Baeolophus atricristatus","L684204","Lake Creek Trail--West (Williamson Co.)","2025-05-26 07:11",2,30.4673656,-97.7771286,TRUE,FALSE,FALSE,"S242999199"
"243","blctit4","Black-crested Titmouse","Baeolophus atricristatus","L7237705","Backyard","2025-05-26 07:09",1,31.908319,-98.60527,TRUE,FALSE,TRUE,"S242956322"
"244","blctit4","Black-crested Titmouse","Baeolophus atricristatus","L19332118","Indian Bend Rd, Llano (Private Property)","2025-05-26 07:06",6,30.766271,-98.600777,TRUE,FALSE,TRUE,"S243018820"
"245","blctit4","Black-crested Titmouse","Baeolophus atricristatus","L46042565","Hornsby Bend","2025-05-26 07:00",1,30.2199372,-97.6475269,TRUE,FALSE,TRUE,"S242998272"
"246","blctit4","Black-crested Titmouse","Baeolophus atricristatus","L28494561","Choke Canyon SP (Calliham Unit)--Rec Center area","2025-05-26 06:52",4,28.4800631,-98.348663,TRUE,FALSE,FALSE,"S242998824"
"247","blctit4","Black-crested Titmouse","Baeolophus atricristatus","L7077573","Hardeman-FM 91, Chillicothe, Texas, US (34.23, -99.509)","2025-05-26 06:50",1,34.2300546,-99.5092141,TRUE,FALSE,TRUE,"S242894301"
"248","blctit4","Black-crested Titmouse","Baeolophus atricristatus","L46025460","117 Timberwood Road, Kerrville, Texas, US (29.965, -99.114)","2025-05-26 06:43",1,29.9654804,-99.1144594,TRUE,FALSE,TRUE,"S242886151"
"249","blctit4","Black-crested Titmouse","Baeolophus atricristatus","L26297156","Cielo Azul","2025-05-26 06:25",2,30.372775,-103.739375,TRUE,FALSE,TRUE,"S243131974"
"250","blctit4","Black-crested Titmouse","Baeolophus atricristatus","L27212579","Madla Greenway, San Antonio, Texas, US (29.313, -98.525)","2025-05-26 06:11",NA,29.3133825,-98.5251137,TRUE,FALSE,TRUE,"S242919778"
"251","blctit4","Black-crested Titmouse","Baeolophus atricristatus","L2347930","Leakey Hacienda - Private residence","2025-05-26 05:59",2,29.719161,-99.781596,TRUE,FALSE,TRUE,"S243320531"
"252","blctit4","Black-crested Titmouse","Baeolophus atricristatus","L2634028","Enchanted Rock SNA (Gillespie Co)","2025-05-25 20:00",1,30.4958792,-98.8198864,TRUE,FALSE,FALSE,"S242782352"
"253","blctit4","Black-crested Titmouse","Baeolophus atricristatus","L11289371","Fort Clark Springs—Las Moras Spring Lake/Swimming Pool area (gate check-in required)","2025-05-25 19:15",1,29.3091448,-100.4221351,TRUE,FALSE,FALSE,"S242758836"
"254","blctit4","Black-crested Titmouse","Baeolophus atricristatus","L27832155","3826 Farm to Market 89, Tuscola, Texas, US (32.249, -99.864)","2025-05-25 19:05",1,32.2486722,-99.8639634,TRUE,FALSE,TRUE,"S242761431"
"255","blctit4","Black-crested Titmouse","Baeolophus atricristatus","L723082","Laguna Atascosa NWR--Buena Vista Blvd. (within refuge)","2025-05-25 18:43",1,26.2112414,-97.3515916,TRUE,FALSE,FALSE,"S242772063"
"256","blctit4","Black-crested Titmouse","Baeolophus atricristatus","L46000281","78736, Austin US-TX 30.22793, -97.99837","2025-05-25 18:40",1,30.227933,-97.998371,TRUE,FALSE,TRUE,"S242766583"
"257","blctit4","Black-crested Titmouse","Baeolophus atricristatus","L1919342","US-TX-Austin-10313 Stubble Quail Dr","2025-05-25 18:28",2,30.379652,-97.706119,TRUE,FALSE,TRUE,"S242752422"
"258","blctit4","Black-crested Titmouse","Baeolophus atricristatus","L17208300","271 Soaring Eagles Dr, Fredericksburg US-TX 30.24276, -98.99371","2025-05-25 18:05",1,30.242761,-98.993708,TRUE,FALSE,TRUE,"S242754277"
"259","blctit4","Black-crested Titmouse","Baeolophus atricristatus","L28485729","2022 Farm to Market 89, Buffalo Gap, Texas, US (32.293, -99.824)","2025-05-25 17:45",1,32.2930433,-99.8244633,TRUE,FALSE,TRUE,"S242734120"
"260","blctit4","Black-crested Titmouse","Baeolophus atricristatus","L20499223","Cedar Park--Dayna Lawson Park","2025-05-25 17:28",2,30.5169683,-97.8539353,TRUE,FALSE,FALSE,"S243275962"
"261","blctit4","Black-crested Titmouse","Baeolophus atricristatus","L3543596","Lake Arrowhead State Park","2025-05-25 17:23",1,33.7583457,-98.3947121,TRUE,FALSE,FALSE,"S242722349"
"262","blctit4","Black-crested Titmouse","Baeolophus atricristatus","L45874452","Kniffen’s","2025-05-25 16:50",NA,30.90155,-99.798224,TRUE,FALSE,TRUE,"S242709008"
"263","blctit4","Black-crested Titmouse","Baeolophus atricristatus","L45988555","146 County Road 352, Merkel, Texas, US (32.371, -100.047)","2025-05-25 16:18",1,32.370895,-100.0472633,TRUE,FALSE,TRUE,"S242709175"
"264","blctit4","Black-crested Titmouse","Baeolophus atricristatus","L45984136","3514–3640 RM-674, Brackettville US-TX 29.37099, -100.41222","2025-05-25 16:00",1,29.370987,-100.412217,TRUE,FALSE,TRUE,"S242688974"
"265","blctit4","Black-crested Titmouse","Baeolophus atricristatus","L844445","Kuykendall Ranch (Private)","2025-05-25 15:23",1,28.4551091,-98.6991119,TRUE,FALSE,TRUE,"S242795772"
"266","blctit4","Black-crested Titmouse","Baeolophus atricristatus","L1618116","Arboretum Blvd. Pond, Austin","2025-05-25 14:55",4,30.3897518,-97.7506965,TRUE,FALSE,FALSE,"S242661690"
"267","blctit4","Black-crested Titmouse","Baeolophus atricristatus","L45966680","Newport Cemetery","2025-05-25 14:15",1,33.457359,-98.020545,TRUE,FALSE,TRUE,"S242663130"
"268","blctit4","Black-crested Titmouse","Baeolophus atricristatus","L45967489","1444 CR-348, Concan US-TX 29.50866, -99.70106","2025-05-25 13:49",4,29.50866,-99.701064,TRUE,FALSE,TRUE,"S242619915"
"269","blctit4","Black-crested Titmouse","Baeolophus atricristatus","L336009","National Butterfly Center--General & area North of Levee","2025-05-25 13:06",4,26.1796025,-98.3664483,TRUE,FALSE,FALSE,"S242668517"
"270","blctit4","Black-crested Titmouse","Baeolophus atricristatus","L1174771","Bentsen-Rio Grande Val. SP--HQ Buildings area","2025-05-25 12:44",1,26.1856055,-98.3799398,TRUE,FALSE,FALSE,"S242591058"
"271","blctit4","Black-crested Titmouse","Baeolophus atricristatus","L45978447","FM-1221 south of Hext","2025-05-25 12:25",1,30.823637,-99.530274,TRUE,FALSE,TRUE,"S242664367"
"272","blctit4","Black-crested Titmouse","Baeolophus atricristatus","L24390990","147 Estuary Dr, Rockport US-TX (28.1088,-97.0371)","2025-05-25 12:08",4,28.108821,-97.037092,TRUE,FALSE,TRUE,"S243139481"
"273","blctit4","Black-crested Titmouse","Baeolophus atricristatus","L898270","Mission San Juan Capistrano, San Antonio","2025-05-25 12:05",1,29.3335098,-98.4549001,TRUE,FALSE,FALSE,"S242598319"
"274","blctit4","Black-crested Titmouse","Baeolophus atricristatus","L1128961","Brushy Creek Sports Park (W. of Parmer Ln.)","2025-05-25 12:03",9,30.5046704,-97.7802086,TRUE,FALSE,FALSE,"S242605250"
"275","blctit4","Black-crested Titmouse","Baeolophus atricristatus","L1391443","Ebony Hills Golf Course and surrounding residential area","2025-05-25 11:58",1,26.2863235,-98.1700573,TRUE,FALSE,TRUE,"S242560408"
"276","blctit4","Black-crested Titmouse","Baeolophus atricristatus","L45948520","Rodriguez Park","2025-05-25 11:47",1,29.412492,-98.614878,TRUE,FALSE,TRUE,"S242546905"
"277","blctit4","Black-crested Titmouse","Baeolophus atricristatus","L128904","Big Bend NP--Laguna Meadow","2025-05-25 11:43",7,29.254,-103.308,TRUE,FALSE,FALSE,"S242771461"
"278","blctit4","Black-crested Titmouse","Baeolophus atricristatus","L23167294","Lake Merritt area","2025-05-25 11:30",4,31.5355597,-98.5746102,TRUE,FALSE,FALSE,"S242571482"
"279","blctit4","Black-crested Titmouse","Baeolophus atricristatus","L44287744","Agarita Blind","2025-05-25 11:13",NA,30.443614,-99.804196,TRUE,FALSE,TRUE,"S242571411"
"280","blctit4","Black-crested Titmouse","Baeolophus atricristatus","L15177037","Eastland County - CR 226","2025-05-25 11:12",1,32.128495,-99.007894,TRUE,FALSE,TRUE,"S243219904"
"281","blctit4","Black-crested Titmouse","Baeolophus atricristatus","L302109","Austin Capitol Grounds","2025-05-25 11:12",2,30.2741448,-97.7402487,TRUE,FALSE,FALSE,"S242557531"
"282","blctit4","Black-crested Titmouse","Baeolophus atricristatus","L129003","Kerrville-Schreiner Park (HOTW 076)","2025-05-25 11:08",5,30.0108322,-99.1204762,TRUE,FALSE,FALSE,"S242557387"
"283","blctit4","Black-crested Titmouse","Baeolophus atricristatus","L4064759","Blair Woods Preserve, Austin","2025-05-25 11:06",2,30.2851744,-97.674606,TRUE,FALSE,FALSE,"S242569897"
"284","blctit4","Black-crested Titmouse","Baeolophus atricristatus","L45943417","29327 Summit Ridge Dr, Fair Oaks Ranch US-TX 29.73305, -98.63643","2025-05-25 11:02",1,29.733053,-98.636431,TRUE,FALSE,TRUE,"S242521534"
"285","blctit4","Black-crested Titmouse","Baeolophus atricristatus","L4350377","National Butterfly Center--South of levee","2025-05-25 11:02",1,26.1738318,-98.3657885,TRUE,FALSE,FALSE,"S242563610"
"286","blctit4","Black-crested Titmouse","Baeolophus atricristatus","L45950165","605 Moonlit Stream Pass, Dripping Springs US-TX 30.21751, -98.05873","2025-05-25 10:58",5,30.21751,-98.058732,TRUE,FALSE,TRUE,"S242549940"
"287","blctit4","Black-crested Titmouse","Baeolophus atricristatus","L38898280","Backyard on Lady Day","2025-05-25 10:47",6,30.48582,-97.863887,TRUE,FALSE,TRUE,"S242509793"
"288","blctit4","Black-crested Titmouse","Baeolophus atricristatus","L1270009","Big Bend NP--Colima Trail","2025-05-25 10:43",6,29.241735,-103.3039713,TRUE,FALSE,FALSE,"S242771247"
"289","blctit4","Black-crested Titmouse","Baeolophus atricristatus","L128892","Big Bend NP--Boot Spring","2025-05-25 10:43",2,29.2413998,-103.2970963,TRUE,FALSE,FALSE,"S242807762"
"290","blctit4","Black-crested Titmouse","Baeolophus atricristatus","L259855","Estero Llano Grande SP WBC (LTC 054)","2025-05-25 10:42",1,26.1268335,-97.9578167,TRUE,FALSE,FALSE,"S242558377"
"291","blctit4","Black-crested Titmouse","Baeolophus atricristatus","L1148441","Estero Llano Grande SP--Tropical Zone only","2025-05-25 10:39",9,26.124386,-97.9585648,TRUE,FALSE,FALSE,"S242537792"
"292","blctit4","Black-crested Titmouse","Baeolophus atricristatus","L1559955","Shields BBS 83439 Stop 50","2025-05-25 10:31",1,31.6077129,-99.1508509,TRUE,FALSE,TRUE,"S243188548"
"293","blctit4","Black-crested Titmouse","Baeolophus atricristatus","L129020","Lawrence E. Wood Picnic Area & Madera Canyon Trail","2025-05-25 10:30",1,30.7063007,-104.1054001,TRUE,FALSE,FALSE,"S242731091"
"294","blctit4","Black-crested Titmouse","Baeolophus atricristatus","L875491","Truscott (Brine) Lake","2025-05-25 10:27",2,33.7780059,-99.8451233,TRUE,FALSE,FALSE,"S242673174"
"295","blctit4","Black-crested Titmouse","Baeolophus atricristatus","L1559953","Shields BBS 83439 Stop 49","2025-05-25 10:26",1,31.6054051,-99.1607,TRUE,FALSE,TRUE,"S243188152"
"296","blctit4","Black-crested Titmouse","Baeolophus atricristatus","L15028657","Barton Creek Greenbelt—near MOPAC TX-1","2025-05-25 10:22",2,30.2446621,-97.8103,TRUE,FALSE,FALSE,"S242534339"
"297","blctit4","Black-crested Titmouse","Baeolophus atricristatus","L13562282","Gegend 3","2025-05-25 10:15",2,30.259587,-97.761273,TRUE,FALSE,TRUE,"S242808505"
"298","blctit4","Black-crested Titmouse","Baeolophus atricristatus","L17545672","25901 Goldfinch Trail, San Antonio, Texas, US (29.685, -98.656)CW12","2025-05-25 10:13",2,29.6854811,-98.6564567,TRUE,FALSE,TRUE,"S242489115"
"299","blctit4","Black-crested Titmouse","Baeolophus atricristatus","L1559931","Shields BBS 83439 Stop 46","2025-05-25 10:12",1,31.6016189,-99.1756549,TRUE,FALSE,TRUE,"S243186439"
"300","blctit4","Black-crested Titmouse","Baeolophus atricristatus","L4290955","Dripping Springs home","2025-05-25 10:05",2,30.2078995,-98.0955935,TRUE,FALSE,TRUE,"S242800570"
"301","blctit4","Black-crested Titmouse","Baeolophus atricristatus","L12241597","844 Upper Turtle Creek Road, Kerrville, Texas, US (29.98, -99.244)","2025-05-25 09:53",1,29.979677,-99.2440974,TRUE,FALSE,TRUE,"S242538037"
"302","blctit4","Black-crested Titmouse","Baeolophus atricristatus","L1559901","Shields BBS 83439 Stop 41","2025-05-25 09:45",1,31.6385141,-99.1750976,TRUE,FALSE,TRUE,"S243182820"
"303","blctit4","Black-crested Titmouse","Baeolophus atricristatus","L45952652","South Llano River State Park, Junction US-TX 30.44425, -99.80431","2025-05-25 09:42",3,30.444252,-99.804307,TRUE,FALSE,TRUE,"S242559889"
"304","blctit4","Black-crested Titmouse","Baeolophus atricristatus","L45975368","Smith-Roche Rd","2025-05-25 09:40",2,29.0041893,-98.8213386,TRUE,FALSE,TRUE,"S242652912"
"305","blctit4","Black-crested Titmouse","Baeolophus atricristatus","L45929354","76844, Goldthwaite US-TX 31.26974, -98.62332","2025-05-25 09:32",1,31.269737,-98.623319,TRUE,FALSE,TRUE,"S242459291"
"306","blctit4","Black-crested Titmouse","Baeolophus atricristatus","L862960","Zilker Botanical Gardens","2025-05-25 09:30",4,30.2691308,-97.7717328,TRUE,FALSE,FALSE,"S242514325"
"307","blctit4","Black-crested Titmouse","Baeolophus atricristatus","L9582558","PBAJ-Private","2025-05-25 09:23",4,29.780655,-99.286079,TRUE,FALSE,TRUE,"S242639801"
"308","blctit4","Black-crested Titmouse","Baeolophus atricristatus","L1559827","Shields BBS 83439 Stop 36","2025-05-25 09:21",1,31.647541,-99.1925891,TRUE,FALSE,TRUE,"S243177225"
"309","blctit4","Black-crested Titmouse","Baeolophus atricristatus","L17544696","25506 Beamer Crossing, San Antonio, Texas, US (29.681, -98.67)CW8","2025-05-25 09:19",1,29.6812583,-98.6703271,TRUE,FALSE,TRUE,"S242449675"
"310","blctit4","Black-crested Titmouse","Baeolophus atricristatus","L425409","Shields BBS 83439 Stop 35","2025-05-25 09:16",1,31.6375263,-99.1937777,TRUE,FALSE,TRUE,"S243176205"
"311","blctit4","Black-crested Titmouse","Baeolophus atricristatus","L1559803","Shields BBS 83439 Stop 34 (Brown)","2025-05-25 09:11",2,31.6373935,-99.2020894,TRUE,FALSE,TRUE,"S243175411"
"312","blctit4","Black-crested Titmouse","Baeolophus atricristatus","L2292043","Austin Nature & Science Center","2025-05-25 09:07",2,30.2719901,-97.7748515,TRUE,FALSE,FALSE,"S242450235"
"313","blctit4","Black-crested Titmouse","Baeolophus atricristatus","L1559798","Shields BBS 83439 Stop 33","2025-05-25 09:07",1,31.6372919,-99.2090931,TRUE,FALSE,TRUE,"S243174801"
"314","blctit4","Black-crested Titmouse","Baeolophus atricristatus","L19136681","Pathseeker Lookout CTI Campus","2025-05-25 09:04",1,29.68687,-98.668863,TRUE,FALSE,TRUE,"S242439290"
"315","blctit4","Black-crested Titmouse","Baeolophus atricristatus","L3623818","Big Bend NP--Boot Canyon Trail","2025-05-25 09:03",2,29.2482183,-103.2933675,TRUE,FALSE,FALSE,"S242806063"
"316","blctit4","Black-crested Titmouse","Baeolophus atricristatus","L12903541","Inks Dam National Fish Hatchery","2025-05-25 09:00",3,30.7247934,-98.3854866,TRUE,FALSE,TRUE,"S242490394"
"317","blctit4","Black-crested Titmouse","Baeolophus atricristatus","L1559786","Shields BBS 83439 Stop 31","2025-05-25 08:56",1,31.637097,-99.2257808,TRUE,FALSE,TRUE,"S243173274"
"318","blctit4","Black-crested Titmouse","Baeolophus atricristatus","L17300903","West wildlife Preserve - nursery","2025-05-25 08:54",1,26.2241986,-97.5226544,TRUE,FALSE,TRUE,"S242763281"
"319","blctit4","Black-crested Titmouse","Baeolophus atricristatus","L860704","Joshua Springs Park","2025-05-25 08:52",5,29.8846717,-98.8185453,TRUE,FALSE,FALSE,"S242607368"
"320","blctit4","Black-crested Titmouse","Baeolophus atricristatus","L160563","Mitchell Lake Audubon Center (HOTE 103)","2025-05-25 08:43",2,29.3105956,-98.4996938,TRUE,FALSE,FALSE,"S242552317"
"321","blctit4","Black-crested Titmouse","Baeolophus atricristatus","L19348505","Quiet Valley Ranch","2025-05-25 08:40",2,29.95992,-99.215635,TRUE,FALSE,TRUE,"S242481311"
"322","blctit4","Black-crested Titmouse","Baeolophus atricristatus","L15444020","CR 3600/3700 Canyon Cut","2025-05-25 08:40",4,33.5140552,-101.6173988,TRUE,FALSE,TRUE,"S243104354"
"323","blctit4","Black-crested Titmouse","Baeolophus atricristatus","L11457633","Bird paradise private","2025-05-25 08:37",3,29.970211,-98.253251,TRUE,FALSE,TRUE,"S242448550"
"324","blctit4","Black-crested Titmouse","Baeolophus atricristatus","L1770184","Balcones Community Park","2025-05-25 08:33",2,30.4130028,-97.7200508,TRUE,FALSE,FALSE,"S242454226"
"325","blctit4","Black-crested Titmouse","Baeolophus atricristatus","L17549865","Estero Llano Grande State Park, Weslaco US-TX 26.12638, -97.95723","2025-05-25 08:30",1,26.126385,-97.95723,TRUE,FALSE,TRUE,"S243491465"
"326","blctit4","Black-crested Titmouse","Baeolophus atricristatus","L17544372","26833 Pecan Bluff, Boerne, Texas, US (29.698, -98.719)CW5","2025-05-25 08:25",1,29.6982752,-98.7189413,TRUE,FALSE,TRUE,"S242412648"
"327","blctit4","Black-crested Titmouse","Baeolophus atricristatus","L275885","Braunig Lake (HOTE 101)","2025-05-25 08:25",2,29.2488196,-98.3939707,TRUE,FALSE,FALSE,"S242519153"
"328","blctit4","Black-crested Titmouse","Baeolophus atricristatus","L45774636","486–514 County Road 411, Goldthwaite US-TX 31.34839, -98.58286","2025-05-25 08:13",1,31.348394,-98.582864,TRUE,FALSE,TRUE,"S242407935"
"329","blctit4","Black-crested Titmouse","Baeolophus atricristatus","L45938428","Warbler Vista Trails, Leander US-TX 30.50590, -97.98688","2025-05-25 08:09",1,30.505903,-97.986875,TRUE,FALSE,TRUE,"S242500154"
"330","blctit4","Black-crested Titmouse","Baeolophus atricristatus","L17544309","27956-28182 Toutant Beauregard Road, Boerne, Texas, US (29.716, -98.734)CW4","2025-05-25 08:06",2,29.715667,-98.7336171,TRUE,FALSE,TRUE,"S242399395"
"331","blctit4","Black-crested Titmouse","Baeolophus atricristatus","L1558134","Shields BBS 83439 Stop 22","2025-05-25 08:03",1,31.6377186,-99.299016,TRUE,FALSE,TRUE,"S243166132"
"332","blctit4","Black-crested Titmouse","Baeolophus atricristatus","L6011175","Central Texas College—Beaver pond and Eagle trail","2025-05-25 08:01",2,31.1134354,-97.8108716,TRUE,FALSE,FALSE,"S242506581"
"333","blctit4","Black-crested Titmouse","Baeolophus atricristatus","L18715923","Mial Property (Private)","2025-05-25 08:00",2,30.498031,-98.816633,TRUE,FALSE,TRUE,"S242450049"
"334","blctit4","Black-crested Titmouse","Baeolophus atricristatus","L1152803","My Garden","2025-05-25 08:00",4,29.9818442,-98.081945,TRUE,FALSE,TRUE,"S242437192"
"335","blctit4","Black-crested Titmouse","Baeolophus atricristatus","L23103742","Ranch on the Rocks","2025-05-25 07:58",4,29.93233,-100.08042,TRUE,FALSE,TRUE,"S242509944"
"336","blctit4","Black-crested Titmouse","Baeolophus atricristatus","L1558128","Shields BBS 83439 Stop 21","2025-05-25 07:58",1,31.6377277,-99.3060315,TRUE,FALSE,TRUE,"S243165258"
"337","blctit4","Black-crested Titmouse","Baeolophus atricristatus","L45916740","28330 Toutant Beauregard Road, Boerne, Texas, US (29.719, -98.735)CW 1/12","2025-05-25 07:55",1,29.7191584,-98.7347843,TRUE,FALSE,TRUE,"S242394178"
"338","blctit4","Black-crested Titmouse","Baeolophus atricristatus","L42300644","Home-East","2025-05-25 07:53",2,30.268531,-97.680343,TRUE,FALSE,TRUE,"S242431976"
"339","blctit4","Black-crested Titmouse","Baeolophus atricristatus","L1050878","Melrose ","2025-05-25 07:51",17,28.8088998,-97.515142,TRUE,FALSE,TRUE,"S242525304"
"340","blctit4","Black-crested Titmouse","Baeolophus atricristatus","L45916341","190–198 County Road 411, Goldthwaite US-TX 31.37855, -98.56028","2025-05-25 07:51",6,31.378552,-98.560278,TRUE,FALSE,TRUE,"S242392081"
"341","blctit4","Black-crested Titmouse","Baeolophus atricristatus","L1558107","Shields BBS 83439 Stop 19","2025-05-25 07:48",1,31.6304112,-99.3131373,TRUE,FALSE,TRUE,"S243163400"
"342","blctit4","Black-crested Titmouse","Baeolophus atricristatus","L9556458","Honey Creek SNA zone 1 restricted","2025-05-25 07:45",5,29.862752,-98.49022,TRUE,FALSE,TRUE,"S242401756"
"343","blctit4","Black-crested Titmouse","Baeolophus atricristatus","L1558098","Shields BBS 83439 Stop 18","2025-05-25 07:42",3,31.6304791,-99.3229263,TRUE,FALSE,TRUE,"S243162397"
"344","blctit4","Black-crested Titmouse","Baeolophus atricristatus","L29074493","Saint June","2025-05-25 07:38",1,30.264773,-97.887408,TRUE,FALSE,TRUE,"S242413272"
"345","blctit4","Black-crested Titmouse","Baeolophus atricristatus","L1558084","Shields BBS 83439 Stop 17","2025-05-25 07:37",1,31.6307577,-99.3311484,TRUE,FALSE,TRUE,"S243161581"
"346","blctit4","Black-crested Titmouse","Baeolophus atricristatus","L45915749","124–150 County Road 411, Goldthwaite US-TX 31.39825, -98.56069","2025-05-25 07:37",1,31.398252,-98.560685,TRUE,FALSE,TRUE,"S242388838"
"347","blctit4","Black-crested Titmouse","Baeolophus atricristatus","L45650938","Elmview place","2025-05-25 07:34",1,29.493012,-98.463572,TRUE,FALSE,TRUE,"S242393680"
"348","blctit4","Black-crested Titmouse","Baeolophus atricristatus","L1558081","Shields BBS 83439 Stop 16","2025-05-25 07:32",2,31.6310013,-99.3412571,TRUE,FALSE,TRUE,"S243160840"
"349","blctit4","Black-crested Titmouse","Baeolophus atricristatus","L29973333","250 Jung Frau Hill Rd, Comfort US-TX 29.94227, -98.85395","2025-05-25 07:30",2,29.942268,-98.853947,TRUE,FALSE,TRUE,"S242751240"
"350","blctit4","Black-crested Titmouse","Baeolophus atricristatus","L44377031","2822 Little John Dr, San Antonio US-TX 29.49883, -98.44496","2025-05-25 07:26",2,29.498832,-98.444959,TRUE,FALSE,TRUE,"S242421632"
"351","blctit4","Black-crested Titmouse","Baeolophus atricristatus","L1558070","Shields BBS 83439 Stop 15","2025-05-25 07:23",3,31.6299509,-99.3481434,TRUE,FALSE,TRUE,"S243160005"
"352","blctit4","Black-crested Titmouse","Baeolophus atricristatus","L2764095","Hanka Sod (former Superior Turf Farms) / Weaver rd.","2025-05-25 07:22",2,26.1039435,-97.7723229,TRUE,FALSE,FALSE,"S242371931"
"353","blctit4","Black-crested Titmouse","Baeolophus atricristatus","L45874317","512 Furlong Drive, Austin, Texas, US (30.304, -97.845)","2025-05-25 07:18",1,30.3039609,-97.8450549,TRUE,FALSE,TRUE,"S242416800"
"354","blctit4","Black-crested Titmouse","Baeolophus atricristatus","L1558060","Shields BBS 83439 Stop 14","2025-05-25 07:18",2,31.6228951,-99.3500789,TRUE,FALSE,TRUE,"S243159086"
"355","blctit4","Black-crested Titmouse","Baeolophus atricristatus","L21916040","Camp Riverview","2025-05-25 07:16",2,29.570271,-99.727389,TRUE,FALSE,TRUE,"S242407744"
"356","blctit4","Black-crested Titmouse","Baeolophus atricristatus","L1556722","Shields BBS 83439 Stop 13","2025-05-25 07:12",2,31.6190723,-99.3532538,TRUE,FALSE,TRUE,"S243158340"
"357","blctit4","Black-crested Titmouse","Baeolophus atricristatus","L129085","Santa Ana NWR (LTC 059)","2025-05-25 07:10",1,26.0813003,-98.1351399,TRUE,FALSE,FALSE,"S242458677"
"358","blctit4","Black-crested Titmouse","Baeolophus atricristatus","L10754179","Harmony Hills","2025-05-25 07:09",1,29.5309854,-98.5057918,TRUE,FALSE,TRUE,"S242740403"
"359","blctit4","Black-crested Titmouse","Baeolophus atricristatus","L8723555","C.B. Banner Place, 1012 Grand Central Ave, O'Brien US-TX (33.3773,-99.8440)","2025-05-25 07:08",2,33.37729,-99.844028,TRUE,FALSE,TRUE,"S242418681"
"360","blctit4","Black-crested Titmouse","Baeolophus atricristatus","L12466748","Agaritaville, Leakey, Texas, US (29.776, -99.762)","2025-05-25 07:06",4,29.7762755,-99.7615367,TRUE,FALSE,TRUE,"S242409721"
"361","blctit4","Black-crested Titmouse","Baeolophus atricristatus","L45910966","8224 Ranch Road 620 N, Austin US-TX 30.42150, -97.84717","2025-05-25 07:00",1,30.421503,-97.847169,TRUE,FALSE,TRUE,"S242362446"
"362","blctit4","Black-crested Titmouse","Baeolophus atricristatus","L17431079","452 CR-238, Maxwell US-TX 29.87698, -97.81013","2025-05-25 07:00",1,29.876978,-97.810126,TRUE,FALSE,TRUE,"S242965199"
"363","blctit4","Black-crested Titmouse","Baeolophus atricristatus","L3939315","Medina County US90 Rest Area","2025-05-25 06:57",5,29.313986,-99.385256,TRUE,FALSE,FALSE,"S242359118"
"364","blctit4","Black-crested Titmouse","Baeolophus atricristatus","L36494681","D's Yard","2025-05-25 06:56",3,29.8444196,-98.1328832,TRUE,FALSE,TRUE,"S242528838"
"365","blctit4","Black-crested Titmouse","Baeolophus atricristatus","L30156645","Zilker Elementary","2025-05-25 06:54",3,30.25281,-97.774262,TRUE,FALSE,TRUE,"S242380910"
"366","blctit4","Black-crested Titmouse","Baeolophus atricristatus","L45930082","JW Marriott San Antonio Hill Country Resort","2025-05-25 06:53",12,29.668226,-98.400155,TRUE,FALSE,TRUE,"S242462729"
"367","blctit4","Black-crested Titmouse","Baeolophus atricristatus","L13511181","La Paloma","2025-05-25 06:50",2,27.8595588,-98.4188303,TRUE,FALSE,TRUE,"S242417697"
"368","blctit4","Black-crested Titmouse","Baeolophus atricristatus","L28768591","254 Island Road, Johnson City US-TX 30.29442, -98.33735","2025-05-25 06:49",3,30.294421,-98.337346,TRUE,FALSE,TRUE,"S243691662"
"369","blctit4","Black-crested Titmouse","Baeolophus atricristatus","L1556695","Shields BBS 83439 Stop 9","2025-05-25 06:46",1,31.6031374,-99.3689152,TRUE,FALSE,TRUE,"S243153517"
"370","blctit4","Black-crested Titmouse","Baeolophus atricristatus","L27573464","Power pole","2025-05-25 06:45",2,29.527349,-98.624096,TRUE,FALSE,TRUE,"S242392687"
"371","blctit4","Black-crested Titmouse","Baeolophus atricristatus","L1990174","Lake Negley / Soil Conservation Site 1 Reservoir (Kyle)","2025-05-25 06:42",1,30.0168429,-97.8805232,TRUE,FALSE,FALSE,"S242492824"
"372","blctit4","Black-crested Titmouse","Baeolophus atricristatus","L1556674","Shields BBS 83439 Stop 8","2025-05-25 06:41",1,31.5985544,-99.3690571,TRUE,FALSE,TRUE,"S243152572"
"373","blctit4","Black-crested Titmouse","Baeolophus atricristatus","L129075","Salineño Wildlife Preserve (LTC 080)","2025-05-25 06:34",3,26.5148584,-99.1162062,TRUE,FALSE,FALSE,"S242437113"
"374","blctit4","Black-crested Titmouse","Baeolophus atricristatus","L1395498","Las Palomas WMA--Ebony Unit (restricted access)","2025-05-25 06:31",1,26.0892062,-97.7402739,TRUE,FALSE,FALSE,"S242355815"
"375","blctit4","Black-crested Titmouse","Baeolophus atricristatus","L714949","Big Bend NP--Pinnacles Trail","2025-05-25 06:30",4,29.2518263,-103.3002913,TRUE,FALSE,FALSE,"S242805525"
"376","blctit4","Black-crested Titmouse","Baeolophus atricristatus","L45563318","Blaha Oaks Road","2025-05-25 06:30",1,30.3425936,-99.0872906,TRUE,FALSE,TRUE,"S242382684"
"377","blctit4","Black-crested Titmouse","Baeolophus atricristatus","L1556643","Shields BBS 83439 Stop 5","2025-05-25 06:22",1,31.5934789,-99.3908466,TRUE,FALSE,TRUE,"S243149185"
"378","blctit4","Black-crested Titmouse","Baeolophus atricristatus","L1556626","Shields BBS 83439 Stop 4","2025-05-25 06:18",1,31.592971,-99.400403,TRUE,FALSE,TRUE,"S243148204"
"379","blctit4","Black-crested Titmouse","Baeolophus atricristatus","L1556567","Shields BBS 83439 Stop 3","2025-05-25 06:13",2,31.5929382,-99.4078308,TRUE,FALSE,TRUE,"S243147147"
"380","blctit4","Black-crested Titmouse","Baeolophus atricristatus","L437714","Balcones Canyonlands NWR--Shin Oak Obs. Deck (HOTE 024)","2025-05-24 20:18",1,30.6600596,-98.0494916,TRUE,FALSE,FALSE,"S242238230"
"381","blctit4","Black-crested Titmouse","Baeolophus atricristatus","L2662405","McAllen--E.Houston Ave. Red-crowned Parrot roost","2025-05-24 20:06",1,26.1952144,-98.2214856,TRUE,FALSE,FALSE,"S242242514"
"382","blctit4","Black-crested Titmouse","Baeolophus atricristatus","L23748178","US281--Falfurrias Checkpoint","2025-05-24 20:01",2,27.03204,-98.140217,TRUE,FALSE,FALSE,"S242231793"
"383","blctit4","Black-crested Titmouse","Baeolophus atricristatus","L41313608","Pharr","2025-05-24 19:49",1,26.1835524,-98.1820773,TRUE,FALSE,TRUE,"S242668492"
"384","blctit4","Black-crested Titmouse","Baeolophus atricristatus","L42949620","222 Stirrup Street, Texas, US (29.733, -98.889)","2025-05-24 19:38",4,29.7334708,-98.8887964,TRUE,FALSE,TRUE,"S242236989"
"385","blctit4","Black-crested Titmouse","Baeolophus atricristatus","L129086","Santa Margarita Ranch (LTC 079) (restricted access - guided groups only)","2025-05-24 19:05",3,26.4856177,-99.0912337,TRUE,FALSE,FALSE,"S242514224"
"386","blctit4","Black-crested Titmouse","Baeolophus atricristatus","L866629","Goldthwaite Cemetery and City Park","2025-05-24 19:00",5,31.4418817,-98.5846138,TRUE,FALSE,FALSE,"S242249180"
"387","blctit4","Black-crested Titmouse","Baeolophus atricristatus","L4107897","US-TX-Weslaco-1300 S Border Ave - 26.1451x-97.9989","2025-05-24 18:59",4,26.145056,-97.998919,TRUE,FALSE,TRUE,"S242231277"
"388","blctit4","Black-crested Titmouse","Baeolophus atricristatus","L1249872","Haggard Ranch (restricted access)","2025-05-24 18:58",1,29.2552523,-98.7070084,TRUE,FALSE,FALSE,"S242316193"
"389","blctit4","Black-crested Titmouse","Baeolophus atricristatus","L21554369","271 Soaring Eagles Dr, Fredericksburg US-TX 30.24270, -98.99365","2025-05-24 18:13",1,30.242701,-98.993648,TRUE,FALSE,TRUE,"S242213599"
"390","blctit4","Black-crested Titmouse","Baeolophus atricristatus","L2170366","Big Bend NP--Chisos Basin WTP","2025-05-24 17:29",2,29.2786178,-103.3070424,TRUE,FALSE,FALSE,"S242233598"
"391","blctit4","Black-crested Titmouse","Baeolophus atricristatus","L18447233","Private Residence No Admit","2025-05-24 17:29",2,30.480743,-97.817325,TRUE,FALSE,TRUE,"S242208812"
"392","blctit4","Black-crested Titmouse","Baeolophus atricristatus","L45873777","512 Furlong Dr, Austin US-TX 30.30414, -97.84519","2025-05-24 17:04",1,30.304142,-97.845189,TRUE,FALSE,TRUE,"S242192654"
"393","blctit4","Black-crested Titmouse","Baeolophus atricristatus","L22227544","Laughlin AFB (restricted access)","2025-05-24 16:33",1,29.3567994,-100.7878017,TRUE,FALSE,FALSE,"S242167554"
"394","blctit4","Black-crested Titmouse","Baeolophus atricristatus","L515005","Falcon State Park--NW of Butterfly Garden (Zapata Co.) (Cenizo, Cactus, Javelina Loops & Boat Ramp)","2025-05-24 16:29",1,26.5881587,-99.1506837,TRUE,FALSE,FALSE,"S242195957"
"395","blctit4","Black-crested Titmouse","Baeolophus atricristatus","L249423","Castroville Regional Pk (HOTE 113)","2025-05-24 16:00",2,29.3424773,-98.8826299,TRUE,FALSE,FALSE,"S242179771"
"396","blctit4","Black-crested Titmouse","Baeolophus atricristatus","L18326328","Guadalupe River SP—Bird blind","2025-05-24 15:50",6,29.8745589,-98.486682,TRUE,FALSE,FALSE,"S242177022"
"397","blctit4","Black-crested Titmouse","Baeolophus atricristatus","L11201790","303 South Frontier Lane, Cedar Park, Texas, US (30.521, -97.77)","2025-05-24 15:47",3,30.5205993,-97.7699768,TRUE,FALSE,TRUE,"S242159088"
"398","blctit4","Black-crested Titmouse","Baeolophus atricristatus","L2023174","Mills Pond at Wells Branch","2025-05-24 15:47",4,30.45,-97.68012,TRUE,FALSE,FALSE,"S242155741"
"399","blctit4","Black-crested Titmouse","Baeolophus atricristatus","L45866570","McCulloch CR112","2025-05-24 15:26",2,31.025623,-99.464025,TRUE,FALSE,TRUE,"S242159144"
"400","blctit4","Black-crested Titmouse","Baeolophus atricristatus","L1866452","Cactus Creek Ranch (private - restricted access)","2025-05-24 15:13",3,26.215797,-97.429897,TRUE,FALSE,FALSE,"S242175535"
"401","blctit4","Black-crested Titmouse","Baeolophus atricristatus","L27441179","213 N Eighth St, Donna US-TX 26.17450, -98.05523","2025-05-24 14:36",NA,26.174504,-98.055229,TRUE,FALSE,TRUE,"S242125154"
"402","blctit4","Black-crested Titmouse","Baeolophus atricristatus","L301960","Eastwoods Park, Austin","2025-05-24 14:27",4,30.2913692,-97.7310786,TRUE,FALSE,FALSE,"S242121079"
"403","blctit4","Black-crested Titmouse","Baeolophus atricristatus","L45867805","Schleicher CRs 245","2025-05-24 13:50",1,30.82417,-100.119522,TRUE,FALSE,TRUE,"S242164661"
"404","blctit4","Black-crested Titmouse","Baeolophus atricristatus","L22739245","15 Sugar Shack Dr, West Lake Hills US-TX 30.28231, -97.78977","2025-05-24 13:44",1,30.282306,-97.789774,TRUE,FALSE,TRUE,"S242085874"
"405","blctit4","Black-crested Titmouse","Baeolophus atricristatus","L32366727","2734 Woodcrest Dr, Canyon Lake US-TX 29.87967, -98.26183","2025-05-24 13:21",6,29.879667,-98.261833,TRUE,FALSE,TRUE,"S242103429"
"406","blctit4","Black-crested Titmouse","Baeolophus atricristatus","L45853840","SH-39, Hunt US-TX 29.96465, -99.45271","2025-05-24 12:57",3,29.964651,-99.452705,TRUE,FALSE,TRUE,"S242108354"
"407","blctit4","Black-crested Titmouse","Baeolophus atricristatus","L787766","Baker home-7806 Callbram Ln","2025-05-24 11:56",1,30.2333013,-97.8935695,TRUE,FALSE,TRUE,"S242260310"
"408","blctit4","Black-crested Titmouse","Baeolophus atricristatus","L7471087","Throckmorton County - CR 384 Pond","2025-05-24 11:42",1,32.961735,-99.12725,TRUE,FALSE,TRUE,"S242232624"
"409","blctit4","Black-crested Titmouse","Baeolophus atricristatus","L894451","Llano River Biological Research Station","2025-05-24 10:46",1,30.4723856,-99.7834969,TRUE,FALSE,FALSE,"S242002780"
"410","blctit4","Black-crested Titmouse","Baeolophus atricristatus","L5254868","Green Hill Cemetry","2025-05-24 10:43",1,27.3536448,-98.7504036,TRUE,FALSE,FALSE,"S241995760"
"411","blctit4","Black-crested Titmouse","Baeolophus atricristatus","L1090714","Shaffer Bend Recr. Area (LCRA)","2025-05-24 10:37",14,30.5413431,-98.1792784,TRUE,FALSE,FALSE,"S242099743"
"412","blctit4","Black-crested Titmouse","Baeolophus atricristatus","L1130574","Elisabet Ney Museum area","2025-05-24 10:37",1,30.3069849,-97.7263927,TRUE,FALSE,FALSE,"S242012317"
"413","blctit4","Black-crested Titmouse","Baeolophus atricristatus","L2757935","Cooper Springs Nature Park","2025-05-24 10:31",NA,31.0693574,-98.1758773,TRUE,FALSE,FALSE,"S241982343"
"414","blctit4","Black-crested Titmouse","Baeolophus atricristatus","L25474033","Forest Ridge / Scarlet Oak Cv","2025-05-24 10:23",1,30.5133846,-97.6186922,TRUE,FALSE,TRUE,"S241973793"
"415","blctit4","Black-crested Titmouse","Baeolophus atricristatus","L45817484","78613, Cedar Park US-TX 30.48004, -97.86578","2025-05-24 09:44",7,30.480036,-97.865776,TRUE,FALSE,TRUE,"S241959841"
"416","blctit4","Black-crested Titmouse","Baeolophus atricristatus","L17813548","Great Hills, Austin","2025-05-24 09:39",2,30.4097351,-97.7581776,TRUE,FALSE,TRUE,"S241958925"
"417","blctit4","Black-crested Titmouse","Baeolophus atricristatus","L275282","Bull Creek Greenbelt--N. of  Bull Creek District Park & N. of TX360, Austin","2025-05-24 09:35",NA,30.3733932,-97.7844934,TRUE,FALSE,FALSE,"S242010056"
"418","blctit4","Black-crested Titmouse","Baeolophus atricristatus","L41044595","3225 Park Lake Dr, Waco US-TX 31.57325, -97.18725","2025-05-24 09:18",1,31.573254,-97.187255,TRUE,TRUE,TRUE,"S241935190"
"419","blctit4","Black-crested Titmouse","Baeolophus atricristatus","L458114","Barton Creek Greenbelt--SE of MoPac","2025-05-24 09:11",1,30.2621299,-97.7823812,TRUE,FALSE,FALSE,"S242063916"
"420","blctit4","Black-crested Titmouse","Baeolophus atricristatus","L10403911","Los Madrones Ranch Preserve","2025-05-24 09:10",4,30.2993961,-98.0694908,TRUE,FALSE,FALSE,"S242122145"
"421","blctit4","Black-crested Titmouse","Baeolophus atricristatus","L2858118","Davis Mountains SP--Primitive area N. of TX118","2025-05-24 09:09",1,30.60079,-103.92579,TRUE,FALSE,FALSE,"S241987262"
"422","blctit4","Black-crested Titmouse","Baeolophus atricristatus","L452855","Stone Oak Park--North","2025-05-24 09:03",2,29.6468989,-98.4688248,TRUE,FALSE,FALSE,"S241940557"
"423","blctit4","Black-crested Titmouse","Baeolophus atricristatus","L1008164","Love Creek Preserve (limited access by permission-TNC)","2025-05-24 09:00",4,29.7744493,-99.410525,TRUE,FALSE,FALSE,"S242215780"
"424","blctit4","Black-crested Titmouse","Baeolophus atricristatus","L1145420","Christoval Hummer House B&B","2025-05-24 09:00",3,31.1669847,-100.4904413,TRUE,FALSE,FALSE,"S242058391"
"425","blctit4","Black-crested Titmouse","Baeolophus atricristatus","L40871478","McDonald Frio Cabin","2025-05-24 09:00",1,29.8741667,-99.7658333,TRUE,FALSE,TRUE,"S243473069"
"426","blctit4","Black-crested Titmouse","Baeolophus atricristatus","L45981353","104 Poplar Dr, Mountain City US-TX 30.04517, -97.89056","2025-05-24 08:57",1,30.045171,-97.890562,TRUE,FALSE,TRUE,"S242676626"
"427","blctit4","Black-crested Titmouse","Baeolophus atricristatus","L17501329","2 of 12","2025-05-24 08:56",2,29.827033,-98.775371,TRUE,FALSE,TRUE,"S241921371"
"428","blctit4","Black-crested Titmouse","Baeolophus atricristatus","L16525718","Lucas Home 116 Doeskin Dr, Boerne US-TX 29.80787, -98.76411","2025-05-24 08:55",1,29.807869,-98.76411,TRUE,FALSE,TRUE,"S241978330"
"429","blctit4","Black-crested Titmouse","Baeolophus atricristatus","L128912","Big Bend NP--Window Trail","2025-05-24 08:46",3,29.2772372,-103.307005,TRUE,FALSE,FALSE,"S242245891"
"430","blctit4","Black-crested Titmouse","Baeolophus atricristatus","L45831068","Sandy Harbor Neighborhood Park","2025-05-24 08:35",1,30.5590514,-98.4284418,TRUE,FALSE,TRUE,"S242016185"
"431","blctit4","Black-crested Titmouse","Baeolophus atricristatus","L37263351","Sandy Home","2025-05-24 08:33",1,30.4177247,-97.7162127,TRUE,FALSE,TRUE,"S241999798"
"432","blctit4","Black-crested Titmouse","Baeolophus atricristatus","L685193","Camp Mabry--ponds and woods","2025-05-24 08:30",2,30.315,-97.763,TRUE,FALSE,FALSE,"S241971057"
"433","blctit4","Black-crested Titmouse","Baeolophus atricristatus","L39567826","5339 Auburn Ridge, San Antonio US-TX 29.54764, -98.59234","2025-05-24 08:30",5,29.547637,-98.592344,TRUE,FALSE,TRUE,"S241943718"
"434","blctit4","Black-crested Titmouse","Baeolophus atricristatus","L552945","Platt Lane (Travis Co.)","2025-05-24 08:25",2,30.2319665,-97.6352835,TRUE,FALSE,FALSE,"S242075098"
"435","blctit4","Black-crested Titmouse","Baeolophus atricristatus","L25878366","Leon Creek Greenway -- Prue Rd Trailhead","2025-05-24 08:25",3,29.541901,-98.6337,TRUE,FALSE,FALSE,"S241912064"
"436","blctit4","Black-crested Titmouse","Baeolophus atricristatus","L128957","Emma Long Metro Park","2025-05-24 08:24",2,30.3316943,-97.8387451,TRUE,FALSE,FALSE,"S241939992"
"437","blctit4","Black-crested Titmouse","Baeolophus atricristatus","L41280687","1590 Acacia Pkwy, Spring Branch US-TX 29.85128, -98.42694","2025-05-24 08:23",NA,29.851278,-98.426944,TRUE,FALSE,TRUE,"S241918739"
"438","blctit4","Black-crested Titmouse","Baeolophus atricristatus","L8941626","Goodnight Trail Yard","2025-05-24 08:21",4,30.2039747,-98.0801249,TRUE,FALSE,TRUE,"S241906195"
"439","blctit4","Black-crested Titmouse","Baeolophus atricristatus","L30310026","Home","2025-05-24 08:07",1,29.639783,-98.428094,TRUE,FALSE,TRUE,"S241907132"
"440","blctit4","Black-crested Titmouse","Baeolophus atricristatus","L17502674","8 of 12","2025-05-24 08:02",1,29.8857498,-98.8182676,TRUE,FALSE,TRUE,"S241889005"
"441","blctit4","Black-crested Titmouse","Baeolophus atricristatus","L2408301","Hamilton Private Ranch 31.6331 X -98.2458","2025-05-24 08:00",4,31.63311,-98.24583,TRUE,FALSE,TRUE,"S242605098"
"442","blctit4","Black-crested Titmouse","Baeolophus atricristatus","L31129519","118 Quail Run Dr W, Hunt US-TX (30.0946,-99.3300)","2025-05-24 07:54",1,30.094632,-99.330023,TRUE,FALSE,TRUE,"S242397455"
"443","blctit4","Black-crested Titmouse","Baeolophus atricristatus","L1578047","Harris Ranch","2025-05-24 07:50",6,32.7597004,-98.3060634,TRUE,FALSE,TRUE,"S241950295"
"444","blctit4","Black-crested Titmouse","Baeolophus atricristatus","L20748803","2023 Elm Shadow, San Antonio US-TX 29.55423, -98.55075","2025-05-24 07:49",2,29.554225,-98.550754,TRUE,FALSE,TRUE,"S241902887"
"445","blctit4","Black-crested Titmouse","Baeolophus atricristatus","L21356825","RTFC Rd (off Carbon Plant)","2025-05-24 07:44",2,27.855546,-97.559127,TRUE,FALSE,TRUE,"S241886607"
"446","blctit4","Black-crested Titmouse","Baeolophus atricristatus","L1549243","Spring Lake Natural Area (Hays Co.)","2025-05-24 07:41",1,29.903545,-97.929607,TRUE,FALSE,FALSE,"S241912470"
"447","blctit4","Black-crested Titmouse","Baeolophus atricristatus","L45835886","Private Property north of 1431-CR 343 intersection","2025-05-24 07:40",6,30.5675512,-98.1724371,TRUE,FALSE,TRUE,"S242040548"
"448","blctit4","Black-crested Titmouse","Baeolophus atricristatus","L38881457","Mystic shores Rec Area","2025-05-24 07:40",2,29.915282,-98.305168,TRUE,FALSE,TRUE,"S242022235"
"449","blctit4","Black-crested Titmouse","Baeolophus atricristatus","L17501015","5 of 12","2025-05-24 07:37",1,29.887549,-98.814795,TRUE,FALSE,TRUE,"S241874373"
"450","blctit4","Black-crested Titmouse","Baeolophus atricristatus","L33789472","9102 San Diego Rd, Austin US-TX 30.22216, -97.91100","2025-05-24 07:37",2,30.222156,-97.910999,TRUE,FALSE,TRUE,"S241877650"
"451","blctit4","Black-crested Titmouse","Baeolophus atricristatus","L7825380","StarBird, The Hills","2025-05-24 07:34",3,32.980089,-98.3812718,TRUE,FALSE,TRUE,"S241890924"
"452","blctit4","Black-crested Titmouse","Baeolophus atricristatus","L6515666","Hershey Ranch (private)","2025-05-24 07:30",15,30.201001,-98.6408329,TRUE,FALSE,FALSE,"S242601526"
"453","blctit4","Black-crested Titmouse","Baeolophus atricristatus","L15343269","Medina House","2025-05-24 07:30",4,29.79411,-99.266057,TRUE,FALSE,TRUE,"S241910396"
"454","blctit4","Black-crested Titmouse","Baeolophus atricristatus","L45801721","480 Ranger Creek Road, Boerne, Texas, US (29.815, -98.875)Ranger Creek Rd","2025-05-24 07:27",1,29.8151847,-98.8754969,TRUE,FALSE,TRUE,"S241885338"
"455","blctit4","Black-crested Titmouse","Baeolophus atricristatus","L31673968","Blok Yard (2021-present)","2025-05-24 07:25",2,30.2506432,-97.8245606,TRUE,FALSE,TRUE,"S241867548"
"456","blctit4","Black-crested Titmouse","Baeolophus atricristatus","L45143981","Kyle Seale Parkway, San Antonio, Texas, US (29.601, -98.65)","2025-05-24 07:09",4,29.601746,-98.650426,TRUE,FALSE,TRUE,"S241914067"
"457","blctit4","Black-crested Titmouse","Baeolophus atricristatus","L8875035","Chaetura Canyon Sanctuary (restricted access)","2025-05-24 07:04",4,30.3764071,-97.9223597,TRUE,FALSE,FALSE,"S241997355"
"458","blctit4","Black-crested Titmouse","Baeolophus atricristatus","L160490","Brackenridge Park (Avenue A & River Rd.)","2025-05-24 06:57",9,29.4545528,-98.4777029,TRUE,FALSE,FALSE,"S241910418"
"459","blctit4","Black-crested Titmouse","Baeolophus atricristatus","L9355693","Comstock BBS 83081 Stop 8","2025-05-24 06:50",1,29.829897,-101.2321974,TRUE,FALSE,TRUE,"S243020603"
"460","blctit4","Black-crested Titmouse","Baeolophus atricristatus","L16238788","La Paloma","2025-05-24 06:38",2,27.8639052,-98.4210248,TRUE,FALSE,TRUE,"S242351548"
"461","blctit4","Black-crested Titmouse","Baeolophus atricristatus","L45947008","5890 US-377, Rocksprings US-TX 30.00708, -100.29626","2025-05-24 06:36",2,30.007077,-100.296261,TRUE,FALSE,TRUE,"S242536560"
"462","blctit4","Black-crested Titmouse","Baeolophus atricristatus","L34977965","Chuck’s House","2025-05-24 06:31",3,30.42093,-97.777992,TRUE,FALSE,TRUE,"S241859322"
"463","blctit4","Black-crested Titmouse","Baeolophus atricristatus","L275281","San Marcos Springs","2025-05-24 06:27",2,29.8932402,-97.9297458,TRUE,FALSE,FALSE,"S241887345"
"464","blctit4","Black-crested Titmouse","Baeolophus atricristatus","L39056301","Wolf Ranch Town Center, Georgetown US-TX 30.62895, -97.69282","2025-05-24 06:22",1,30.628955,-97.692817,TRUE,FALSE,TRUE,"S241874902"
"465","blctit4","Black-crested Titmouse","Baeolophus atricristatus","L18113427","Welborn Ranch","2025-05-24 06:15",3,34.3328345,-99.6726759,TRUE,FALSE,TRUE,"S241906413"
"466","blctit4","Black-crested Titmouse","Baeolophus atricristatus","L45861726","159–187 Santa Margarita Rd, Roma US-TX 26.47718, -99.08684","2025-05-24 06:10",1,26.477181,-99.086845,TRUE,FALSE,TRUE,"S242139440"
"467","blctit4","Black-crested Titmouse","Baeolophus atricristatus","L45816918","Duval Co.: County Roads between Realitos and Ramirez","2025-05-24 06:03",8,27.413144,-98.522418,TRUE,FALSE,TRUE,"S241957195"
"468","blctit4","Black-crested Titmouse","Baeolophus atricristatus","L45774470","Airbnb","2025-05-23 19:53",3,29.970733,-98.131835,TRUE,FALSE,TRUE,"S241760925"
"469","blctit4","Black-crested Titmouse","Baeolophus atricristatus","L787380","Big Bend NP--Lost Mine Trail","2025-05-23 19:34",1,29.2712542,-103.2811965,TRUE,FALSE,FALSE,"S241748614"
"470","blctit4","Black-crested Titmouse","Baeolophus atricristatus","L39704119","10701–10789 Cassia Dr, Austin US-TX 30.42062, -97.77830","2025-05-23 19:18",9,30.420616,-97.778304,TRUE,FALSE,TRUE,"S241741768"
"471","blctit4","Black-crested Titmouse","Baeolophus atricristatus","L1234575","Big Bend NP--Chisos Mountains Lodge area","2025-05-23 19:05",1,29.2699985,-103.3004522,TRUE,FALSE,FALSE,"S241738095"
"472","blctit4","Black-crested Titmouse","Baeolophus atricristatus","L46149049","78542, Edinburg US-TX (26.5249,-98.0761)","2025-05-23 18:50",2,26.524896,-98.076069,TRUE,FALSE,TRUE,"S243503632"
"473","blctit4","Black-crested Titmouse","Baeolophus atricristatus","L45695048","5607–6259 River Rd, New Braunfels US-TX 29.77291, -98.15867","2025-05-23 18:34",3,29.772908,-98.158667,TRUE,FALSE,TRUE,"S241716658"
"474","blctit4","Black-crested Titmouse","Baeolophus atricristatus","L2284419","Congress Ave. (Ann W. Richards) Bridge (HOTE 041), Austin","2025-05-23 18:31",1,30.2616712,-97.7452004,TRUE,FALSE,FALSE,"S241715704"
"475","blctit4","Black-crested Titmouse","Baeolophus atricristatus","L2108079","Edwards Co.--CR353 / Pulliam Creek","2025-05-23 17:24",4,29.7202593,-100.0765228,TRUE,FALSE,FALSE,"S241715846"
"476","blctit4","Black-crested Titmouse","Baeolophus atricristatus","L1497618","Olmos Basin Park (HOTE 097)","2025-05-23 16:30",1,29.4813503,-98.4801516,TRUE,FALSE,FALSE,"S241698894"
"477","blctit4","Black-crested Titmouse","Baeolophus atricristatus","L568776","Lake Cisco","2025-05-23 14:51",2,32.440394,-98.998661,TRUE,FALSE,FALSE,"S243218553"
"478","blctit4","Black-crested Titmouse","Baeolophus atricristatus","L18175768","Bar K Park Lago Vista (limited access)","2025-05-23 14:05",10,30.4665526,-97.9966934,TRUE,FALSE,FALSE,"S241675308"
"479","blctit4","Black-crested Titmouse","Baeolophus atricristatus","L44226256","3901 Dry Ledge Cove, Austin, TX Downstairs 30.35115, -97.76878","2025-05-23 13:50",4,30.351154,-97.768782,TRUE,FALSE,TRUE,"S241641635"
"480","blctit4","Black-crested Titmouse","Baeolophus atricristatus","L455849","San Gabriel Park, Georgetown","2025-05-23 13:40",3,30.6523115,-97.6698303,TRUE,FALSE,FALSE,"S241674765"
"481","blctit4","Black-crested Titmouse","Baeolophus atricristatus","L261812","Dickens Springs Park","2025-05-23 13:36",3,33.6246063,-100.825873,TRUE,FALSE,FALSE,"S241755483"
"482","blctit4","Black-crested Titmouse","Baeolophus atricristatus","L23923020","The Crossing at Kenberg Park","2025-05-23 13:23",2,29.907701,-98.558867,TRUE,FALSE,TRUE,"S243490805"
"483","blctit4","Black-crested Titmouse","Baeolophus atricristatus","L27831888","The crossing community senter","2025-05-23 13:16",4,29.90498,-98.556311,TRUE,FALSE,TRUE,"S242043632"
"484","blctit4","Black-crested Titmouse","Baeolophus atricristatus","L10494678","Double Diamond Yard","2025-05-23 13:15",2,30.282526,-103.598501,TRUE,FALSE,TRUE,"S241625803"
"485","blctit4","Black-crested Titmouse","Baeolophus atricristatus","L36405587","427 Summit Ridge Rd, Burnet US-TX 30.75857, -98.20086","2025-05-23 13:01",5,30.758574,-98.200859,TRUE,FALSE,TRUE,"S241647111"
"486","blctit4","Black-crested Titmouse","Baeolophus atricristatus","L31061094","PK Lake house","2025-05-23 12:24",1,32.875089,-98.460261,TRUE,FALSE,TRUE,"S243136981"
"487","blctit4","Black-crested Titmouse","Baeolophus atricristatus","L38364158","Ware Road Walking Trail","2025-05-23 11:53",2,30.22698,-97.731533,TRUE,FALSE,TRUE,"S241592376"
"488","blctit4","Black-crested Titmouse","Baeolophus atricristatus","L45739034","462–498 CR-320, Alice US-TX 27.87116, -97.96090","2025-05-23 11:43",1,27.871156,-97.960895,TRUE,FALSE,TRUE,"S241601060"
"489","blctit4","Black-crested Titmouse","Baeolophus atricristatus","L15549005","Leon Creek Greenway--Fox Park Trailhead","2025-05-23 11:25",6,29.5717028,-98.6183023,TRUE,FALSE,FALSE,"S241625222"
"490","blctit4","Black-crested Titmouse","Baeolophus atricristatus","L13990059","Travis Co - Landsman Dr","2025-05-23 11:05",1,30.2346766,-97.8958708,TRUE,FALSE,TRUE,"S242260840"
"491","blctit4","Black-crested Titmouse","Baeolophus atricristatus","L36292142","Lake House Mlcak","2025-05-23 11:05",2,29.8698852,-98.276719,TRUE,FALSE,TRUE,"S241605261"
"492","blctit4","Black-crested Titmouse","Baeolophus atricristatus","L17513797","7547 Pimlico Ln, Fair Oaks Ranch US-TX 29.71998, -98.63164, LEGO, Grid 20883, Site 10/12","2025-05-23 10:39",3,29.719982,-98.631642,TRUE,FALSE,TRUE,"S241565208"
"493","blctit4","Black-crested Titmouse","Baeolophus atricristatus","L27797416","Concan Lodge 1167 CR-348, Concan US-TX 29.50694, -99.70518","2025-05-23 10:28",2,29.506938,-99.70518,TRUE,FALSE,TRUE,"S241684799"
"494","blctit4","Black-crested Titmouse","Baeolophus atricristatus","L17513365","7510 Secretariat Ln, Fair Oaks Ranch US-TX 29.72552, -98.63218 , LEGO, Grid 20883, Site12/12","2025-05-23 10:11",1,29.725516,-98.632176,TRUE,FALSE,TRUE,"S241554372"
"495","blctit4","Black-crested Titmouse","Baeolophus atricristatus","L7094920","West Fort Cavazos (Bell Co.) (restricted access)","2025-05-23 10:02",2,31.0371842,-97.8175237,TRUE,FALSE,FALSE,"S241647920"
"496","blctit4","Black-crested Titmouse","Baeolophus atricristatus","L2064936","Austin Memorial Park Cemetery","2025-05-23 10:01",7,30.3294719,-97.7505112,TRUE,FALSE,FALSE,"S241574449"
"497","blctit4","Black-crested Titmouse","Baeolophus atricristatus","L17513121","78015, Fair Oaks Ranch US-TX 29.72926, -98.63167 , LEGO, Grid 20883, Site 11/12","2025-05-23 10:00",2,29.729264,-98.631668,TRUE,FALSE,TRUE,"S241549797"
"498","blctit4","Black-crested Titmouse","Baeolophus atricristatus","L295759","Medina River Natural Area (HOTE 104)","2025-05-23 09:58",2,29.2640406,-98.5784351,TRUE,FALSE,FALSE,"S241549168"
"499","blctit4","Black-crested Titmouse","Baeolophus atricristatus","L569639","Lady Bird Johnson Municipal Pk (Fredericksburg)(HOTW 079)","2025-05-23 09:45",1,30.2392151,-98.9102983,TRUE,FALSE,FALSE,"S241580987"
"500","blctit4","Black-crested Titmouse","Baeolophus atricristatus","L260936","Palo Duro Canyon  SP (PHP 040)","2025-05-23 09:44",1,34.9651086,-101.671257,TRUE,FALSE,FALSE,"S241674552"
"501","blctit4","Black-crested Titmouse","Baeolophus atricristatus","L15395395","The ""Primrose Perch"" (Private Residence)","2025-05-23 09:40",3,30.578855,-98.2631406,TRUE,FALSE,TRUE,"S241779289"
"502","blctit4","Black-crested Titmouse","Baeolophus atricristatus","L17512462","7087 Dietz-Elkhorn Rd, Boerne US-TX 29.73117, -98.62127, LEGO, Grid 20883, Site 8/12","2025-05-23 09:35",1,29.731169,-98.621266,TRUE,FALSE,TRUE,"S241540454"
"503","blctit4","Black-crested Titmouse","Baeolophus atricristatus","L38134322","8629 Rochelle Rd, San Antonio US-TX 29.52307, -98.62483","2025-05-23 09:35",3,29.523066,-98.624833,TRUE,FALSE,TRUE,"S241550604"
"504","blctit4","Black-crested Titmouse","Baeolophus atricristatus","L3487789","Bull Creek Greenbelt--Upper, Austin","2025-05-23 09:28",5,30.3776884,-97.7745867,TRUE,FALSE,FALSE,"S241559707"
"505","blctit4","Black-crested Titmouse","Baeolophus atricristatus","L17512314","7015–7093 Dietz-Elkhorn Rd, Boerne US-TX 29.73104, -98.61624, LEGO, Grid 20883, Site 6/12","2025-05-23 09:28",1,29.731041,-98.616237,TRUE,FALSE,TRUE,"S241537221"
"506","blctit4","Black-crested Titmouse","Baeolophus atricristatus","L45622607","Copperstone Neighborhood","2025-05-23 09:12",NA,30.1446078,-97.8272904,TRUE,FALSE,TRUE,"S241538459"
"507","blctit4","Black-crested Titmouse","Baeolophus atricristatus","L1118873","Great Hills Neighborhood","2025-05-23 08:48",1,30.4115498,-97.7564979,TRUE,FALSE,TRUE,"S241574753"
"508","blctit4","Black-crested Titmouse","Baeolophus atricristatus","L36031584","126 Cascada Point, Spring Branch, Texas, US (29.921, -98.345)","2025-05-23 08:44",4,29.9209922,-98.3451072,TRUE,FALSE,TRUE,"S241710728"
"509","blctit4","Black-crested Titmouse","Baeolophus atricristatus","L30739193","Laguna Atascosa NWR - Dulaney Tract","2025-05-23 08:42",1,26.179014,-97.3759517,TRUE,FALSE,TRUE,"S241574408"
"510","blctit4","Black-crested Titmouse","Baeolophus atricristatus","L17510647","23140 IH-10 W, San Antonio US-TX, 29.65700, -98.62470.  LEGO,  Grid 20883, Site 3/12","2025-05-23 08:20",1,29.657001,-98.6247,TRUE,FALSE,TRUE,"S241510800"
"511","blctit4","Black-crested Titmouse","Baeolophus atricristatus","L45724615","1700–1898 Creek Rd, Dripping Springs US-TX (30.1905,-98.1231)","2025-05-23 08:19",1,30.190513,-98.123053,TRUE,FALSE,TRUE,"S241534834"
"512","blctit4","Black-crested Titmouse","Baeolophus atricristatus","L4942580","Stoney Creek Park","2025-05-23 08:06",2,30.419937,-97.643569,TRUE,FALSE,FALSE,"S241593585"
"513","blctit4","Black-crested Titmouse","Baeolophus atricristatus","L45729935","Private Property near Camp Creek Park","2025-05-23 08:05",7,30.565834,-98.172462,TRUE,FALSE,TRUE,"S241560528"
"514","blctit4","Black-crested Titmouse","Baeolophus atricristatus","L9178150","5921 Mustang Valley Trail, Wimberley, Texas, US (30.022, -98.179)","2025-05-23 08:04",8,30.0216098,-98.1789323,TRUE,FALSE,TRUE,"S241530321"
"515","blctit4","Black-crested Titmouse","Baeolophus atricristatus","L1673682","CC: San Benito- Resaca Shores yard","2025-05-23 08:00",1,26.1519982,-97.6257509,TRUE,FALSE,TRUE,"S241513568"
"516","blctit4","Black-crested Titmouse","Baeolophus atricristatus","L45769873","Mills County - CR 423","2025-05-23 07:53",8,31.303167,-98.475625,TRUE,FALSE,TRUE,"S241740242"
"517","blctit4","Black-crested Titmouse","Baeolophus atricristatus","L36912911","Volk Trailhead","2025-05-23 07:35",11,29.559116,-98.524316,TRUE,FALSE,TRUE,"S241542841"
"518","blctit4","Black-crested Titmouse","Baeolophus atricristatus","L11374335","Fort Cavazos--South Lake Shore off Nolan Creek rd. (Restricted Access)","2025-05-23 07:30",2,31.1539967,-97.5784969,TRUE,FALSE,FALSE,"S241574058"
"519","blctit4","Black-crested Titmouse","Baeolophus atricristatus","L4185806","Archie's Ranch","2025-05-23 07:30",9,29.751226,-98.5419774,TRUE,FALSE,TRUE,"S241580522"
"520","blctit4","Black-crested Titmouse","Baeolophus atricristatus","L1137016","Barnhart Q5 Ranch & Nature Retreat","2025-05-23 07:16",3,28.6152678,-97.6663971,TRUE,FALSE,FALSE,"S241605469"
"521","blctit4","Black-crested Titmouse","Baeolophus atricristatus","L507911","King Ranch--Norias Division (Kenedy Co.)","2025-05-23 07:15",6,26.7876524,-97.7707243,TRUE,FALSE,FALSE,"S241569238"
"522","blctit4","Black-crested Titmouse","Baeolophus atricristatus","L5112380","Marble Falls--Park View Park","2025-05-23 07:02",1,30.5914987,-98.2571375,TRUE,FALSE,FALSE,"S241497344"
"523","blctit4","Black-crested Titmouse","Baeolophus atricristatus","L3999804","104 Greenwood Forest Subdivision","2025-05-23 06:48",2,30.0756527,-99.2221072,TRUE,FALSE,TRUE,"S241554024"
"524","blctit4","Black-crested Titmouse","Baeolophus atricristatus","L24562573","Big Bend NP--Pinnacles Trail--Boulder Meadow Campground","2025-05-23 06:32",6,29.2599,-103.294755,TRUE,FALSE,FALSE,"S241673175"
"525","blctit4","Black-crested Titmouse","Baeolophus atricristatus","L43414907","Tom’s place","2025-05-23 06:26",2,31.774639,-98.245593,TRUE,FALSE,TRUE,"S241504278"
