"","speciesCode","comName","sciName","locId","locName","obsDt","howMany","lat","lng","obsValid","obsReviewed","locationPrivate","subId"
"1","virwar","Virginia's Warbler","Leiothlypis virginiae","L43939245","379–757 County Road 119, Glenwood Springs US-CO 39.50723, -107.25895","2025-05-13 17:06",1,39.507232,-107.258953,TRUE,FALSE,TRUE,"S237544511"
"2","virwar","Virginia's Warbler","Leiothlypis virginiae","L843781","Cibola NF--Sulphur Canyon Picnic Area","2025-05-13 16:13",1,35.172335,-106.3765812,TRUE,FALSE,FALSE,"S237537235"
"3","virwar","Virginia's Warbler","Leiothlypis virginiae","L1211296","Upper Water Canyon","2025-05-13 15:58",3,35.8377417,-106.360103,TRUE,FALSE,FALSE,"S237552496"
"4","virwar","Virginia's Warbler","Leiothlypis virginiae","L936054","Mt. Graham--Twilight Campground","2025-05-13 15:07",2,32.6405313,-109.8262024,TRUE,FALSE,FALSE,"S237533905"
"5","virwar","Virginia's Warbler","Leiothlypis virginiae","L44923157","Foot of the Mountain Motel","2025-05-13 14:04",1,40.012741,-105.295955,TRUE,FALSE,TRUE,"S237478927"
"6","virwar","Virginia's Warbler","Leiothlypis virginiae","L2264623","Grand Canyon NP--Grandview Point","2025-05-13 14:04",1,35.9975909,-111.9878483,TRUE,FALSE,FALSE,"S237494882"
"7","virwar","Virginia's Warbler","Leiothlypis virginiae","L876716","Bosque del Apache NWR--South Loop (formerly Marsh Loop)","2025-05-13 13:14",1,33.7831424,-106.8928528,TRUE,FALSE,FALSE,"S237523481"
"8","virwar","Virginia's Warbler","Leiothlypis virginiae","L26422301","12519–12999 County Road 44, Mancos US-CO 37.39648, -108.22662","2025-05-13 13:12",1,37.396483,-108.226623,TRUE,FALSE,TRUE,"S237460192"
"9","virwar","Virginia's Warbler","Leiothlypis virginiae","L1593261","Cibola NF--Las Huertas Picnic Area","2025-05-13 11:56",1,35.2351102,-106.4121112,TRUE,FALSE,FALSE,"S237495530"
"10","virwar","Virginia's Warbler","Leiothlypis virginiae","L5001484","Hunter Canyon Rd (Huachuca Mts)","2025-05-13 11:45",1,31.4039316,-110.2506814,TRUE,FALSE,FALSE,"S237465129"
"11","virwar","Virginia's Warbler","Leiothlypis virginiae","L342160","Beus Pond & Beus Forest Green Park","2025-05-13 11:36",1,41.18395,-111.9386694,TRUE,FALSE,FALSE,"S237421811"
"12","virwar","Virginia's Warbler","Leiothlypis virginiae","L2365652","Mesa Verde NP--Knife Edge Trail","2025-05-13 11:33",5,37.3063789,-108.4321361,TRUE,FALSE,FALSE,"S237463854"
"13","virwar","Virginia's Warbler","Leiothlypis virginiae","L285734","Chico Basin Ranch--Rose Pond area (Pueblo Co) (mandatory registration required at www.aikenaudubon.com)","2025-05-13 11:33",1,38.4969,-104.43792,TRUE,FALSE,FALSE,"S237451374"
"14","virwar","Virginia's Warbler","Leiothlypis virginiae","L845398","Rio Grande Valley SP--Tingley Beach Bosque Trails","2025-05-13 11:15",1,35.0807861,-106.6717958,TRUE,FALSE,FALSE,"S237441509"
"15","virwar","Virginia's Warbler","Leiothlypis virginiae","L29608943","Tunnel 1 Trail, Golden US-CO 39.74511, -105.25065","2025-05-13 11:00",1,39.745107,-105.250652,TRUE,FALSE,TRUE,"S237464125"
"16","virwar","Virginia's Warbler","Leiothlypis virginiae","L29635386","Tunnel 1 Trail, Golden US-CO 39.74498, -105.25047","2025-05-13 10:59",1,39.744976,-105.250474,TRUE,FALSE,TRUE,"S237464210"
"17","virwar","Virginia's Warbler","Leiothlypis virginiae","L7389108","Well Gulch Nature Trail","2025-05-13 10:50",15,40.5778286,-105.182274,TRUE,FALSE,FALSE,"S237472480"
"18","virwar","Virginia's Warbler","Leiothlypis virginiae","L25770698","13200 Resadince","2025-05-13 10:49",1,35.1053805,-106.492393,TRUE,FALSE,TRUE,"S237423412"
"19","virwar","Virginia's Warbler","Leiothlypis virginiae","L1906330","Boulder Mountain Park--Shanahan Mesa","2025-05-13 10:40",6,39.9652817,-105.2741751,TRUE,FALSE,FALSE,"S237510322"
"20","virwar","Virginia's Warbler","Leiothlypis virginiae","L44917475","Point Lookout Trail, Mancos US-CO 37.30838, -108.42101","2025-05-13 10:35",4,37.308385,-108.42101,TRUE,FALSE,TRUE,"S237448934"
"21","virwar","Virginia's Warbler","Leiothlypis virginiae","L337028","Spring Mountain Ranch SP","2025-05-13 10:25",1,36.0690146,-115.4588759,TRUE,FALSE,FALSE,"S237493914"
"22","virwar","Virginia's Warbler","Leiothlypis virginiae","L44911482","Deadman Gulch","2025-05-13 10:25",1,40.202903,-105.324204,TRUE,FALSE,TRUE,"S237416769"
"23","virwar","Virginia's Warbler","Leiothlypis virginiae","L3938500","Fay Canyon Trail","2025-05-13 10:23",1,34.9019886,-111.8581648,TRUE,FALSE,FALSE,"S237460616"
"24","virwar","Virginia's Warbler","Leiothlypis virginiae","L284586","Wendy Park, Whiskey Island","2025-05-13 10:00",1,41.4991725,-81.7146913,TRUE,TRUE,FALSE,"S237398093"
"25","virwar","Virginia's Warbler","Leiothlypis virginiae","L4616012","Bear Creek Canyon Park","2025-05-13 09:59",1,38.8208972,-104.8912114,TRUE,FALSE,FALSE,"S237392248"
"26","virwar","Virginia's Warbler","Leiothlypis virginiae","L211809","Madera Canyon--Proctor Rd.","2025-05-13 09:50",1,31.739938,-110.886147,TRUE,FALSE,FALSE,"S237452872"
"27","virwar","Virginia's Warbler","Leiothlypis virginiae","L24291938","Garfield Creek Road","2025-05-13 09:50",2,39.542541,-107.555363,TRUE,FALSE,TRUE,"S237502086"
"28","virwar","Virginia's Warbler","Leiothlypis virginiae","L168656","Desert NWR--Corn Creek (Field Station)","2025-05-13 09:44",2,36.438797,-115.359566,TRUE,FALSE,FALSE,"S237522573"
"29","virwar","Virginia's Warbler","Leiothlypis virginiae","L1538639","Animas City Mountain Park","2025-05-13 09:17",2,37.3207309,-107.8692139,TRUE,FALSE,FALSE,"S237391210"
"30","virwar","Virginia's Warbler","Leiothlypis virginiae","L44915229","Zook Loop","2025-05-13 08:39",2,38.7308597,-104.821679,TRUE,FALSE,TRUE,"S237436290"
"31","virwar","Virginia's Warbler","Leiothlypis virginiae","L456897","Torrance Ranch","2025-05-13 08:31",1,37.0029254,-116.7242163,TRUE,FALSE,FALSE,"S237385085"
"32","virwar","Virginia's Warbler","Leiothlypis virginiae","L212742","White Ranch Park--Lower Trails","2025-05-13 08:27",11,39.8021042,-105.2534191,TRUE,FALSE,FALSE,"S237423742"
"33","virwar","Virginia's Warbler","Leiothlypis virginiae","L27463568","Bonneville Shoreline Trail, Provo US-UT 40.31785, -111.62691","2025-05-13 08:22",7,40.31785,-111.626906,TRUE,FALSE,TRUE,"S237392735"
"34","virwar","Virginia's Warbler","Leiothlypis virginiae","L4549760","San Juan NF--Falls Creek area","2025-05-13 08:20",1,37.3623309,-107.8633136,TRUE,FALSE,FALSE,"S237388437"
"35","virwar","Virginia's Warbler","Leiothlypis virginiae","L353655","City Creek Canyon--Above Bonneville Blvd","2025-05-13 08:19",1,40.8046493,-111.8645096,TRUE,FALSE,FALSE,"S237406348"
"36","virwar","Virginia's Warbler","Leiothlypis virginiae","L2673862","San Vicente Cienega Trail","2025-05-13 08:17",2,32.7629823,-108.2704689,TRUE,FALSE,FALSE,"S237482949"
"37","virwar","Virginia's Warbler","Leiothlypis virginiae","L4530030","Mingus Mountain--Butterfly Spring","2025-05-13 08:10",4,34.7064731,-112.1391678,TRUE,FALSE,FALSE,"S237500386"
"38","virwar","Virginia's Warbler","Leiothlypis virginiae","L227296","Red Rocks Park","2025-05-13 08:00",2,39.6684432,-105.2041578,TRUE,FALSE,FALSE,"S237411368"
"39","virwar","Virginia's Warbler","Leiothlypis virginiae","L15347582","Princess Di Trail","2025-05-13 07:58",2,40.776278,-111.4636757,TRUE,FALSE,TRUE,"S237398638"
"40","virwar","Virginia's Warbler","Leiothlypis virginiae","L166979","Boyce Thompson Arboretum","2025-05-13 07:52",2,33.2795082,-111.158756,TRUE,FALSE,FALSE,"S237426474"
"41","virwar","Virginia's Warbler","Leiothlypis virginiae","L211246","Lair O' the Bear Park","2025-05-13 07:51",12,39.6674351,-105.2577988,TRUE,FALSE,FALSE,"S237434807"
"42","virwar","Virginia's Warbler","Leiothlypis virginiae","L3354672","Confluence of Pueblo and Acid Canyons","2025-05-13 07:32",2,35.8889067,-106.3039041,TRUE,FALSE,FALSE,"S237394287"
"43","virwar","Virginia's Warbler","Leiothlypis virginiae","L285733","Chico Basin Ranch--headquarters area (Pueblo Co) (mandatory registration required at www.aikenaudubon.com)","2025-05-13 07:28",1,38.5070217,-104.4403696,TRUE,FALSE,FALSE,"S237358548"
"44","virwar","Virginia's Warbler","Leiothlypis virginiae","L129031","Miller Canyon Trail","2025-05-13 07:27",2,31.40806,-110.28619,TRUE,FALSE,FALSE,"S237440657"
"45","virwar","Virginia's Warbler","Leiothlypis virginiae","L5899417","Y Mountain Trail","2025-05-13 07:21",4,40.2455165,-111.6230571,TRUE,FALSE,FALSE,"S237425664"
"46","virwar","Virginia's Warbler","Leiothlypis virginiae","L2909733","Rio Grande del Norte NM--Slide Trail","2025-05-13 07:16",1,36.3409795,-105.7230993,TRUE,FALSE,FALSE,"S237382245"
"47","virwar","Virginia's Warbler","Leiothlypis virginiae","L1117941","Rio Fernando Wetlands (Fred Baca Park and adjacent Rio Fernando Park)","2025-05-13 07:15",1,36.3991437,-105.5896854,TRUE,FALSE,FALSE,"S237366004"
"48","virwar","Virginia's Warbler","Leiothlypis virginiae","L340405","Box Canyon","2025-05-13 07:15",1,31.7974086,-110.7868486,TRUE,FALSE,FALSE,"S237433386"
"49","virwar","Virginia's Warbler","Leiothlypis virginiae","L7190898","Graduation CanyonSanta Fe National Forest, Los Alamos US-NM (35.8854,-106.2933)","2025-05-13 07:06",1,35.885397,-106.293299,TRUE,FALSE,TRUE,"S237392543"
"50","virwar","Virginia's Warbler","Leiothlypis virginiae","L998078","Skunk Canyon Trails","2025-05-13 06:56",1,39.985871,-105.2770865,TRUE,FALSE,FALSE,"S237418389"
"51","virwar","Virginia's Warbler","Leiothlypis virginiae","L199300","Ash Canyon Bird Sanctuary (closed Thursday morning)","2025-05-13 06:55",1,31.3904516,-110.2392496,TRUE,FALSE,FALSE,"S237352944"
"52","virwar","Virginia's Warbler","Leiothlypis virginiae","L7256990","Black Canyon of the Gunnion NP--East Portal Campground and trail","2025-05-13 06:52",2,38.5287035,-107.6490828,TRUE,FALSE,FALSE,"S237503192"
"53","virwar","Virginia's Warbler","Leiothlypis virginiae","L10502324","Logan Canyon--Forest Trail 013","2025-05-13 06:46",1,41.772721,-111.604433,TRUE,FALSE,FALSE,"S237484857"
"54","virwar","Virginia's Warbler","Leiothlypis virginiae","L44917563","Prater Ridge Trail, Mancos US-CO 37.29693, -108.41973","2025-05-13 06:24",1,37.296929,-108.419729,TRUE,FALSE,TRUE,"S237449599"
"55","virwar","Virginia's Warbler","Leiothlypis virginiae","L43798082","Stevens-PC01","2025-05-13 06:19",1,31.588916,-110.7562617,TRUE,FALSE,TRUE,"S237309731"
"56","virwar","Virginia's Warbler","Leiothlypis virginiae","L628928","Rio Grande Valley SP--Alameda Bridge Bosque Trails (including Alameda Open Space)","2025-05-13 06:03",1,35.1951059,-106.6399901,TRUE,FALSE,FALSE,"S237300310"
"57","virwar","Virginia's Warbler","Leiothlypis virginiae","L1847188","La Llorana Trail Extension","2025-05-13 06:00",1,32.2653601,-106.8259735,TRUE,FALSE,FALSE,"S237336361"
"58","virwar","Virginia's Warbler","Leiothlypis virginiae","L44871370","Rifle Gap, Rifle US-CO 39.66270, -107.81382","2025-05-12 19:01",1,39.662699,-107.813822,TRUE,FALSE,TRUE,"S237175978"
"59","virwar","Virginia's Warbler","Leiothlypis virginiae","L44923693","15 Bright Angel Trail, Grand Canyon Village, Arizona, US (36.06, -112.139)","2025-05-12 18:42",1,36.0604137,-112.1393018,TRUE,FALSE,TRUE,"S237482027"
"60","virwar","Virginia's Warbler","Leiothlypis virginiae","L7749123","Four Bar Cottages (private)","2025-05-12 17:35",1,31.876886,-109.0619973,TRUE,FALSE,FALSE,"S237151905"
"61","virwar","Virginia's Warbler","Leiothlypis virginiae","L4553355","Kolob Terrace--S Curve","2025-05-12 15:21",2,37.3503218,-113.0827904,TRUE,FALSE,FALSE,"S237144982"
"62","virwar","Virginia's Warbler","Leiothlypis virginiae","L10810457","Zion NP--South Fork of Taylor Canyon","2025-05-12 14:26",1,37.4535713,-113.1802165,TRUE,FALSE,FALSE,"S237139348"
"63","virwar","Virginia's Warbler","Leiothlypis virginiae","L44846106","Rock Creek Canyon Road","2025-05-12 13:09",2,38.702408,-104.82886,TRUE,FALSE,TRUE,"S237022750"
"64","virwar","Virginia's Warbler","Leiothlypis virginiae","L129062","Ramsey Canyon Preserve (formerly Mile Hi Ranch)","2025-05-12 12:22",1,31.4473746,-110.307608,TRUE,FALSE,FALSE,"S237101781"
"65","virwar","Virginia's Warbler","Leiothlypis virginiae","L38181100","7263 Silverhorn Dr, Evergreen US-CO 39.58627, -105.28777","2025-05-12 12:10",1,39.586275,-105.287767,TRUE,FALSE,TRUE,"S237176712"
"66","virwar","Virginia's Warbler","Leiothlypis virginiae","L44849172","Lookout Mountain Trail, Golden US-CO 39.73608, -105.24640","2025-05-12 11:46",1,39.736077,-105.246405,TRUE,FALSE,TRUE,"S237039876"
"67","virwar","Virginia's Warbler","Leiothlypis virginiae","L267654","Mt. Lemmon--Marshall Gulch","2025-05-12 11:43",1,32.4280212,-110.7556783,TRUE,FALSE,FALSE,"S237035797"
"68","virwar","Virginia's Warbler","Leiothlypis virginiae","L753059","Mt. Lemmon--Incinerator Ridge","2025-05-12 11:27",1,32.4111248,-110.7064819,TRUE,FALSE,FALSE,"S237147441"
"69","virwar","Virginia's Warbler","Leiothlypis virginiae","L30570916","BLM, Piñon, NM (32.503, -105.515)","2025-05-12 10:53",1,32.5028206,-105.5152412,TRUE,FALSE,TRUE,"S237147205"
"70","virwar","Virginia's Warbler","Leiothlypis virginiae","L5923783","Oak Creek Canyon--Encinoso Picnic Area","2025-05-12 10:44",1,34.9250323,-111.7358279,TRUE,FALSE,FALSE,"S237029492"
"71","virwar","Virginia's Warbler","Leiothlypis virginiae","L1055872","West Clear Creek--Bull Pen Rd","2025-05-12 10:33",2,34.5389622,-111.7089951,TRUE,FALSE,FALSE,"S236989491"
"72","virwar","Virginia's Warbler","Leiothlypis virginiae","L109288","Aiken Canyon Preserve","2025-05-12 10:19",10,38.6212294,-104.8886847,TRUE,FALSE,FALSE,"S237012826"
"73","virwar","Virginia's Warbler","Leiothlypis virginiae","L140673","Zion NP","2025-05-12 10:16",1,37.2285636,-112.9654984,TRUE,FALSE,FALSE,"S236993505"
"74","virwar","Virginia's Warbler","Leiothlypis virginiae","L11047160","Home list","2025-05-12 10:10",1,31.417106,-110.245284,TRUE,FALSE,TRUE,"S237021907"
"75","virwar","Virginia's Warbler","Leiothlypis virginiae","L44836429","Canyon Rim Trail, Canon City US-CO 38.46379, -105.29280","2025-05-12 09:52",1,38.463789,-105.292802,TRUE,FALSE,TRUE,"S236970728"
"76","virwar","Virginia's Warbler","Leiothlypis virginiae","L25370954","Westview Loop Trail","2025-05-12 09:47",3,37.357376,-107.911181,TRUE,FALSE,TRUE,"S236975273"
"77","virwar","Virginia's Warbler","Leiothlypis virginiae","L1342739","Zion NP--Angel's Landing Trail","2025-05-12 09:45",2,37.2646665,-112.9505291,TRUE,FALSE,FALSE,"S237042702"
"78","virwar","Virginia's Warbler","Leiothlypis virginiae","L42582726","PIJA Survey Plot 133","2025-05-12 09:29",1,35.708937,-106.591657,TRUE,FALSE,TRUE,"S237015023"
"79","virwar","Virginia's Warbler","Leiothlypis virginiae","L3761315","Fisher Mesa Trailhead","2025-05-12 09:24",2,38.617602,-109.229737,TRUE,FALSE,TRUE,"S237012813"
"80","virwar","Virginia's Warbler","Leiothlypis virginiae","L128888","Mt. Lemmon--Bear Canyon (Cypress, Middle Bear, Chihuahua Pine Picnic Areas)","2025-05-12 09:19",1,32.3731003,-110.6912994,TRUE,FALSE,FALSE,"S237147478"
"81","virwar","Virginia's Warbler","Leiothlypis virginiae","L129068","Mt. Lemmon--Rose Canyon and Lake","2025-05-12 09:05",1,32.3926274,-110.7024693,TRUE,FALSE,FALSE,"S237106281"
"82","virwar","Virginia's Warbler","Leiothlypis virginiae","L338058","Cibola NF--Capulin Spring (Bernalillo and Sandoval Co.)","2025-05-12 09:02",3,35.2167001,-106.4153279,TRUE,FALSE,FALSE,"S236944274"
"83","virwar","Virginia's Warbler","Leiothlypis virginiae","L9586177","Mesa trail","2025-05-12 09:00",3,39.9736852,-105.2836454,TRUE,FALSE,FALSE,"S237028664"
"84","virwar","Virginia's Warbler","Leiothlypis virginiae","L2959574","Blodgett Peak Open Space","2025-05-12 08:59",4,38.9487044,-104.8916245,TRUE,FALSE,FALSE,"S236961969"
"85","virwar","Virginia's Warbler","Leiothlypis virginiae","L798569","Rock Canyon","2025-05-12 08:55",3,40.2638741,-111.6266727,TRUE,FALSE,FALSE,"S236930312"
"86","virwar","Virginia's Warbler","Leiothlypis virginiae","L32372465","Ten Sleep Rock Ranch","2025-05-12 08:42",1,44.069561,-107.347075,TRUE,FALSE,TRUE,"S237404860"
"87","virwar","Virginia's Warbler","Leiothlypis virginiae","L44844383","Gateway Rd, Moab US-pond above fisher overlookUT 38.61407, -109.22358","2025-05-12 08:42",3,38.614075,-109.223578,TRUE,FALSE,TRUE,"S237013344"
"88","virwar","Virginia's Warbler","Leiothlypis virginiae","L753061","Mt. Lemmon--Summerhaven","2025-05-12 08:39",3,32.4427119,-110.7598686,TRUE,FALSE,FALSE,"S237020813"
"89","virwar","Virginia's Warbler","Leiothlypis virginiae","L11602525","Pojoaque Creek at Nambé","2025-05-12 08:33",1,35.8912173,-105.9880632,TRUE,FALSE,FALSE,"S236963429"
"90","virwar","Virginia's Warbler","Leiothlypis virginiae","L1154186","Slate Creek Divide (Gila Co.)","2025-05-12 08:26",1,34.004185,-111.458708,TRUE,FALSE,FALSE,"S236936351"
"91","virwar","Virginia's Warbler","Leiothlypis virginiae","L1412850","Gila NF--Confluence of Mogollon Creek and Gila River","2025-05-12 08:00",1,33.0417513,-108.5304444,TRUE,FALSE,FALSE,"S237315878"
"92","virwar","Virginia's Warbler","Leiothlypis virginiae","L4048402","Gonzales Canyon","2025-05-12 07:45",1,35.900152,-106.2789718,TRUE,FALSE,FALSE,"S236873457"
"93","virwar","Virginia's Warbler","Leiothlypis virginiae","L44823532","5505 N Barbara Ln, Rimrock US-AZ 34.64975, -111.76672","2025-05-12 07:43",1,34.649748,-111.766722,TRUE,FALSE,TRUE,"S236901607"
"94","virwar","Virginia's Warbler","Leiothlypis virginiae","L3154811","Slate Creek Divide (Maricopa Co.)","2025-05-12 07:39",1,34.000011,-111.470356,TRUE,FALSE,FALSE,"S236936717"
"95","virwar","Virginia's Warbler","Leiothlypis virginiae","L4652668","McInnis Canyon NCA--Devil's Canyon Trails","2025-05-12 07:38",1,39.1396593,-108.7588763,TRUE,FALSE,FALSE,"S236974023"
"96","virwar","Virginia's Warbler","Leiothlypis virginiae","L44826646","Slate Canyon Trail, Provo US-UT 40.22780, -111.60473","2025-05-12 07:26",1,40.227797,-111.604727,TRUE,FALSE,TRUE,"S236918354"
"97","virwar","Virginia's Warbler","Leiothlypis virginiae","L241530","Smith Reservoir SWA","2025-05-12 07:25",1,37.3919965,-105.534457,TRUE,FALSE,FALSE,"S236956323"
"98","virwar","Virginia's Warbler","Leiothlypis virginiae","L44787200","Strawberry RV","2025-05-12 07:24",1,34.406937,-111.496206,TRUE,FALSE,TRUE,"S236889604"
"99","virwar","Virginia's Warbler","Leiothlypis virginiae","L12883422","1B La Cueva Creek Rd, Glorieta US-NM 35.58640, -105.73508","2025-05-12 07:20",5,35.586398,-105.735084,TRUE,FALSE,TRUE,"S236860552"
"100","virwar","Virginia's Warbler","Leiothlypis virginiae","L3084031","Upper Los Alamos Canyon","2025-05-12 07:10",7,35.879071,-106.3344222,TRUE,FALSE,FALSE,"S236896642"
"101","virwar","Virginia's Warbler","Leiothlypis virginiae","L44833508","Hill Farms","2025-05-12 07:00",1,32.263148,-110.8813126,TRUE,FALSE,TRUE,"S236956085"
"102","virwar","Virginia's Warbler","Leiothlypis virginiae","L42448215","Red--PT15","2025-05-12 06:57",1,36.9689115,-107.6573387,TRUE,FALSE,TRUE,"S237162449"
"103","virwar","Virginia's Warbler","Leiothlypis virginiae","L29206850","1825 Monroe Lane, Camp Verde, Arizona, US (34.543, -111.868)","2025-05-12 06:57",1,34.5433098,-111.8684359,TRUE,FALSE,TRUE,"S236895471"
"104","virwar","Virginia's Warbler","Leiothlypis virginiae","L1212326","Groom Creek Loop Trail #307","2025-05-12 06:48",3,34.4644607,-112.4407473,TRUE,FALSE,FALSE,"S236954916"
"105","virwar","Virginia's Warbler","Leiothlypis virginiae","L44816437","13 North Village Loop, Grand Canyon Village, Arizona, US (36.059, -112.143)","2025-05-12 06:41",1,36.0592522,-112.1428562,TRUE,FALSE,TRUE,"S236858526"
"106","virwar","Virginia's Warbler","Leiothlypis virginiae","L587297","Elden Spring","2025-05-12 06:40",1,35.2273919,-111.6043997,TRUE,FALSE,FALSE,"S236961475"
"107","virwar","Virginia's Warbler","Leiothlypis virginiae","L716626","Rio Grande Valley SP--Pueblo Montano Bosque Trails","2025-05-12 06:28",1,35.1422405,-106.6843696,TRUE,FALSE,FALSE,"S236895274"
"108","virwar","Virginia's Warbler","Leiothlypis virginiae","L607940","Sitgreaves NF--Canyon Point","2025-05-12 06:20",2,34.3223857,-110.8281255,TRUE,FALSE,FALSE,"S236894800"
"109","virwar","Virginia's Warbler","Leiothlypis virginiae","L4577819","Wild Horse Fountain","2025-05-12 06:07",1,34.5871849,-111.8687797,TRUE,FALSE,TRUE,"S237172688"
"110","virwar","Virginia's Warbler","Leiothlypis virginiae","L357591","Saguaro Lake--Butcher Jones Beach","2025-05-12 05:50",1,33.5758784,-111.5154147,TRUE,FALSE,FALSE,"S237030518"
"111","virwar","Virginia's Warbler","Leiothlypis virginiae","L44840656","Bakers Peak area, Moffat County","2025-05-12 05:50",4,40.9057965,-107.4975669,TRUE,TRUE,TRUE,"S236995376"
"112","virwar","Virginia's Warbler","Leiothlypis virginiae","L3380924","AZ-Cochise-Portal--2494 S. Old Canyon Rd. (private)","2025-05-12 05:30",2,31.9063055,-109.1534289,TRUE,FALSE,TRUE,"S237159833"
"113","virwar","Virginia's Warbler","Leiothlypis virginiae","L128898","Big Bend NP--Dugout Wells","2025-05-11 19:28",1,29.2712002,-103.1352997,TRUE,FALSE,FALSE,"S237150228"
"114","virwar","Virginia's Warbler","Leiothlypis virginiae","L589332","Jewel of the Creek Preserve","2025-05-11 18:18",1,33.8839627,-111.9550375,TRUE,FALSE,FALSE,"S236720660"
"115","virwar","Virginia's Warbler","Leiothlypis virginiae","L998436","Mesa Verde NP--Morefield Campground","2025-05-11 17:27",2,37.2989439,-108.4187508,TRUE,FALSE,FALSE,"S237450748"
"116","virwar","Virginia's Warbler","Leiothlypis virginiae","L44822103","6380 W Ina Rd, Tucson US-AZ 32.33883, -111.10100","2025-05-11 16:46",2,32.338827,-111.101001,TRUE,FALSE,TRUE,"S236894261"
"117","virwar","Virginia's Warbler","Leiothlypis virginiae","L436785","Horsetooth Mountain Open Space","2025-05-11 15:30",1,40.5250217,-105.176754,TRUE,FALSE,FALSE,"S237336598"
"118","virwar","Virginia's Warbler","Leiothlypis virginiae","L263942","Christmas Mountains Oasis","2025-05-11 15:26",1,29.4917768,-103.4670389,TRUE,FALSE,FALSE,"S236659811"
"119","virwar","Virginia's Warbler","Leiothlypis virginiae","L2170366","Big Bend NP--Chisos Basin WTP","2025-05-11 15:20",1,29.2786178,-103.3070424,TRUE,FALSE,FALSE,"S236704397"
"120","virwar","Virginia's Warbler","Leiothlypis virginiae","L346650","Walnut Canyon NM","2025-05-11 15:18",1,35.1717762,-111.5094022,TRUE,FALSE,FALSE,"S236652802"
"121","virwar","Virginia's Warbler","Leiothlypis virginiae","L7768549","Home - Tijeras, NM","2025-05-11 14:42",1,34.9981183,-106.3427846,TRUE,FALSE,TRUE,"S236618446"
"122","virwar","Virginia's Warbler","Leiothlypis virginiae","L9433848","Colrado River--Dewey to Hittle Bottom","2025-05-11 14:07",1,38.7970209,-109.3204218,TRUE,FALSE,FALSE,"S237161930"
"123","virwar","Virginia's Warbler","Leiothlypis virginiae","L233493","Black Canyon of the Gunnison NP--South Rim","2025-05-11 13:45",2,38.5811339,-107.7153254,TRUE,FALSE,FALSE,"S236702948"
"124","virwar","Virginia's Warbler","Leiothlypis virginiae","L5494660","Cibola NF--Sandia Man Cave","2025-05-11 13:24",1,35.254611,-106.405917,TRUE,FALSE,FALSE,"S236577464"
"125","virwar","Virginia's Warbler","Leiothlypis virginiae","L17154718","3675 Mountain High Lane, Sierra Vista, Arizona, US (31.502, -110.238)","2025-05-11 13:14",1,31.5023058,-110.2383037,TRUE,FALSE,TRUE,"S236559318"
"126","virwar","Virginia's Warbler","Leiothlypis virginiae","L19292783","stakeout Blue-winged Warbler, Summerhaven (2022)","2025-05-11 12:39",1,32.43742,-110.75879,TRUE,FALSE,FALSE,"S236670397"
"127","virwar","Virginia's Warbler","Leiothlypis virginiae","L382872","Prescott--Goldwater Lakes","2025-05-11 12:34",1,34.4981747,-112.4489737,TRUE,FALSE,FALSE,"S236609035"
"128","virwar","Virginia's Warbler","Leiothlypis virginiae","L9622444","Willis Creek Slot Canyon TH","2025-05-11 12:17",1,37.4830657,-112.0971322,TRUE,FALSE,FALSE,"S236972089"
"129","virwar","Virginia's Warbler","Leiothlypis virginiae","L44771214","Mason Draw","2025-05-11 12:03",5,38.542907,-109.303343,TRUE,FALSE,TRUE,"S236596351"
"130","virwar","Virginia's Warbler","Leiothlypis virginiae","L1091644","La Posta Quemada Ranch","2025-05-11 11:13",1,32.0512984,-110.6363797,TRUE,FALSE,FALSE,"S236702216"
"131","virwar","Virginia's Warbler","Leiothlypis virginiae","L20852723","Sugarite Canyon SP, Lake to Lake Trail","2025-05-11 11:13",1,36.9835446,-104.372829,TRUE,FALSE,TRUE,"S236491595"
"132","virwar","Virginia's Warbler","Leiothlypis virginiae","L951782","Yellow Fork Canyon -- Lower","2025-05-11 11:00",2,40.4687118,-112.0973069,TRUE,FALSE,FALSE,"S236584548"
"133","virwar","Virginia's Warbler","Leiothlypis virginiae","L473975","Cheyenne Mountain SP","2025-05-11 10:59",6,38.7311714,-104.8223591,TRUE,FALSE,FALSE,"S236468368"
"134","virwar","Virginia's Warbler","Leiothlypis virginiae","L2790487","Zion NP--Kolob Canyons Viewpoint (end of road)","2025-05-11 10:58",1,37.4281402,-113.2045412,TRUE,FALSE,FALSE,"S236703501"
"135","virwar","Virginia's Warbler","Leiothlypis virginiae","L15168971","Trail Canyon Ranch (private)","2025-05-11 10:58",1,37.341186,-108.714015,TRUE,FALSE,TRUE,"S236570731"
"136","virwar","Virginia's Warbler","Leiothlypis virginiae","L1008897","Gateway Cottonwoods","2025-05-11 10:54",1,38.6850408,-108.9930439,TRUE,FALSE,FALSE,"S236638886"
"137","virwar","Virginia's Warbler","Leiothlypis virginiae","L44732255","Basque De Oso Rd, Weston US-CO 37.12786, -104.84811","2025-05-11 10:47",1,37.127855,-104.848112,TRUE,FALSE,TRUE,"S236414324"
"138","virwar","Virginia's Warbler","Leiothlypis virginiae","L10143594","Old Ephraim Canyon Road","2025-05-11 10:41",3,39.33828,-111.5217797,TRUE,FALSE,TRUE,"S236596728"
"139","virwar","Virginia's Warbler","Leiothlypis virginiae","L44749140","Wildlife viewing area","2025-05-11 10:34",1,38.178609,-105.114851,TRUE,FALSE,TRUE,"S236492939"
"140","virwar","Virginia's Warbler","Leiothlypis virginiae","L21014118","Organ Mountains--Sugarloaf","2025-05-11 10:26",5,32.346382,-106.543811,TRUE,FALSE,TRUE,"S236653055"
"141","virwar","Virginia's Warbler","Leiothlypis virginiae","L245621","Gould Reservoir (private; view from road)","2025-05-11 10:19",1,38.6036868,-107.5795138,TRUE,FALSE,FALSE,"S236424330"
"142","virwar","Virginia's Warbler","Leiothlypis virginiae","L268297","Bryce Canyon NP","2025-05-11 10:12",1,37.6461898,-112.1660052,TRUE,FALSE,FALSE,"S236880028"
"143","virwar","Virginia's Warbler","Leiothlypis virginiae","L301174","Mt. Lemmon--Mt Bigelow Rd","2025-05-11 10:12",1,32.4170301,-110.7250857,TRUE,FALSE,FALSE,"S236493373"
"144","virwar","Virginia's Warbler","Leiothlypis virginiae","L1210097","Antelope Island SP--South","2025-05-11 10:07",1,40.8968335,-112.17326,TRUE,FALSE,FALSE,"S236706458"
"145","virwar","Virginia's Warbler","Leiothlypis virginiae","L37038099","E Butterfly Trail, Tucson US-AZ 32.42764, -110.74080","2025-05-11 10:05",2,32.427638,-110.7408,TRUE,FALSE,TRUE,"S236500251"
"146","virwar","Virginia's Warbler","Leiothlypis virginiae","L363582","Bear Creek Nature Center","2025-05-11 09:59",3,38.8294281,-104.8790073,TRUE,FALSE,FALSE,"S236426616"
"147","virwar","Virginia's Warbler","Leiothlypis virginiae","L44716348","Mossy Cave Trail, Tropic US-UT 37.66554, -112.11205","2025-05-11 09:49",4,37.665543,-112.112047,TRUE,FALSE,TRUE,"S236375085"
"148","virwar","Virginia's Warbler","Leiothlypis virginiae","L12395330","Gila NF--Little Cherry Creek Road and Trail","2025-05-11 09:45",1,32.8993275,-108.228703,TRUE,FALSE,FALSE,"S236433083"
"149","virwar","Virginia's Warbler","Leiothlypis virginiae","L44663320","Fletcher View Campground Las Vegas US-NV 36.26242, -115.61816","2025-05-11 09:39",1,36.262421,-115.61816,TRUE,FALSE,TRUE,"S236455070"
"150","virwar","Virginia's Warbler","Leiothlypis virginiae","L298527","Keystone Heritage Park (FWTX 6)","2025-05-11 09:38",1,31.8209406,-106.5630008,TRUE,FALSE,FALSE,"S236381010"
"151","virwar","Virginia's Warbler","Leiothlypis virginiae","L5942404","Cedar Mountain","2025-05-11 09:36",1,40.5747175,-107.6163197,TRUE,FALSE,FALSE,"S236600086"
"152","virwar","Virginia's Warbler","Leiothlypis virginiae","L2827957","Lone Dome SWA","2025-05-11 09:35",1,37.6484652,-108.7375474,TRUE,FALSE,FALSE,"S237035000"
"153","virwar","Virginia's Warbler","Leiothlypis virginiae","L26143631","18 Guadalupe Ln, Pecos US-NM 35.59357, -105.68056","2025-05-11 09:32",1,35.59357,-105.680565,TRUE,FALSE,TRUE,"S236550923"
"154","virwar","Virginia's Warbler","Leiothlypis virginiae","L271623","Pine Valley Recreation Area & Reservoir","2025-05-11 09:32",2,37.3782058,-113.472805,TRUE,FALSE,FALSE,"S236531426"
"155","virwar","Virginia's Warbler","Leiothlypis virginiae","L44766146","Bradshaw Mountains: Upper Knapp Gulch","2025-05-11 09:30",8,34.4375745,-112.3991389,TRUE,FALSE,TRUE,"S236579533"
"156","virwar","Virginia's Warbler","Leiothlypis virginiae","L1656922","Kasha-Katuwe Tent Rocks NM","2025-05-11 09:25",2,35.661094,-106.4115394,TRUE,FALSE,FALSE,"S236595130"
"157","virwar","Virginia's Warbler","Leiothlypis virginiae","L2361953","Stratton Open Space","2025-05-11 09:21",8,38.7985137,-104.8655319,TRUE,FALSE,FALSE,"S236435823"
"158","virwar","Virginia's Warbler","Leiothlypis virginiae","L9083770","Lake Capote","2025-05-11 09:15",1,37.200102,-107.258234,TRUE,FALSE,TRUE,"S236714278"
"159","virwar","Virginia's Warbler","Leiothlypis virginiae","L2858722","La Cueva Home","2025-05-11 09:13",7,35.5863642,-105.7350236,TRUE,FALSE,TRUE,"S236390294"
"160","virwar","Virginia's Warbler","Leiothlypis virginiae","L18733714","80829, Manitou Springs US-CO 38.84504, -104.90430","2025-05-11 09:13",5,38.84504,-104.904299,TRUE,FALSE,TRUE,"S236387766"
"161","virwar","Virginia's Warbler","Leiothlypis virginiae","L10207441","Eldorado Mountain Open Space--Fowler Trail","2025-05-11 09:09",1,39.930477,-105.2744985,TRUE,FALSE,FALSE,"S236488175"
"162","virwar","Virginia's Warbler","Leiothlypis virginiae","L478982","Pine Valley Ranch ","2025-05-11 09:08",1,39.4075167,-105.34863,TRUE,FALSE,FALSE,"S236868406"
"163","virwar","Virginia's Warbler","Leiothlypis virginiae","L10008666","Rock Creek Canyon Road","2025-05-11 09:06",3,38.7049219,-104.8418923,TRUE,FALSE,TRUE,"S236439464"
"164","virwar","Virginia's Warbler","Leiothlypis virginiae","L2064166","Patagonia Lake SP--Birding Trail","2025-05-11 09:06",1,31.496718,-110.848945,TRUE,FALSE,FALSE,"S236545725"
"165","virwar","Virginia's Warbler","Leiothlypis virginiae","L786269","Upper Water Canyon","2025-05-11 09:05",1,35.8367417,-106.3710022,TRUE,FALSE,TRUE,"S236604010"
"166","virwar","Virginia's Warbler","Leiothlypis virginiae","L2789585","Bosque Trails West of Valle de Oro NWR -- NMSLO","2025-05-11 09:02",1,34.9713227,-106.686427,TRUE,FALSE,FALSE,"S236532069"
"167","virwar","Virginia's Warbler","Leiothlypis virginiae","L1017570","Newspaper Rock SP (incl. Campground)","2025-05-11 09:02",1,37.9880794,-109.518671,TRUE,FALSE,FALSE,"S236425647"
"168","virwar","Virginia's Warbler","Leiothlypis virginiae","L2361336","Bryce Canyon NP--Fairyland Loop Trail","2025-05-11 09:02",1,37.6455987,-112.1394038,TRUE,FALSE,FALSE,"S236449279"
"169","virwar","Virginia's Warbler","Leiothlypis virginiae","L15425463","Buckskinner Overflow","2025-05-11 09:00",4,35.2388715,-112.1891228,TRUE,FALSE,TRUE,"S236486359"
"170","virwar","Virginia's Warbler","Leiothlypis virginiae","L798588","Chatfield SP--Audubon Center & Trails","2025-05-11 08:47",1,39.4934273,-105.0918996,TRUE,FALSE,FALSE,"S236345858"
"171","virwar","Virginia's Warbler","Leiothlypis virginiae","L799323","Cibola NF--Mars Court Wild Turkey Trail","2025-05-11 08:46",3,34.9857063,-106.3574409,TRUE,FALSE,FALSE,"S236499609"
"172","virwar","Virginia's Warbler","Leiothlypis virginiae","L8487781","South Canyon RD - Avon","2025-05-11 08:42",1,41.5110711,-111.8110699,TRUE,FALSE,TRUE,"S236363873"
"173","virwar","Virginia's Warbler","Leiothlypis virginiae","L11527416","Encino (town)","2025-05-11 08:39",1,34.6517615,-105.4615675,TRUE,FALSE,FALSE,"S236451308"
"174","virwar","Virginia's Warbler","Leiothlypis virginiae","L2243186","The Incline and Barr Trail","2025-05-11 08:35",1,38.8574445,-104.9380481,TRUE,FALSE,FALSE,"S236479699"
"175","virwar","Virginia's Warbler","Leiothlypis virginiae","L43856844","Lory State Park, Bellvue US-CO 40.57906, -105.17919","2025-05-11 08:33",1,40.579055,-105.17919,TRUE,FALSE,TRUE,"S236484995"
"176","virwar","Virginia's Warbler","Leiothlypis virginiae","L19704302","Mesa Trail, Boulder, Colorado, US (39.958, -105.28)","2025-05-11 08:33",2,39.9576256,-105.2795769,TRUE,FALSE,TRUE,"S236409575"
"177","virwar","Virginia's Warbler","Leiothlypis virginiae","L4385704","Castlewood Canyon SP--West Side Area","2025-05-11 08:31",2,39.3531357,-104.7655713,TRUE,FALSE,FALSE,"S236395107"
"178","virwar","Virginia's Warbler","Leiothlypis virginiae","L7772945","Ridgway SP--Dallas Creek area","2025-05-11 08:19",1,38.189649,-107.748031,TRUE,FALSE,FALSE,"S236389058"
"179","virwar","Virginia's Warbler","Leiothlypis virginiae","L354340","Butterfield Canyon--Lower (canyon bottom)","2025-05-11 08:15",2,40.4929421,-112.1174115,TRUE,FALSE,FALSE,"S236675747"
"180","virwar","Virginia's Warbler","Leiothlypis virginiae","L128889","Mt. Lemmon--Bear Wallow","2025-05-11 08:14",2,32.4210014,-110.731102,TRUE,FALSE,FALSE,"S236422017"
"181","virwar","Virginia's Warbler","Leiothlypis virginiae","L264842","Miller Canyon--Beatty's Guest Ranch","2025-05-11 08:14",1,31.4156019,-110.2765277,TRUE,FALSE,FALSE,"S236476986"
"182","virwar","Virginia's Warbler","Leiothlypis virginiae","L3952615","Black Canyon of the Gunnison NP--North Rim","2025-05-11 08:08",10,38.586068,-107.696981,TRUE,FALSE,FALSE,"S236424145"
"183","virwar","Virginia's Warbler","Leiothlypis virginiae","L43140504","McKelligon Canyon, El Paso US-TX 31.83770, -106.48282","2025-05-11 08:08",1,31.837702,-106.482822,TRUE,FALSE,TRUE,"S236296993"
"184","virwar","Virginia's Warbler","Leiothlypis virginiae","L1062940","Gila Bird Area","2025-05-11 08:05",1,32.812775,-108.60154,TRUE,FALSE,FALSE,"S236682819"
"185","virwar","Virginia's Warbler","Leiothlypis virginiae","L208278","Lytle Ranch Preserve","2025-05-11 08:02",4,37.1434192,-114.0232372,TRUE,FALSE,FALSE,"S236398409"
"186","virwar","Virginia's Warbler","Leiothlypis virginiae","L662856","Grafton","2025-05-11 08:01",1,37.1674814,-113.081975,TRUE,FALSE,FALSE,"S236327307"
"187","virwar","Virginia's Warbler","Leiothlypis virginiae","L456475","Lory State Park","2025-05-11 07:54",4,40.564245,-105.1747048,TRUE,FALSE,FALSE,"S236438512"
"188","virwar","Virginia's Warbler","Leiothlypis virginiae","L506776","Highland Glen Park ","2025-05-11 07:52",1,40.414656,-111.7819834,TRUE,FALSE,FALSE,"S236723764"
"189","virwar","Virginia's Warbler","Leiothlypis virginiae","L24317100","Box Canyon--old dam area","2025-05-11 07:51",1,31.798956,-110.777034,TRUE,FALSE,FALSE,"S236451216"
"190","virwar","Virginia's Warbler","Leiothlypis virginiae","L393566","Casa de San Pedro B&B--Visitors Welcome","2025-05-11 07:45",1,31.4088134,-110.1067829,TRUE,FALSE,FALSE,"S236475394"
"191","virwar","Virginia's Warbler","Leiothlypis virginiae","L2329640","Cibola NF--Upper Water Canyon","2025-05-11 07:45",3,34.0079355,-107.1397448,TRUE,FALSE,FALSE,"S236625124"
"192","virwar","Virginia's Warbler","Leiothlypis virginiae","L127970","Mt. Lemmon--upper","2025-05-11 07:40",3,32.4404984,-110.7902985,TRUE,FALSE,FALSE,"S236531517"
"193","virwar","Virginia's Warbler","Leiothlypis virginiae","L140001","Big Ditch Park","2025-05-11 07:39",1,32.7725894,-108.2752419,TRUE,FALSE,FALSE,"S236563419"
"194","virwar","Virginia's Warbler","Leiothlypis virginiae","L1141965","Mt. Lemmon--Sunset Trailhead (lower Bear Wallow)","2025-05-11 07:36",2,32.4275106,-110.7422505,TRUE,FALSE,FALSE,"S236401628"
"195","virwar","Virginia's Warbler","Leiothlypis virginiae","L5884815","Castlewood Canyon Rd--Lake Gulch Rd to Castlewood Canyon SP","2025-05-11 07:06",1,39.317732,-104.7572351,TRUE,FALSE,FALSE,"S236564784"
"196","virwar","Virginia's Warbler","Leiothlypis virginiae","L350281","El Rio Open Space Preserve","2025-05-11 07:05",1,32.392141,-111.1384898,TRUE,FALSE,FALSE,"S236400375"
"197","virwar","Virginia's Warbler","Leiothlypis virginiae","L11498996","Santa Fe NF--Cañon del Valle Trail","2025-05-11 06:58",14,35.8524331,-106.3545596,TRUE,FALSE,FALSE,"S236533986"
"198","virwar","Virginia's Warbler","Leiothlypis virginiae","L1414692","Sugarite Canyon SP--Lake Maloya","2025-05-11 06:43",1,36.9837903,-104.3742608,TRUE,FALSE,FALSE,"S236491843"
"199","virwar","Virginia's Warbler","Leiothlypis virginiae","L2503102","US-NM-LAL-LANL-Sandia Canyon Wetlands (no public access)","2025-05-11 06:07",1,35.8747809,-106.3126776,TRUE,FALSE,TRUE,"S236203254"
"200","virwar","Virginia's Warbler","Leiothlypis virginiae","L1092125","Sedona Wetlands Preserve","2025-05-11 06:03",1,34.829,-111.8964,TRUE,FALSE,FALSE,"S237018399"
"201","virwar","Virginia's Warbler","Leiothlypis virginiae","L109292","Castlewood Canyon SP","2025-05-11 06:00",3,39.3307441,-104.7387991,TRUE,FALSE,FALSE,"S236687645"
"202","virwar","Virginia's Warbler","Leiothlypis virginiae","L7252289","Cactus Springs","2025-05-11 06:00",3,36.5772053,-115.7230067,TRUE,FALSE,FALSE,"S236997127"
"203","virwar","Virginia's Warbler","Leiothlypis virginiae","L286521","Mt. Lemmon--Ski Valley","2025-05-11 05:42",1,32.4484106,-110.7810647,TRUE,FALSE,FALSE,"S236357509"
"204","virwar","Virginia's Warbler","Leiothlypis virginiae","L610739","Bear Creek Park East (El Paso)","2025-05-11 05:39",1,38.822265,-104.8551464,TRUE,FALSE,FALSE,"S236427617"
"205","virwar","Virginia's Warbler","Leiothlypis virginiae","L279882","Sapillo Crossing","2025-05-11",1,33.0408784,-108.2176605,TRUE,FALSE,FALSE,"S236931856"
"206","virwar","Virginia's Warbler","Leiothlypis virginiae","L44661612","Paseo del Bosque Trail, North of bridge blvd","2025-05-10 19:25",1,35.072088,-106.659478,TRUE,FALSE,TRUE,"S236027670"
"207","virwar","Virginia's Warbler","Leiothlypis virginiae","L304177","South Mesa Trail","2025-05-10 18:46",1,39.9394753,-105.2594647,TRUE,FALSE,FALSE,"S236013393"
"208","virwar","Virginia's Warbler","Leiothlypis virginiae","L387519","Rose Canyon Road","2025-05-10 18:30",4,40.4701261,-112.0780114,TRUE,FALSE,FALSE,"S236049494"
"209","virwar","Virginia's Warbler","Leiothlypis virginiae","L351763","Cluff Ranch WA","2025-05-10 18:21",1,32.81605,-109.84935,TRUE,FALSE,FALSE,"S236021449"
"210","virwar","Virginia's Warbler","Leiothlypis virginiae","L357634","Cibola NF--Embudito Canyon","2025-05-10 18:03",3,35.1357734,-106.4816809,TRUE,FALSE,FALSE,"S236013302"
"211","virwar","Virginia's Warbler","Leiothlypis virginiae","L507771","Middle Canyon","2025-05-10 18:01",1,40.503052,-112.2267956,TRUE,FALSE,FALSE,"S236055695"
"212","virwar","Virginia's Warbler","Leiothlypis virginiae","L5721288","Bard Creek Ponds (private, view from road)","2025-05-10 17:45",1,39.7535139,-105.6854888,TRUE,FALSE,FALSE,"S236043223"
"213","virwar","Virginia's Warbler","Leiothlypis virginiae","L27973220","2760 E Old Corral Pl, Sahuarita US-AZ 31.87386, -110.92832","2025-05-10 17:44",1,31.8732031,-110.9279018,TRUE,TRUE,TRUE,"S236005245"
"214","virwar","Virginia's Warbler","Leiothlypis virginiae","L504369","Settlement Canyon ","2025-05-10 17:32",2,40.5102754,-112.2961307,TRUE,FALSE,FALSE,"S236055782"
"215","virwar","Virginia's Warbler","Leiothlypis virginiae","L4693398","Santa Fe NF--Battleship Rock Picnic Ground","2025-05-10 17:30",1,35.8296658,-106.6438177,TRUE,FALSE,FALSE,"S235995413"
"216","virwar","Virginia's Warbler","Leiothlypis virginiae","L3570855","Lower Gardner Canyon Rd--grasslands","2025-05-10 17:01",1,31.7309321,-110.6856412,TRUE,FALSE,FALSE,"S235989727"
"217","virwar","Virginia's Warbler","Leiothlypis virginiae","L2428094","Summerhaven Place","2025-05-10 16:58",1,32.4418925,-110.758144,TRUE,FALSE,TRUE,"S236923985"
"218","virwar","Virginia's Warbler","Leiothlypis virginiae","L748275","Cibola NF--Doc Long Picnic Ground & Bill Spring Trail","2025-05-10 16:31",2,35.1774762,-106.3796389,TRUE,FALSE,FALSE,"S236005994"
"219","virwar","Virginia's Warbler","Leiothlypis virginiae","L44720165","52 County Road 361, Ouray, Colorado, US (38.017, -107.671)","2025-05-10 16:28",1,38.0167638,-107.6710505,TRUE,FALSE,TRUE,"S236353652"
"220","virwar","Virginia's Warbler","Leiothlypis virginiae","L522498","Old Saint Vrain Rd","2025-05-10 16:27",1,40.20936,-105.2803516,TRUE,FALSE,FALSE,"S235968827"
"221","virwar","Virginia's Warbler","Leiothlypis virginiae","L9514127","Pine Cr. Canyon (Pine Cr. Canyon Dr. to Camp Lomia)","2025-05-10 16:17",1,34.404285,-111.44811,TRUE,FALSE,TRUE,"S236265438"
"222","virwar","Virginia's Warbler","Leiothlypis virginiae","L29769319","Mesa Pedregosa","2025-05-10 15:53",3,37.014108,-106.894777,TRUE,FALSE,TRUE,"S235886709"
"223","virwar","Virginia's Warbler","Leiothlypis virginiae","L44634846","5189–5419 E Little Cottonwood Canyon Rd, Sandy US-UT 40.57205, -111.74109","2025-05-10 15:53",1,40.572051,-111.741087,TRUE,FALSE,TRUE,"S235870069"
"224","virwar","Virginia's Warbler","Leiothlypis virginiae","L44636138","262 East 1630 South, Lehi, Utah, US (40.366, -111.846) Frisbee Golf Course","2025-05-10 15:43",1,40.3655023,-111.8462786,TRUE,FALSE,TRUE,"S235876844"
"225","virwar","Virginia's Warbler","Leiothlypis virginiae","L41084890","Just North of Durango","2025-05-10 15:18",1,37.313174,-107.820236,TRUE,FALSE,TRUE,"S235875023"
"226","virwar","Virginia's Warbler","Leiothlypis virginiae","L38785926","Barr Trail above Incline, below 4 mi marker","2025-05-10 15:04",2,38.855869,-104.961567,TRUE,FALSE,TRUE,"S236614993"
"227","virwar","Virginia's Warbler","Leiothlypis virginiae","L510468","Ogden Canyon ","2025-05-10 15:03",1,41.2491122,-111.8858646,TRUE,FALSE,FALSE,"S236050307"
"228","virwar","Virginia's Warbler","Leiothlypis virginiae","L37883578","5415 N Teran Rd, Benson US-AZ 32.26402, -110.34495","2025-05-10 15:01",1,32.264021,-110.344953,TRUE,FALSE,TRUE,"S235986066"
"229","virwar","Virginia's Warbler","Leiothlypis virginiae","L15884795","La Plata County CO Road 204 (Junction Creek to Animas Overlook)","2025-05-10 14:50",1,37.3342423,-107.9068878,TRUE,FALSE,TRUE,"S236031559"
"230","virwar","Virginia's Warbler","Leiothlypis virginiae","L129056","Pinery Canyon","2025-05-10 14:42",1,31.9328003,-109.2713013,TRUE,FALSE,FALSE,"S235924685"
"231","virwar","Virginia's Warbler","Leiothlypis virginiae","L25265459","Rock creek turnoff US-CO 37.49193, -106.26486","2025-05-10 14:39",1,37.491928,-106.264865,TRUE,FALSE,TRUE,"S235844623"
"232","virwar","Virginia's Warbler","Leiothlypis virginiae","L3062977","Carlito Springs Open Space","2025-05-10 14:37",1,35.0865192,-106.3981408,TRUE,FALSE,FALSE,"S235880690"
"233","virwar","Virginia's Warbler","Leiothlypis virginiae","L357432","Gila Box Riparian NCA","2025-05-10 14:28",2,32.8834795,-109.5051527,TRUE,FALSE,FALSE,"S235965719"
"234","virwar","Virginia's Warbler","Leiothlypis virginiae","L11918932","Santa Fe NF--Lower Pacheco Canyon","2025-05-10 14:28",1,35.7841821,-105.8789626,TRUE,FALSE,FALSE,"S235843480"
"235","virwar","Virginia's Warbler","Leiothlypis virginiae","L2335940","Roosevelt National Forest--Dadd Gulch Trail area","2025-05-10 14:22",2,40.6976885,-105.5403036,TRUE,FALSE,FALSE,"S235925174"
"236","virwar","Virginia's Warbler","Leiothlypis virginiae","L2948522","Cibola NF--Tree Spring Trailhead","2025-05-10 14:18",1,35.1938953,-106.40468,TRUE,FALSE,FALSE,"S235814148"
"237","virwar","Virginia's Warbler","Leiothlypis virginiae","L1775729","Eben G. Fine Park","2025-05-10 14:07",1,40.0130899,-105.2956295,TRUE,FALSE,FALSE,"S235886841"
"238","virwar","Virginia's Warbler","Leiothlypis virginiae","L2694257","Colorado River--Audubon Section","2025-05-10 14:06",1,39.0690769,-108.5966943,TRUE,FALSE,FALSE,"S235874136"
"239","virwar","Virginia's Warbler","Leiothlypis virginiae","L39555779","Rio Chupadero @ 592","2025-05-10 13:56",1,35.814318,-105.907159,TRUE,FALSE,TRUE,"S235817639"
"240","virwar","Virginia's Warbler","Leiothlypis virginiae","L44634404","Dunn I, Boulder US-CO 39.93921, -105.25890","2025-05-10 13:47",1,39.939209,-105.258899,TRUE,FALSE,TRUE,"S235867708"
"241","virwar","Virginia's Warbler","Leiothlypis virginiae","L9932587","Zion NP--West Rim Trail--Upper","2025-05-10 13:40",1,37.3624922,-113.0118128,TRUE,FALSE,FALSE,"S236022938"
"242","virwar","Virginia's Warbler","Leiothlypis virginiae","L129069","Rustler Park","2025-05-10 13:28",1,31.9030991,-109.2776031,TRUE,FALSE,FALSE,"S235853663"
"243","virwar","Virginia's Warbler","Leiothlypis virginiae","L595722","Maple Canyon (Sanpete Co.)","2025-05-10 13:21",2,39.5551809,-111.6827631,TRUE,FALSE,FALSE,"S236835159"
"244","virwar","Virginia's Warbler","Leiothlypis virginiae","L44630306","Fisher Mesa Trail, Moab US-UT 38.64115, -109.24365","2025-05-10 13:18",4,38.641149,-109.243655,TRUE,FALSE,TRUE,"S235846760"
"245","virwar","Virginia's Warbler","Leiothlypis virginiae","L44638430","Little Dry Trail #180, New Mexico, US (33.224, -108.738)","2025-05-10 13:15",1,33.2236818,-108.7375483,TRUE,FALSE,TRUE,"S235888817"
"246","virwar","Virginia's Warbler","Leiothlypis virginiae","L8870196","Seven Springs Hatchery","2025-05-10 13:15",1,35.9266949,-106.7042398,TRUE,FALSE,FALSE,"S235817932"
"247","virwar","Virginia's Warbler","Leiothlypis virginiae","L44661994","Aiken Canyon Preserve","2025-05-10 13:00",NA,38.619339,-104.888118,TRUE,FALSE,TRUE,"S236029945"
"248","virwar","Virginia's Warbler","Leiothlypis virginiae","L818547","Holbrook--Hidden Cove Golf Course","2025-05-10 12:59",1,34.9194375,-110.1940727,TRUE,FALSE,FALSE,"S236029080"
"249","virwar","Virginia's Warbler","Leiothlypis virginiae","L5417939","River Ranch WMA (NMDGF permit required)","2025-05-10 12:38",2,32.5872032,-107.922062,TRUE,FALSE,FALSE,"S235854700"
"250","virwar","Virginia's Warbler","Leiothlypis virginiae","L3785685","Lincoln NF--Mexican Canyon Trestle Overlook","2025-05-10 12:25",1,32.964424,-105.748081,TRUE,FALSE,FALSE,"S235750387"
"251","virwar","Virginia's Warbler","Leiothlypis virginiae","L11683903","Young Gulch Trail","2025-05-10 12:19",1,40.6776199,-105.348945,TRUE,FALSE,FALSE,"S235973857"
"252","virwar","Virginia's Warbler","Leiothlypis virginiae","L1859446","Copper Trailhead","2025-05-10 12:18",1,35.0787886,-106.484151,TRUE,FALSE,FALSE,"S235810453"
"253","virwar","Virginia's Warbler","Leiothlypis virginiae","L2843561","Dominguez Campground area","2025-05-10 12:13",3,38.7453144,-108.5516167,TRUE,FALSE,FALSE,"S235848430"
"254","virwar","Virginia's Warbler","Leiothlypis virginiae","L129051","Patagonia Roadside Rest Area","2025-05-10 12:08",1,31.5080086,-110.8022998,TRUE,FALSE,FALSE,"S236023184"
"255","virwar","Virginia's Warbler","Leiothlypis virginiae","L44613585","Tinkertown Museum, Sandia Park US-NM 35.16929, -106.36725","2025-05-10 12:00",3,35.169287,-106.367249,TRUE,FALSE,TRUE,"S235761895"
"256","virwar","Virginia's Warbler","Leiothlypis virginiae","L11369899","Aspen Creek Trail","2025-05-10 12:00",3,34.5000478,-112.5285895,TRUE,FALSE,TRUE,"S235954769"
"257","virwar","Virginia's Warbler","Leiothlypis virginiae","L3634673","Kohl's Ranch","2025-05-10 12:00",1,34.3244945,-111.0927415,TRUE,FALSE,FALSE,"S236044954"
"258","virwar","Virginia's Warbler","Leiothlypis virginiae","L589669","City of Rocks SP","2025-05-10 11:55",1,32.5910812,-107.9753494,TRUE,FALSE,FALSE,"S235773944"
"259","virwar","Virginia's Warbler","Leiothlypis virginiae","L3787321","Bosque del Apache NWR--Main 2-Way Road (East-West)","2025-05-10 11:48",2,33.7991685,-106.8844113,TRUE,FALSE,FALSE,"S235876004"
"260","virwar","Virginia's Warbler","Leiothlypis virginiae","L390362","Granite Basin Lake","2025-05-10 11:43",1,34.6168572,-112.5493392,TRUE,FALSE,FALSE,"S235836369"
"261","virwar","Virginia's Warbler","Leiothlypis virginiae","L3849812","Zion NP--Wildcat & Northgate Peaks Trail","2025-05-10 11:42",1,37.339849,-113.075684,TRUE,FALSE,FALSE,"S236022602"
"262","virwar","Virginia's Warbler","Leiothlypis virginiae","L44631183","Rocky Pitch Gulch","2025-05-10 11:30",4,38.7657289,-108.6249786,TRUE,FALSE,TRUE,"S235849457"
"263","virwar","Virginia's Warbler","Leiothlypis virginiae","L744308","Mt. Ord (Maricopa Co.)","2025-05-10 11:26",4,33.9053284,-111.4103365,TRUE,FALSE,FALSE,"S235994281"
"264","virwar","Virginia's Warbler","Leiothlypis virginiae","L32906094","Corrales Drain and San Antonio Arroyo","2025-05-10 11:14",1,35.1365678,-106.6895919,TRUE,FALSE,TRUE,"S235964174"
"265","virwar","Virginia's Warbler","Leiothlypis virginiae","L109300","Mesa Verde NP (consider using a more specific hotspot)","2025-05-10 11:10",3,37.2303876,-108.4679317,TRUE,FALSE,FALSE,"S235879850"
"266","virwar","Virginia's Warbler","Leiothlypis virginiae","L44635222","Champion Road, Las Vegas US-NV (36.3437,-115.6436)","2025-05-10 11:06",1,36.34369,-115.643613,TRUE,FALSE,TRUE,"S235872116"
"267","virwar","Virginia's Warbler","Leiothlypis virginiae","L44601710","80540, Lyons US-CO 40.20607, -105.32976","2025-05-10 11:05",2,40.206066,-105.329761,TRUE,FALSE,TRUE,"S235703408"
"268","virwar","Virginia's Warbler","Leiothlypis virginiae","L1175561","Red Rock Canyon Open Space","2025-05-10 11:03",1,38.8473432,-104.8811263,TRUE,FALSE,FALSE,"S235719761"
"269","virwar","Virginia's Warbler","Leiothlypis virginiae","L212071","Antelope Island SP--Garr Ranch","2025-05-10 11:02",3,40.9234737,-112.1680972,TRUE,FALSE,FALSE,"S235724953"
"270","virwar","Virginia's Warbler","Leiothlypis virginiae","L17901360","Dalla Mountain Park","2025-05-10 11:00",1,37.3068746,-107.8821575,TRUE,FALSE,FALSE,"S235746420"
"271","virwar","Virginia's Warbler","Leiothlypis virginiae","L4631201","Great Basin NP--Upper Lehman Creek Trail","2025-05-10 10:59",3,39.0156493,-114.2735624,TRUE,FALSE,FALSE,"S236226797"
"272","virwar","Virginia's Warbler","Leiothlypis virginiae","L28802840","El Rito","2025-05-10 10:58",3,36.8116418,-105.56761,TRUE,FALSE,TRUE,"S236048145"
"273","virwar","Virginia's Warbler","Leiothlypis virginiae","L2354360","Bryce Canyon NP--Swamp Canyon Loop Trail","2025-05-10 10:58",5,37.5910858,-112.199893,TRUE,FALSE,FALSE,"S235789515"
"274","virwar","Virginia's Warbler","Leiothlypis virginiae","L7301173","New Canyon Road","2025-05-10 10:50",1,39.3423298,-111.5278387,TRUE,FALSE,TRUE,"S236584263"
"275","virwar","Virginia's Warbler","Leiothlypis virginiae","L44663482","FS 201, Road to Slate Creek Divide","2025-05-10 10:49",2,33.9585114,-111.4496203,TRUE,FALSE,TRUE,"S236037975"
"276","virwar","Virginia's Warbler","Leiothlypis virginiae","L813473","Battiste's Bird Garden","2025-05-10 10:44",1,31.4204234,-110.2475023,TRUE,FALSE,FALSE,"S235750372"
"277","virwar","Virginia's Warbler","Leiothlypis virginiae","L22744838","Mesa Pedregosa","2025-05-10 10:42",1,37.0188003,-106.8921504,TRUE,FALSE,TRUE,"S235700080"
"278","virwar","Virginia's Warbler","Leiothlypis virginiae","L44601750","80540, Lyons US-CO 40.20270, -105.32311","2025-05-10 10:42",2,40.202705,-105.323105,TRUE,FALSE,TRUE,"S235703627"
"279","virwar","Virginia's Warbler","Leiothlypis virginiae","L44613798","Ventana Trail, Mount Lemmon US-AZ 32.37378, -110.86701","2025-05-10 10:39",1,32.373782,-110.867014,TRUE,FALSE,TRUE,"S235762974"
"280","virwar","Virginia's Warbler","Leiothlypis virginiae","L4028291","Bandelier NM--Frijoles Canyon","2025-05-10 10:39",1,35.7789562,-106.2707654,TRUE,FALSE,FALSE,"S235730469"
"281","virwar","Virginia's Warbler","Leiothlypis virginiae","L1372055","Zion NP--Hop Valley Trailhead","2025-05-10 10:38",1,37.3399833,-113.1129,TRUE,FALSE,FALSE,"S236022431"
"282","virwar","Virginia's Warbler","Leiothlypis virginiae","L934338","Mangas Springs","2025-05-10 10:32",2,32.8418443,-108.5108471,TRUE,FALSE,FALSE,"S235708678"
"283","virwar","Virginia's Warbler","Leiothlypis virginiae","L272736","Kennedy Park","2025-05-10 10:30",1,32.1805717,-111.0074136,TRUE,FALSE,FALSE,"S235807005"
"284","virwar","Virginia's Warbler","Leiothlypis virginiae","L1532363","Bryce Canyon NP--Mossy Cave","2025-05-10 10:29",3,37.6639902,-112.1144931,TRUE,FALSE,FALSE,"S235676962"
"285","virwar","Virginia's Warbler","Leiothlypis virginiae","L3694850","Trout Creek Marshes","2025-05-10 10:27",1,38.8399082,-106.0083246,TRUE,FALSE,FALSE,"S235654460"
"286","virwar","Virginia's Warbler","Leiothlypis virginiae","L281844","Montosa Canyon--km 1 (culvert area)","2025-05-10 10:24",1,31.6714585,-110.941082,TRUE,FALSE,FALSE,"S235754142"
"287","virwar","Virginia's Warbler","Leiothlypis virginiae","L563353","Walnut Canyon Lakes","2025-05-10 10:22",1,35.2032507,-111.5705988,TRUE,FALSE,FALSE,"S235729715"
"288","virwar","Virginia's Warbler","Leiothlypis virginiae","L1542514","Mesa Verde NP--Montezuma Valley Overlook","2025-05-10 10:21",1,37.296057,-108.4418672,TRUE,FALSE,FALSE,"S235836363"
"289","virwar","Virginia's Warbler","Leiothlypis virginiae","L1520793","Bosque Redondo Memorial and Nature Trail","2025-05-10 10:21",1,34.4002267,-104.1937783,TRUE,FALSE,FALSE,"S235873807"
"290","virwar","Virginia's Warbler","Leiothlypis virginiae","L156468","Las Animas Creek (Sierra Co.)","2025-05-10 10:19",1,32.97675,-107.384544,TRUE,FALSE,FALSE,"S235709767"
"291","virwar","Virginia's Warbler","Leiothlypis virginiae","L44648962","12444 North Middle Sabino Road, Summerhaven, Arizona, US (32.435, -110.758)","2025-05-10 10:18",1,32.4352714,-110.7575823,TRUE,FALSE,TRUE,"S235950614"
"292","virwar","Virginia's Warbler","Leiothlypis virginiae","L280975","Elephant Butte Lake SP--Paseo del Rio","2025-05-10 10:17",1,33.151188,-107.203,TRUE,FALSE,FALSE,"S235819777"
"293","virwar","Virginia's Warbler","Leiothlypis virginiae","L44615677","Sand Canyon Trail, Yellow Jacket US-CO 37.39990, -108.77521","2025-05-10 10:13",3,37.3999,-108.775213,TRUE,FALSE,TRUE,"S235771944"
"294","virwar","Virginia's Warbler","Leiothlypis virginiae","L603593","Portal--Cathedral Rock Rd at Creek Rd","2025-05-10 10:11",1,31.9104255,-109.1488092,TRUE,FALSE,FALSE,"S235696802"
"295","virwar","Virginia's Warbler","Leiothlypis virginiae","L7526289","Forsyth Trail","2025-05-10 10:04",5,37.3766371,-113.5072231,TRUE,FALSE,FALSE,"S235989292"
"296","virwar","Virginia's Warbler","Leiothlypis virginiae","L8625562","Home","2025-05-10 10:00",2,34.5657372,-112.3785227,TRUE,FALSE,TRUE,"S236554011"
"297","virwar","Virginia's Warbler","Leiothlypis virginiae","L17905449","Coyote Gulch","2025-05-10 10:00",3,40.48462,-111.2796838,TRUE,FALSE,TRUE,"S235779408"
"298","virwar","Virginia's Warbler","Leiothlypis virginiae","L44579926","County Road 210 at 37.24792, -107.89078","2025-05-10 09:59",1,37.247919,-107.890785,TRUE,FALSE,TRUE,"S235612828"
"299","virwar","Virginia's Warbler","Leiothlypis virginiae","L562873","Ghost Ranch","2025-05-10 09:57",2,36.3293708,-106.473484,TRUE,FALSE,FALSE,"S235912952"
"300","virwar","Virginia's Warbler","Leiothlypis virginiae","L714949","Big Bend NP--Pinnacles Trail","2025-05-10 09:54",1,29.2518263,-103.3002913,TRUE,FALSE,FALSE,"S235572891"
"301","virwar","Virginia's Warbler","Leiothlypis virginiae","L296354","Dinosaur Ridge Hawkwatch","2025-05-10 09:45",1,39.6945985,-105.2000678,TRUE,FALSE,FALSE,"S236074697"
"302","virwar","Virginia's Warbler","Leiothlypis virginiae","L3586899","Lower Water Canyon","2025-05-10 09:44",1,35.8019267,-106.2365445,TRUE,FALSE,FALSE,"S235738216"
"303","virwar","Virginia's Warbler","Leiothlypis virginiae","L44662567","Horton Creek Trail, Payson US-AZ (34.3402,-111.0949)","2025-05-10 09:40",1,34.340232,-111.094916,TRUE,FALSE,TRUE,"S236032979"
"304","virwar","Virginia's Warbler","Leiothlypis virginiae","L4814017","Pinal Mountains--Pioneer Pass Campground","2025-05-10 09:40",1,33.2807895,-110.796843,TRUE,FALSE,FALSE,"S235790635"
"305","virwar","Virginia's Warbler","Leiothlypis virginiae","L156969","Cibola NF--Fourth of July Canyon","2025-05-10 09:40",7,34.79217,-106.37183,TRUE,FALSE,FALSE,"S236968191"
"306","virwar","Virginia's Warbler","Leiothlypis virginiae","L2325081","Summit Reservoir","2025-05-10 09:39",1,37.4214353,-108.3839035,TRUE,FALSE,FALSE,"S235600973"
"307","virwar","Virginia's Warbler","Leiothlypis virginiae","L281893","Galisteo","2025-05-10 09:25",1,35.3948964,-105.9435315,TRUE,FALSE,FALSE,"S235808165"
"308","virwar","Virginia's Warbler","Leiothlypis virginiae","L44618452","81325, Egnar US-CO (37.8996,-108.8489)","2025-05-10 09:25",6,37.89956,-108.848852,TRUE,FALSE,TRUE,"S235782983"
"309","virwar","Virginia's Warbler","Leiothlypis virginiae","L674447","Whitfield Wildlife Conservation Area","2025-05-10 09:24",1,34.6678408,-106.7382717,TRUE,FALSE,FALSE,"S235642107"
"310","virwar","Virginia's Warbler","Leiothlypis virginiae","L44626153","Castle Rocks State Park, Almo US-ID 42.13664, -113.66603","2025-05-10 09:23",6,42.136642,-113.666028,TRUE,FALSE,TRUE,"S235825803"
"311","virwar","Virginia's Warbler","Leiothlypis virginiae","L155701","Cibola NF--Hondo Canyon","2025-05-10 09:20",1,35.0899254,-106.3927603,TRUE,FALSE,FALSE,"S235754274"
"312","virwar","Virginia's Warbler","Leiothlypis virginiae","L7521522","South Fork Canyon","2025-05-10 09:16",1,40.343191,-111.539785,TRUE,FALSE,FALSE,"S235976978"
"313","virwar","Virginia's Warbler","Leiothlypis virginiae","L549738","Kendall Camp Trail","2025-05-10 09:13",1,34.433447,-112.446872,TRUE,FALSE,FALSE,"S236635683"
"314","virwar","Virginia's Warbler","Leiothlypis virginiae","L44590128","2771–3225 County Road 360, La Veta US-CO 37.47694, -104.98859","2025-05-10 09:12",1,37.476944,-104.988587,TRUE,FALSE,TRUE,"S235648206"
"315","virwar","Virginia's Warbler","Leiothlypis virginiae","L129106","Tanque Verde Wash--Wentworth Rd.","2025-05-10 09:10",1,32.2400762,-110.7208975,TRUE,FALSE,FALSE,"S235851813"
"316","virwar","Virginia's Warbler","Leiothlypis virginiae","L2828346","Leonora Curtin Wetland Preserve (Jun - Oct; Fee and Entry through Las Golondrinas)","2025-05-10 09:07",1,35.5650743,-106.102438,TRUE,FALSE,FALSE,"S235656449"
"317","virwar","Virginia's Warbler","Leiothlypis virginiae","L44660564","Hop Valley Trail, Virgin US-UT 37.39825, -113.13712","2025-05-10 09:01",2,37.398245,-113.137124,TRUE,FALSE,TRUE,"S236021552"
"318","virwar","Virginia's Warbler","Leiothlypis virginiae","L43858426","Peak View Trailhead","2025-05-10 09:00",1,40.4882805,-111.8205643,TRUE,FALSE,TRUE,"S236503061"
"319","virwar","Virginia's Warbler","Leiothlypis virginiae","L367821","Kartchner Caverns SP","2025-05-10 08:58",1,31.8360722,-110.3486592,TRUE,FALSE,FALSE,"S235622980"
"320","virwar","Virginia's Warbler","Leiothlypis virginiae","L789932","Aravaipa Canyon--east (Graham Co.)","2025-05-10 08:45",1,32.8726671,-110.3741455,TRUE,FALSE,FALSE,"S235818107"
"321","virwar","Virginia's Warbler","Leiothlypis virginiae","L843548","Patagonia--Geoffrey Platts Trail","2025-05-10 08:42",2,31.5328784,-110.7675612,TRUE,FALSE,FALSE,"S235666637"
"322","virwar","Virginia's Warbler","Leiothlypis virginiae","L44570858","Highline Trail, Washington US-UT 37.31715, -113.44338","2025-05-10 08:42",1,37.317153,-113.44338,TRUE,FALSE,TRUE,"S235568523"
"323","virwar","Virginia's Warbler","Leiothlypis virginiae","L36553493","Bluewater Canyon","2025-05-10 08:42",4,35.259335,-108.11705,TRUE,FALSE,TRUE,"S235694529"
"324","virwar","Virginia's Warbler","Leiothlypis virginiae","L3672517","Mt. Ord--FR 1688","2025-05-10 08:40",2,33.9211769,-111.4143384,TRUE,FALSE,FALSE,"S235721609"
"325","virwar","Virginia's Warbler","Leiothlypis virginiae","L44660524","Hop Valley Trail, Toquerville US-UT 37.41024, -113.14639","2025-05-10 08:39",1,37.410235,-113.146387,TRUE,FALSE,TRUE,"S236021390"
"326","virwar","Virginia's Warbler","Leiothlypis virginiae","L44835740","Crimson Maple Trail, Estancia US-NM 34.79004, -106.38263","2025-05-10 08:36",1,34.790037,-106.382633,TRUE,FALSE,TRUE,"S236967339"
"327","virwar","Virginia's Warbler","Leiothlypis virginiae","L1560009","Alvarez Road","2025-05-10 08:34",2,31.9785573,-106.6728126,TRUE,FALSE,FALSE,"S235602205"
"328","virwar","Virginia's Warbler","Leiothlypis virginiae","L44594971","Bug Hollow Trail, Clarkdale US-AZ 34.73045, -112.13883","2025-05-10 08:32",8,34.730449,-112.13883,TRUE,FALSE,TRUE,"S235672145"
"329","virwar","Virginia's Warbler","Leiothlypis virginiae","L1048015","395 Animas Creek Road 1","2025-05-10 08:30",1,32.9760601,-107.37665,TRUE,FALSE,TRUE,"S235973883"
"330","virwar","Virginia's Warbler","Leiothlypis virginiae","L743334","Yampa River Preserve","2025-05-10 08:30",1,40.4851146,-107.1533844,TRUE,FALSE,FALSE,"S236039899"
"331","virwar","Virginia's Warbler","Leiothlypis virginiae","L839345","Rio Grande Nature Center SP--Visitor Center","2025-05-10 08:30",1,35.1304869,-106.6837344,TRUE,FALSE,FALSE,"S235876350"
"332","virwar","Virginia's Warbler","Leiothlypis virginiae","L3292817","See Canyon","2025-05-10 08:30",1,34.3442535,-111.0158856,TRUE,FALSE,FALSE,"S236043839"
"333","virwar","Virginia's Warbler","Leiothlypis virginiae","L716137","Fountain Creek Regional Park--Area 7W","2025-05-10 08:25",1,38.6930048,-104.7128713,TRUE,FALSE,FALSE,"S235779983"
"334","virwar","Virginia's Warbler","Leiothlypis virginiae","L1285882","Los Poblanos Open Space","2025-05-10 08:22",1,35.1451785,-106.657033,TRUE,FALSE,FALSE,"S235597520"
"335","virwar","Virginia's Warbler","Leiothlypis virginiae","L31228015","Mt. Lemmon--Bigelow Trailhead","2025-05-10 08:19",1,32.4097979,-110.7132959,TRUE,FALSE,FALSE,"S235974622"
"336","virwar","Virginia's Warbler","Leiothlypis virginiae","L127945","Bosque del Apache NWR","2025-05-10 08:19",3,33.802,-106.88,TRUE,FALSE,FALSE,"S235806217"
"337","virwar","Virginia's Warbler","Leiothlypis virginiae","L4668778","Bandelier NM--Cerro Grande Trail","2025-05-10 08:17",3,35.8484241,-106.4217804,TRUE,FALSE,FALSE,"S235817561"
"338","virwar","Virginia's Warbler","Leiothlypis virginiae","L1141288","Upstream of Cave CG","2025-05-10 08:17",1,35.0025464,-111.7361069,TRUE,FALSE,TRUE,"S235643887"
"339","virwar","Virginia's Warbler","Leiothlypis virginiae","L450816","Pasture Canyon","2025-05-10 08:14",1,36.1281698,-111.2120247,TRUE,FALSE,FALSE,"S235638045"
"340","virwar","Virginia's Warbler","Leiothlypis virginiae","L3754339","Grey Rock Trail","2025-05-10 08:14",1,40.6946702,-105.2833748,TRUE,FALSE,FALSE,"S236664487"
"341","virwar","Virginia's Warbler","Leiothlypis virginiae","L13331912","Yard birds 5705 University Blvd SE, Albuquerque US-NM 34.98822, -106.61560","2025-05-10 08:12",1,34.98822,-106.615603,TRUE,FALSE,TRUE,"S235550423"
"342","virwar","Virginia's Warbler","Leiothlypis virginiae","L508167","Causey Reservoir ","2025-05-10 08:10",1,41.2992503,-111.5869761,TRUE,FALSE,FALSE,"S236426836"
"343","virwar","Virginia's Warbler","Leiothlypis virginiae","L1812385","Durand Open Space & adjacent bosque trails","2025-05-10 08:09",1,35.0034604,-106.6897988,TRUE,FALSE,FALSE,"S235612977"
"344","virwar","Virginia's Warbler","Leiothlypis virginiae","L169112","Hassayampa River Preserve","2025-05-10 08:09",1,33.9333419,-112.6946297,TRUE,FALSE,FALSE,"S235800370"
"345","virwar","Virginia's Warbler","Leiothlypis virginiae","L44053880","Sheep Corral Canyon Rd","2025-05-10 08:08",1,32.9689272,-108.2210343,TRUE,FALSE,TRUE,"S235893833"
"346","virwar","Virginia's Warbler","Leiothlypis virginiae","L31790874","Tonto National Forest, Superior US-AZ (33.2617,-111.1328) Arnett Canyon","2025-05-10 08:07",1,33.261743,-111.132836,TRUE,FALSE,TRUE,"S237175580"
"347","virwar","Virginia's Warbler","Leiothlypis virginiae","L753821","Oak Creek Canyon--West Fork","2025-05-10 08:04",3,34.988,-111.7477,TRUE,FALSE,FALSE,"S236023648"
"348","virwar","Virginia's Warbler","Leiothlypis virginiae","L25402477","Sims Mesa_Dave Wood InterpretiveTrail, Montrose US-CO 38.30553, -107.96311","2025-05-10 08:02",2,38.305531,-107.963105,TRUE,FALSE,TRUE,"S235982637"
"349","virwar","Virginia's Warbler","Leiothlypis virginiae","L6614470","Zion NP--La Verkin Creek Trail","2025-05-10 08:01",1,37.4054828,-113.1911516,TRUE,FALSE,FALSE,"S236021223"
"350","virwar","Virginia's Warbler","Leiothlypis virginiae","L44585035","Intemann Trail, Manitou Springs US-CO 38.84281, -104.90328","2025-05-10 07:57",5,38.842814,-104.903281,TRUE,FALSE,TRUE,"S235632274"
"351","virwar","Virginia's Warbler","Leiothlypis virginiae","L38543127","Southern (Woodpecker) Crossing","2025-05-10 07:56",2,34.9931615,-106.3478689,TRUE,FALSE,TRUE,"S235534288"
"352","virwar","Virginia's Warbler","Leiothlypis virginiae","L444070","Glenwood Fish Hatchery","2025-05-10 07:53",3,33.3210796,-108.8802463,TRUE,FALSE,FALSE,"S235579564"
"353","virwar","Virginia's Warbler","Leiothlypis virginiae","L39226925","CBJB Home","2025-05-10 07:42",1,31.4270693,-110.2484136,TRUE,FALSE,TRUE,"S235594736"
"354","virwar","Virginia's Warbler","Leiothlypis virginiae","L1668746","Harshaw Rd","2025-05-10 07:42",1,31.4863091,-110.6951871,TRUE,FALSE,TRUE,"S235940243"
"355","virwar","Virginia's Warbler","Leiothlypis virginiae","L36955371","Wilderness of Rocks Trail (#44)","2025-05-10 07:40",2,32.4317348,-110.7766512,TRUE,FALSE,TRUE,"S235808183"
"356","virwar","Virginia's Warbler","Leiothlypis virginiae","L343285","Fairview Cemetery (Chaffee)","2025-05-10 07:40",2,38.5398118,-106.0306264,TRUE,FALSE,FALSE,"S235687871"
"357","virwar","Virginia's Warbler","Leiothlypis virginiae","L548515","Salinas Pueblo Missions NM--Quarai Ruins","2025-05-10 07:36",1,34.5948689,-106.2952298,TRUE,FALSE,FALSE,"S235732339"
"358","virwar","Virginia's Warbler","Leiothlypis virginiae","L1181883","Little Elden Springs","2025-05-10 07:34",3,35.2767952,-111.5804261,TRUE,FALSE,FALSE,"S235630095"
"359","virwar","Virginia's Warbler","Leiothlypis virginiae","L4837312","Black Canyon of the Gunnison NP--Oak Flats Trail","2025-05-10 07:31",7,38.5545422,-107.6910889,TRUE,FALSE,FALSE,"S235801093"
"360","virwar","Virginia's Warbler","Leiothlypis virginiae","L5898018","Sandia Canyon Wetlands (no public access)","2025-05-10 07:30",1,35.8748927,-106.3132918,TRUE,FALSE,TRUE,"S235576494"
"361","virwar","Virginia's Warbler","Leiothlypis virginiae","L44649506","Rocking Chair Ranch","2025-05-10 07:30",NA,31.5218497,-110.7013019,TRUE,FALSE,TRUE,"S235968913"
"362","virwar","Virginia's Warbler","Leiothlypis virginiae","L11744437","101 monument ridge road","2025-05-10 07:30",4,39.4260817,-108.0273567,TRUE,FALSE,TRUE,"S235685227"
"363","virwar","Virginia's Warbler","Leiothlypis virginiae","L27488036","Old St. Vrain Road","2025-05-10 07:28",1,40.2058757,-105.2791809,TRUE,FALSE,TRUE,"S235838793"
"364","virwar","Virginia's Warbler","Leiothlypis virginiae","L15683592","Wardsworth Trail","2025-05-10 07:27",1,40.196525,-111.385409,TRUE,FALSE,FALSE,"S235748857"
"365","virwar","Virginia's Warbler","Leiothlypis virginiae","L2413068","Madera Canyon--Carrie Nation Trail","2025-05-10 07:25",4,31.704511,-110.8764482,TRUE,FALSE,FALSE,"S236452611"
"366","virwar","Virginia's Warbler","Leiothlypis virginiae","L5547006","Gila Bird Area--Pancho Canyon","2025-05-10 07:23",1,32.8475906,-108.592566,TRUE,FALSE,FALSE,"S235708079"
"367","virwar","Virginia's Warbler","Leiothlypis virginiae","L285737","Chico Basin Ranch (Pueblo Co) (mandatory registration required at www.aikenaudubon.com)","2025-05-10 07:20",1,38.48682,-104.43801,TRUE,FALSE,FALSE,"S235944423"
"368","virwar","Virginia's Warbler","Leiothlypis virginiae","L463371","Gila Lower Box Canyon","2025-05-10 07:16",1,32.632942,-108.8611221,TRUE,FALSE,FALSE,"S235684750"
"369","virwar","Virginia's Warbler","Leiothlypis virginiae","L6718077","3 Canyons Ranch (west of Deer Ridge Trail)","2025-05-10 07:15",1,31.4089416,-110.2331257,TRUE,FALSE,TRUE,"S235697115"
"370","virwar","Virginia's Warbler","Leiothlypis virginiae","L140759","Oak Grove CG (Washington Co.)","2025-05-10 07:08",1,37.316864,-113.4526596,TRUE,FALSE,FALSE,"S235531290"
"371","virwar","Virginia's Warbler","Leiothlypis virginiae","L283017","Sugarite Canyon SP","2025-05-10 07:07",1,36.9608791,-104.3888275,TRUE,FALSE,FALSE,"S235519214"
"372","virwar","Virginia's Warbler","Leiothlypis virginiae","L365236","Mesa Trail Complex","2025-05-10 07:03",5,39.9403107,-105.2607393,TRUE,FALSE,FALSE,"S235743831"
"373","virwar","Virginia's Warbler","Leiothlypis virginiae","L1000726","UNM--Main Campus (including Duck Pond)","2025-05-10 07:01",1,35.084377,-106.6203403,TRUE,FALSE,FALSE,"S235638889"
"374","virwar","Virginia's Warbler","Leiothlypis virginiae","L44738037","Knife Edge Trail, Mancos US-CO 37.30433, -108.42546","2025-05-10 07:01",7,37.304328,-108.425458,TRUE,FALSE,TRUE,"S236441624"
"375","virwar","Virginia's Warbler","Leiothlypis virginiae","L32434775","Castle Rocks","2025-05-10 07:00",1,42.100486,-113.633619,TRUE,FALSE,TRUE,"S235748141"
"376","virwar","Virginia's Warbler","Leiothlypis virginiae","L21229912","Home","2025-05-10 06:50",2,33.2783822,-108.8744192,TRUE,FALSE,TRUE,"S235730657"
"377","virwar","Virginia's Warbler","Leiothlypis virginiae","L6233301","Enchantment Resort (Private)","2025-05-10 06:50",1,34.914883,-111.853795,TRUE,FALSE,TRUE,"S235531398"
"378","virwar","Virginia's Warbler","Leiothlypis virginiae","L44617364","Unnamed Road, Colorado, US (38.783, -108.591)","2025-05-10 06:49",1,38.7826723,-108.5910201,TRUE,FALSE,TRUE,"S235780365"
"379","virwar","Virginia's Warbler","Leiothlypis virginiae","L129080","San Pedro RNCA--San Pedro House and trails","2025-05-10 06:48",2,31.5478992,-110.1408997,TRUE,FALSE,FALSE,"S235609374"
"380","virwar","Virginia's Warbler","Leiothlypis virginiae","L3156434","Bosque del Apache NWR--Flight Deck","2025-05-10 06:45",1,33.8049577,-106.8843985,TRUE,FALSE,FALSE,"S235681791"
"381","virwar","Virginia's Warbler","Leiothlypis virginiae","L9426032","Pinal Mt.- Ice House Canyon/lower FS 112","2025-05-10 06:45",1,33.3395663,-110.7983512,TRUE,FALSE,TRUE,"S235785710"
"382","virwar","Virginia's Warbler","Leiothlypis virginiae","L14245182","Eastside Bosque North of NM-346","2025-05-10 06:45",1,34.551054,-106.762403,TRUE,FALSE,FALSE,"S235842469"
"383","virwar","Virginia's Warbler","Leiothlypis virginiae","L10786942","Williamson/Wood home - Mill Rd.","2025-05-10 06:44",1,31.4095525,-109.8806739,TRUE,FALSE,TRUE,"S235618441"
"384","virwar","Virginia's Warbler","Leiothlypis virginiae","L14555272","1901 Court Street, Pueblo, Colorado, US (38.285, -104.611)","2025-05-10 06:38",1,38.2848974,-104.6107035,TRUE,FALSE,TRUE,"S235492226"
"385","virwar","Virginia's Warbler","Leiothlypis virginiae","L306865","Apache-Sitgreaves NF--Ice Cave Trail","2025-05-10 06:35",2,34.1709993,-109.9623012,TRUE,FALSE,FALSE,"S236987508"
"386","virwar","Virginia's Warbler","Leiothlypis virginiae","L129052","Patagonia-Sonoita Creek Preserve","2025-05-10 06:33",1,31.528,-110.775,TRUE,FALSE,FALSE,"S235829921"
"387","virwar","Virginia's Warbler","Leiothlypis virginiae","L1358840","Bosque del Apache NWR--North Loop (formerly Farm Loop)","2025-05-10 06:31",4,33.8151614,-106.8722406,TRUE,FALSE,FALSE,"S235884439"
"388","virwar","Virginia's Warbler","Leiothlypis virginiae","L19106546","Along Aravaipa Road from campgrounds to East Trailhead","2025-05-10 06:30",3,32.8975375,-110.4287235,TRUE,FALSE,TRUE,"S237177279"
"389","virwar","Virginia's Warbler","Leiothlypis virginiae","L720652","Ramsey Canyon Inn (opened 1988)","2025-05-10 06:30",1,31.4486597,-110.3068952,TRUE,FALSE,FALSE,"S236558254"
"390","virwar","Virginia's Warbler","Leiothlypis virginiae","L18916410","33 Raven Wing Dr., Mogollon, New Mexico, US (33.309, -108.88)","2025-05-10 06:30",1,33.3087776,-108.8796779,TRUE,FALSE,TRUE,"S236022577"
"391","virwar","Virginia's Warbler","Leiothlypis virginiae","L19622766","7 White Fir Ct, Littleton US-CO 39.57685, -105.17057","2025-05-10 06:30",1,39.576845,-105.170567,TRUE,FALSE,TRUE,"S235741029"
"392","virwar","Virginia's Warbler","Leiothlypis virginiae","L504757","Hobble Creek Canyon -- Right Fork","2025-05-10 06:27",1,40.2004777,-111.4144886,TRUE,FALSE,FALSE,"S235748156"
"393","virwar","Virginia's Warbler","Leiothlypis virginiae","L44624588","81527, Whitewater US-CO 38.78001, -108.59358","2025-05-10 06:17",2,38.780005,-108.593577,TRUE,FALSE,TRUE,"S235817986"
"394","virwar","Virginia's Warbler","Leiothlypis virginiae","L270303","Watson Lake and Riparian Preserve","2025-05-10 06:15",1,34.5822319,-112.4259328,TRUE,FALSE,FALSE,"S235575797"
"395","virwar","Virginia's Warbler","Leiothlypis virginiae","L268644","Pima Canyon","2025-05-10 06:15",1,32.3616486,-110.9258201,TRUE,FALSE,FALSE,"S235736571"
"396","virwar","Virginia's Warbler","Leiothlypis virginiae","L44553724","Nevada 157, Mount Charleston, Nevada, US (36.263, -115.613)","2025-05-10 06:15",2,36.263225,-115.6125968,TRUE,FALSE,TRUE,"S235482603"
"397","virwar","Virginia's Warbler","Leiothlypis virginiae","L4531039","Rio Grande Valley SP--I-40 Bosque Trails","2025-05-10 06:12",1,35.105794,-106.6911878,TRUE,FALSE,FALSE,"S235809863"
"398","virwar","Virginia's Warbler","Leiothlypis virginiae","L20404090","Burn Canyon Trailhead","2025-05-10 06:06",1,38.1382734,-108.3385831,TRUE,FALSE,TRUE,"S236410537"
"399","virwar","Virginia's Warbler","Leiothlypis virginiae","L266623","Oak Creek Canyon--Cave Springs CG","2025-05-10 06:05",2,34.9987102,-111.7397091,TRUE,FALSE,FALSE,"S236068425"
"400","virwar","Virginia's Warbler","Leiothlypis virginiae","L332319","Gregory Canyon","2025-05-10 05:57",1,39.9974935,-105.2927718,TRUE,FALSE,FALSE,"S235481748"
"401","virwar","Virginia's Warbler","Leiothlypis virginiae","L5207856","Zion NP--Kolob Canyon Hike","2025-05-10 05:50",9,37.4230201,-113.155961,TRUE,FALSE,FALSE,"S236020922"
"402","virwar","Virginia's Warbler","Leiothlypis virginiae","L710850","Glendale Recharge Ponds","2025-05-10 05:48",1,33.5242237,-112.286582,TRUE,FALSE,FALSE,"S235642742"
"403","virwar","Virginia's Warbler","Leiothlypis virginiae","L967125","Becker Lake WA--River Walk Trail","2025-05-10 05:33",2,34.1443097,-109.2955542,TRUE,FALSE,FALSE,"S235556975"
"404","virwar","Virginia's Warbler","Leiothlypis virginiae","L4558235","Lowell Observatory","2025-05-10 05:30",1,35.2024105,-111.6647387,TRUE,FALSE,FALSE,"S235503596"
"405","virwar","Virginia's Warbler","Leiothlypis virginiae","L44573342","Divide Road, Colorado, US (38.78, -108.594)","2025-05-10 05:20",4,38.7796835,-108.5937269,TRUE,FALSE,TRUE,"S235580571"
"406","virwar","Virginia's Warbler","Leiothlypis virginiae","L876690","San Pedro River--San Manuel Crossing","2025-05-10 05:10",1,32.6003009,-110.5358934,TRUE,FALSE,FALSE,"S236296222"
"407","virwar","Virginia's Warbler","Leiothlypis virginiae","L610483","Peavine Campground","2025-05-10 05:00",9,38.6177423,-117.3044264,TRUE,FALSE,TRUE,"S235611540"
"408","virwar","Virginia's Warbler","Leiothlypis virginiae","L44791526","Tonto National Forest, Superior US-AZ LOST parking(33.2765,-111.1373)","2025-05-10 04:55",2,33.276546,-111.137302,TRUE,FALSE,TRUE,"S236794519"
"409","virwar","Virginia's Warbler","Leiothlypis virginiae","L281271","McMillen Campground","2025-05-10",1,32.9231651,-108.2129534,TRUE,FALSE,FALSE,"S236952057"
"410","virwar","Virginia's Warbler","Leiothlypis virginiae","L44831637","Gila NF–Trout Creek","2025-05-10",1,32.9729638,-108.219662,TRUE,FALSE,TRUE,"S236946397"
"411","virwar","Virginia's Warbler","Leiothlypis virginiae","L1322958","Gila NF--Signal Peak Trail/Road","2025-05-10",1,32.9411236,-108.1958485,TRUE,FALSE,FALSE,"S236948187"
"412","virwar","Virginia's Warbler","Leiothlypis virginiae","L748283","Gila NF--Cherry Creek Campground","2025-05-10",1,32.9142967,-108.2246983,TRUE,FALSE,FALSE,"S236954847"
"413","virwar","Virginia's Warbler","Leiothlypis virginiae","L44513452","11840 E Chama Rd, Scottsdale US-AZ 33.71127, -111.82480","2025-05-09 19:35",1,33.711272,-111.824796,TRUE,FALSE,TRUE,"S235273602"
"414","virwar","Virginia's Warbler","Leiothlypis virginiae","L4886451","Dolores Canyon","2025-05-09 19:08",2,37.8043589,-108.8194942,TRUE,FALSE,FALSE,"S235785249"
"415","virwar","Virginia's Warbler","Leiothlypis virginiae","L7097167","Climax Canyon Park & Nature Trail","2025-05-09 18:36",1,36.9007002,-104.4517529,TRUE,FALSE,FALSE,"S235257867"
"416","virwar","Virginia's Warbler","Leiothlypis virginiae","L44229514","Sulphur Trail, Cedar Crest US-NM 35.17430, -106.37881","2025-05-09 17:13",1,35.174295,-106.378814,TRUE,FALSE,TRUE,"S235784363"
"417","virwar","Virginia's Warbler","Leiothlypis virginiae","L268435","Appleton-Whittell Research Ranch","2025-05-09 16:35",1,31.59073,-110.51038,TRUE,FALSE,FALSE,"S235295633"
"418","virwar","Virginia's Warbler","Leiothlypis virginiae","L585741","Spring Mountains NRA--Fletcher Canyon","2025-05-09 16:10",1,36.2660753,-115.6122851,TRUE,FALSE,FALSE,"S235231037"
"419","virwar","Virginia's Warbler","Leiothlypis virginiae","L2643449","Near Lory State Park","2025-05-09 16:07",1,40.5909284,-105.2027607,TRUE,FALSE,TRUE,"S235223529"
"420","virwar","Virginia's Warbler","Leiothlypis virginiae","L1215562","Pinal Mountains--Ferndell Spring","2025-05-09 14:00",4,33.287579,-110.8262292,TRUE,FALSE,FALSE,"S235237812"
"421","virwar","Virginia's Warbler","Leiothlypis virginiae","L44589573","Water canyon scout trip","2025-05-09 13:55",1,34.013219,-107.137315,TRUE,FALSE,TRUE,"S235645565"
"422","virwar","Virginia's Warbler","Leiothlypis virginiae","L5840697","Russell Reservoir (private; view from road)","2025-05-09 13:28",1,37.1592563,-105.0196195,TRUE,FALSE,FALSE,"S235158643"
"423","virwar","Virginia's Warbler","Leiothlypis virginiae","L16390032","Home Feeders","2025-05-09 13:09",1,32.78056,-108.270961,TRUE,FALSE,TRUE,"S235149601"
"424","virwar","Virginia's Warbler","Leiothlypis virginiae","L1249312","Starsmore Discovery Center","2025-05-09 12:45",1,38.7908249,-104.8653656,TRUE,FALSE,FALSE,"S235176451"
"425","virwar","Virginia's Warbler","Leiothlypis virginiae","L392186","Natural Bridges NM","2025-05-09 12:44",2,37.5933534,-110.0101811,TRUE,FALSE,FALSE,"S235246951"
"426","virwar","Virginia's Warbler","Leiothlypis virginiae","L2915651","Rio Grande Valley SP--Tijeras Arroyo Bosque Trails","2025-05-09 12:39",1,35.0109278,-106.673491,TRUE,FALSE,FALSE,"S235239446"
"427","virwar","Virginia's Warbler","Leiothlypis virginiae","L258440","Pinal Mountains--Pinal Peak above 7000 ft elevation","2025-05-09 11:45",4,33.2822014,-110.8211602,TRUE,FALSE,FALSE,"S235236741"
"428","virwar","Virginia's Warbler","Leiothlypis virginiae","L247122","Paton Center for Hummingbirds (Patons' Yard)","2025-05-09 11:36",1,31.5390131,-110.7606337,TRUE,FALSE,FALSE,"S236541135"
"429","virwar","Virginia's Warbler","Leiothlypis virginiae","L44481142","Highline Trail, Washington US-UT 37.31736, -113.44391","2025-05-09 11:18",1,37.317361,-113.443909,TRUE,FALSE,TRUE,"S235106695"
"430","virwar","Virginia's Warbler","Leiothlypis virginiae","L5703956","Pinal Mountains--Madera Peak Rd (FR 580)","2025-05-09 11:00",7,33.3048872,-110.8708692,TRUE,FALSE,FALSE,"S235234847"
"431","virwar","Virginia's Warbler","Leiothlypis virginiae","L2766903","Valley of Fire SP","2025-05-09 10:40",1,36.429708,-114.5138991,TRUE,FALSE,FALSE,"S235241685"
"432","virwar","Virginia's Warbler","Leiothlypis virginiae","L144858","Riparian Preserve at Gilbert Water Ranch","2025-05-09 10:32",1,33.3614502,-111.7339478,TRUE,FALSE,FALSE,"S237325099"
"433","virwar","Virginia's Warbler","Leiothlypis virginiae","L300609","Salt River--Granite Reef Recreation Area","2025-05-09 10:23",1,33.5145045,-111.6815139,TRUE,FALSE,FALSE,"S235203387"
"434","virwar","Virginia's Warbler","Leiothlypis virginiae","L352952","Devil's Canyon CG","2025-05-09 10:22",3,37.7387361,-109.4066839,TRUE,FALSE,FALSE,"S235114379"
"435","virwar","Virginia's Warbler","Leiothlypis virginiae","L589679","Bandelier NM--Pueblo Loop Trail","2025-05-09 10:20",2,35.7825972,-106.2743193,TRUE,FALSE,FALSE,"S235267218"
"436","virwar","Virginia's Warbler","Leiothlypis virginiae","L44500254","Fletcher Canyon Trail, Las Vegas US-NV 36.26413, -115.61135","2025-05-09 10:10",10,36.264134,-115.611353,TRUE,FALSE,TRUE,"S235203056"
"437","virwar","Virginia's Warbler","Leiothlypis virginiae","L36546608","Stone Canyon Outdoor EdVentures (restricted access)","2025-05-09 10:09",2,39.186271,-104.925312,TRUE,FALSE,TRUE,"S235079742"
"438","virwar","Virginia's Warbler","Leiothlypis virginiae","L44477610","Bonneville Shoreline Trail, Provo US-UT 40.32046, -111.63591","2025-05-09 10:06",7,40.32046,-111.635913,TRUE,FALSE,TRUE,"S235087905"
"439","virwar","Virginia's Warbler","Leiothlypis virginiae","L44491755","Forest Service Road 42B, San Simon US-AZ 31.92660, -109.26730","2025-05-09 09:55",1,31.9266,-109.267298,TRUE,FALSE,TRUE,"S235159600"
"440","virwar","Virginia's Warbler","Leiothlypis virginiae","L15834458","Colorado NM--Upper Ute Canyon Overlook","2025-05-09 09:55",2,39.0430063,-108.7152532,TRUE,FALSE,FALSE,"S235182901"
"441","virwar","Virginia's Warbler","Leiothlypis virginiae","L18995078","Hermosa Trail, N of Lower Hermosa Campground","2025-05-09 09:29",2,37.4611419,-107.8554733,TRUE,FALSE,TRUE,"S235112035"
"442","virwar","Virginia's Warbler","Leiothlypis virginiae","L41639380","Sharyn Road","2025-05-09 09:21",1,34.3720463,-111.4581807,TRUE,FALSE,TRUE,"S235111916"
"443","virwar","Virginia's Warbler","Leiothlypis virginiae","L4950325","Black Canyon of the Gunnison NP--South Rim Campground","2025-05-09 09:20",4,38.5433993,-107.6890182,TRUE,FALSE,FALSE,"S235560279"
"444","virwar","Virginia's Warbler","Leiothlypis virginiae","L1542525","Mesa Verde NP--Geologic Overlook","2025-05-09 09:15",5,37.2776726,-108.4834509,TRUE,FALSE,FALSE,"S235148308"
"445","virwar","Virginia's Warbler","Leiothlypis virginiae","L44490163","House on fire","2025-05-09 09:15",4,37.5376419,-109.7320595,TRUE,FALSE,TRUE,"S235156351"
"446","virwar","Virginia's Warbler","Leiothlypis virginiae","L40198831","Pontatoc Trail #410--lower","2025-05-09 09:13",2,32.342072,-110.898236,TRUE,FALSE,TRUE,"S235138473"
"447","virwar","Virginia's Warbler","Leiothlypis virginiae","L2723027","Bandelier NM--Ponderosa Trail","2025-05-09 09:07",4,35.8265821,-106.3588786,TRUE,FALSE,FALSE,"S235125919"
"448","virwar","Virginia's Warbler","Leiothlypis virginiae","L9946984","Hogsback Mountain","2025-05-09 09:02",6,37.2842971,-107.8965998,TRUE,FALSE,FALSE,"S235102366"
"449","virwar","Virginia's Warbler","Leiothlypis virginiae","L300587","Pinal Mountains--Sulfide del Rey Campground","2025-05-09 09:00",6,33.29467,-110.86638,TRUE,FALSE,FALSE,"S235233556"
"450","virwar","Virginia's Warbler","Leiothlypis virginiae","L19172929","Aspen Draw Tr Coronado National Forest, Tucson US-AZ (32.4482,-110.7673)","2025-05-09 08:50",4,32.448181,-110.767253,TRUE,FALSE,TRUE,"S236011466"
"451","virwar","Virginia's Warbler","Leiothlypis virginiae","L847245","Bosque del Apache NWR--Visitor Center (do not use for whole refuge)","2025-05-09 08:40",1,33.805018,-106.8907768,TRUE,FALSE,FALSE,"S235074891"
"452","virwar","Virginia's Warbler","Leiothlypis virginiae","L746924","Grand Canyon NP--South Kaibab Trail","2025-05-09 08:36",1,36.0645726,-112.0897293,TRUE,FALSE,FALSE,"S235271309"
"453","virwar","Virginia's Warbler","Leiothlypis virginiae","L16723823","Unnamed Road, Montrose, Colorado, US (38.473, -107.773)","2025-05-09 08:34",1,38.4731306,-107.7729985,TRUE,FALSE,TRUE,"S235042370"
"454","virwar","Virginia's Warbler","Leiothlypis virginiae","L36390054","Gaddess Trail/canyon","2025-05-09 08:30",2,34.670258,-112.13835,TRUE,FALSE,TRUE,"S235860227"
"455","virwar","Virginia's Warbler","Leiothlypis virginiae","L34141469","73 Red Rooster Rd, Durango US-CO 37.24591, -107.71680","2025-05-09 08:30",1,37.245914,-107.716801,TRUE,FALSE,TRUE,"S235030107"
"456","virwar","Virginia's Warbler","Leiothlypis virginiae","L2714898","The Jail Trail","2025-05-09 08:29",1,34.7496668,-112.0269971,TRUE,FALSE,FALSE,"S235104476"
"457","virwar","Virginia's Warbler","Leiothlypis virginiae","L208918","Sweetwater Wetlands","2025-05-09 08:27",1,32.2790144,-111.0216061,TRUE,FALSE,FALSE,"S235111536"
"458","virwar","Virginia's Warbler","Leiothlypis virginiae","L200055","Cibola NF--Water Canyon","2025-05-09 08:19",1,34.0231527,-107.1310644,TRUE,FALSE,FALSE,"S235198389"
"459","virwar","Virginia's Warbler","Leiothlypis virginiae","L6573881","Rio Grande Valley SP--Shining River Bosque Trails","2025-05-09 08:13",2,35.1820745,-106.6485077,TRUE,FALSE,FALSE,"S235088055"
"460","virwar","Virginia's Warbler","Leiothlypis virginiae","L12674627","Taos House Loop","2025-05-09 08:08",1,36.3800753,-105.5736507,TRUE,FALSE,TRUE,"S235023042"
"461","virwar","Virginia's Warbler","Leiothlypis virginiae","L296633","Madera Canyon--Mt. Wrightson Picnic Area & Upper Canyon Trails","2025-05-09 08:06",1,31.7124,-110.8744,TRUE,FALSE,FALSE,"S235257617"
"462","virwar","Virginia's Warbler","Leiothlypis virginiae","L157662","Grand Staircase-Escalante NM--Lower Calf Creek Trail","2025-05-09 08:04",1,37.8220597,-111.4184262,TRUE,FALSE,FALSE,"S235133678"
"463","virwar","Virginia's Warbler","Leiothlypis virginiae","L7819691","Pinal Mt. -- Lower FS Rd 651 (Kellner Canyon/Russel Rd junction","2025-05-09 08:00",2,33.3229557,-110.8495058,TRUE,FALSE,TRUE,"S235231686"
"464","virwar","Virginia's Warbler","Leiothlypis virginiae","L2439237","Chimney Gulch Trail","2025-05-09 07:55",2,39.7488189,-105.2334023,TRUE,FALSE,FALSE,"S235125577"
"465","virwar","Virginia's Warbler","Leiothlypis virginiae","L986620","Jacks Canyon Area","2025-05-09 07:52",3,38.8016075,-108.58567,TRUE,FALSE,FALSE,"S235130839"
"466","virwar","Virginia's Warbler","Leiothlypis virginiae","L357457","Corrales Bosque--Romero Rd. Entrance","2025-05-09 07:52",1,35.256019,-106.5954924,TRUE,FALSE,FALSE,"S235215228"
"467","virwar","Virginia's Warbler","Leiothlypis virginiae","L16065959","776 Dixon Rd, Corrales US-NM 35.22682, -106.59962","2025-05-09 07:51",1,35.22682,-106.599623,TRUE,FALSE,TRUE,"S235080583"
"468","virwar","Virginia's Warbler","Leiothlypis virginiae","L25191702","Spring Mountains NRA--Kyle Canyon Picnic Area & Campground","2025-05-09 07:47",2,36.2627075,-115.6080688,TRUE,FALSE,FALSE,"S235074276"
"469","virwar","Virginia's Warbler","Leiothlypis virginiae","L12175736","Durango West 2","2025-05-09 07:47",1,37.2666934,-107.9908011,TRUE,FALSE,TRUE,"S235057394"
"470","virwar","Virginia's Warbler","Leiothlypis virginiae","L3199748","Bonneville Shoreline Trail--Parley's to Big Cottonwood Canyon","2025-05-09 07:43",3,40.6580213,-111.8008983,TRUE,FALSE,FALSE,"S235139289"
"471","virwar","Virginia's Warbler","Leiothlypis virginiae","L3492606","Hidden Valley Park","2025-05-09 07:42",2,40.539406,-111.8134779,TRUE,FALSE,FALSE,"S235095960"
"472","virwar","Virginia's Warbler","Leiothlypis virginiae","L8441967","103 Camino Del Campo","2025-05-09 07:32",1,35.688591,-105.946171,TRUE,FALSE,TRUE,"S234999747"
"473","virwar","Virginia's Warbler","Leiothlypis virginiae","L44463220","County Road 27, Dolores US-CO 37.49305, -108.54635","2025-05-09 07:32",2,37.493045,-108.546349,TRUE,FALSE,TRUE,"S235007041"
"474","virwar","Virginia's Warbler","Leiothlypis virginiae","L583547","Davis Mountains Resort (Restricted Access)","2025-05-09 07:30",1,30.6173798,-104.0970039,TRUE,FALSE,FALSE,"S235268019"
"475","virwar","Virginia's Warbler","Leiothlypis virginiae","L44492890","81527, Whitewater US-CO 38.77998, -108.59368","2025-05-09 07:24",4,38.779977,-108.593678,TRUE,FALSE,TRUE,"S235164424"
"476","virwar","Virginia's Warbler","Leiothlypis virginiae","L44491715","11701 S Downing Pass, San Simon US-AZ 31.92892, -109.25711","2025-05-09 07:13",1,31.928922,-109.257108,TRUE,FALSE,TRUE,"S235158589"
"477","virwar","Virginia's Warbler","Leiothlypis virginiae","L3623818","Big Bend NP--Boot Canyon Trail","2025-05-09 07:08",1,29.2482183,-103.2933675,TRUE,FALSE,FALSE,"S235227532"
"478","virwar","Virginia's Warbler","Leiothlypis virginiae","L1255505","Garden Canyon Rd.--grasslands only","2025-05-09 07:07",1,31.5061448,-110.3183153,TRUE,FALSE,FALSE,"S235056827"
"479","virwar","Virginia's Warbler","Leiothlypis virginiae","L44490600","PIJA Survey Plot 233","2025-05-09 07:01",5,36.702136,-106.047319,TRUE,FALSE,TRUE,"S235153597"
"480","virwar","Virginia's Warbler","Leiothlypis virginiae","L5001486","Upper Hunter Canyon Trail","2025-05-09 07:00",1,31.4024435,-110.2696245,TRUE,FALSE,FALSE,"S235102910"
"481","virwar","Virginia's Warbler","Leiothlypis virginiae","L44465212","Poolside Escape","2025-05-09 07:00",1,31.5428746,-110.7294185,TRUE,FALSE,TRUE,"S235522897"
"482","virwar","Virginia's Warbler","Leiothlypis virginiae","L44323692","Three Falls Dr, Alpine","2025-05-09 06:53",1,40.489714,-111.773509,TRUE,FALSE,TRUE,"S235055363"
"483","virwar","Virginia's Warbler","Leiothlypis virginiae","L130673","Clear Spring Ranch","2025-05-09 06:41",1,38.6126414,-104.6770847,TRUE,FALSE,FALSE,"S235072021"
"484","virwar","Virginia's Warbler","Leiothlypis virginiae","L31307879","427–499 E Continental Dr, Payson US-AZ 34.22990, -111.31813","2025-05-09 06:32",1,34.229899,-111.318131,TRUE,FALSE,TRUE,"S234991192"
"485","virwar","Virginia's Warbler","Leiothlypis virginiae","L580481","Mt. Lemmon--Babad Do'ag Vista","2025-05-09 06:30",2,32.30937,-110.721,TRUE,FALSE,FALSE,"S234999524"
"486","virwar","Virginia's Warbler","Leiothlypis virginiae","L3635416","Divide Road--Rocky Pitch Loop Trail 664 Area","2025-05-09 06:15",1,38.7839297,-108.6074924,TRUE,FALSE,FALSE,"S234980384"
"487","virwar","Virginia's Warbler","Leiothlypis virginiae","L2354669","New River Nature Reserve","2025-05-09 06:12",1,33.9530788,-112.1353483,TRUE,FALSE,FALSE,"S235067392"
"488","virwar","Virginia's Warbler","Leiothlypis virginiae","L44454815","Divide Road, Colorado, US (38.787, -108.604)","2025-05-09 06:11",1,38.7870472,-108.6037257,TRUE,FALSE,TRUE,"S234973295"
"489","virwar","Virginia's Warbler","Leiothlypis virginiae","L3565887","11467 N. Eagle Peak Drive","2025-05-09 06:00",1,32.4147477,-110.9904957,TRUE,FALSE,TRUE,"S235087192"
"490","virwar","Virginia's Warbler","Leiothlypis virginiae","L2427011","Chiricahua Mtns.--Whitetail Canyon","2025-05-09 06:00",1,31.9994008,-109.2720124,TRUE,FALSE,TRUE,"S235178540"
"491","virwar","Virginia's Warbler","Leiothlypis virginiae","L44492619","4692–4810 Uncompahgre Divide Rd, Whitewater US-CO 38.78577, -108.60126","2025-05-09 05:56",1,38.785766,-108.601258,TRUE,FALSE,TRUE,"S235163030"
"492","virwar","Virginia's Warbler","Leiothlypis virginiae","L44490627","82901, Rock Springs US-WY (41.0310,-108.1762)","2025-05-09 05:53",1,41.030981,-108.176197,TRUE,FALSE,TRUE,"S235153691"
"493","virwar","Virginia's Warbler","Leiothlypis virginiae","L44478461","Tonto National Forest, Payson US-AZ (34.3799,-111.3123)","2025-05-09 04:47",2,34.37986,-111.312326,TRUE,FALSE,TRUE,"S235092419"
"494","virwar","Virginia's Warbler","Leiothlypis virginiae","L128892","Big Bend NP--Boot Spring","2025-05-08 22:12",1,29.2413998,-103.2970963,TRUE,FALSE,FALSE,"S234828624"
"495","virwar","Virginia's Warbler","Leiothlypis virginiae","L382871","Prescott--Lynx Lake","2025-05-08 17:50",1,34.5221157,-112.385931,TRUE,FALSE,FALSE,"S234814268"
"496","virwar","Virginia's Warbler","Leiothlypis virginiae","L675128","Rio de Flag--Logan's Crossing/East Rio","2025-05-08 17:20",1,35.244848,-111.4890862,TRUE,FALSE,FALSE,"S234817129"
"497","virwar","Virginia's Warbler","Leiothlypis virginiae","L2498147","Graduation Canyon","2025-05-08 15:52",1,35.8847795,-106.2905606,TRUE,FALSE,FALSE,"S234768912"
"498","virwar","Virginia's Warbler","Leiothlypis virginiae","L691579","Rio de Flag--Picture Canyon","2025-05-08 15:45",1,35.2289344,-111.5534592,TRUE,FALSE,FALSE,"S235281465"
"499","virwar","Virginia's Warbler","Leiothlypis virginiae","L42273385","Aliperti Cabin (W Turkey Creek)","2025-05-08 15:31",1,31.864886,-109.340902,TRUE,FALSE,TRUE,"S234971954"
"500","virwar","Virginia's Warbler","Leiothlypis virginiae","L44490257","4268–5134 W Rifle Creek Rd, Rifle US-CO 39.66802, -107.82783","2025-05-08 15:12",3,39.668019,-107.827827,TRUE,FALSE,TRUE,"S235151966"
"501","virwar","Virginia's Warbler","Leiothlypis virginiae","L290333","Arthur Pack Regional Park","2025-05-08 15:00",1,32.3733753,-111.0535231,TRUE,FALSE,FALSE,"S234816920"
"502","virwar","Virginia's Warbler","Leiothlypis virginiae","L44514856","28100 Fs 528, Dolores, Colorado, US (37.525, -108.52)","2025-05-08 14:06",1,37.5252419,-108.5195314,TRUE,FALSE,TRUE,"S235280458"
"503","virwar","Virginia's Warbler","Leiothlypis virginiae","L32046022","Fletcher Canyon Trail Parking","2025-05-08 13:50",2,36.2632266,-115.6124922,TRUE,FALSE,TRUE,"S234804794"
"504","virwar","Virginia's Warbler","Leiothlypis virginiae","L353557","Millcreek Canyon","2025-05-08 13:49",2,40.6974942,-111.7281675,TRUE,FALSE,FALSE,"S234730092"
"505","virwar","Virginia's Warbler","Leiothlypis virginiae","L31828055","McPhee Park","2025-05-08 13:37",2,37.6251546,-108.4025305,TRUE,FALSE,FALSE,"S235280391"
"506","virwar","Virginia's Warbler","Leiothlypis virginiae","L1873056","Boynton Canyon","2025-05-08 13:32",2,34.9187667,-111.8544875,TRUE,FALSE,FALSE,"S234827153"
"507","virwar","Virginia's Warbler","Leiothlypis virginiae","L44418498","5121 S 5200 W, Cedar City US-UT 37.64258, -113.05600","2025-05-08 13:14",2,37.642584,-113.055997,TRUE,FALSE,TRUE,"S234749802"
"508","virwar","Virginia's Warbler","Leiothlypis virginiae","L617866","Green Canyon--Lower (Cache Co.)","2025-05-08 13:01",1,41.7700899,-111.7637546,TRUE,FALSE,FALSE,"S234748287"
"509","virwar","Virginia's Warbler","Leiothlypis virginiae","L44418544","Bright Angel Trail, Grand Canyon US-AZ 36.05891, -112.14542","2025-05-08 12:40",2,36.058909,-112.145423,TRUE,FALSE,TRUE,"S234750055"
"510","virwar","Virginia's Warbler","Leiothlypis virginiae","L4800273","Grand Canyon NP--Tusayan Ruin","2025-05-08 12:05",1,36.0133812,-111.8660738,TRUE,FALSE,FALSE,"S234745880"
"511","virwar","Virginia's Warbler","Leiothlypis virginiae","L5795600","South Fork Mule Canyon","2025-05-08 11:45",6,37.5380842,-109.7324753,TRUE,FALSE,FALSE,"S234803018"
"512","virwar","Virginia's Warbler","Leiothlypis virginiae","L44401403","White Rock, New Mexico, US (35.766, -106.303)","2025-05-08 11:13",1,35.7660897,-106.3029436,TRUE,FALSE,TRUE,"S234659909"
"513","virwar","Virginia's Warbler","Leiothlypis virginiae","L334455","Gila River Preserve--Gila River Farm","2025-05-08 11:13",1,33.0156539,-108.5531616,TRUE,FALSE,FALSE,"S234779055"
"514","virwar","Virginia's Warbler","Leiothlypis virginiae","L44416894","Mount Falcon Park, Morrison US-CO 39.64681, -105.19629","2025-05-08 11:08",1,39.646812,-105.196287,TRUE,FALSE,TRUE,"S234740842"
"515","virwar","Virginia's Warbler","Leiothlypis virginiae","L44285062","Old Hatchery Trail, Pinetop-Lakeside US-AZ 34.12554, -109.92195","2025-05-08 10:49",1,34.125539,-109.921947,TRUE,FALSE,TRUE,"S234811349"
"516","virwar","Virginia's Warbler","Leiothlypis virginiae","L11620299","Dead Horse Ranch State Park, Cottonwood US-AZ 34.75165, -112.01946","2025-05-08 10:48",1,34.751654,-112.019459,TRUE,FALSE,TRUE,"S234676029"
"517","virwar","Virginia's Warbler","Leiothlypis virginiae","L249523","Caballo Lake SP--Riverside Recreation Area (below dam)","2025-05-08 10:37",1,32.8915794,-107.2956401,TRUE,FALSE,FALSE,"S234689840"
"518","virwar","Virginia's Warbler","Leiothlypis virginiae","L14672816","Santa Fe River at Paseo Real","2025-05-08 10:34",1,35.6296653,-106.0919774,TRUE,FALSE,FALSE,"S234858357"
"519","virwar","Virginia's Warbler","Leiothlypis virginiae","L40585412","3126 Walnut Street.","2025-05-08 10:27",1,35.893316,-106.308222,TRUE,FALSE,TRUE,"S234661927"
"520","virwar","Virginia's Warbler","Leiothlypis virginiae","L128886","Mt. Lemmon--Bear Canyon","2025-05-08 10:19",2,32.369668,-110.6984138,TRUE,FALSE,FALSE,"S234796551"
"521","virwar","Virginia's Warbler","Leiothlypis virginiae","L10173028","Diamond Fork Canyon--Red Ledges","2025-05-08 10:16",1,40.0798693,-111.4035559,TRUE,FALSE,FALSE,"S234673209"
"522","virwar","Virginia's Warbler","Leiothlypis virginiae","L44404340","3321 Kyle Canyon Rd, Las Vegas US-NV 36.26311, -115.61241","2025-05-08 10:16",1,36.263105,-115.612413,TRUE,FALSE,TRUE,"S234674604"
"523","virwar","Virginia's Warbler","Leiothlypis virginiae","L44290454","Small Riparian Area - Ft. Bliss (restricted access)","2025-05-08 10:13",2,32.468151,-105.639617,TRUE,FALSE,TRUE,"S234711300"
"524","virwar","Virginia's Warbler","Leiothlypis virginiae","L44402185","28624–28676 Nucla-Delta Rd, Nucla US-CO 38.35073, -108.42721","2025-05-08 10:03",5,38.350725,-108.427207,TRUE,FALSE,TRUE,"S234664003"
"525","virwar","Virginia's Warbler","Leiothlypis virginiae","L128938","Catalina SP","2025-05-08 09:57",1,32.4244027,-110.9123905,TRUE,FALSE,FALSE,"S234697076"
"526","virwar","Virginia's Warbler","Leiothlypis virginiae","L372691","Madera Canyon--Chuparosa Inn","2025-05-08 09:45",1,31.7147792,-110.876298,TRUE,FALSE,FALSE,"S234719057"
"527","virwar","Virginia's Warbler","Leiothlypis virginiae","L6452071","Dolores Ponds (wastewater plant area)","2025-05-08 09:40",1,37.4711201,-108.5155731,TRUE,FALSE,FALSE,"S234702579"
"528","virwar","Virginia's Warbler","Leiothlypis virginiae","L10051658","Quail Springs Ranch Rd -- Cottonwood (approximate- private residence)","2025-05-08 09:37",1,34.6789895,-112.0516267,TRUE,FALSE,TRUE,"S234695556"
"529","virwar","Virginia's Warbler","Leiothlypis virginiae","L9798690","Spring Mountains NRA--Visitor Gateway","2025-05-08 09:28",1,36.2707205,-115.58851,TRUE,FALSE,FALSE,"S234651559"
"530","virwar","Virginia's Warbler","Leiothlypis virginiae","L44427871","Gila NF--Middle Fork Trail #157 from NM 159","2025-05-08 09:24",1,33.4094105,-108.5750069,TRUE,FALSE,TRUE,"S234806671"
"531","virwar","Virginia's Warbler","Leiothlypis virginiae","L12419493","719 Alondra Ln NW, Los Ranchos de Albuquerque US-NM 35.17705, -106.64140","2025-05-08 09:02",1,35.177047,-106.641399,TRUE,FALSE,TRUE,"S234697266"
"532","virwar","Virginia's Warbler","Leiothlypis virginiae","L44396796","Elden's Trail","2025-05-08 09:01",1,35.23526,-111.5859604,TRUE,FALSE,TRUE,"S234710562"
"533","virwar","Virginia's Warbler","Leiothlypis virginiae","L514095","Montessa Park","2025-05-08 08:58",1,35.0179644,-106.6007454,TRUE,FALSE,FALSE,"S234907730"
"534","virwar","Virginia's Warbler","Leiothlypis virginiae","L5874544","Log Chute Trail system","2025-05-08 08:57",2,37.3399593,-107.9081655,TRUE,FALSE,FALSE,"S234655361"
"535","virwar","Virginia's Warbler","Leiothlypis virginiae","L39880882","28456–28462 Nucla-Delta Rd, Nucla US-CO 38.34014, -108.46729","2025-05-08 08:56",9,38.340141,-108.46729,TRUE,FALSE,TRUE,"S234630649"
"536","virwar","Virginia's Warbler","Leiothlypis virginiae","L275689","Patagonia Town Park","2025-05-08 08:44",1,31.5400292,-110.7542655,TRUE,FALSE,FALSE,"S234748210"
"537","virwar","Virginia's Warbler","Leiothlypis virginiae","L735009","Confluence Park","2025-05-08 08:40",1,37.2053292,-113.2876253,TRUE,FALSE,FALSE,"S234664314"
"538","virwar","Virginia's Warbler","Leiothlypis virginiae","L876859","Reynolds Ranch County Park","2025-05-08 08:33",3,39.4663152,-105.2362776,TRUE,FALSE,FALSE,"S234659532"
"539","virwar","Virginia's Warbler","Leiothlypis virginiae","L44918193","Dalla Mountain Park, Durango US-CO 37.31279, -107.88750","2025-05-08 08:33",3,37.312795,-107.887495,TRUE,FALSE,TRUE,"S237452953"
"540","virwar","Virginia's Warbler","Leiothlypis virginiae","L4094976","stakeout Sulphur-bellied Flycatcher, Bear Canyon pullout","2025-05-08 08:22",1,32.36573,-110.709329,TRUE,FALSE,FALSE,"S234675908"
"541","virwar","Virginia's Warbler","Leiothlypis virginiae","L44661341","Wilson Mountain Trail","2025-05-08 08:08",6,34.886387,-111.741527,TRUE,FALSE,TRUE,"S236025950"
"542","virwar","Virginia's Warbler","Leiothlypis virginiae","L40641825","Chihuahuan Desert IBA -- South","2025-05-08 07:54",1,32.3437347,-108.9863531,TRUE,FALSE,TRUE,"S234832917"
"543","virwar","Virginia's Warbler","Leiothlypis virginiae","L11350382","N Rustic Ridge Pl, Sahuarita US-AZ 31.87068, -110.93591","2025-05-08 07:45",1,31.870676,-110.935908,TRUE,TRUE,TRUE,"S234751400"
"544","virwar","Virginia's Warbler","Leiothlypis virginiae","L11505215","Hubbell Oxbow Open Space (restricted access)","2025-05-08 07:36",3,35.019539,-106.720012,TRUE,FALSE,FALSE,"S234600108"
"545","virwar","Virginia's Warbler","Leiothlypis virginiae","L4645082","Gila NF--Deadman Canyon Trail","2025-05-08 07:30",1,32.6160721,-108.4068258,TRUE,FALSE,FALSE,"S234685009"
"546","virwar","Virginia's Warbler","Leiothlypis virginiae","L11528375","1901 Alvarez Road, Anthony, New Mexico, US (31.935, -106.664)","2025-05-08 07:22",1,31.9351648,-106.6643078,TRUE,FALSE,TRUE,"S234568461"
"547","virwar","Virginia's Warbler","Leiothlypis virginiae","L427264","Kolob Terrace","2025-05-08 07:20",20,37.4181633,-113.0435658,TRUE,TRUE,FALSE,"S235232983"
"548","virwar","Virginia's Warbler","Leiothlypis virginiae","L33695897","Muir Western Homestead","2025-05-08 07:00",1,40.4748086,-111.8273715,TRUE,FALSE,TRUE,"S234600078"
"549","virwar","Virginia's Warbler","Leiothlypis virginiae","L819322","Gilbert and Chandler Heights Rds. pond","2025-05-08 06:55",1,33.2386696,-111.7912853,TRUE,FALSE,FALSE,"S234809354"
"550","virwar","Virginia's Warbler","Leiothlypis virginiae","L15174309","Jerome Scenic View Overlook","2025-05-08 06:52",1,34.742867,-112.120977,TRUE,FALSE,TRUE,"S234717611"
"551","virwar","Virginia's Warbler","Leiothlypis virginiae","L2438871","Sahuarita--North Santa Cruz Park","2025-05-08 06:50",1,31.9873804,-110.9630556,TRUE,TRUE,FALSE,"S234741473"
