"","speciesCode","comName","sciName","locId","locName","obsDt","howMany","lat","lng","obsValid","obsReviewed","locationPrivate","subId"
"1","amedip","American Dipper","Cinclus mexicanus","L6545412","Nederland (town)","2025-06-01 16:32",1,39.9627474,-105.5105066,TRUE,FALSE,FALSE,"S245703006"
"2","amedip","American Dipper","Cinclus mexicanus","L341396","Grand Teton NP--Taggart Lake","2025-06-01 15:57",1,43.6991816,-110.7528703,TRUE,FALSE,FALSE,"S245689909"
"3","amedip","American Dipper","Cinclus mexicanus","L740381","Truckee River Regional Park","2025-06-01 14:56",1,39.3276584,-120.1742506,TRUE,FALSE,FALSE,"S245697972"
"4","amedip","American Dipper","Cinclus mexicanus","L3317666","Little Arkansas River area between Poncha Springs & Salida","2025-06-01 14:44",1,38.5202352,-106.0350609,TRUE,FALSE,FALSE,"S245672179"
"5","amedip","American Dipper","Cinclus mexicanus","L32325837","Lyons Valley River Park","2025-06-01 14:40",2,40.218461,-105.2614363,TRUE,FALSE,FALSE,"S245664938"
"6","amedip","American Dipper","Cinclus mexicanus","L39650504","Lake Creek","2025-06-01 14:30",3,43.7276927,-114.3827391,TRUE,FALSE,FALSE,"S245687105"
"7","amedip","American Dipper","Cinclus mexicanus","L11323869","Tucker Gulch","2025-06-01 14:20",1,39.7664534,-105.2264027,TRUE,FALSE,FALSE,"S245683661"
"8","amedip","American Dipper","Cinclus mexicanus","L38987731","South Fork Necanicum River","2025-06-01 13:53",1,45.900494,-123.855564,TRUE,FALSE,TRUE,"S245721710"
"9","amedip","American Dipper","Cinclus mexicanus","L25168264","Lolo National Forest, Lolo US-MT 46.71272, -114.53240","2025-06-01 12:46",1,46.712724,-114.532403,TRUE,FALSE,TRUE,"S245657437"
"10","amedip","American Dipper","Cinclus mexicanus","L2314492","Eagle Creek Trail","2025-06-01 12:20",2,45.6354667,-121.9161415,TRUE,FALSE,FALSE,"S245717460"
"11","amedip","American Dipper","Cinclus mexicanus","L1659867","Camp Sherman","2025-06-01 12:05",1,44.4599389,-121.6432683,TRUE,FALSE,FALSE,"S245626609"
"12","amedip","American Dipper","Cinclus mexicanus","L1599413","Logan Canyon--Temple Fork Sawmill Trail (lower)","2025-06-01 12:05",1,41.8136709,-111.5663709,TRUE,FALSE,FALSE,"S245703787"
"13","amedip","American Dipper","Cinclus mexicanus","L32694548","4862 Red Bridge Road,  Teanaway River","2025-06-01 11:25",1,47.2010945,-120.7820606,TRUE,FALSE,TRUE,"S245602532"
"14","amedip","American Dipper","Cinclus mexicanus","L475860","Icehouse Canyon","2025-06-01 11:19",2,34.2484193,-117.626152,TRUE,FALSE,FALSE,"S245671194"
"15","amedip","American Dipper","Cinclus mexicanus","L1049769","Snoqualmie Falls","2025-06-01 11:05",1,47.5416862,-121.8378156,TRUE,FALSE,FALSE,"S245617731"
"16","amedip","American Dipper","Cinclus mexicanus","L46590506","PCT Bridge","2025-06-01 10:48",1,45.8206308,-121.9157164,TRUE,FALSE,TRUE,"S245584105"
"17","amedip","American Dipper","Cinclus mexicanus","L742244","Zion NP--Riverside Walk","2025-06-01 10:40",2,37.2903064,-112.9472208,TRUE,FALSE,FALSE,"S245683007"
"18","amedip","American Dipper","Cinclus mexicanus","L25931261","Jud Wiebe Trail","2025-06-01 10:38",1,37.9454431,-107.8136843,TRUE,FALSE,FALSE,"S245570950"
"19","amedip","American Dipper","Cinclus mexicanus","L2353750","Power Park","2025-06-01 10:25",1,46.907058,-113.967537,TRUE,FALSE,FALSE,"S245593091"
"20","amedip","American Dipper","Cinclus mexicanus","L32332188","43154 Tollhouse Road, Shaver Lake, California, US (37.145, -119.305)","2025-06-01 10:18",1,37.1445928,-119.3053895,TRUE,FALSE,TRUE,"S245576181"
"21","amedip","American Dipper","Cinclus mexicanus","L46589255","Forest Road 20154, Ashton, Idaho, US (44.2, -111.259)","2025-06-01 10:07",1,44.1998589,-111.2593789,TRUE,FALSE,TRUE,"S245579169"
"22","amedip","American Dipper","Cinclus mexicanus","L1614962","Provo Canyon -- Timpanogos & Canyon View Parks","2025-06-01 09:51",1,40.3250512,-111.6446013,TRUE,FALSE,FALSE,"S245525311"
"23","amedip","American Dipper","Cinclus mexicanus","L15516474","Seward--Bear Creek Weir","2025-06-01 09:44",2,60.182907,-149.3693876,TRUE,FALSE,FALSE,"S245721875"
"24","amedip","American Dipper","Cinclus mexicanus","L2333426","Gateway Natural Area","2025-06-01 09:22",3,40.7004667,-105.2438858,TRUE,FALSE,FALSE,"S245528579"
"25","amedip","American Dipper","Cinclus mexicanus","L19422416","Cherry Creek","2025-06-01 09:20",1,47.7470813,-121.8923277,TRUE,FALSE,FALSE,"S245571588"
"26","amedip","American Dipper","Cinclus mexicanus","L19406587","White Bridge Road, Boulder, Montana, US (46.175, -112.03)","2025-06-01 09:04",1,46.1749718,-112.0295828,TRUE,FALSE,TRUE,"S245529586"
"27","amedip","American Dipper","Cinclus mexicanus","L522498","Old Saint Vrain Rd","2025-06-01 09:02",1,40.20936,-105.2803516,TRUE,FALSE,FALSE,"S245557592"
"28","amedip","American Dipper","Cinclus mexicanus","L46403590","CA-89, Clio US-CA 39.73333, -120.56711","2025-06-01 08:57",1,39.733327,-120.567114,TRUE,FALSE,TRUE,"S245526088"
"29","amedip","American Dipper","Cinclus mexicanus","L46596511","591–637 Panther Creek Rd, Shoup US-ID 45.19324, -114.31697","2025-06-01 08:52",2,45.193238,-114.316972,TRUE,FALSE,TRUE,"S245609141"
"30","amedip","American Dipper","Cinclus mexicanus","L1283588","Yellowstone NP--LeHardy Rapids","2025-06-01 08:49",1,44.6073502,-110.3845739,TRUE,FALSE,FALSE,"S245484114"
"31","amedip","American Dipper","Cinclus mexicanus","L1112229","Jelm Access Area","2025-06-01 08:47",2,41.0794644,-106.0121387,TRUE,FALSE,FALSE,"S245514280"
"32","amedip","American Dipper","Cinclus mexicanus","L46607066","Willow Creek Falls Trail","2025-06-01 08:30",2,47.462519,-112.724747,TRUE,FALSE,TRUE,"S245652421"
"33","amedip","American Dipper","Cinclus mexicanus","L3688489","Hunter Creek Trail","2025-06-01 08:23",1,39.4805019,-119.9065447,TRUE,FALSE,FALSE,"S245616277"
"34","amedip","American Dipper","Cinclus mexicanus","L15932556","Black Hills NF--Bridal Veil Falls","2025-06-01 08:15",1,44.417243,-103.881394,TRUE,FALSE,FALSE,"S245717168"
"35","amedip","American Dipper","Cinclus mexicanus","L46600491","Barclay Creek Road, Index US-WA 47.79231, -121.45928","2025-06-01 08:04",1,47.792314,-121.459284,TRUE,FALSE,TRUE,"S245625984"
"36","amedip","American Dipper","Cinclus mexicanus","L46522082","Sawmill Creek","2025-06-01 07:57",1,57.05264,-135.318466,TRUE,FALSE,TRUE,"S245544365"
"37","amedip","American Dipper","Cinclus mexicanus","L2494220","Pagosa Springs--San Juan River Walk","2025-06-01 07:00",1,37.2658234,-107.011106,TRUE,FALSE,FALSE,"S245577837"
"38","amedip","American Dipper","Cinclus mexicanus","L15910549","Mormon Peak Rd, Lolo US-MT 46.74265, -114.15612","2025-06-01 06:52",1,46.742649,-114.156119,TRUE,FALSE,TRUE,"S245656403"
"39","amedip","American Dipper","Cinclus mexicanus","L46587843","58 Avalanche Campground Loop, West Glacier, Montana, US (48.68, -113.818)","2025-06-01 06:49",2,48.6803502,-113.8181992,TRUE,FALSE,TRUE,"S245572883"
"40","amedip","American Dipper","Cinclus mexicanus","L46557909","River Road, Bridge 3, 39.21171, -120.19955","2025-06-01 06:31",2,39.211714,-120.199553,TRUE,FALSE,TRUE,"S245437343"
"41","amedip","American Dipper","Cinclus mexicanus","L46557084","River Road, Silver Creek CG, 39.22118, -120.19994","2025-06-01 06:20",1,39.221178,-120.199945,TRUE,FALSE,TRUE,"S245433018"
"42","amedip","American Dipper","Cinclus mexicanus","L571253","Sundance","2025-06-01 06:15",2,40.38439,-111.58582,TRUE,FALSE,FALSE,"S245515211"
"43","amedip","American Dipper","Cinclus mexicanus","L46557163","River Road, Bridge 8, 39.22932, -120.20526","2025-06-01 06:07",2,39.22932,-120.205257,TRUE,FALSE,TRUE,"S245433394"
"44","amedip","American Dipper","Cinclus mexicanus","L46604404","Granite Creek Trailhead Area","2025-06-01 06:02",2,43.349322,-110.437074,TRUE,FALSE,TRUE,"S245641674"
"45","amedip","American Dipper","Cinclus mexicanus","L5708156","Hulett Ranch (Private)","2025-06-01 05:45",1,39.1139793,-120.9788835,TRUE,FALSE,TRUE,"S245706672"
"46","amedip","American Dipper","Cinclus mexicanus","L46332737","Granite Creek - Highline Trailhead Area","2025-06-01 05:20",1,43.348395,-110.441087,TRUE,FALSE,TRUE,"S245707317"
"47","amedip","American Dipper","Cinclus mexicanus","L3773332","Logan Canyon--Rick's Spring","2025-05-31 20:29",1,41.8400252,-111.5887953,TRUE,FALSE,FALSE,"S245522907"
"48","amedip","American Dipper","Cinclus mexicanus","L46527162","Beam Rd, Nome US-AK 64.80651, -165.21204","2025-05-31 19:08",1,64.806507,-165.212042,TRUE,FALSE,TRUE,"S245286598"
"49","amedip","American Dipper","Cinclus mexicanus","L34683390","Smiths Fork Rd","2025-05-31 18:51",1,42.489928,-110.842467,TRUE,FALSE,TRUE,"S245279242"
"50","amedip","American Dipper","Cinclus mexicanus","L46518628","88 Skwala Ln, Swan Valley US-ID 43.45250, -111.34009","2025-05-31 18:38",1,43.452498,-111.340087,TRUE,FALSE,TRUE,"S245246156"
"51","amedip","American Dipper","Cinclus mexicanus","L4132664","Deschutes River Trail--Lava Island","2025-05-31 17:13",1,43.9873803,-121.3986254,TRUE,FALSE,FALSE,"S245259598"
"52","amedip","American Dipper","Cinclus mexicanus","L1814498","Croy Creek Wetlands","2025-05-31 17:00",1,43.5130669,-114.3199193,TRUE,FALSE,FALSE,"S245235108"
"53","amedip","American Dipper","Cinclus mexicanus","L211246","Lair O' the Bear Park","2025-05-31 16:41",1,39.6674351,-105.2577988,TRUE,FALSE,FALSE,"S245248006"
"54","amedip","American Dipper","Cinclus mexicanus","L25290075","Kellogg Lake Road","2025-05-31 16:40",2,47.8974042,-121.7566925,TRUE,FALSE,FALSE,"S245682826"
"55","amedip","American Dipper","Cinclus mexicanus","L988756","Chugach NF--Russian Lakes Trail","2025-05-31 16:36",1,60.4592074,-149.9776525,TRUE,FALSE,FALSE,"S245263806"
"56","amedip","American Dipper","Cinclus mexicanus","L878486","Plumas Eureka SP","2025-05-31 16:22",4,39.7520733,-120.7006073,TRUE,FALSE,FALSE,"S245275330"
"57","amedip","American Dipper","Cinclus mexicanus","L2862924","Olympic NP--Staircase","2025-05-31 15:25",1,47.51534,-123.32944,TRUE,FALSE,FALSE,"S245270116"
"58","amedip","American Dipper","Cinclus mexicanus","L2161814","South Park Wildlife Habitat Management Area","2025-05-31 15:24",1,43.3965039,-110.7767773,TRUE,FALSE,FALSE,"S245640458"
"59","amedip","American Dipper","Cinclus mexicanus","L46523821","Bridge over South Fork Grays River","2025-05-31 15:23",2,46.36064,-123.4308232,TRUE,FALSE,TRUE,"S245270068"
"60","amedip","American Dipper","Cinclus mexicanus","L4354653","Yellowstone NP--Lamar Valley River Trail","2025-05-31 14:27",3,44.8691921,-110.1658452,TRUE,FALSE,FALSE,"S245191093"
"61","amedip","American Dipper","Cinclus mexicanus","L16100705","Animas River Yard","2025-05-31 14:22",1,37.2815757,-107.8772459,TRUE,FALSE,TRUE,"S245238747"
"62","amedip","American Dipper","Cinclus mexicanus","L46510432","16 St Finnbar Farm Rd, Carbondale US-CO 39.39996, -107.15458","2025-05-31 14:16",1,39.399956,-107.154575,TRUE,FALSE,TRUE,"S245208130"
"63","amedip","American Dipper","Cinclus mexicanus","L11601834","Hawley Grade Trailhead","2025-05-31 13:30",1,38.796502,-120.019902,TRUE,FALSE,FALSE,"S245279381"
"64","amedip","American Dipper","Cinclus mexicanus","L46505146","Diamond Youth Forest Discovery Trail, Fairview US-UT (40.0747,-111.4207)","2025-05-31 13:10",1,40.074738,-111.420651,TRUE,FALSE,TRUE,"S245185502"
"65","amedip","American Dipper","Cinclus mexicanus","L11722396","Caples Creek Canyon","2025-05-31 13:10",2,38.7029584,-120.1577198,TRUE,FALSE,FALSE,"S245719980"
"66","amedip","American Dipper","Cinclus mexicanus","L626092","Eagle River Nature Center","2025-05-31 13:01",2,61.2342515,-149.2712295,TRUE,FALSE,FALSE,"S245226536"
"67","amedip","American Dipper","Cinclus mexicanus","L46598761","Red Rocks on Blackfoot, US (46.942, -113.591)","2025-05-31 12:57",1,46.9419403,-113.5906569,TRUE,FALSE,TRUE,"S245618886"
"68","amedip","American Dipper","Cinclus mexicanus","L1815481","Button Rock Preserve","2025-05-31 12:33",2,40.2321031,-105.3377971,TRUE,FALSE,FALSE,"S245259763"
"69","amedip","American Dipper","Cinclus mexicanus","L4403691","Bohn Park","2025-05-31 12:16",6,40.2197978,-105.2656639,TRUE,FALSE,FALSE,"S245270932"
"70","amedip","American Dipper","Cinclus mexicanus","L3059796","Sitka--Nat. His. Pk.-Totem Trail","2025-05-31 11:46",1,57.0464146,-135.3124237,TRUE,FALSE,FALSE,"S245168568"
"71","amedip","American Dipper","Cinclus mexicanus","L302967","Flaming Geyser SP","2025-05-31 11:18",1,47.2737373,-122.027222,TRUE,FALSE,FALSE,"S245131739"
"72","amedip","American Dipper","Cinclus mexicanus","L279244","Denver Botanic Gardens Chatfield Farms","2025-05-31 10:59",1,39.5507662,-105.099328,TRUE,FALSE,FALSE,"S245165828"
"73","amedip","American Dipper","Cinclus mexicanus","L46507256","Fish Creek Day Use Area","2025-05-31 10:48",1,40.608424,-105.535392,TRUE,FALSE,TRUE,"S245194534"
"74","amedip","American Dipper","Cinclus mexicanus","L741088","Wildwood Recreation Site Area","2025-05-31 10:34",1,45.3553771,-121.9866171,TRUE,FALSE,FALSE,"S245198214"
"75","amedip","American Dipper","Cinclus mexicanus","L12303037","Elwha River Rd parking lot","2025-05-31 10:30",2,48.113962,-123.553143,TRUE,FALSE,FALSE,"S245282074"
"76","amedip","American Dipper","Cinclus mexicanus","L2281679","Anchor River--South Fork","2025-05-31 10:21",2,59.7168153,-151.647141,TRUE,FALSE,FALSE,"S245644955"
"77","amedip","American Dipper","Cinclus mexicanus","L1239027","Grand Teton NP--Cascade Canyon Trail","2025-05-31 10:15",1,43.762943,-110.7757044,TRUE,FALSE,FALSE,"S245157310"
"78","amedip","American Dipper","Cinclus mexicanus","L6187478","Chugach NF--Ptarmigan Creek Trail","2025-05-31 10:11",1,60.4054151,-149.3623939,TRUE,FALSE,FALSE,"S245198762"
"79","amedip","American Dipper","Cinclus mexicanus","L798588","Chatfield SP--Audubon Center & Trails","2025-05-31 10:08",1,39.4934273,-105.0918996,TRUE,FALSE,FALSE,"S245550517"
"80","amedip","American Dipper","Cinclus mexicanus","L11676802","leHardy's Rapids","2025-05-31 10:00",1,44.6072738,-110.3838873,TRUE,FALSE,TRUE,"S245062323"
"81","amedip","American Dipper","Cinclus mexicanus","L9182226","2 mile Loop walk around home.  43.217  -110.016","2025-05-31 10:00",1,43.206928,-110.015304,TRUE,FALSE,TRUE,"S245194015"
"82","amedip","American Dipper","Cinclus mexicanus","L292104","Nome-Teller Hwy. (please use a more specific location)","2025-05-31 09:30",1,64.6344688,-165.7150269,TRUE,FALSE,FALSE,"S245300501"
"83","amedip","American Dipper","Cinclus mexicanus","L46521814","11 Pines Road at Rubicon River (Placer Co.)","2025-05-31 09:28",2,38.945326,-120.5014063,TRUE,FALSE,TRUE,"S245261279"
"84","amedip","American Dipper","Cinclus mexicanus","L950776","Big Four Ice Caves","2025-05-31 09:19",1,48.0651548,-121.5151566,TRUE,FALSE,FALSE,"S245147194"
"85","amedip","American Dipper","Cinclus mexicanus","L1218849","Corwina Park","2025-05-31 09:11",2,39.6588212,-105.2789711,TRUE,FALSE,FALSE,"S245095110"
"86","amedip","American Dipper","Cinclus mexicanus","L912702","Vigilante Campground","2025-05-31 09:10",1,46.7662647,-111.6502762,TRUE,FALSE,FALSE,"S245121849"
"87","amedip","American Dipper","Cinclus mexicanus","L829499","Big Creek Reserve","2025-05-31 09:06",2,36.0734471,-121.5978956,TRUE,FALSE,FALSE,"S245710836"
"88","amedip","American Dipper","Cinclus mexicanus","L46509961","Leigh Lake Trail, Moran US-WY 43.79889, -110.72332","2025-05-31 09:05",1,43.798889,-110.723322,TRUE,FALSE,TRUE,"S245206142"
"89","amedip","American Dipper","Cinclus mexicanus","L320409","Leavenworth National Fish Hatchery","2025-05-31 09:04",1,47.5577099,-120.6697478,TRUE,FALSE,FALSE,"S245149506"
"90","amedip","American Dipper","Cinclus mexicanus","L46104974","Unnamed Road, Scotts Mills, Oregon, US (44.926, -122.567)","2025-05-31 09:01",2,44.9264928,-122.5667733,TRUE,FALSE,TRUE,"S245047101"
"91","amedip","American Dipper","Cinclus mexicanus","L33020590","FS4818-101, Easton, Washington, US (47.268, -121.184)","2025-05-31 09:00",NA,47.2675332,-121.1837161,TRUE,FALSE,TRUE,"S245549602"
"92","amedip","American Dipper","Cinclus mexicanus","L20601090","Bull Run Basin and Reservoir, Elko Co, US-NV (41.6225,-116.1258)","2025-05-31 08:43",1,41.622483,-116.125789,TRUE,FALSE,TRUE,"S245247893"
"93","amedip","American Dipper","Cinclus mexicanus","L46499354","Garnet Hill Loop Trail, Yellowstone National Park US-WY 44.91981, -110.41263","2025-05-31 08:40",1,44.919806,-110.412635,TRUE,FALSE,TRUE,"S245162409"
"94","amedip","American Dipper","Cinclus mexicanus","L3830886","N. Fork Nehalem Fish Hatchery","2025-05-31 08:31",2,45.8124396,-123.7746549,TRUE,FALSE,FALSE,"S245221546"
"95","amedip","American Dipper","Cinclus mexicanus","L2898413","Nome-Teller Hwy.--Penny River","2025-05-31 08:28",1,64.5855733,-165.6668141,TRUE,FALSE,FALSE,"S245263014"
"96","amedip","American Dipper","Cinclus mexicanus","L1785673","Iowa Hill Rd.--American River bridge","2025-05-31 08:25",2,39.0995386,-120.9248628,TRUE,FALSE,FALSE,"S245180345"
"97","amedip","American Dipper","Cinclus mexicanus","L4741568","Metolius Conservation Area--Riverside Campground","2025-05-31 08:17",1,44.4415129,-121.6357112,TRUE,FALSE,FALSE,"S245060488"
"98","amedip","American Dipper","Cinclus mexicanus","L1206720","Tally Lake Campground","2025-05-31 08:13",1,48.4128526,-114.5826817,TRUE,FALSE,FALSE,"S245114361"
"99","amedip","American Dipper","Cinclus mexicanus","L1371195","South Cottonwood Canyon Trail","2025-05-31 08:03",1,45.5396095,-111.0957013,TRUE,FALSE,FALSE,"S245050283"
"100","amedip","American Dipper","Cinclus mexicanus","L1131857","Lassen Volcanic NP--Warner Creek Meadows","2025-05-31 07:50",1,40.4196234,-121.3352895,TRUE,FALSE,FALSE,"S245065353"
"101","amedip","American Dipper","Cinclus mexicanus","L983731","Difficult Campground","2025-05-31 07:50",1,39.1427759,-106.7739773,TRUE,FALSE,FALSE,"S245084585"
"102","amedip","American Dipper","Cinclus mexicanus","L46504060","East Metolius River Trail, Camp Sherman US-OR 44.46552, -121.63902","2025-05-31 07:45",2,44.465523,-121.639023,TRUE,FALSE,TRUE,"S245181339"
"103","amedip","American Dipper","Cinclus mexicanus","L32227019","Dunlap Hay Ranch","2025-05-31 07:38",1,48.752572,-114.8974534,TRUE,FALSE,TRUE,"S245036040"
"104","amedip","American Dipper","Cinclus mexicanus","L128553","Chugach NF--Tern Lake","2025-05-31 07:37",1,60.5340384,-149.5476663,TRUE,FALSE,FALSE,"S245114844"
"105","amedip","American Dipper","Cinclus mexicanus","L1168624","Hot Sulphur Springs SWA--Paul F. Gilbert Fishing Area","2025-05-31 07:31",3,40.0483142,-106.1320496,TRUE,FALSE,FALSE,"S245133740"
"106","amedip","American Dipper","Cinclus mexicanus","L939999","Mad Creek Trail","2025-05-31 07:31",2,40.5743915,-106.8809223,TRUE,FALSE,FALSE,"S245016910"
"107","amedip","American Dipper","Cinclus mexicanus","L571229","Vivian Park","2025-05-31 07:25",1,40.35567,-111.57383,TRUE,FALSE,FALSE,"S244960917"
"108","amedip","American Dipper","Cinclus mexicanus","L46520624","Bethel Ridge Rd (Off Of Nile Loop)","2025-05-31 07:14",1,46.81628,-120.9435355,TRUE,FALSE,TRUE,"S245255761"
"109","amedip","American Dipper","Cinclus mexicanus","L33365888","Yosemite NP--Happy Isles Trail","2025-05-31 07:09",1,37.729604,-119.55892,TRUE,FALSE,FALSE,"S245233334"
"110","amedip","American Dipper","Cinclus mexicanus","L46458522","Game Commission Cabin Trail, Crescent Lake US-OR 43.46124, -122.02940","2025-05-31 06:54",1,43.461239,-122.029396,TRUE,FALSE,TRUE,"S244990039"
"111","amedip","American Dipper","Cinclus mexicanus","L15320564","11 Pines Road at Rubicon River (El Dorado Co.)","2025-05-31 06:53",3,38.9571363,-120.4851068,TRUE,FALSE,FALSE,"S245230821"
"112","amedip","American Dipper","Cinclus mexicanus","L29881886","Aspen Glen","2025-05-31 06:24",1,39.44075,-107.2698,TRUE,FALSE,TRUE,"S245018653"
"113","amedip","American Dipper","Cinclus mexicanus","L349355","Lake Wenatchee SP","2025-05-31 05:55",1,47.8088889,-120.7238889,TRUE,FALSE,FALSE,"S244991395"
"114","amedip","American Dipper","Cinclus mexicanus","L4889152","Kenai NWR--Hidden Creek Trailhead","2025-05-30 19:28",1,60.4542659,-150.2188046,TRUE,FALSE,FALSE,"S244799861"
"115","amedip","American Dipper","Cinclus mexicanus","L1637283","Cooper Creek South Campground","2025-05-30 18:52",1,60.48274,-149.88287,TRUE,FALSE,FALSE,"S244797138"
"116","amedip","American Dipper","Cinclus mexicanus","L5065210","Bellvue Watson Fish Hatchery & Lake","2025-05-30 18:41",3,40.6348107,-105.1705056,TRUE,FALSE,FALSE,"S244773825"
"117","amedip","American Dipper","Cinclus mexicanus","L46406446","14 Black Rock Ln, Cody US-WY 44.88173, -109.65525","2025-05-30 16:51",1,44.881726,-109.655254,TRUE,FALSE,TRUE,"S244741746"
"118","amedip","American Dipper","Cinclus mexicanus","L46509724","Grotto Trail, Fairview US-UT (39.9485,-111.6775)","2025-05-30 16:33",2,39.948503,-111.677508,TRUE,FALSE,TRUE,"S245205094"
"119","amedip","American Dipper","Cinclus mexicanus","L800559","Johnsondale Bridge--incl. MTN 99 from Brush Cr. to MP 3.0 pullout","2025-05-30 16:11",2,35.9683857,-118.4866261,TRUE,FALSE,FALSE,"S245218268"
"120","amedip","American Dipper","Cinclus mexicanus","L3570687","Skagway--Pullen Pond & Creek","2025-05-30 15:40",2,59.4524733,-135.3156563,TRUE,FALSE,FALSE,"S244756759"
"121","amedip","American Dipper","Cinclus mexicanus","L46186781","Naked Falls","2025-05-30 15:16",1,45.687403,-122.127399,TRUE,FALSE,TRUE,"S244789693"
"122","amedip","American Dipper","Cinclus mexicanus","L1154447","Greenwaters Park","2025-05-30 15:08",3,43.7373677,-122.4564457,TRUE,FALSE,FALSE,"S244773791"
"123","amedip","American Dipper","Cinclus mexicanus","L6826556","Eleven Mile Canyon","2025-05-30 15:01",2,38.936993,-105.4063447,TRUE,FALSE,FALSE,"S244722144"
"124","amedip","American Dipper","Cinclus mexicanus","L815302","Oswald West SP","2025-05-30 14:57",1,45.7623138,-123.9632893,TRUE,FALSE,FALSE,"S244737732"
"125","amedip","American Dipper","Cinclus mexicanus","L45079890","Paonia River Park","2025-05-30 14:28",3,38.8739199,-107.5969378,TRUE,FALSE,FALSE,"S244725644"
"126","amedip","American Dipper","Cinclus mexicanus","L46412250","Apgar Transit Center Bike Path, West Glacier US-MT 48.52314, -113.98843","2025-05-30 14:06",1,48.523136,-113.988428,TRUE,FALSE,TRUE,"S244770514"
"127","amedip","American Dipper","Cinclus mexicanus","L46407261","Hells Crossing, Chinook Pass","2025-05-30 13:46",2,46.9640425,-121.2674997,TRUE,FALSE,TRUE,"S244745320"
"128","amedip","American Dipper","Cinclus mexicanus","L46413628","W Side Road Trail, Carbonado US-WA 46.79269, -121.88178","2025-05-30 13:24",1,46.792687,-121.881775,TRUE,FALSE,TRUE,"S244776989"
"129","amedip","American Dipper","Cinclus mexicanus","L46393603","634 County Road 54, Almont US-CO (38.7305,-106.7712)","2025-05-30 13:21",1,38.730522,-106.771226,TRUE,FALSE,TRUE,"S244680147"
"130","amedip","American Dipper","Cinclus mexicanus","L19631922","Grimes Creek Road, Boise, Idaho, US (43.747, -115.97)","2025-05-30 13:20",1,43.747224,-115.9700046,TRUE,FALSE,TRUE,"S244701083"
"131","amedip","American Dipper","Cinclus mexicanus","L37459129","Slough Creek Campground Rd, Yellowstone National Park US-WY 44.94487, -110.31002","2025-05-30 12:27",1,44.944873,-110.310023,TRUE,FALSE,TRUE,"S244684436"
"132","amedip","American Dipper","Cinclus mexicanus","L46403954","Rodak Nature Loop, Anchorage US-AK 61.23062, -149.27199","2025-05-30 12:17",1,61.230618,-149.27199,TRUE,FALSE,TRUE,"S244729944"
"133","amedip","American Dipper","Cinclus mexicanus","L2988274","Tillamook Forest Center","2025-05-30 11:55",3,45.5859854,-123.561312,TRUE,FALSE,FALSE,"S244717689"
"134","amedip","American Dipper","Cinclus mexicanus","L5273123","Estes Park (town)","2025-05-30 11:01",1,40.3765843,-105.5216706,TRUE,FALSE,FALSE,"S244651224"
"135","amedip","American Dipper","Cinclus mexicanus","L1239025","Grand Teton NP--Jenny Lake Loop Trail","2025-05-30 10:56",1,43.7622611,-110.7438183,TRUE,FALSE,FALSE,"S244706825"
"136","amedip","American Dipper","Cinclus mexicanus","L46500824","3600 Suncadia Trail, Cle Elum US-WA 47.20853, -121.01946","2025-05-30 10:52",1,47.208528,-121.019465,TRUE,FALSE,TRUE,"S245243964"
"137","amedip","American Dipper","Cinclus mexicanus","L571228","Bridal Veil Falls Overlook","2025-05-30 10:36",1,40.34145,-111.60315,TRUE,FALSE,FALSE,"S244624941"
"138","amedip","American Dipper","Cinclus mexicanus","L3934566","Olympic NP--Lake Crescent Lodge grounds and trails","2025-05-30 10:05",4,48.0572585,-123.7998891,TRUE,FALSE,FALSE,"S245552363"
"139","amedip","American Dipper","Cinclus mexicanus","L6452071","Dolores Ponds (wastewater plant area)","2025-05-30 09:38",1,37.4711201,-108.5155731,TRUE,FALSE,FALSE,"S244639536"
"140","amedip","American Dipper","Cinclus mexicanus","L1545168","Longmont Reservoir","2025-05-30 09:34",1,40.2294045,-105.3469872,TRUE,FALSE,FALSE,"S244745607"
"141","amedip","American Dipper","Cinclus mexicanus","L2433983","Fall Creek Rd.","2025-05-30 09:25",2,44.3918436,-123.7395287,TRUE,FALSE,FALSE,"S244792731"
"142","amedip","American Dipper","Cinclus mexicanus","L3600514","River Island Natural Area--South Unit","2025-05-30 09:24",1,45.371773,-122.405607,TRUE,FALSE,FALSE,"S244729914"
"143","amedip","American Dipper","Cinclus mexicanus","L1008375","Spearfish Canyon--Roughlock Falls","2025-05-30 09:18",1,44.3506788,-103.9417036,TRUE,FALSE,FALSE,"S244582381"
"144","amedip","American Dipper","Cinclus mexicanus","L46395056","Fishhook Trail, Stanley US-ID 44.14910, -114.92209","2025-05-30 09:15",1,44.149104,-114.922092,TRUE,FALSE,TRUE,"S244687103"
"145","amedip","American Dipper","Cinclus mexicanus","L4737605","Oxbow Natural Area","2025-05-30 09:06",1,40.4043584,-105.1418638,TRUE,FALSE,FALSE,"S244576599"
"146","amedip","American Dipper","Cinclus mexicanus","L304860","Tolt-MacDonald Park","2025-05-30 09:00",1,47.6404972,-121.9264226,TRUE,FALSE,FALSE,"S244691353"
"147","amedip","American Dipper","Cinclus mexicanus","L452854","Jordanelle Reclamation Area","2025-05-30 09:00",1,40.5784986,-111.429863,TRUE,FALSE,FALSE,"S244705724"
"148","amedip","American Dipper","Cinclus mexicanus","L3754339","Grey Rock Trail","2025-05-30 09:00",1,40.6946702,-105.2833748,TRUE,FALSE,FALSE,"S244738485"
"149","amedip","American Dipper","Cinclus mexicanus","L3934766","Quinault Loop Trail","2025-05-30 08:52",1,47.4685218,-123.8455188,TRUE,FALSE,FALSE,"S244775527"
"150","amedip","American Dipper","Cinclus mexicanus","L46372728","35850 Trinity Hwy, Willow Creek US-CA 40.93050, -123.68662","2025-05-30 08:50",1,40.930496,-123.686615,TRUE,FALSE,TRUE,"S244597961"
"151","amedip","American Dipper","Cinclus mexicanus","L39857782","Evergreen Nature Center","2025-05-30 08:50",4,39.636996,-105.312994,TRUE,FALSE,TRUE,"S244599797"
"152","amedip","American Dipper","Cinclus mexicanus","L1658217","Camp Polk Meadow Preserve (restricted access)","2025-05-30 08:50",1,44.3204741,-121.5123711,TRUE,FALSE,FALSE,"S244675084"
"153","amedip","American Dipper","Cinclus mexicanus","L46386955","36015 North Fork Road, Anchor Point, Alaska, US (59.717, -151.647) Bridge","2025-05-30 08:23",2,59.7173285,-151.6467786,TRUE,FALSE,TRUE,"S244657736"
"154","amedip","American Dipper","Cinclus mexicanus","L705105","Shevlin Park","2025-05-30 08:21",1,44.0703821,-121.3840771,TRUE,FALSE,FALSE,"S244640205"
"155","amedip","American Dipper","Cinclus mexicanus","L33255802","River Trail, Logan US-UT 41.74613, -111.74020","2025-05-30 08:07",2,41.746131,-111.740199,TRUE,FALSE,TRUE,"S244651486"
"156","amedip","American Dipper","Cinclus mexicanus","L8208425","Base Home 43.217  -110.016","2025-05-30 08:00",1,43.217914,-110.016617,TRUE,FALSE,TRUE,"S244704495"
"157","amedip","American Dipper","Cinclus mexicanus","L2884275","Kodiak Is.--White Sands Beach","2025-05-30 08:00",1,57.8402226,-152.4452859,TRUE,FALSE,FALSE,"S244795824"
"158","amedip","American Dipper","Cinclus mexicanus","L480658","Lithia Park","2025-05-30 08:00",1,42.1899912,-122.7164268,TRUE,FALSE,FALSE,"S244643741"
"159","amedip","American Dipper","Cinclus mexicanus","L1425825","Home","2025-05-30 08:00",1,44.9573137,-116.2246686,TRUE,FALSE,TRUE,"S245514322"
"160","amedip","American Dipper","Cinclus mexicanus","L11822895","Raging River natural area","2025-05-30 07:50",2,47.5396524,-121.9084123,TRUE,FALSE,TRUE,"S244693576"
"161","amedip","American Dipper","Cinclus mexicanus","L22941332","S Molalla Forest Rd, Molalla US-OR 44.98066, -122.48167","2025-05-30 07:45",1,44.980658,-122.481672,TRUE,FALSE,TRUE,"S244668693"
"162","amedip","American Dipper","Cinclus mexicanus","L46361227","West Fork Clearwater Road, Seeley Lake, Montana, US (47.301, -113.579)","2025-05-30 07:38",1,47.300536,-113.5786227,TRUE,FALSE,TRUE,"S244566213"
"163","amedip","American Dipper","Cinclus mexicanus","L28235628","Pioneer Park and CG","2025-05-30 07:14",1,40.0742212,-106.1094221,TRUE,FALSE,FALSE,"S244561507"
"164","amedip","American Dipper","Cinclus mexicanus","L9789223","Zion Lodge","2025-05-30 07:00",1,37.2504228,-112.9571072,TRUE,FALSE,FALSE,"S244735385"
"165","amedip","American Dipper","Cinclus mexicanus","L1937262","1. Alcyon Farm, 140 Oatfield Rd","2025-05-30 06:36",1,46.3237506,-123.4433707,TRUE,FALSE,TRUE,"S244570279"
"166","amedip","American Dipper","Cinclus mexicanus","L7479647","Colorado: Powderhorn, County Road 50, Cebolla to Sleeping Dog Ranch","2025-05-30 06:23",2,38.0503387,-107.0967129,TRUE,FALSE,TRUE,"S244763549"
"167","amedip","American Dipper","Cinclus mexicanus","L6060782","Chugach NF--Power Creek outlet","2025-05-30 05:35",1,60.587157,-145.6450868,TRUE,FALSE,FALSE,"S244624927"
"168","amedip","American Dipper","Cinclus mexicanus","L46328919","Bucks Cabin Flat Creek","2025-05-29 19:23",1,43.485245,-110.764542,TRUE,FALSE,TRUE,"S244392733"
"169","amedip","American Dipper","Cinclus mexicanus","L19150600","5415 Fallen Pine Dr, Wilson US-WY (43.5044,-110.8701)","2025-05-29 19:00",1,43.504401,-110.870051,TRUE,FALSE,TRUE,"S244406812"
"170","amedip","American Dipper","Cinclus mexicanus","L902981","Zion NP--Emerald Pools Trail","2025-05-29 18:51",3,37.2551485,-112.9612327,TRUE,FALSE,FALSE,"S244405862"
"171","amedip","American Dipper","Cinclus mexicanus","L14536839","Fish Creek Bridge","2025-05-29 18:47",1,43.498043,-110.872143,TRUE,FALSE,TRUE,"S244409817"
"172","amedip","American Dipper","Cinclus mexicanus","L11283633","Fall Creek--Stocking Ramp (43.967, -122.63)","2025-05-29 18:28",4,43.9673384,-122.6300017,TRUE,FALSE,TRUE,"S244422967"
"173","amedip","American Dipper","Cinclus mexicanus","L747255","Yosemite Valley--Headquarters area","2025-05-29 18:06",1,37.7454716,-119.5903015,TRUE,FALSE,FALSE,"S244385631"
"174","amedip","American Dipper","Cinclus mexicanus","L7854753","Fall Creek--across from NF-1828 (43.982, -122.5)","2025-05-29 17:27",1,43.9818909,-122.4996775,TRUE,FALSE,TRUE,"S244422736"
"175","amedip","American Dipper","Cinclus mexicanus","L3781865","Kaibab Park","2025-05-29 17:17",1,40.0821247,-105.9316648,TRUE,FALSE,FALSE,"S244367801"
"176","amedip","American Dipper","Cinclus mexicanus","L12029142","National Forest Development Road 18--Bridge at Gold Creek","2025-05-29 16:26",1,43.9810906,-122.4068079,TRUE,FALSE,TRUE,"S244422647"
"177","amedip","American Dipper","Cinclus mexicanus","L7479665","Colorado: Cathedral (Town)","2025-05-29 16:15",2,38.0782007,-107.0434252,TRUE,FALSE,TRUE,"S244393102"
"178","amedip","American Dipper","Cinclus mexicanus","L46325270","Rattlesnake Creek Trail, Missoula US-MT 46.95393, -113.92705","2025-05-29 16:12",1,46.953926,-113.927052,TRUE,FALSE,TRUE,"S244366900"
"179","amedip","American Dipper","Cinclus mexicanus","L263439","Greer--West Fork of the Little Colorado River","2025-05-29 15:39",1,33.993428,-109.4647197,TRUE,FALSE,FALSE,"S244353996"
"180","amedip","American Dipper","Cinclus mexicanus","L46333184","Hell Roaring Creek Trail","2025-05-29 15:00",1,45.4374695,-111.233787,TRUE,FALSE,TRUE,"S244408155"
"181","amedip","American Dipper","Cinclus mexicanus","L2302227","Draper Wood River Preserve","2025-05-29 14:57",3,43.5118137,-114.3180442,TRUE,FALSE,FALSE,"S244330543"
"182","amedip","American Dipper","Cinclus mexicanus","L339876","SFSU--Sierra Nevada Field Campus","2025-05-29 14:54",1,39.625218,-120.576131,TRUE,FALSE,FALSE,"S244398456"
"183","amedip","American Dipper","Cinclus mexicanus","L4742680","Yellowstone NP--Tower Falls","2025-05-29 13:54",1,44.8943701,-110.3877926,TRUE,FALSE,FALSE,"S244324271"
"184","amedip","American Dipper","Cinclus mexicanus","L818028","Sheep Crossing","2025-05-29 13:31",1,33.9593794,-109.5077705,TRUE,FALSE,FALSE,"S244342518"
"185","amedip","American Dipper","Cinclus mexicanus","L770088","Rocky Mountain NP--Fern Lake Trail","2025-05-29 12:45",2,40.352596,-105.6432556,TRUE,FALSE,FALSE,"S244403392"
"186","amedip","American Dipper","Cinclus mexicanus","L11753979","S Lommen Rd.","2025-05-29 12:28",1,45.6950838,-123.8466334,TRUE,FALSE,FALSE,"S244645578"
"187","amedip","American Dipper","Cinclus mexicanus","L46313172","Upper Bear Creek Rd, Evergreen US-CO (39.6409,-105.3740)","2025-05-29 12:06",4,39.640895,-105.373972,TRUE,FALSE,TRUE,"S244300630"
"188","amedip","American Dipper","Cinclus mexicanus","L46333456","Wood River CG","2025-05-29 11:42",1,43.792553,-114.459123,TRUE,FALSE,TRUE,"S244409528"
"189","amedip","American Dipper","Cinclus mexicanus","L3456238","Deschutes River Trail--Old Mill (Mill A  and  Loggers Loops)","2025-05-29 11:30",1,44.045064,-121.316421,TRUE,FALSE,FALSE,"S244264231"
"190","amedip","American Dipper","Cinclus mexicanus","L46303703","Old South Saint Vrain Rd, Lyons US-CO 40.20640, -105.29343","2025-05-29 11:29",2,40.206402,-105.293426,TRUE,FALSE,TRUE,"S244256113"
"191","amedip","American Dipper","Cinclus mexicanus","L4468848","Bullhead Pond","2025-05-29 11:24",1,47.3804954,-121.9830036,TRUE,FALSE,TRUE,"S244262151"
"192","amedip","American Dipper","Cinclus mexicanus","L1775729","Eben G. Fine Park","2025-05-29 11:17",1,40.0130899,-105.2956295,TRUE,FALSE,FALSE,"S244255679"
"193","amedip","American Dipper","Cinclus mexicanus","L46304003","26683–27075 Poudre Canyon Rd, Bellvue US-CO 40.69098, -105.49833","2025-05-29 10:58",2,40.69098,-105.498332,TRUE,FALSE,TRUE,"S244257504"
"194","amedip","American Dipper","Cinclus mexicanus","L6136876","Rocky Mountain NP--Endovalley Picnic Area","2025-05-29 10:55",2,40.4133327,-105.6588435,TRUE,FALSE,FALSE,"S244808003"
"195","amedip","American Dipper","Cinclus mexicanus","L2820963","Fish Creek Road","2025-05-29 10:45",2,43.514689,-110.868187,TRUE,FALSE,TRUE,"S244328799"
"196","amedip","American Dipper","Cinclus mexicanus","L46308376","NE Entrance Rd, Yellowstone National Park US-WY 44.92166, -110.09521","2025-05-29 10:32",1,44.921665,-110.095211,TRUE,FALSE,TRUE,"S244277961"
"197","amedip","American Dipper","Cinclus mexicanus","L46370672","Dovre Campground","2025-05-29 10:26",2,45.316411,-123.478725,TRUE,FALSE,TRUE,"S244588610"
"198","amedip","American Dipper","Cinclus mexicanus","L46417636","North Fork Campground , Emigrant Gap US-CA (39.2707,-120.6588)","2025-05-29 10:23",4,39.270714,-120.658838,TRUE,FALSE,TRUE,"S244795753"
"199","amedip","American Dipper","Cinclus mexicanus","L588062","Multnomah Falls","2025-05-29 10:11",1,45.5770421,-122.1178436,TRUE,FALSE,FALSE,"S244278577"
"200","amedip","American Dipper","Cinclus mexicanus","L46294930","23470 U.S. 84, Chromo, Colorado, US (37.036, -106.84)","2025-05-29 10:05",1,37.0356231,-106.8402367,TRUE,FALSE,TRUE,"S244217921"
"201","amedip","American Dipper","Cinclus mexicanus","L46320574","Canyon Lake Community Forest","2025-05-29 10:00",1,48.8310802,-122.0660019,TRUE,FALSE,TRUE,"S244341745"
"202","amedip","American Dipper","Cinclus mexicanus","L46417113","Soda Butte bridge on NE entrance road","2025-05-29 09:50",1,44.945046,-110.082366,TRUE,FALSE,TRUE,"S244792403"
"203","amedip","American Dipper","Cinclus mexicanus","L587909","Rocky Mountain NP--Alluvial Fan/Fan Lake area","2025-05-29 09:28",1,40.4102611,-105.6351221,TRUE,FALSE,FALSE,"S244353502"
"204","amedip","American Dipper","Cinclus mexicanus","L24777952","TimBurr","2025-05-29 09:24",1,64.637916,-165.286905,TRUE,FALSE,TRUE,"S244242709"
"205","amedip","American Dipper","Cinclus mexicanus","L32605545","Foothills Community Hospital area","2025-05-29 09:06",2,40.0163912,-105.2362776,TRUE,FALSE,TRUE,"S244383503"
"206","amedip","American Dipper","Cinclus mexicanus","L452011","Lassen Volcanic NP--Manzanita Lake","2025-05-29 09:03",2,40.5316108,-121.5663815,TRUE,FALSE,FALSE,"S244348826"
"207","amedip","American Dipper","Cinclus mexicanus","L46334896","Bob Blodgett Hwy, Nome US-AK 64.57150, -165.58098","2025-05-29 09:01",1,64.571499,-165.580983,TRUE,FALSE,TRUE,"S244417521"
"208","amedip","American Dipper","Cinclus mexicanus","L1270087","Glacier NP--Avalanche Lake Trail","2025-05-29 08:46",1,48.6602988,-113.7902927,TRUE,FALSE,FALSE,"S244327613"
"209","amedip","American Dipper","Cinclus mexicanus","L11554657","Jackson Creek forest Rd # 977","2025-05-29 08:45",1,45.6951654,-110.8016937,TRUE,FALSE,FALSE,"S244233902"
"210","amedip","American Dipper","Cinclus mexicanus","L8166483","Camp Ida Haven (private)","2025-05-29 08:42",1,44.9536968,-116.052659,TRUE,FALSE,FALSE,"S244199375"
"211","amedip","American Dipper","Cinclus mexicanus","L972229","Sheep Creek (Daggett Co.)","2025-05-29 08:40",1,40.929564,-109.7282267,TRUE,FALSE,FALSE,"S244219302"
"212","amedip","American Dipper","Cinclus mexicanus","L1239330","Tumalo Falls","2025-05-29 08:37",3,44.032524,-121.5661937,TRUE,FALSE,FALSE,"S244295964"
"213","amedip","American Dipper","Cinclus mexicanus","L46304045","Steven’s Gulch","2025-05-29 08:34",3,40.683525,-105.408758,TRUE,FALSE,TRUE,"S244257632"
"214","amedip","American Dipper","Cinclus mexicanus","L1160359","Campbell Tract--Campbell Creek Science Center","2025-05-29 08:32",1,61.164522,-149.7774482,TRUE,FALSE,FALSE,"S244223339"
"215","amedip","American Dipper","Cinclus mexicanus","L3782718","Lower Brush Creek","2025-05-29 08:19",1,39.642508,-106.831045,TRUE,FALSE,FALSE,"S244193851"
"216","amedip","American Dipper","Cinclus mexicanus","L2898461","Mission Creek","2025-05-29 08:10",4,47.4579859,-120.4900724,TRUE,FALSE,TRUE,"S244243462"
"217","amedip","American Dipper","Cinclus mexicanus","L6168163","Maroon Lake area","2025-05-29 08:10",2,39.0979779,-106.9430745,TRUE,FALSE,FALSE,"S244240215"
"218","amedip","American Dipper","Cinclus mexicanus","L12026290","Skookum Falls","2025-05-29 08:02",1,47.0520737,-121.5745358,TRUE,FALSE,FALSE,"S244314191"
"219","amedip","American Dipper","Cinclus mexicanus","L354093","Catwalk National Recreation Trail","2025-05-29 07:45",2,33.3736887,-108.8403511,TRUE,FALSE,FALSE,"S244388105"
"220","amedip","American Dipper","Cinclus mexicanus","L5655832","Zion NP--Big Bend","2025-05-29 07:45",1,37.2733015,-112.9457617,TRUE,FALSE,FALSE,"S244197410"
"221","amedip","American Dipper","Cinclus mexicanus","L4248209","Deschutes River Trail--Benham Falls","2025-05-29 07:44",1,43.939274,-121.413247,TRUE,FALSE,FALSE,"S244224429"
"222","amedip","American Dipper","Cinclus mexicanus","L1349160","Weber's Hotspot","2025-05-29 07:19",1,42.4920743,-111.330919,TRUE,FALSE,TRUE,"S244356492"
"223","amedip","American Dipper","Cinclus mexicanus","L46324771","84512, Bluff US-UT (37.1818,-109.8528)","2025-05-29 07:00",1,37.18182,-109.852801,TRUE,FALSE,TRUE,"S244364245"
"224","amedip","American Dipper","Cinclus mexicanus","L1311243","Stumptown Road","2025-05-29 06:39",1,46.1464807,-113.0207348,TRUE,FALSE,TRUE,"S244310802"
"225","amedip","American Dipper","Cinclus mexicanus","L11683903","Young Gulch Trail","2025-05-29 06:39",1,40.6776199,-105.348945,TRUE,FALSE,FALSE,"S244262081"
"226","amedip","American Dipper","Cinclus mexicanus","L911536","Liberty Area","2025-05-29 05:18",1,47.2923291,-120.6669617,TRUE,FALSE,TRUE,"S244187768"
"227","amedip","American Dipper","Cinclus mexicanus","L34120828","95–99 Jackpine, Jackson US-WY 43.32317, -110.43666","2025-05-28 20:15",1,43.323174,-110.43666,TRUE,FALSE,TRUE,"S244023693"
"228","amedip","American Dipper","Cinclus mexicanus","L1291940","Glacier NP--Saint Mary Falls","2025-05-28 18:36",1,48.667973,-113.6150372,TRUE,FALSE,FALSE,"S244052738"
"229","amedip","American Dipper","Cinclus mexicanus","L447393","Horsetail Falls","2025-05-28 18:23",1,45.5909782,-122.0690918,TRUE,FALSE,FALSE,"S244015009"
"230","amedip","American Dipper","Cinclus mexicanus","L940454","Diamond Fork Canyon -- Diamond Fork CG","2025-05-28 17:45",1,40.0759041,-111.4174819,TRUE,FALSE,FALSE,"S244021628"
"231","amedip","American Dipper","Cinclus mexicanus","L1653845","Redfish Lake--North Shore Picnic Area","2025-05-28 15:34",1,44.1434692,-114.9151468,TRUE,FALSE,FALSE,"S243965550"
"232","amedip","American Dipper","Cinclus mexicanus","L918282","Sleeping Lady Mountain Resort","2025-05-28 15:15",1,47.5511658,-120.6811774,TRUE,FALSE,FALSE,"S243981379"
"233","amedip","American Dipper","Cinclus mexicanus","L1058415","Fortson Mill Ponds","2025-05-28 14:48",1,48.2741106,-121.7310905,TRUE,FALSE,FALSE,"S244191768"
"234","amedip","American Dipper","Cinclus mexicanus","L46247414","890–898 Tolland Rd, Black Hawk US-CO 39.91599, -105.51993","2025-05-28 13:34",1,39.915993,-105.519934,TRUE,FALSE,TRUE,"S243988843"
"235","amedip","American Dipper","Cinclus mexicanus","L46310335","56339–56529 County Road OE, Collbran US-CO 39.22483, -107.99904","2025-05-28 13:19",3,39.224834,-107.999037,TRUE,FALSE,TRUE,"S244286905"
"236","amedip","American Dipper","Cinclus mexicanus","L1608286","Wahclella Falls","2025-05-28 13:07",1,45.6256146,-121.952765,TRUE,FALSE,FALSE,"S243950437"
"237","amedip","American Dipper","Cinclus mexicanus","L4313747","Lyre Conservation Area","2025-05-28 12:53",1,48.1501769,-123.8257748,TRUE,FALSE,FALSE,"S243963045"
"238","amedip","American Dipper","Cinclus mexicanus","L486333","Fallen Leaf Lake","2025-05-28 12:47",1,38.9082332,-120.0591516,TRUE,FALSE,FALSE,"S243996964"
"239","amedip","American Dipper","Cinclus mexicanus","L802524","Newhalem","2025-05-28 12:07",1,48.6735915,-121.2471342,TRUE,FALSE,FALSE,"S243988864"
"240","amedip","American Dipper","Cinclus mexicanus","L2894731","Barclay Lake","2025-05-28 11:38",1,47.7847881,-121.4277649,TRUE,FALSE,FALSE,"S244028528"
"241","amedip","American Dipper","Cinclus mexicanus","L972000","Hauser Dam","2025-05-28 11:30",1,46.7643833,-111.8873405,TRUE,FALSE,FALSE,"S244412906"
"242","amedip","American Dipper","Cinclus mexicanus","L32594123","Grayback Rd 27-99, Boise US-ID 43.80666, -115.87035","2025-05-28 10:56",2,43.806662,-115.870349,TRUE,FALSE,TRUE,"S243895610"
"243","amedip","American Dipper","Cinclus mexicanus","L46248923","Paradise Valley Road, Packwood, Washington, US (46.78, -121.779)","2025-05-28 10:55",1,46.7801459,-121.7789586,TRUE,FALSE,TRUE,"S243997082"
"244","amedip","American Dipper","Cinclus mexicanus","L28349591","Lower Elwha Klallam Tribal Reservation","2025-05-28 10:29",1,48.1443062,-123.5549662,TRUE,FALSE,FALSE,"S243930956"
"245","amedip","American Dipper","Cinclus mexicanus","L2928535","Sourgrass Campground","2025-05-28 10:03",2,38.3246561,-120.2142692,TRUE,FALSE,FALSE,"S244017541"
"246","amedip","American Dipper","Cinclus mexicanus","L46236622","Bridge in Baldy Village CA (34.2381,-117.6551)","2025-05-28 09:59",1,34.238062,-117.655074,TRUE,FALSE,TRUE,"S243932174"
"247","amedip","American Dipper","Cinclus mexicanus","L25480597","Klickitat Trail--Lower Swale Creek section (45.813, -121.078)","2025-05-28 09:26",1,45.8126389,-121.0780223,TRUE,FALSE,FALSE,"S243946187"
"248","amedip","American Dipper","Cinclus mexicanus","L46230133","Lundy Canyon Trail, Lee Vining US-CA 38.02220, -119.26178","2025-05-28 09:10",1,38.0222,-119.261781,TRUE,FALSE,TRUE,"S243899930"
"249","amedip","American Dipper","Cinclus mexicanus","L742929","Salt Creek Falls","2025-05-28 09:10",1,43.61179,-122.12861,TRUE,FALSE,FALSE,"S244036760"
"250","amedip","American Dipper","Cinclus mexicanus","L24685840","Nome-Teller road, from end of pavement in Nome to Penny River bridge","2025-05-28 09:00",1,64.541616,-165.40917,TRUE,FALSE,TRUE,"S244047136"
"251","amedip","American Dipper","Cinclus mexicanus","L282515","Boulder Creek--University of Colorado campus","2025-05-28 08:50",1,40.0113789,-105.2656611,TRUE,FALSE,FALSE,"S243840613"
"252","amedip","American Dipper","Cinclus mexicanus","L18216732","Route from Home to Canal (38.290877; -111.429870)","2025-05-28 08:49",2,38.2908251,-111.43017,TRUE,FALSE,TRUE,"S244383698"
"253","amedip","American Dipper","Cinclus mexicanus","L716993","Chester Creek & Fish Creek Mouths (Audubon Bench & Fish Creek Bench)","2025-05-28 08:45",1,61.2075708,-149.9289732,TRUE,FALSE,FALSE,"S243898597"
"254","amedip","American Dipper","Cinclus mexicanus","L8781357","Willow Springs Preserve (restricted access)","2025-05-28 08:24",1,44.3131927,-121.5107568,TRUE,FALSE,FALSE,"S243909511"
"255","amedip","American Dipper","Cinclus mexicanus","L12414158","A-Line (walk-in only)","2025-05-28 08:20",1,40.3447604,-121.6692048,TRUE,FALSE,FALSE,"S243929766"
"256","amedip","American Dipper","Cinclus mexicanus","L14887298","Grimes Creek Veery Spot, Boise ID","2025-05-28 07:58",1,43.749665,-115.972684,TRUE,FALSE,TRUE,"S243896278"
"257","amedip","American Dipper","Cinclus mexicanus","L25379669","Glacier NP--John’s Lake","2025-05-28 07:38",2,48.637498,-113.856737,TRUE,FALSE,FALSE,"S244020091"
"258","amedip","American Dipper","Cinclus mexicanus","L1412084","Hardware Ranch Game Management Area","2025-05-28 07:35",1,41.5995517,-111.5453771,TRUE,FALSE,FALSE,"S243832853"
"259","amedip","American Dipper","Cinclus mexicanus","L215754","Evergreen Lake","2025-05-28 07:35",1,39.6319437,-105.3285318,TRUE,FALSE,FALSE,"S243836465"
"260","amedip","American Dipper","Cinclus mexicanus","L7256990","Black Canyon of the Gunnion NP--East Portal Campground and trail","2025-05-28 07:27",2,38.5287035,-107.6490828,TRUE,FALSE,FALSE,"S243894229"
"261","amedip","American Dipper","Cinclus mexicanus","L282988","Bullfrog Pond","2025-05-28 07:06",2,47.193612,-121.014751,TRUE,FALSE,FALSE,"S243849350"
"262","amedip","American Dipper","Cinclus mexicanus","L46246367","Eightmile Road, Okanogan Co., WA","2025-05-28 07:05",1,48.741075,-120.292232,TRUE,FALSE,TRUE,"S243983406"
"263","amedip","American Dipper","Cinclus mexicanus","L45765787","Warner Creek Bridge","2025-05-28 06:36",1,40.3401321,-121.3056773,TRUE,FALSE,TRUE,"S243794263"
"264","amedip","American Dipper","Cinclus mexicanus","L46322778","Glade Creek Trail, Alta, Wyoming, US (43.998, -110.71)","2025-05-28 05:45",2,43.9980214,-110.7101155,TRUE,FALSE,TRUE,"S244353215"
"265","amedip","American Dipper","Cinclus mexicanus","L46218992","11461–11485 Hatcher Pass Rd, Willow US-AK 61.76452, -149.21993","2025-05-28 04:09",1,61.764516,-149.219928,TRUE,FALSE,TRUE,"S243849545"
"266","amedip","American Dipper","Cinclus mexicanus","L25382503","NF-7030 at King/Pierce County line (Pierce Co)","2025-05-28",2,47.1168341,-121.4913374,TRUE,FALSE,TRUE,"S243960246"
"267","amedip","American Dipper","Cinclus mexicanus","L20111193","FR-7030 bridge at Greenwater River (King Co side)","2025-05-28",NA,47.116879,-121.490795,TRUE,FALSE,TRUE,"S243959856"
"268","amedip","American Dipper","Cinclus mexicanus","L1816639","Willow Flat Campground","2025-05-27 18:45",NA,42.1388856,-111.6253594,TRUE,FALSE,FALSE,"S243690796"
"269","amedip","American Dipper","Cinclus mexicanus","L16366780","Lower Bridge Campground","2025-05-27 16:57",2,44.5571591,-121.6209363,TRUE,FALSE,FALSE,"S244677315"
"270","amedip","American Dipper","Cinclus mexicanus","L25405370","Old Salmon River Trail #742A","2025-05-27 16:31",1,45.3076396,-121.9432396,TRUE,FALSE,FALSE,"S243656457"
"271","amedip","American Dipper","Cinclus mexicanus","L1151323","Chester Creek Trail--C St. to Seward Hwy.","2025-05-27 16:31",1,61.2026765,-149.8806579,TRUE,FALSE,FALSE,"S243656173"
"272","amedip","American Dipper","Cinclus mexicanus","L46170580","Little Mill Winter Trail, Pleasant Grove US-UT 40.44786, -111.68042","2025-05-27 15:26",2,40.447861,-111.680424,TRUE,FALSE,TRUE,"S243600960"
"273","amedip","American Dipper","Cinclus mexicanus","L46184832","Pingree Park Road, Bellvue, Colorado, US (40.689, -105.493)","2025-05-27 14:50",2,40.6885257,-105.492682,TRUE,FALSE,TRUE,"S243678097"
"274","amedip","American Dipper","Cinclus mexicanus","L872582","Tahoe NF--Sagehen Creek Trail (NEV Co.)","2025-05-27 13:59",1,39.4320912,-120.1991898,TRUE,FALSE,FALSE,"S243686112"
"275","amedip","American Dipper","Cinclus mexicanus","L39924675","Clear Creek Trail, Denver US-CO 39.79625, -105.03863","2025-05-27 13:39",1,39.796247,-105.038633,TRUE,FALSE,TRUE,"S243596521"
"276","amedip","American Dipper","Cinclus mexicanus","L1119817","Eagle Creek Fish Hatchery Overlook","2025-05-27 12:50",2,45.6413478,-121.9314194,TRUE,FALSE,FALSE,"S243589915"
"277","amedip","American Dipper","Cinclus mexicanus","L46361322","Dry Head Creek, Bridger US-MT 45.21045, -108.14204","2025-05-27 12:15",1,45.210451,-108.142043,TRUE,FALSE,TRUE,"S244545357"
"278","amedip","American Dipper","Cinclus mexicanus","L2247053","Zion NP--Zion Narrows","2025-05-27 12:14",2,37.3054766,-112.9495597,TRUE,FALSE,FALSE,"S243567986"
"279","amedip","American Dipper","Cinclus mexicanus","L3297024","McKenzie River Trail--Sahalie Falls to Koosah Falls","2025-05-27 12:13",2,44.3483163,-121.9963201,TRUE,FALSE,FALSE,"S243690312"
"280","amedip","American Dipper","Cinclus mexicanus","L3678931","Taku Lake","2025-05-27 12:05",1,61.1507424,-149.8810351,TRUE,FALSE,FALSE,"S243639395"
"281","amedip","American Dipper","Cinclus mexicanus","L6158833","West Fork Madison River Campground","2025-05-27 11:59",3,44.8871036,-111.5825783,TRUE,FALSE,FALSE,"S243544909"
"282","amedip","American Dipper","Cinclus mexicanus","L29874098","Chevallier Dr. North - Little Sheep Cr. - Rocking Z","2025-05-27 11:56",1,46.8622177,-112.1666366,TRUE,FALSE,FALSE,"S243633881"
"283","amedip","American Dipper","Cinclus mexicanus","L7049056","Russ Garaman Park","2025-05-27 11:55",1,43.4658464,-110.7879782,TRUE,FALSE,FALSE,"S243541114"
"284","amedip","American Dipper","Cinclus mexicanus","L46253444","Ella Falls, Kings Canyon National Pk US-CA","2025-05-27 11:49",1,36.732273,-118.979221,TRUE,FALSE,TRUE,"S244019993"
"285","amedip","American Dipper","Cinclus mexicanus","L1204250","Grass Lake (PLU Co.)","2025-05-27 11:23",1,39.7263,-120.6994486,TRUE,FALSE,FALSE,"S243606654"
"286","amedip","American Dipper","Cinclus mexicanus","L40501202","Savage Creek, National Forest Development Road, Oregon, US (44.507, -123.747)","2025-05-27 11:00",2,44.5073806,-123.7471599,TRUE,FALSE,TRUE,"S244791086"
"287","amedip","American Dipper","Cinclus mexicanus","L13033217","Nooksack River--Welcome Bridge","2025-05-27 10:32",2,48.8374125,-122.1536774,TRUE,FALSE,FALSE,"S243529701"
"288","amedip","American Dipper","Cinclus mexicanus","L1520717","Zion NP--Pa'rus Trail","2025-05-27 10:06",2,37.2122648,-112.9765777,TRUE,FALSE,FALSE,"S243585463"
"289","amedip","American Dipper","Cinclus mexicanus","L27503300","Tunnel Creek Trail, Brinnon US-WA 47.78141, -123.05223","2025-05-27 09:56",1,47.781411,-123.052227,TRUE,FALSE,TRUE,"S243651696"
"290","amedip","American Dipper","Cinclus mexicanus","L1437095","Lower Dungeness R. (Creamery) Trail","2025-05-27 09:13",2,48.1353767,-123.1375856,TRUE,FALSE,FALSE,"S243549618"
"291","amedip","American Dipper","Cinclus mexicanus","L16555559","Mineral creek road","2025-05-27 09:05",1,37.811364,-107.74661,TRUE,FALSE,TRUE,"S243489823"
"292","amedip","American Dipper","Cinclus mexicanus","L6051044","Lake Tahoe KOA","2025-05-27 09:02",1,38.8453565,-120.0293791,TRUE,FALSE,FALSE,"S243838146"
"293","amedip","American Dipper","Cinclus mexicanus","L46148534","20072 East Sun Rae Drive, Sandy, Oregon, US (45.378, -122.032)","2025-05-27 08:46",2,45.3782232,-122.0324746,TRUE,FALSE,TRUE,"S243501308"
"294","amedip","American Dipper","Cinclus mexicanus","L9094325","Glacier National Park, Upper McDonald Creek (48.6998,-113.8125)","2025-05-27 08:11",1,48.699769,-113.812533,TRUE,FALSE,TRUE,"S243619785"
"295","amedip","American Dipper","Cinclus mexicanus","L2324035","Hood River--Powerdale Corridor","2025-05-27 08:02",1,45.695734,-121.5082741,TRUE,FALSE,FALSE,"S243531482"
"296","amedip","American Dipper","Cinclus mexicanus","L34360596","AG","2025-05-27 08:00",1,39.436105,-107.2659,TRUE,FALSE,TRUE,"S243592003"
"297","amedip","American Dipper","Cinclus mexicanus","L34311621","Browns Crossing Wildlife Viewing Site","2025-05-27 07:58",1,43.7444989,-121.7819023,TRUE,FALSE,FALSE,"S243481261"
"298","amedip","American Dipper","Cinclus mexicanus","L515480","Neff's Canyon","2025-05-27 07:49",1,40.6734668,-111.7709896,TRUE,FALSE,FALSE,"S243475067"
"299","amedip","American Dipper","Cinclus mexicanus","L46190856","Three Bridges","2025-05-27 07:28",1,47.020093,-114.656877,TRUE,FALSE,TRUE,"S243708452"
"300","amedip","American Dipper","Cinclus mexicanus","L1296837","Greenough Park","2025-05-27 06:59",1,46.8762695,-113.9762878,TRUE,FALSE,FALSE,"S243453764"
"301","amedip","American Dipper","Cinclus mexicanus","L46145746","Hauser Dam - Beaver Creek Rec Area","2025-05-27 06:50",1,46.76592,-111.8864655,TRUE,FALSE,TRUE,"S243488670"
"302","amedip","American Dipper","Cinclus mexicanus","L729088","Teanaway River Bridge","2025-05-26 20:17",1,47.1685759,-120.8346083,TRUE,FALSE,FALSE,"S243327827"
"303","amedip","American Dipper","Cinclus mexicanus","L46529455","Clackamas River Camp, National Forest Development Road 46, Ripplebrook, Oregon, US (45.05, -122.059)","2025-05-26 20:15",1,45.0495202,-122.0587372,TRUE,FALSE,TRUE,"S245653450"
"304","amedip","American Dipper","Cinclus mexicanus","L6203872","Prairie City (town)","2025-05-26 19:21",1,44.4629979,-118.709329,TRUE,FALSE,FALSE,"S243606569"
"305","amedip","American Dipper","Cinclus mexicanus","L5971934","Santa Fe NF--Soda Dam","2025-05-26 19:07",1,35.792088,-106.6866687,TRUE,FALSE,FALSE,"S243344633"
"306","amedip","American Dipper","Cinclus mexicanus","L1235897","Sourdough Nature Trail","2025-05-26 18:45",1,45.6398026,-111.0306966,TRUE,FALSE,FALSE,"S243316002"
"307","amedip","American Dipper","Cinclus mexicanus","L1189932","Millcreek Canyon--Desolation Trail/Salt Lake Overlook","2025-05-26 18:30",1,40.695369,-111.7405808,TRUE,FALSE,FALSE,"S243336107"
"308","amedip","American Dipper","Cinclus mexicanus","L15278948","Clark Fork Rd. (TUO Co.)","2025-05-26 17:52",1,38.360759,-119.870805,TRUE,FALSE,FALSE,"S243319606"
"309","amedip","American Dipper","Cinclus mexicanus","L45303167","Grimes Creek Road, Boise, Idaho, US (43.752, -115.974)","2025-05-26 17:39",1,43.7524311,-115.9740575,TRUE,FALSE,TRUE,"S243426391"
"310","amedip","American Dipper","Cinclus mexicanus","L1252255","Big Pine Canyon--Glacier Lodge and campgrounds","2025-05-26 17:05",2,37.1264497,-118.4315786,TRUE,FALSE,FALSE,"S243300707"
"311","amedip","American Dipper","Cinclus mexicanus","L7529941","Upper Hoback Rd (Forest Rd 30700)","2025-05-26 16:20",1,43.123897,-110.420242,TRUE,FALSE,FALSE,"S243315963"
"312","amedip","American Dipper","Cinclus mexicanus","L46104965","Unnamed Road, Kyburz, California, US (38.89, -120.338)","2025-05-26 14:57",3,38.8895498,-120.3378841,TRUE,FALSE,TRUE,"S243278396"
"313","amedip","American Dipper","Cinclus mexicanus","L5108421","South Fork Trail Meadows (Poopout Hill Fire Road to Dry Lake Trail)","2025-05-26 14:46",NA,34.1443871,-116.8517561,TRUE,FALSE,FALSE,"S243227424"
"314","amedip","American Dipper","Cinclus mexicanus","L1173301","Deming Homestead Eagle Park","2025-05-26 14:39",1,48.8235365,-122.1821684,TRUE,FALSE,FALSE,"S243263172"
"315","amedip","American Dipper","Cinclus mexicanus","L2767064","Gifford Pinchot NF--Falls Creek Trail #152","2025-05-26 14:36",1,45.9063014,-121.9399595,TRUE,FALSE,FALSE,"S243222909"
"316","amedip","American Dipper","Cinclus mexicanus","L46275158","Missouri River, Wolf Creek US-MT 47.03030, -112.00526","2025-05-26 14:30",1,47.030297,-112.005255,TRUE,FALSE,TRUE,"S244123097"
"317","amedip","American Dipper","Cinclus mexicanus","L46113702","South Yuba River, Nevada City US-CA 39.32749, -121.04375","2025-05-26 14:25",1,39.327492,-121.043755,TRUE,FALSE,TRUE,"S243324275"
"318","amedip","American Dipper","Cinclus mexicanus","L41096566","Deer Creek Falls","2025-05-26 14:13",1,40.201756,-121.513267,TRUE,FALSE,FALSE,"S243332968"
"319","amedip","American Dipper","Cinclus mexicanus","L2236250","Lee Vining Creek Trail","2025-05-26 14:05",1,37.9578482,-119.1170668,TRUE,FALSE,FALSE,"S243281322"
"320","amedip","American Dipper","Cinclus mexicanus","L43609823","West Boulder Meadows","2025-05-26 14:00",2,45.5239969,-110.3293463,TRUE,FALSE,TRUE,"S244403291"
"321","amedip","American Dipper","Cinclus mexicanus","L46115313","Sabrina Campground","2025-05-26 13:50",2,37.2183646,-118.608852,TRUE,FALSE,TRUE,"S243333018"
"322","amedip","American Dipper","Cinclus mexicanus","L46104960","Unnamed Road, Scotts Mills, Oregon, US (44.927, -122.567)","2025-05-26 13:47",1,44.9265066,-122.5667857,TRUE,FALSE,TRUE,"S243278371"
"323","amedip","American Dipper","Cinclus mexicanus","L46097154","Highway 145, Placerville, Colorado, US (38.04, -108.129)","2025-05-26 13:43",1,38.0400426,-108.1289876,TRUE,FALSE,TRUE,"S243236133"
"324","amedip","American Dipper","Cinclus mexicanus","L1399185","Glacier NP--Upper McDonald Creek","2025-05-26 13:35",1,48.6354292,-113.8664245,TRUE,FALSE,FALSE,"S245160696"
"325","amedip","American Dipper","Cinclus mexicanus","L12279440","Upper Cheesman Canyon Trail","2025-05-26 13:28",1,39.2224012,-105.2764946,TRUE,FALSE,FALSE,"S243320505"
"326","amedip","American Dipper","Cinclus mexicanus","L489469","Mt. Rainier NP--Paradise","2025-05-26 13:26",1,46.7871318,-121.7340088,TRUE,FALSE,FALSE,"S243215395"
"327","amedip","American Dipper","Cinclus mexicanus","L4778972","Creston Fish Hatchery and Jessup Mill Pond","2025-05-26 13:01",1,48.1985143,-114.1155995,TRUE,FALSE,FALSE,"S243185595"
"328","amedip","American Dipper","Cinclus mexicanus","L7738052","Basalt River Park","2025-05-26 13:00",2,39.3683685,-107.0375478,TRUE,FALSE,FALSE,"S243336856"
"329","amedip","American Dipper","Cinclus mexicanus","L46098761","Auto selected 38.09210, -119.30184","2025-05-26 12:17",1,38.0921,-119.301838,TRUE,FALSE,TRUE,"S243244553"
"330","amedip","American Dipper","Cinclus mexicanus","L46330644","Twin Lakes Trail, Leavenworth, WA","2025-05-26 11:48",1,47.930759,-120.867249,TRUE,FALSE,TRUE,"S244396026"
"331","amedip","American Dipper","Cinclus mexicanus","L24634256","Clear Creek Trail - Turkey Lane Access","2025-05-26 11:45",1,44.3355847,-106.7563348,TRUE,FALSE,FALSE,"S243175044"
"332","amedip","American Dipper","Cinclus mexicanus","L753291","Mt. Rainier NP--Longmire","2025-05-26 11:30",1,46.750859,-121.813488,TRUE,FALSE,FALSE,"S243263800"
"333","amedip","American Dipper","Cinclus mexicanus","L10796315","Libby Creek","2025-05-26 11:25",2,48.3861698,-115.5363034,TRUE,FALSE,FALSE,"S243167768"
"334","amedip","American Dipper","Cinclus mexicanus","L19661623","Punchbowl Falls Nature Park","2025-05-26 11:13",1,45.6014727,-121.6351623,TRUE,FALSE,FALSE,"S243252282"
"335","amedip","American Dipper","Cinclus mexicanus","L46116485","Auto selected 35.49308, -118.70261","2025-05-26 11:08",1,35.493079,-118.702613,TRUE,FALSE,TRUE,"S243338347"
"336","amedip","American Dipper","Cinclus mexicanus","L19407653","Cabin","2025-05-26 10:55",1,38.691769,-106.352443,TRUE,FALSE,TRUE,"S243140285"
"337","amedip","American Dipper","Cinclus mexicanus","L1547366","Medicine Lodge SP","2025-05-26 10:40",1,44.2982392,-107.5425492,TRUE,FALSE,FALSE,"S243130027"
"338","amedip","American Dipper","Cinclus mexicanus","L1557184","Angelo Coast Range Reserve","2025-05-26 10:32",2,39.7216481,-123.6532264,TRUE,FALSE,FALSE,"S243692065"
"339","amedip","American Dipper","Cinclus mexicanus","L24884984","Big Log Camp","2025-05-26 10:28",1,47.567884,-123.377375,TRUE,FALSE,FALSE,"S243254739"
"340","amedip","American Dipper","Cinclus mexicanus","L46065518","3102–3298 Harvest Ln, Springfield US-OR 44.07846, -123.00072","2025-05-26 10:25",1,44.078457,-123.000724,TRUE,FALSE,TRUE,"S243095338"
"341","amedip","American Dipper","Cinclus mexicanus","L46169105","Roughlock Falls Trail","2025-05-26 10:20",NA,44.3504025,-103.9422717,TRUE,FALSE,TRUE,"S243595823"
"342","amedip","American Dipper","Cinclus mexicanus","L46115461","Hermosa Creek/550 Bridge","2025-05-26 10:15",4,37.413937,-107.8356859,TRUE,FALSE,TRUE,"S243333905"
"343","amedip","American Dipper","Cinclus mexicanus","L45840204","East Metolius River Trail, Camp Sherman US-OR 44.46460, -121.63996","2025-05-26 10:04",6,44.464596,-121.639959,TRUE,FALSE,TRUE,"S243134363"
"344","amedip","American Dipper","Cinclus mexicanus","L46230016","Duckabush River Trail","2025-05-26 09:57",2,47.675959,-123.202369,TRUE,FALSE,TRUE,"S243902373"
"345","amedip","American Dipper","Cinclus mexicanus","L1528416","White River Falls SP","2025-05-26 09:42",1,45.2442866,-121.0978778,TRUE,FALSE,FALSE,"S243135031"
"346","amedip","American Dipper","Cinclus mexicanus","L22391107","County Road 9 US-CO (37.9120,-107.5596) Picayune Gulch","2025-05-26 08:36",1,37.912049,-107.55963,TRUE,FALSE,TRUE,"S243328762"
"347","amedip","American Dipper","Cinclus mexicanus","L28870261","31710 Northeast 32nd Street, Carnation, Washington, US (47.638, -121.917)","2025-05-26 08:29",1,47.6382337,-121.916505,TRUE,FALSE,TRUE,"S243050027"
"348","amedip","American Dipper","Cinclus mexicanus","L317501","Pfeiffer Big Sur SP","2025-05-26 08:23",1,36.2496724,-121.7794991,TRUE,FALSE,FALSE,"S243264279"
"349","amedip","American Dipper","Cinclus mexicanus","L996720","Enterprise WMA","2025-05-26 07:56",1,45.4193591,-117.3054886,TRUE,FALSE,FALSE,"S243020025"
"350","amedip","American Dipper","Cinclus mexicanus","L34566603","Spring Hollow Trail, Logan US-UT 41.74985, -111.71700","2025-05-26 07:46",1,41.749849,-111.716997,TRUE,FALSE,TRUE,"S243069920"
"351","amedip","American Dipper","Cinclus mexicanus","L46080662","Thunderer Cutoff Trail","2025-05-26 07:43",1,44.921235,-110.095524,TRUE,FALSE,TRUE,"S243159919"
"352","amedip","American Dipper","Cinclus mexicanus","L2158756","Telluride Valley Floor","2025-05-26 07:34",1,37.9464988,-107.8479338,TRUE,FALSE,FALSE,"S243113075"
"353","amedip","American Dipper","Cinclus mexicanus","L2393881","Whittier--Lu Young Park","2025-05-26 07:17",1,60.7775212,-148.6613002,TRUE,FALSE,FALSE,"S243052890"
"354","amedip","American Dipper","Cinclus mexicanus","L3597528","BVHS Nature Area Trail & Marquard Nature Area","2025-05-26 07:08",1,38.8372507,-106.1234075,TRUE,FALSE,FALSE,"S242988209"
"355","amedip","American Dipper","Cinclus mexicanus","L7910587","Milo McIver SP--Hiker/Biker Meadow","2025-05-26 07:02",1,45.2952451,-122.3533314,TRUE,FALSE,FALSE,"S245658733"
"356","amedip","American Dipper","Cinclus mexicanus","L2316292","McCloud River--Lower Falls Trail","2025-05-26 06:53",1,41.2444443,-122.0236936,TRUE,FALSE,FALSE,"S243045605"
"357","amedip","American Dipper","Cinclus mexicanus","L46167909","Meadow Creek Campground Lakeshore Trail","2025-05-26 06:44",1,48.208226,-120.561799,TRUE,FALSE,TRUE,"S243588174"
"358","amedip","American Dipper","Cinclus mexicanus","L1388304","City Creek Canyon--Memory Grove","2025-05-26 06:33",2,40.7792699,-111.8843619,TRUE,FALSE,FALSE,"S242987846"
"359","amedip","American Dipper","Cinclus mexicanus","L1607804","Beebe Springs Natural Area","2025-05-26 04:55",1,47.8209727,-119.9729053,TRUE,FALSE,FALSE,"S243028813"
"360","amedip","American Dipper","Cinclus mexicanus","L140673","Zion NP","2025-05-26",1,37.2285636,-112.9654984,TRUE,FALSE,FALSE,"S243850349"
"361","amedip","American Dipper","Cinclus mexicanus","L46009660","CA-108, Pinecrest US-CA 38.33738, -119.77550","2025-05-25 20:38",1,38.337385,-119.7755,TRUE,FALSE,TRUE,"S242812227"
"362","amedip","American Dipper","Cinclus mexicanus","L46005734","Big cottonwood creek trail trail head below park and ride under bridge","2025-05-25 20:30",1,40.620167,-111.790206,TRUE,FALSE,TRUE,"S242793227"
"363","amedip","American Dipper","Cinclus mexicanus","L7033493","Rocky Brook Falls","2025-05-25 18:04",1,47.720676,-122.9413033,TRUE,FALSE,FALSE,"S242776057"
"364","amedip","American Dipper","Cinclus mexicanus","L45997934","Roughlock Falls Trail","2025-05-25 17:11",3,44.349517,-103.936453,TRUE,FALSE,TRUE,"S242754570"
"365","amedip","American Dipper","Cinclus mexicanus","L45992860","I-70 E, Glenwood Springs US-CO 39.56063, -107.25100","2025-05-25 16:44",3,39.560632,-107.250999,TRUE,FALSE,TRUE,"S242729939"
"366","amedip","American Dipper","Cinclus mexicanus","L46035988","Utah 150, Kamas, Utah, US (40.612, -110.961) Provo River","2025-05-25 16:00",1,40.6118064,-110.9614681,TRUE,FALSE,TRUE,"S242951695"
"367","amedip","American Dipper","Cinclus mexicanus","L19625024","Moose Creek Campground","2025-05-25 15:37",1,61.6817701,-149.05054,TRUE,FALSE,FALSE,"S242754446"
"368","amedip","American Dipper","Cinclus mexicanus","L21726522","Strawberry Bridge","2025-05-25 15:25",1,38.1996285,-120.0033852,TRUE,FALSE,FALSE,"S242715088"
"369","amedip","American Dipper","Cinclus mexicanus","L45995574","Town Park, Telluride US-CO 37.93602, -107.80654","2025-05-25 15:25",2,37.93602,-107.806542,TRUE,FALSE,TRUE,"S242743066"
"370","amedip","American Dipper","Cinclus mexicanus","L45984507","Railroad St, Easton US-WA (47.2399,-121.1815)","2025-05-25 14:28",3,47.239933,-121.181516,TRUE,FALSE,TRUE,"S242690478"
"371","amedip","American Dipper","Cinclus mexicanus","L46012831","Mill Creek Road, Walla Walla, Walla","2025-05-25 14:27",1,46.0318581,-118.1442402,TRUE,FALSE,TRUE,"S242827618"
"372","amedip","American Dipper","Cinclus mexicanus","L26296995","Greenway Trail Big Wood River","2025-05-25 14:13",1,43.515045,-114.320011,TRUE,FALSE,TRUE,"S242708793"
"373","amedip","American Dipper","Cinclus mexicanus","L45997454","2697 Stanley Rd, Dumont US-CO 39.76218, -105.57835","2025-05-25 14:00",3,39.762181,-105.578353,TRUE,FALSE,TRUE,"S242752204"
"374","amedip","American Dipper","Cinclus mexicanus","L7702709","Big Springs Rd.","2025-05-25 14:00",1,37.7517944,-118.9403315,TRUE,FALSE,FALSE,"S242799027"
"375","amedip","American Dipper","Cinclus mexicanus","L5097382","Mill Creek acquisition (DNCRSP)--Hamilton Rd. Shipyard","2025-05-25 13:40",1,41.7336608,-124.0958923,TRUE,FALSE,FALSE,"S243609172"
"376","amedip","American Dipper","Cinclus mexicanus","L46007345","16187 West Platte River Road, Littleton, Colorado, US (39.41, -105.184)","2025-05-25 12:58",1,39.4102209,-105.1840748,TRUE,FALSE,TRUE,"S242800619"
"377","amedip","American Dipper","Cinclus mexicanus","L6832327","McKenzie River Trail--Deer Creek Road","2025-05-25 12:46",1,44.239661,-122.058853,TRUE,FALSE,FALSE,"S242748752"
"378","amedip","American Dipper","Cinclus mexicanus","L25471094","Tiger Canyon","2025-05-25 12:45",2,45.988894,-118.064217,TRUE,FALSE,TRUE,"S243206041"
"379","amedip","American Dipper","Cinclus mexicanus","L46006785","Bear Ck","2025-05-25 12:39",1,39.6616131,-105.2849268,TRUE,FALSE,TRUE,"S242798133"
"380","amedip","American Dipper","Cinclus mexicanus","L9889814","Three Dollar Bridge FAS","2025-05-25 12:36",6,44.8309305,-111.5145262,TRUE,FALSE,FALSE,"S242699320"
"381","amedip","American Dipper","Cinclus mexicanus","L233562","East Boulder Trail--Teller Lakes","2025-05-25 12:15",1,40.0393258,-105.1421853,TRUE,FALSE,FALSE,"S242717127"
"382","amedip","American Dipper","Cinclus mexicanus","L3392173","Morrell Falls National Recreation Trail","2025-05-25 12:09",1,47.272867,-113.4510469,TRUE,FALSE,FALSE,"S242656697"
"383","amedip","American Dipper","Cinclus mexicanus","L45997571","US-34, Granby US-CO 40.11615, -105.91037","2025-05-25 11:47",1,40.116151,-105.910374,TRUE,FALSE,TRUE,"S242752836"
"384","amedip","American Dipper","Cinclus mexicanus","L496326","Outer Point Trail","2025-05-25 11:42",1,58.302364,-134.6786499,TRUE,FALSE,FALSE,"S242681054"
"385","amedip","American Dipper","Cinclus mexicanus","L10463052","Belknap Hot Springs Lodge and Gardens","2025-05-25 11:41",1,44.1929459,-122.048418,TRUE,FALSE,FALSE,"S242686514"
"386","amedip","American Dipper","Cinclus mexicanus","L11254502","Birdseye Road, Shoshoni, Wyoming, US (43.414, -108.091)","2025-05-25 11:26",NA,43.4137139,-108.0908484,TRUE,FALSE,TRUE,"S242608872"
"387","amedip","American Dipper","Cinclus mexicanus","L4126037","Pleasant Valley","2025-05-25 11:13",1,46.9611883,-121.2716174,TRUE,FALSE,FALSE,"S242807357"
"388","amedip","American Dipper","Cinclus mexicanus","L34999012","Upper Lawyer Creek","2025-05-25 11:10",1,46.1936899,-116.4080661,TRUE,FALSE,TRUE,"S242718413"
"389","amedip","American Dipper","Cinclus mexicanus","L9173070","Rainbow Gardens,  Ogden, Utah, US (41.236, -111.928)","2025-05-25 11:10",1,41.2361108,-111.9280702,TRUE,FALSE,TRUE,"S242559543"
"390","amedip","American Dipper","Cinclus mexicanus","L45958699","narrows s willow","2025-05-25 10:52",1,40.492075,-112.586456,TRUE,FALSE,TRUE,"S242584837"
"391","amedip","American Dipper","Cinclus mexicanus","L2729687","Emily Stevens Park","2025-05-25 10:46",1,43.4996567,-110.8374596,TRUE,FALSE,FALSE,"S242572580"
"392","amedip","American Dipper","Cinclus mexicanus","L566915","Rocky Mountain NP--Lily Lake area","2025-05-25 10:45",1,40.3073545,-105.540247,TRUE,FALSE,FALSE,"S242808468"
"393","amedip","American Dipper","Cinclus mexicanus","L46171832","East Metolius River Trail, Camp Sherman US-OR (44.4712,-121.6382)","2025-05-25 10:40",1,44.471166,-121.638171,TRUE,FALSE,TRUE,"S243607486"
"394","amedip","American Dipper","Cinclus mexicanus","L353557","Millcreek Canyon","2025-05-25 10:25",4,40.6974942,-111.7281675,TRUE,TRUE,FALSE,"S242616439"
"395","amedip","American Dipper","Cinclus mexicanus","L1626537","Snoqualmie River--Tokul Cr. Confluence","2025-05-25 10:21",3,47.5506541,-121.844248,TRUE,FALSE,FALSE,"S242738530"
"396","amedip","American Dipper","Cinclus mexicanus","L46008923","Little Joe Lake Trail, Ronald US-WA 47.37468, -121.15673","2025-05-25 10:14",1,47.374683,-121.156733,TRUE,FALSE,TRUE,"S242808569"
"397","amedip","American Dipper","Cinclus mexicanus","L900012","Olympic NF-Lake Quinault Lodge (Grays Harbor Co.)","2025-05-25 10:00",1,47.4674701,-123.8484907,TRUE,FALSE,FALSE,"S243667714"
"398","amedip","American Dipper","Cinclus mexicanus","L15223338","Beaver Creek CG and Quake Lake","2025-05-25 09:48",1,44.8563389,-111.3707317,TRUE,FALSE,TRUE,"S243249126"
"399","amedip","American Dipper","Cinclus mexicanus","L15683592","Wardsworth Trail","2025-05-25 09:41",1,40.196525,-111.385409,TRUE,FALSE,FALSE,"S242616073"
"400","amedip","American Dipper","Cinclus mexicanus","L11474815","Old 95 at Lawyer Creek","2025-05-25 09:40",1,46.199155,-116.415575,TRUE,FALSE,FALSE,"S242702158"
"401","amedip","American Dipper","Cinclus mexicanus","L46033478","Beavers Creek","2025-05-25 09:38",4,35.732352,-105.4357268,TRUE,FALSE,TRUE,"S242940008"
"402","amedip","American Dipper","Cinclus mexicanus","L46009021","Okanogan - Wenatchee National Forest, Ronald US-WA (47.3856,-121.0962)","2025-05-25 09:38",1,47.385647,-121.096191,TRUE,FALSE,TRUE,"S242809138"
"403","amedip","American Dipper","Cinclus mexicanus","L45944517","2366 South Frontage Road, West Vail","2025-05-25 09:35",2,39.6259163,-106.4217594,TRUE,FALSE,TRUE,"S242526296"
"404","amedip","American Dipper","Cinclus mexicanus","L21002383","Deschutes River Trail--Farewell Bend Park to Irrigation Canal","2025-05-25 09:27",1,44.0346613,-121.3287285,TRUE,FALSE,FALSE,"S242634379"
"405","amedip","American Dipper","Cinclus mexicanus","L45935900","64 N First Avenue E, Lava Hot Springs US-ID 42.62019, -112.01056","2025-05-25 09:20",1,42.620185,-112.010561,TRUE,FALSE,TRUE,"S242489247"
"406","amedip","American Dipper","Cinclus mexicanus","L3042966","Old Sauk Trail","2025-05-25 09:07",2,48.1956,-121.5295,TRUE,FALSE,FALSE,"S242772358"
"407","amedip","American Dipper","Cinclus mexicanus","L45973722","South Fork Camp","2025-05-25 09:04",1,44.841493,-115.699253,TRUE,FALSE,TRUE,"S242645002"
"408","amedip","American Dipper","Cinclus mexicanus","L1369577","Bozeman Fish Technology Center ","2025-05-25 09:01",1,45.7071231,-110.9785065,TRUE,FALSE,FALSE,"S242697102"
"409","amedip","American Dipper","Cinclus mexicanus","L20553568","Hammett","2025-05-25 08:57",1,42.9432295,-115.4639053,TRUE,FALSE,TRUE,"S242608192"
"410","amedip","American Dipper","Cinclus mexicanus","L46003003","53233 Highway 395 N, Ukiah US-OR 45.11236, -118.97251","2025-05-25 08:44",2,45.112357,-118.972511,TRUE,FALSE,TRUE,"S242780335"
"411","amedip","American Dipper","Cinclus mexicanus","L25496587","2 Black Butte View Drive, Roscoe, Montana, US (45.268, -109.559)","2025-05-25 08:34",2,45.267889,-109.5590257,TRUE,FALSE,TRUE,"S242516517"
"412","amedip","American Dipper","Cinclus mexicanus","L755293","Cache la Poudre River--Chambers Lake area","2025-05-25 08:34",1,40.594012,-105.8498383,TRUE,FALSE,FALSE,"S243327811"
"413","amedip","American Dipper","Cinclus mexicanus","L35548552","26000 nw bump rd","2025-05-25 08:31",NA,45.7099064,-123.0723113,TRUE,FALSE,TRUE,"S242503364"
"414","amedip","American Dipper","Cinclus mexicanus","L13907782","6115 Trout Creek Ridge Road, Mount Hood, Oregon, US (45.552, -121.62)","2025-05-25 08:25",1,45.5522045,-121.6198409,TRUE,FALSE,TRUE,"S242735682"
"415","amedip","American Dipper","Cinclus mexicanus","L32399262","Allingham Campground","2025-05-25 08:25",1,44.471387,-121.637801,TRUE,FALSE,TRUE,"S242508885"
"416","amedip","American Dipper","Cinclus mexicanus","L750599","Sequoia NP--Giant Forest (Museum/Beetle Rock/Big Trees Trail)","2025-05-25 08:23",1,36.5660125,-118.7729788,TRUE,FALSE,FALSE,"S242515761"
"417","amedip","American Dipper","Cinclus mexicanus","L1905738","East Rosebud Lake","2025-05-25 08:18",1,45.1980321,-109.6392208,TRUE,FALSE,TRUE,"S243166174"
"418","amedip","American Dipper","Cinclus mexicanus","L10541376","CWC Sinks Canyon Center","2025-05-25 08:04",1,42.7768852,-108.7745008,TRUE,FALSE,FALSE,"S242464826"
"419","amedip","American Dipper","Cinclus mexicanus","L2322568","Stewart Falls","2025-05-25 08:03",3,40.3862425,-111.6041272,TRUE,FALSE,FALSE,"S242798188"
"420","amedip","American Dipper","Cinclus mexicanus","L45925329","1008 Winter Park Dr, Winter Park US-CO 39.89259, -105.76495","2025-05-25 08:02",2,39.892594,-105.764949,TRUE,FALSE,TRUE,"S242439506"
"421","amedip","American Dipper","Cinclus mexicanus","L1298000","Rio Grande del Norte NM--John Dunn Bridge & Trails","2025-05-25 08:00",1,36.535084,-105.708829,TRUE,FALSE,FALSE,"S242644017"
"422","amedip","American Dipper","Cinclus mexicanus","L786768","Canyon Creek","2025-05-25 08:00",1,40.9313797,-123.0229282,TRUE,FALSE,FALSE,"S243329323"
"423","amedip","American Dipper","Cinclus mexicanus","L9957821","Yellowstone NP--Madison Canyon turnout","2025-05-25 07:57",1,44.6398667,-110.8824894,TRUE,FALSE,FALSE,"S242480419"
"424","amedip","American Dipper","Cinclus mexicanus","L32706672","Sand Canyon Trail, Colorado Springs US-CO 38.78700, -104.86491","2025-05-25 07:13",1,38.786998,-104.864913,TRUE,FALSE,TRUE,"S242447709"
"425","amedip","American Dipper","Cinclus mexicanus","L4880900","Animas River--near 4Corners Riversports","2025-05-25 07:05",1,37.251812,-107.8733297,TRUE,FALSE,FALSE,"S242435628"
"426","amedip","American Dipper","Cinclus mexicanus","L1032655","No Name","2025-05-25 07:01",1,39.5604086,-107.2934139,TRUE,FALSE,FALSE,"S242460120"
"427","amedip","American Dipper","Cinclus mexicanus","L15255343","Ladies of the Lake (Whatcom Land Trust)","2025-05-25 07:00",NA,48.6729519,-122.2656564,TRUE,FALSE,FALSE,"S242798797"
"428","amedip","American Dipper","Cinclus mexicanus","L367727","McArthur-Burney Falls Memorial SP","2025-05-25 05:57",1,41.0176639,-121.6508389,TRUE,FALSE,FALSE,"S242595752"
"429","amedip","American Dipper","Cinclus mexicanus","L945783","Olympic NP--Sol Duc Falls Trail","2025-05-25 05:46",2,47.9549269,-123.8349938,TRUE,FALSE,FALSE,"S242595741"
"430","amedip","American Dipper","Cinclus mexicanus","L486044","Lost Man Creek","2025-05-25 05:34",1,41.3281642,-124.0259457,TRUE,FALSE,FALSE,"S242456063"
"431","amedip","American Dipper","Cinclus mexicanus","L9593002","Pfeiffer Big Sur SP--Buzzards Roost Trail (west of Hwy 1 only)","2025-05-25 05:32",1,36.2457226,-121.7871062,TRUE,FALSE,FALSE,"S242485652"
"432","amedip","American Dipper","Cinclus mexicanus","L27095979","Jones Hole - Green River","2025-05-25 05:16",1,40.540493,-109.060734,TRUE,FALSE,TRUE,"S242714279"
"433","amedip","American Dipper","Cinclus mexicanus","L443195","Sitka (town)","2025-05-25",1,57.049881,-135.3335381,TRUE,FALSE,FALSE,"S242508426"
"434","amedip","American Dipper","Cinclus mexicanus","L7443212","Mt. Defiance Trail--Eagle Creek Burn","2025-05-24 20:17",1,45.676994,-121.712833,TRUE,FALSE,FALSE,"S242257692"
"435","amedip","American Dipper","Cinclus mexicanus","L11419024","Monarch Canyon","2025-05-24 19:55",1,47.068576,-110.815112,TRUE,FALSE,TRUE,"S242730834"
"436","amedip","American Dipper","Cinclus mexicanus","L793543","Matthews-Reeser Bird Sanctuary","2025-05-24 19:43",1,40.3782272,-105.5091911,TRUE,FALSE,FALSE,"S242245038"
"437","amedip","American Dipper","Cinclus mexicanus","L45769606","812 Soda Creek Road, Idaho Springs, Colorado, US (39.731, -105.515)","2025-05-24 19:27",1,39.7305101,-105.5145392,TRUE,FALSE,TRUE,"S242242625"
"438","amedip","American Dipper","Cinclus mexicanus","L45885501","Bridge 5, Olympic Valley US-CA 39.22232, -120.20078","2025-05-24 19:08",1,39.222316,-120.200784,TRUE,FALSE,TRUE,"S242247455"
"439","amedip","American Dipper","Cinclus mexicanus","L17997029","Little Port Walter","2025-05-24 19:07",1,56.3833811,-134.6481597,TRUE,FALSE,TRUE,"S243340470"
"440","amedip","American Dipper","Cinclus mexicanus","L3921567","Quinault Rain Forest Nature Trail","2025-05-24 18:30",1,47.4604199,-123.8618374,TRUE,FALSE,FALSE,"S242284013"
"441","amedip","American Dipper","Cinclus mexicanus","L19297731","Corbley Gulch","2025-05-24 18:16",1,45.8765948,-111.0027567,TRUE,FALSE,TRUE,"S242454615"
"442","amedip","American Dipper","Cinclus mexicanus","L9264783","WDFW Site-Red Bridge Rd, Cle Elum US-WA (47.2015,-120.7815)","2025-05-24 17:46",3,47.2007062,-120.7828116,TRUE,FALSE,TRUE,"S242596012"
"443","amedip","American Dipper","Cinclus mexicanus","L45883200","River Trail, Telluride US-CO 37.93728, -107.81797","2025-05-24 17:25",1,37.937283,-107.817966,TRUE,FALSE,TRUE,"S242237651"
"444","amedip","American Dipper","Cinclus mexicanus","L24986870","Bassi Falls Trail","2025-05-24 17:08",2,38.883951,-120.355639,TRUE,FALSE,FALSE,"S242598757"
"445","amedip","American Dipper","Cinclus mexicanus","L3384934","Grand Teton NP--Jenny Lake Lodge area","2025-05-24 16:55",1,43.7829152,-110.7248014,TRUE,FALSE,FALSE,"S242217338"
"446","amedip","American Dipper","Cinclus mexicanus","L45865715","S Park Feedgrounds Rd, Jackson US-WY 43.39910, -110.77083","2025-05-24 16:49",3,43.399096,-110.770828,TRUE,FALSE,TRUE,"S242184114"
"447","amedip","American Dipper","Cinclus mexicanus","L45964251","Walla Walla - Mill Creek Rd bridge (46.0314,-118.1439)","2025-05-24 15:25",1,46.031446,-118.143914,TRUE,FALSE,TRUE,"S242607254"
"448","amedip","American Dipper","Cinclus mexicanus","L909864","Rainbow Falls SP","2025-05-24 15:17",1,46.6334784,-123.2330182,TRUE,FALSE,FALSE,"S242181727"
"449","amedip","American Dipper","Cinclus mexicanus","L31869695","Puyallup Levee Trail--Orville Rd Dike Access","2025-05-24 15:17",1,47.0750558,-122.1891124,TRUE,FALSE,FALSE,"S242208008"
"450","amedip","American Dipper","Cinclus mexicanus","L46362962","Big Diana Falls trail--Bull Creek Rd. to Big Diana Falls","2025-05-24 15:08",1,37.7473472,-120.0382233,TRUE,FALSE,TRUE,"S244553081"
"451","amedip","American Dipper","Cinclus mexicanus","L2368246","Ridgway-County Rd 8 toward Owl Creek Pass","2025-05-24 15:04",1,38.195971,-107.677852,TRUE,FALSE,TRUE,"S242155856"
"452","amedip","American Dipper","Cinclus mexicanus","L45887430","Zion","2025-05-24 15:00",5,37.253851,-112.9559658,TRUE,FALSE,TRUE,"S242256019"
"453","amedip","American Dipper","Cinclus mexicanus","L7816694","AmanDas Place","2025-05-24 14:45",1,45.8294736,-121.9310322,TRUE,FALSE,TRUE,"S242813400"
"454","amedip","American Dipper","Cinclus mexicanus","L6469592","Metolius River Trail--Canyon Creek Campground","2025-05-24 14:43",1,44.501183,-121.641011,TRUE,FALSE,FALSE,"S242995858"
"455","amedip","American Dipper","Cinclus mexicanus","L46215660","Mossbrae Falls, Dunsmuir, US-CA 41.24137, -122.26673","2025-05-24 14:37",1,41.241366,-122.266727,TRUE,FALSE,TRUE,"S243834450"
"456","amedip","American Dipper","Cinclus mexicanus","L15886833","Beaver Creek Campground","2025-05-24 14:36",2,44.8560513,-111.3741589,TRUE,FALSE,FALSE,"S243223475"
"457","amedip","American Dipper","Cinclus mexicanus","L2950370","Sierra Discovery Trail (NEV Co.)","2025-05-24 14:27",2,39.3093238,-120.667843,TRUE,FALSE,FALSE,"S242152636"
"458","amedip","American Dipper","Cinclus mexicanus","L2950363","Sierra Discovery Trail (PLA Co.)","2025-05-24 13:49",2,39.3091138,-120.6657986,TRUE,FALSE,FALSE,"S242152597"
"459","amedip","American Dipper","Cinclus mexicanus","L20843062","Powder River Rec Area","2025-05-24 13:30",3,44.6707282,-117.9775858,TRUE,FALSE,TRUE,"S242260957"
"460","amedip","American Dipper","Cinclus mexicanus","L5038548","Dillon Reservoir--Blue River Inlet area","2025-05-24 13:30",1,39.5712681,-106.0530102,TRUE,FALSE,FALSE,"S242239677"
"461","amedip","American Dipper","Cinclus mexicanus","L45879261","Causey Drive, Huntsville, Utah, US (41.313, -111.579)","2025-05-24 13:28",1,41.3132268,-111.5792779,TRUE,FALSE,TRUE,"S242218451"
"462","amedip","American Dipper","Cinclus mexicanus","L1247250","Sunset Hwy. Rest Area","2025-05-24 13:21",1,45.796775,-123.4588194,TRUE,FALSE,FALSE,"S242127574"
"463","amedip","American Dipper","Cinclus mexicanus","L7659752","Latourell Falls Loop","2025-05-24 13:18",1,45.535435,-122.2187424,TRUE,FALSE,FALSE,"S242133863"
"464","amedip","American Dipper","Cinclus mexicanus","L45872349","Animas River - Nature's Oasis to Santa Rita Park","2025-05-24 13:13",1,37.2585544,-107.8761699,TRUE,FALSE,TRUE,"S242124741"
"465","amedip","American Dipper","Cinclus mexicanus","L45981286","East Metolius River Trail, Camp Sherman US-OR 44.46056, -121.64308","2025-05-24 12:58",1,44.460559,-121.643077,TRUE,FALSE,TRUE,"S242677189"
"466","amedip","American Dipper","Cinclus mexicanus","L46044099","West Metolius River Trail, Camp Sherman US-OR 44.50108, -121.64061","2025-05-24 12:30",1,44.50108,-121.64061,TRUE,FALSE,TRUE,"S242996182"
"467","amedip","American Dipper","Cinclus mexicanus","L6293574","Indian Creek","2025-05-24 12:29",1,46.6602783,-121.2837346,TRUE,FALSE,TRUE,"S244038048"
"468","amedip","American Dipper","Cinclus mexicanus","L46008949","Cooper River Trail, Ronald US-WA 47.41802, -121.13119","2025-05-24 12:19",1,47.418018,-121.131188,TRUE,FALSE,TRUE,"S242808703"
"469","amedip","American Dipper","Cinclus mexicanus","L45944197","Casa Vieja Meadow","2025-05-24 12:01",1,36.1990963,-118.273693,TRUE,FALSE,TRUE,"S242534039"
"470","amedip","American Dipper","Cinclus mexicanus","L7907856","Moonshine Park","2025-05-24 11:46",2,44.7764736,-123.8348866,TRUE,FALSE,FALSE,"S242152606"
"471","amedip","American Dipper","Cinclus mexicanus","L6168610","Lost Creek SP","2025-05-24 11:23",2,46.2093587,-113.003397,TRUE,FALSE,FALSE,"S242584563"
"472","amedip","American Dipper","Cinclus mexicanus","L2061681","Wizard Falls Fish Hatchery","2025-05-24 11:14",2,44.5224961,-121.6319239,TRUE,FALSE,FALSE,"S242772373"
"473","amedip","American Dipper","Cinclus mexicanus","L42828570","Horseshoe Bend Trail","2025-05-24 10:59",1,48.9021892,-121.911654,TRUE,FALSE,FALSE,"S244172788"
"474","amedip","American Dipper","Cinclus mexicanus","L34909025","E Side Road and Emery Creek","2025-05-24 10:45",3,48.356393,-113.927587,TRUE,FALSE,TRUE,"S242110463"
"475","amedip","American Dipper","Cinclus mexicanus","L299709","Glacier NP--Fish Creek Campground","2025-05-24 10:00",1,48.5488687,-113.983656,TRUE,FALSE,FALSE,"S242748349"
"476","amedip","American Dipper","Cinclus mexicanus","L45881406","Rich Creek Trail, Fairplay US-CO 39.06786, -106.11650","2025-05-24 09:54",1,39.067856,-106.116504,TRUE,FALSE,TRUE,"S242229218"
"477","amedip","American Dipper","Cinclus mexicanus","L1580676","Button Rock Trail","2025-05-24 09:48",1,40.2286956,-105.3436122,TRUE,FALSE,FALSE,"S242085897"
"478","amedip","American Dipper","Cinclus mexicanus","L45858125","North Fork Catherine Creek Trail, Union US-OR 45.15482, -117.61452","2025-05-24 09:37",1,45.15482,-117.614516,TRUE,FALSE,TRUE,"S242125300"
"479","amedip","American Dipper","Cinclus mexicanus","L45842070","Anchor Point - North Fork Bridge","2025-05-24 09:34",1,59.716934,-151.646502,TRUE,FALSE,TRUE,"S242062435"
"480","amedip","American Dipper","Cinclus mexicanus","L38121916","Hope Springs","2025-05-24 09:30",3,45.628426,-123.267241,TRUE,FALSE,TRUE,"S242034522"
"481","amedip","American Dipper","Cinclus mexicanus","L45866117","Lost Creek Trailhead","2025-05-24 09:27",1,39.284712,-105.507298,TRUE,FALSE,TRUE,"S242157305"
"482","amedip","American Dipper","Cinclus mexicanus","L4839445","Elowah Falls and trail","2025-05-24 09:24",3,45.6124519,-121.995095,TRUE,FALSE,FALSE,"S242112826"
"483","amedip","American Dipper","Cinclus mexicanus","L7356029","Adams Canyon Trail, Layton, Utah, US (41.066, -111.907)","2025-05-24 09:20",2,41.0664849,-111.9065797,TRUE,FALSE,TRUE,"S241971208"
"484","amedip","American Dipper","Cinclus mexicanus","L341999","Zapata Falls and Campground","2025-05-24 09:13",2,37.6210577,-105.5595428,TRUE,FALSE,FALSE,"S242010333"
"485","amedip","American Dipper","Cinclus mexicanus","L32274645","West Metolius River Trail, Camp Sherman US-OR 44.47276, -121.63889","2025-05-24 09:09",1,44.472762,-121.63889,TRUE,FALSE,TRUE,"S242041973"
"486","amedip","American Dipper","Cinclus mexicanus","L2084733","USU -- Forestry Field Station","2025-05-24 08:55",2,41.8779332,-111.5610123,TRUE,FALSE,FALSE,"S241984078"
"487","amedip","American Dipper","Cinclus mexicanus","L7888554","Misty Fjords NMW--Rudyerd Bay","2025-05-24 08:55",1,55.5991034,-130.7024748,TRUE,FALSE,FALSE,"S242246930"
"488","amedip","American Dipper","Cinclus mexicanus","L390444","Markleeville","2025-05-24 08:45",2,38.6945372,-119.7799659,TRUE,FALSE,FALSE,"S242053632"
"489","amedip","American Dipper","Cinclus mexicanus","L46469103","Lower Big Quilcene Trail, Quilcene US-WA (47.8048,-122.9801)","2025-05-24 08:40",1,47.804836,-122.980099,TRUE,FALSE,TRUE,"S245037002"
"490","amedip","American Dipper","Cinclus mexicanus","L1414660","Cimarron Canyon SP--Tolby Creek Canyon Trail/Campground","2025-05-24 08:30",2,36.5372887,-105.2240057,TRUE,FALSE,FALSE,"S242051403"
"491","amedip","American Dipper","Cinclus mexicanus","L304177","South Mesa Trail","2025-05-24 08:25",1,39.9394753,-105.2594647,TRUE,FALSE,FALSE,"S242798297"
"492","amedip","American Dipper","Cinclus mexicanus","L45871240","Spearfish Falls","2025-05-24 08:21",2,44.3529038,-103.9306896,TRUE,FALSE,TRUE,"S242180516"
"493","amedip","American Dipper","Cinclus mexicanus","L28042873","82070, Woods Landing US-WY (41.1358,-105.9869)","2025-05-24 08:08",1,41.135822,-105.986937,TRUE,FALSE,TRUE,"S242045331"
"494","amedip","American Dipper","Cinclus mexicanus","L4616335","Glacier NP--Red Rock Point","2025-05-24 08:06",1,48.695417,-113.8172392,TRUE,FALSE,FALSE,"S242185722"
"495","amedip","American Dipper","Cinclus mexicanus","L449760","Big Creek Lakes","2025-05-24 08:02",1,40.9272619,-106.6113281,TRUE,FALSE,FALSE,"S242214539"
"496","amedip","American Dipper","Cinclus mexicanus","L45815373","Croy Creek Road, Hailey, Idaho, US (43.517, -114.322)","2025-05-24 08:00",1,43.5168181,-114.3221114,TRUE,FALSE,TRUE,"S241950227"
"497","amedip","American Dipper","Cinclus mexicanus","L46010609","Idaho, US (47.892, -116.129)","2025-05-24 07:42",5,47.8918619,-116.1294795,TRUE,FALSE,TRUE,"S242817075"
"498","amedip","American Dipper","Cinclus mexicanus","L45805069","Pike and San Isabel National Forests, Nathrop US-CO 38.63206, -105.96062","2025-05-24 07:40",5,38.632063,-105.960624,TRUE,FALSE,TRUE,"S242177378"
"499","amedip","American Dipper","Cinclus mexicanus","L24772521","Forest 10046, Big Piney, Wyoming, US (42.608, -110.482)","2025-05-24 07:39",1,42.608014,-110.481889,TRUE,FALSE,TRUE,"S243140783"
"500","amedip","American Dipper","Cinclus mexicanus","L1875649","Government Meadows (Pierce Co.)","2025-05-24 07:22",1,47.0864774,-121.3926705,TRUE,FALSE,FALSE,"S242201333"
"501","amedip","American Dipper","Cinclus mexicanus","L45773268","Ten Sleep Rock Ranch","2025-05-24 07:06",1,44.0688409,-107.3490684,TRUE,FALSE,TRUE,"S242262284"
"502","amedip","American Dipper","Cinclus mexicanus","L25287178","Umatilla Fork Campground","2025-05-24 07:00",2,45.7226429,-118.1867193,TRUE,FALSE,FALSE,"S242805687"
"503","amedip","American Dipper","Cinclus mexicanus","L1144881","Boulder Creek--CU East Campus","2025-05-24 06:58",1,40.0120691,-105.2481222,TRUE,FALSE,FALSE,"S242092761"
"504","amedip","American Dipper","Cinclus mexicanus","L3878093","Radium area","2025-05-24 06:47",1,39.9538542,-106.5584643,TRUE,FALSE,FALSE,"S242017518"
"505","amedip","American Dipper","Cinclus mexicanus","L46005452","Zion NP -- Parunuweap Canyon above Labrynth Falls","2025-05-24",NA,37.1819726,-112.8642265,TRUE,FALSE,TRUE,"S242791914"
"506","amedip","American Dipper","Cinclus mexicanus","L1305190","Yosemite NP--Mirror Lake Trail","2025-05-23 18:50",1,37.743953,-119.553346,TRUE,FALSE,FALSE,"S241758744"
"507","amedip","American Dipper","Cinclus mexicanus","L7610340","McCloud River--Lower Falls","2025-05-23 17:45",4,41.2415433,-122.0248032,TRUE,FALSE,FALSE,"S243476321"
"508","amedip","American Dipper","Cinclus mexicanus","L233566","Morrison Park","2025-05-23 17:20",1,39.6527673,-105.1999484,TRUE,FALSE,FALSE,"S241712713"
"509","amedip","American Dipper","Cinclus mexicanus","L46166566","Campground","2025-05-23 17:04",1,41.7231598,-124.1075339,TRUE,FALSE,TRUE,"S243581621"
"510","amedip","American Dipper","Cinclus mexicanus","L3452440","Cayton Campground","2025-05-23 17:04",2,37.771052,-107.9773674,TRUE,FALSE,FALSE,"S241720913"
"511","amedip","American Dipper","Cinclus mexicanus","L45770285","Pole Bridge","2025-05-23 17:04",1,40.3888103,-121.3116792,TRUE,FALSE,TRUE,"S241742395"
"512","amedip","American Dipper","Cinclus mexicanus","L45764672","Heatherwood-Walden Link Trail, Boulder US-CO (40.0515,-105.1784)","2025-05-23 16:44",1,40.05147,-105.178389,TRUE,FALSE,TRUE,"S241715564"
"513","amedip","American Dipper","Cinclus mexicanus","L45769392","2767 Olympic Hot Springs Road, Port Angeles, Washington, US (48.03, -123.589)","2025-05-23 16:40",2,48.0304763,-123.5886722,TRUE,FALSE,TRUE,"S241737890"
"514","amedip","American Dipper","Cinclus mexicanus","L45769387","185 Congress Way, Skagway, Alaska, US (59.452, -135.316)","2025-05-23 16:28",1,59.4521139,-135.316208,TRUE,FALSE,TRUE,"S241737873"
"515","amedip","American Dipper","Cinclus mexicanus","L19114032","Elwha River--Madison Falls Trailhead","2025-05-23 16:11",1,48.0430693,-123.5913821,TRUE,FALSE,FALSE,"S241711833"
"516","amedip","American Dipper","Cinclus mexicanus","L26295722","Red Cliff Campground","2025-05-23 14:42",1,45.1747332,-111.241269,TRUE,FALSE,FALSE,"S241670027"
"517","amedip","American Dipper","Cinclus mexicanus","L45770226","Nason Creek—207 pullout","2025-05-23 14:29",1,47.765773,-120.727665,TRUE,FALSE,TRUE,"S241742085"
"518","amedip","American Dipper","Cinclus mexicanus","L3975895","Nome River above Dexter","2025-05-23 14:15",1,64.5902731,-165.2844143,TRUE,FALSE,TRUE,"S241755919"
"519","amedip","American Dipper","Cinclus mexicanus","L1307055","Thunder Creek trail","2025-05-23 14:12",3,48.6764424,-121.0770607,TRUE,FALSE,FALSE,"S241733481"
"520","amedip","American Dipper","Cinclus mexicanus","L46002504","Canal Trail, Pine Valley US-UT 37.37581, -113.45633","2025-05-23 13:00",2,37.375805,-113.456327,TRUE,FALSE,TRUE,"S242778377"
"521","amedip","American Dipper","Cinclus mexicanus","L4183688","Deschutes River Trail--Aspen","2025-05-23 12:23",1,43.970395,-121.413814,TRUE,FALSE,FALSE,"S241679277"
"522","amedip","American Dipper","Cinclus mexicanus","L45754198","Zion","2025-05-23 11:52",5,37.287669,-112.947955,TRUE,FALSE,TRUE,"S241667564"
"523","amedip","American Dipper","Cinclus mexicanus","L1414111","Jimmy-Come-Lately Creek Estuary","2025-05-23 11:41",1,48.0257999,-123.0089065,TRUE,FALSE,FALSE,"S241633837"
"524","amedip","American Dipper","Cinclus mexicanus","L25528098","Westport Landing","2025-05-23 11:40",1,46.135694,-123.376448,TRUE,FALSE,TRUE,"S241702927"
"525","amedip","American Dipper","Cinclus mexicanus","L5870132","Cochran Rd.--Gales Creek Crossing","2025-05-23 11:19",1,45.70702,-123.320813,TRUE,FALSE,TRUE,"S241756958"
"526","amedip","American Dipper","Cinclus mexicanus","L25234173","Hillside Drive Rd, Dolores US-CO 37.59253, -108.13462","2025-05-23 10:39",1,37.592533,-108.134625,TRUE,FALSE,TRUE,"S241612849"
"527","amedip","American Dipper","Cinclus mexicanus","L45805522","98903, Yakima US-WA 46.51611, -121.01702","2025-05-23 10:34",1,46.516111,-121.017018,TRUE,FALSE,TRUE,"S241904182"
"528","amedip","American Dipper","Cinclus mexicanus","L45770400","Ahtanum Campground","2025-05-23 10:34",1,46.516338,-121.0174244,TRUE,FALSE,TRUE,"S241743005"
"529","amedip","American Dipper","Cinclus mexicanus","L35081446","10589–10599 S Willow Canyon Rd, Grantsville US-UT 40.50945, -112.53339","2025-05-23 09:41",1,40.509452,-112.533389,TRUE,FALSE,TRUE,"S241574645"
"530","amedip","American Dipper","Cinclus mexicanus","L46032577","Santa Barbara Rio, New Mexico","2025-05-23 09:38",2,36.0817762,-105.6087468,TRUE,FALSE,TRUE,"S242935408"
"531","amedip","American Dipper","Cinclus mexicanus","L1316700","Wooten WMA","2025-05-23 09:36",NA,46.326661,-117.6723289,TRUE,FALSE,FALSE,"S242166301"
"532","amedip","American Dipper","Cinclus mexicanus","L4719694","Stanton Crossing","2025-05-23 09:30",1,43.3290238,-114.3209839,TRUE,FALSE,FALSE,"S241725680"
"533","amedip","American Dipper","Cinclus mexicanus","L45740725","3359 Brush Creek Rd, Eagle US-CO 39.62882, -106.79080","2025-05-23 09:15",1,39.62882,-106.790796,TRUE,FALSE,TRUE,"S241608312"
"534","amedip","American Dipper","Cinclus mexicanus","L4657080","Whychus Canyon Preserve","2025-05-23 09:01",1,44.3375997,-121.4523709,TRUE,FALSE,FALSE,"S241615616"
"535","amedip","American Dipper","Cinclus mexicanus","L31909612","Riley Flats","2025-05-23 08:51",2,46.333598,-115.344664,TRUE,FALSE,TRUE,"S242792812"
"536","amedip","American Dipper","Cinclus mexicanus","L3545583","Skagway--downtown (1st St-5th St./Alaska St.-Spring St.)","2025-05-23 08:48",1,59.4551965,-135.3176808,TRUE,FALSE,FALSE,"S241763316"
"537","amedip","American Dipper","Cinclus mexicanus","L4065083","Rattlesnake NRA--Main Rattlesnake Creek Trails","2025-05-23 08:45",1,46.9410148,-113.9563537,TRUE,FALSE,FALSE,"S241745998"
"538","amedip","American Dipper","Cinclus mexicanus","L45732281","Stone Bridge","2025-05-23 08:22",1,38.612647,-106.063805,TRUE,FALSE,TRUE,"S241571230"
"539","amedip","American Dipper","Cinclus mexicanus","L46373309","Humbug Mountain SP - Day Use Area","2025-05-23 07:59",3,42.683965,-124.4225115,TRUE,FALSE,TRUE,"S244605807"
"540","amedip","American Dipper","Cinclus mexicanus","L45804920","3501–3709 N Fork Rd, Yakima US-WA 46.56485, -120.92058","2025-05-23 07:36",1,46.564849,-120.920582,TRUE,FALSE,TRUE,"S241901161"
"541","amedip","American Dipper","Cinclus mexicanus","L21977032","Washoe Park","2025-05-23 07:30",1,46.1350027,-112.9652452,TRUE,FALSE,FALSE,"S241729880"
"542","amedip","American Dipper","Cinclus mexicanus","L45745816","Bear Creek Trail, Telluride","2025-05-23 07:27",3,37.934516,-107.812001,TRUE,FALSE,TRUE,"S241630488"
"543","amedip","American Dipper","Cinclus mexicanus","L45746227","Zion Canyon Scenic Dr, Virgin US-UT (37.2852,-112.9460)","2025-05-23 07:01",5,37.285223,-112.946044,TRUE,FALSE,TRUE,"S241632280"
"544","amedip","American Dipper","Cinclus mexicanus","L905195","Gold Run Yard List","2025-05-23 06:40",1,40.3673593,-120.670073,TRUE,FALSE,TRUE,"S241603048"
"545","amedip","American Dipper","Cinclus mexicanus","L9539220","Yellowstone NP--Soda Butte","2025-05-23 06:29",1,44.877976,-110.1527941,TRUE,FALSE,FALSE,"S241561296"
"546","amedip","American Dipper","Cinclus mexicanus","L10836354","Ketchum Dog Park","2025-05-23 06:27",2,43.690135,-114.384751,TRUE,FALSE,FALSE,"S241556403"
