"","speciesCode","comName","sciName","locId","locName","obsDt","howMany","lat","lng","obsValid","obsReviewed","locationPrivate","subId"
"1","heegul","Heermann's Gull","Larus heermanni","L651250","Mussel Rock Park","2025-05-31 11:43",4,37.6662169,-122.495048,TRUE,FALSE,FALSE,"S245153802"
"2","heegul","Heermann's Gull","Larus heermanni","L500764","Dana Point Harbor","2025-05-31 09:46",5,33.459802,-117.6989365,TRUE,FALSE,FALSE,"S245130122"
"3","heegul","Heermann's Gull","Larus heermanni","L1022599","Ocean Beach-- across from Oceanside Water Polution Plant (FOR STATIONARY SEAWATCH ONLY)","2025-05-31 06:55",1,37.7294017,-122.5069034,TRUE,FALSE,FALSE,"S245143887"
"4","heegul","Heermann's Gull","Larus heermanni","L374642","Pt. Pinos--general (sea & shore Coral to Jewell, Crespi Pond & cypresses)","2025-05-30 17:27",3,36.6363201,-121.9339388,TRUE,FALSE,FALSE,"S244841591"
"5","heegul","Heermann's Gull","Larus heermanni","L351480","Pacific Grove--Lovers Pt. & Perkins Park","2025-05-30 17:03",1,36.6265066,-121.9162166,TRUE,FALSE,FALSE,"S244841657"
"6","heegul","Heermann's Gull","Larus heermanni","L38073908","FSB deck","2025-05-30 14:56",2,37.181685,-122.394376,TRUE,FALSE,TRUE,"S244726898"
"7","heegul","Heermann's Gull","Larus heermanni","L233548","Point La Jolla--seawatch","2025-05-30 14:15",5,32.8507576,-117.2735641,TRUE,FALSE,FALSE,"S244736054"
"8","heegul","Heermann's Gull","Larus heermanni","L597658","Malibu Lagoon--State Beach including Lagoon","2025-05-30 11:46",4,34.0333857,-118.6822987,TRUE,FALSE,FALSE,"S244692500"
"9","heegul","Heermann's Gull","Larus heermanni","L998018","Pomponio SB","2025-05-30 09:16",1,37.2890772,-122.4062347,TRUE,FALSE,FALSE,"S244642877"
"10","heegul","Heermann's Gull","Larus heermanni","L564741","Rocky Pt.","2025-05-30 08:30",2,36.4017884,-121.9116274,TRUE,FALSE,FALSE,"S244717690"
"11","heegul","Heermann's Gull","Larus heermanni","L256021","Moss Landing--Jetty Road, north jetty & State Beach","2025-05-29 17:00",1,36.8151691,-121.7900355,TRUE,FALSE,FALSE,"S244420596"
"12","heegul","Heermann's Gull","Larus heermanni","L385330","Roberts Lake (MTY Co.)","2025-05-29 11:57",3,36.6072773,-121.8580556,TRUE,FALSE,FALSE,"S244277082"
"13","heegul","Heermann's Gull","Larus heermanni","L19882846","China Cove - Bird Rock area, Point Lobos","2025-05-29 08:10",1,36.5086703,-121.9408607,TRUE,FALSE,TRUE,"S244329322"
"14","heegul","Heermann's Gull","Larus heermanni","L715140","La Jolla--Children's Pool (harbor seal haul out)","2025-05-29 07:26",1,32.847647,-117.27882,TRUE,FALSE,FALSE,"S244214323"
"15","heegul","Heermann's Gull","Larus heermanni","L109309","Pt. Pinos--seawatch only","2025-05-29 06:20",1,36.6373821,-121.9357538,TRUE,FALSE,FALSE,"S244166251"
"16","heegul","Heermann's Gull","Larus heermanni","L6315295","Carpinteria Bluffs seal haulout","2025-05-28 07:58",2,34.3855808,-119.5056899,TRUE,FALSE,FALSE,"S243924117"
"17","heegul","Heermann's Gull","Larus heermanni","L855316","Ormond Beach and lagoon","2025-05-27 10:04",4,34.1385855,-119.1868941,TRUE,FALSE,FALSE,"S243525116"
"18","heegul","Heermann's Gull","Larus heermanni","L741507","Natural Bridges SB--overlook","2025-05-27 09:18",1,36.9494116,-122.0564747,TRUE,FALSE,FALSE,"S243505152"
"19","heegul","Heermann's Gull","Larus heermanni","L1032455","Wilder Ranch SP--Old Cove Landing Trail","2025-05-26 17:25",2,36.9569044,-122.0840338,TRUE,FALSE,FALSE,"S243316548"
"20","heegul","Heermann's Gull","Larus heermanni","L351481","Monterey Harbor","2025-05-26 16:00",1,36.6063012,-121.8912935,TRUE,FALSE,FALSE,"S243463056"
"21","heegul","Heermann's Gull","Larus heermanni","L256020","Zmudowski SB","2025-05-26 14:23",1,36.8372464,-121.8014572,TRUE,FALSE,FALSE,"S243332795"
"22","heegul","Heermann's Gull","Larus heermanni","L418748","Seacoast Drive to Tijuana River mouth","2025-05-26 10:50",1,32.5665347,-117.1322003,TRUE,FALSE,FALSE,"S243143058"
"23","heegul","Heermann's Gull","Larus heermanni","L375164","Goleta Beach County Park (including east end of Goleta Slough)","2025-05-26 09:04",2,34.4171771,-119.829812,TRUE,FALSE,FALSE,"S243093659"
"24","heegul","Heermann's Gull","Larus heermanni","L792036","Monterey Bay pelagic--inshore Monterey to Moss Landing (MTY Co.)","2025-05-26 08:10",1,36.7349772,-121.8297386,TRUE,FALSE,FALSE,"S243458556"
"25","heegul","Heermann's Gull","Larus heermanni","L680466","Channel Islands Harbor--general","2025-05-25 13:36",1,34.16473,-119.2244911,TRUE,FALSE,FALSE,"S242668027"
"26","heegul","Heermann's Gull","Larus heermanni","L452553","Andrew Molera SP--old BSOL/Discovery Ctr vicinity (do not use for coast)","2025-05-25 12:10",4,36.2852005,-121.8425149,TRUE,FALSE,FALSE,"S242773781"
"27","heegul","Heermann's Gull","Larus heermanni","L508742","Crystal Cove SP--Reef Pt.","2025-05-25 10:48",2,33.5662597,-117.8326285,TRUE,FALSE,FALSE,"S242656824"
"28","heegul","Heermann's Gull","Larus heermanni","L208705","Oceanside Harbor & San Luis Rey River mouth","2025-05-25 10:21",7,33.2051908,-117.3939712,TRUE,FALSE,FALSE,"S245037812"
"29","heegul","Heermann's Gull","Larus heermanni","L424722","Salinas River SB","2025-05-24 09:51",8,36.791072,-121.7923737,TRUE,FALSE,FALSE,"S242048989"
"30","heegul","Heermann's Gull","Larus heermanni","L297675","Leo Carrillo SP--seawatch","2025-05-24 07:32",13,34.0447061,-118.9378058,TRUE,FALSE,FALSE,"S242008346"
"31","heegul","Heermann's Gull","Larus heermanni","L2083999","Seagrove/Powerhouse Parks","2025-05-24 06:40",4,32.9602347,-117.2677152,TRUE,FALSE,FALSE,"S242117765"
"32","heegul","Heermann's Gull","Larus heermanni","L433644","Sandy Point","2025-05-24 05:39",1,48.7871878,-122.7081871,TRUE,FALSE,FALSE,"S242070482"
"33","heegul","Heermann's Gull","Larus heermanni","L506275","San Diego River mudflats (including Robb Field & north side)","2025-05-23 13:41",1,32.7568803,-117.2401432,TRUE,FALSE,FALSE,"S241680470"
"34","heegul","Heermann's Gull","Larus heermanni","L9769590","Robb Athletic Field, San Diego US-CA (32.7540,-117.2453)","2025-05-23 13:20",1,32.754001,-117.245261,TRUE,FALSE,TRUE,"S241742556"
"35","heegul","Heermann's Gull","Larus heermanni","L770132","Cabrillo NM--Tide Pools","2025-05-23 12:15",4,32.6704159,-117.2452361,TRUE,FALSE,FALSE,"S241659858"
"36","heegul","Heermann's Gull","Larus heermanni","L375127","Morro Creek mouth","2025-05-22 09:15",1,35.376104,-120.8624411,TRUE,FALSE,FALSE,"S241398816"
"37","heegul","Heermann's Gull","Larus heermanni","L827977","Bayfront Park (J St.)","2025-05-22 09:08",1,32.6186091,-117.1033868,TRUE,FALSE,FALSE,"S241249362"
