"","speciesCode","comName","sciName","locId","locName","obsDt","howMany","lat","lng","obsValid","obsReviewed","locationPrivate","subId"
"1","sabgul","Sabine's Gull","Xema sabini","L9574329","Utqiaġvik--Nunavaaq Bay","2025-06-18 10:26",3,71.2510564,-156.8600337,TRUE,FALSE,FALSE,"S251813341"
"2","sabgul","Sabine's Gull","Xema sabini","L7615669","Utqiaġvik--Airport Bluffs","2025-06-18 08:37",10,71.285293,-156.8092219,TRUE,FALSE,FALSE,"S251761445"
"3","sabgul","Sabine's Gull","Xema sabini","L9297170","Second Bridge--lagoon & wetlands","2025-06-17 14:51",2,66.8949965,-162.566362,TRUE,FALSE,FALSE,"S251540771"
"4","sabgul","Sabine's Gull","Xema sabini","L4678040","Nome-Council Rd.--mm 22.5 vicinity","2025-06-17 11:35",1,64.4729973,-164.72821,TRUE,FALSE,FALSE,"S251579640"
"5","sabgul","Sabine's Gull","Xema sabini","L47886518","USFWS Shorebird Plots 3/5","2025-06-17 09:50",1,71.266882,-156.5222,TRUE,FALSE,TRUE,"S251555998"
"6","sabgul","Sabine's Gull","Xema sabini","L32783799","Utqiaġvik--Gas Well Rd. (Gas Plant to New Landfill Rd.)","2025-06-16 14:37",1,71.2612185,-156.6030896,TRUE,FALSE,FALSE,"S251227807"
"7","sabgul","Sabine's Gull","Xema sabini","L5070181","Gustavus--ferry dock","2025-06-16 12:29",1,58.3901089,-135.7296596,TRUE,FALSE,FALSE,"S251267671"
"8","sabgul","Sabine's Gull","Xema sabini","L47815127","Beach Rd. (66.841, -162.593)","2025-06-16 09:12",3,66.8405931,-162.5931646,TRUE,FALSE,TRUE,"S251462230"
"9","sabgul","Sabine's Gull","Xema sabini","L47742956","Leg 4: Auto selected 39.58363, -124.07851","2025-06-15 12:43",1,39.583627,-124.078506,TRUE,TRUE,TRUE,"S250886196"
"10","sabgul","Sabine's Gull","Xema sabini","L1206739","Nome-Council Rd.--Safety Sound Bridge","2025-06-15 12:01",2,64.4720541,-164.746685,TRUE,FALSE,FALSE,"S250934654"
"11","sabgul","Sabine's Gull","Xema sabini","L2222767","Utqiaġvik--Middle Salt Lagoon (S end)","2025-06-15 11:56",1,71.3051952,-156.6897583,TRUE,FALSE,FALSE,"S250886855"
"12","sabgul","Sabine's Gull","Xema sabini","L47742879","Slick 2: Auto selected 39.58264, -124.07188","2025-06-15 11:55",1,39.582639,-124.071879,TRUE,TRUE,TRUE,"S250885852"
"13","sabgul","Sabine's Gull","Xema sabini","L47748530","The Fur Shop, Utqiagvik","2025-06-15 11:27",1,71.290008,-156.796308,TRUE,FALSE,TRUE,"S250910768"
"14","sabgul","Sabine's Gull","Xema sabini","L7486041","Utqiaġvik--Nunavaaq Rd. Gravel Pit","2025-06-15 10:20",1,71.280187,-156.818218,TRUE,FALSE,FALSE,"S250777639"
"15","sabgul","Sabine's Gull","Xema sabini","L5993045","Utqiaġvik--South Salt Lagoons (south beach) & Nathaniel Olemaun Jr. Blvd. (NE end)","2025-06-15 07:37",1,71.3053603,-156.728797,TRUE,FALSE,FALSE,"S250887051"
"16","sabgul","Sabine's Gull","Xema sabini","L781318","Gustavus--Forelands","2025-06-15",40,58.4121436,-135.724411,TRUE,TRUE,FALSE,"S250827028"
"17","sabgul","Sabine's Gull","Xema sabini","L1579238","Utqiaġvik--Cakeeater Rd.","2025-06-14 18:43",2,71.2879072,-156.6631195,TRUE,FALSE,FALSE,"S250909887"
"18","sabgul","Sabine's Gull","Xema sabini","L2897580","Utqiaġvik--Nunavaaq Rd.","2025-06-14 15:22",1,71.2757153,-156.8049967,TRUE,FALSE,FALSE,"S250429535"
"19","sabgul","Sabine's Gull","Xema sabini","L47747837","Stevenson St, Utqiagvik US-AK (71.3079,-156.7436)","2025-06-14 14:25",20,71.307937,-156.743644,TRUE,FALSE,TRUE,"S250907664"
"20","sabgul","Sabine's Gull","Xema sabini","L1212588","Utqiaġvik--Fresh Water Lake Rd.","2025-06-14 11:11",2,71.2612449,-156.7718339,TRUE,FALSE,FALSE,"S250907070"
"21","sabgul","Sabine's Gull","Xema sabini","L2084913","Utqiaġvik--Old Landfill","2025-06-14 09:40",2,71.3148079,-156.721344,TRUE,FALSE,FALSE,"S250280835"
"22","sabgul","Sabine's Gull","Xema sabini","L19413998","Ahmoagak beach access","2025-06-14 08:26",4,71.306992,-156.74747,TRUE,FALSE,TRUE,"S250251792"
"23","sabgul","Sabine's Gull","Xema sabini","L2984314","Utqiaġvik--Middle Salt Lagoon","2025-06-14 08:24",2,71.3158115,-156.6885567,TRUE,FALSE,FALSE,"S250335606"
"24","sabgul","Sabine's Gull","Xema sabini","L5928803","Nome-Council Rd.--Nome River to Cape Nome","2025-06-14 00:53",2,64.4477456,-165.0624213,TRUE,FALSE,FALSE,"S250092155"
"25","sabgul","Sabine's Gull","Xema sabini","L610486","Utqiaġvik--Funakoshi Memorial","2025-06-13 22:45",2,71.287852,-156.8019176,TRUE,FALSE,FALSE,"S250086899"
"26","sabgul","Sabine's Gull","Xema sabini","L2222756","Utqiaġvik--South Salt Lagoons","2025-06-13 21:30",1,71.3121267,-156.7134476,TRUE,FALSE,FALSE,"S250383596"
"27","sabgul","Sabine's Gull","Xema sabini","L47550485","Nome-Council Rd, Nome US-AK 64.49085, -164.65987","2025-06-13 09:30",9,64.490855,-164.659873,TRUE,FALSE,TRUE,"S250056333"
"28","sabgul","Sabine's Gull","Xema sabini","L47481406","Stevenson St, Utqiagvik US-AK 71.30590, -156.75059","2025-06-12 23:30",1,71.305901,-156.75059,TRUE,FALSE,TRUE,"S249749862"
"29","sabgul","Sabine's Gull","Xema sabini","L47543249","12459–13327 Cakeatter Rd, Utqiagvik US-AK 71.29233, -156.67093","2025-06-12 21:10",3,71.292329,-156.670925,TRUE,FALSE,TRUE,"S250024451"
"30","sabgul","Sabine's Gull","Xema sabini","L33055606","Nome-Council Rd.--Last Train to Nowhere","2025-06-12 16:15",1,64.545843,-164.436344,TRUE,FALSE,FALSE,"S249707156"
"31","sabgul","Sabine's Gull","Xema sabini","L11364936","Yukon Delta NWR--Old Chevak","2025-06-12 12:30",2,61.430935,-165.45134,TRUE,FALSE,FALSE,"S249897238"
"32","sabgul","Sabine's Gull","Xema sabini","L4646807","Nome-Council Rd.--Nome River Bridge","2025-06-12 11:29",1,64.4856626,-165.2910662,TRUE,FALSE,FALSE,"S249704183"
"33","sabgul","Sabine's Gull","Xema sabini","L279360","Nome River Mouth","2025-06-12 11:17",1,64.4831392,-165.3024186,TRUE,FALSE,FALSE,"S249741247"
"34","sabgul","Sabine's Gull","Xema sabini","L47284484","Old Tin City","2025-06-12 11:10",1,65.5583822,-167.9500016,TRUE,FALSE,TRUE,"S249730649"
"35","sabgul","Sabine's Gull","Xema sabini","L47412143","12460–13326 Cakeatter Rd, Utqiagvik US-AK 71.29300, -156.67224","2025-06-11 21:19",1,71.292995,-156.672236,TRUE,FALSE,TRUE,"S249423019"
"36","sabgul","Sabine's Gull","Xema sabini","L2856665","Northe east Kotzebue","2025-06-11 20:37",96,66.8997717,-162.5647831,TRUE,TRUE,TRUE,"S249418204"
"37","sabgul","Sabine's Gull","Xema sabini","L47406296","6678 Saya Street, Utqiagvik, Alaska, US (71.299, -156.739)","2025-06-11 16:45",1,71.2986843,-156.7387034,TRUE,FALSE,TRUE,"S249393447"
"38","sabgul","Sabine's Gull","Xema sabini","L5810161","Kotzebue (town)","2025-06-11 15:00",24,66.8983909,-162.5873995,TRUE,TRUE,FALSE,"S249340616"
"39","sabgul","Sabine's Gull","Xema sabini","L4007749","Teller--spit","2025-06-11 13:07",5,65.2709052,-166.3575125,TRUE,FALSE,FALSE,"S249534141"
"40","sabgul","Sabine's Gull","Xema sabini","L464529","Cape Nome","2025-06-11 12:08",1,64.4353696,-165.0103838,TRUE,FALSE,FALSE,"S249922078"
"41","sabgul","Sabine's Gull","Xema sabini","L464528","Nome Harbor","2025-06-11 10:31",8,64.499819,-165.425236,TRUE,FALSE,FALSE,"S249902706"
"42","sabgul","Sabine's Gull","Xema sabini","L47409184","Tasaitsat Lagoon","2025-06-11 08:47",3,67.558216,-164.030504,TRUE,FALSE,TRUE,"S249408856"
"43","sabgul","Sabine's Gull","Xema sabini","L27505839","Red Dog Port Site (restricted access)","2025-06-10 20:43",1,67.576528,-164.0608204,TRUE,FALSE,FALSE,"S249072440"
"44","sabgul","Sabine's Gull","Xema sabini","L47191893","Kivalina","2025-06-10 20:28",2,67.743233,-164.582021,TRUE,FALSE,TRUE,"S249087819"
"45","sabgul","Sabine's Gull","Xema sabini","L3717427","Nome-Council Rd.--Safety Sound Bridge to Last Train to Nowhere","2025-06-10 12:58",2,64.5153332,-164.5622527,TRUE,FALSE,FALSE,"S249039446"
"46","sabgul","Sabine's Gull","Xema sabini","L294949","Nome-Council Rd. (please use a more specific location)","2025-06-10 07:54",15,64.4998619,-164.6239604,TRUE,FALSE,FALSE,"S249013334"
"47","sabgul","Sabine's Gull","Xema sabini","L47820786","Naskonat Peninsula","2025-06-09 22:57",NA,60.99598,-165.061357,TRUE,FALSE,TRUE,"S251254366"
"48","sabgul","Sabine's Gull","Xema sabini","L1214940","Utqiaġvik (town; please use a more specific location)","2025-06-09 21:37",2,71.2906914,-156.7885494,TRUE,FALSE,FALSE,"S248769039"
"49","sabgul","Sabine's Gull","Xema sabini","L20373178","USFWS Eider Project Study Area","2025-06-09 20:00",2,71.2371505,-156.6825217,TRUE,FALSE,TRUE,"S248952250"
"50","sabgul","Sabine's Gull","Xema sabini","L47265192","11201–11309 Cakeatter Rd, Utqiagvik US-AK 71.30773, -156.70121","2025-06-09 18:29",1,71.307735,-156.701212,TRUE,FALSE,TRUE,"S248735812"
"51","sabgul","Sabine's Gull","Xema sabini","L46848149","Utqiaġvik--Tahak-Stevenson St. Seawatch","2025-06-09 17:14",1,71.299897,-156.770387,TRUE,FALSE,TRUE,"S249337681"
"52","sabgul","Sabine's Gull","Xema sabini","L21161705","Utqiaġvik--Whale Bone Arch","2025-06-09 17:10",1,71.298579,-156.773667,TRUE,FALSE,FALSE,"S248744728"
"53","sabgul","Sabine's Gull","Xema sabini","L9858021","US-AK-Nome Council Hwy (64.4367,-165.0187)","2025-06-09 16:12",8,64.436701,-165.018685,TRUE,FALSE,TRUE,"S249013769"
"54","sabgul","Sabine's Gull","Xema sabini","L755300","Kougarok Rd.--Nome River","2025-06-09 13:30",1,64.6469307,-165.2924824,TRUE,FALSE,FALSE,"S248998061"
"55","sabgul","Sabine's Gull","Xema sabini","L1664751","Nome-Council Rd.--Cape Nome to Safety Sound Bridge","2025-06-09 10:09",4,64.4408338,-164.8940364,TRUE,FALSE,FALSE,"S248771212"
"56","sabgul","Sabine's Gull","Xema sabini","L47523176","Auto selected 60.99645, -165.06162 / EMGO CAMP ADFG","2025-06-09 10:00",5,60.996452,-165.061623,TRUE,FALSE,TRUE,"S249939829"
"57","sabgul","Sabine's Gull","Xema sabini","L47283969","Tin City LRRS (restricted access)","2025-06-09 09:51",1,65.5647108,-167.9674589,TRUE,FALSE,TRUE,"S248839863"
