"","speciesCode","comName","sciName","locId","locName","obsDt","howMany","lat","lng","obsValid","obsReviewed","locationPrivate","subId"
"1","whttro","White-tailed Tropicbird","Phaethon lepturus","L45176445","North Pacific Ocean, Hāna US-HI (20.7736,-155.9850)","2025-05-16 06:33",2,20.773566,-155.984983,TRUE,FALSE,TRUE,"S238832902"
"2","whttro","White-tailed Tropicbird","Phaethon lepturus","L45091778","4062–4498 Anini Rd, Kalihiwai US-HI (22.2253,-159.4569)","2025-05-15 13:50",2,22.2253,-159.456895,TRUE,FALSE,TRUE,"S238446317"
"3","whttro","White-tailed Tropicbird","Phaethon lepturus","L7830812","Makapu’u PointLighthouse Trail (Seawatch)","2025-05-15 13:15",4,21.2997417,-157.652397,TRUE,FALSE,FALSE,"S238451292"
"4","whttro","White-tailed Tropicbird","Phaethon lepturus","L1087060","Kealakekua Bay","2025-05-15 09:30",4,19.4754532,-155.9195137,TRUE,FALSE,FALSE,"S238358779"
"5","whttro","White-tailed Tropicbird","Phaethon lepturus","L7900924","Lanai","2025-05-15 07:31",1,21.9065438,-159.5822563,TRUE,FALSE,TRUE,"S238291187"
"6","whttro","White-tailed Tropicbird","Phaethon lepturus","L1428616","Hawai'i Volcanoes NP--Visitor Center and Volcano House","2025-05-14 10:50",6,19.4295211,-155.2575515,TRUE,FALSE,FALSE,"S237928829"
"7","whttro","White-tailed Tropicbird","Phaethon lepturus","L45005456","Imua Pelagic Protocol Start: 21.36282, -158.35240","2025-05-14 08:12",1,21.362823,-158.352398,TRUE,FALSE,TRUE,"S237963335"
"8","whttro","White-tailed Tropicbird","Phaethon lepturus","L45018131","Waimea Canyon State Park, Princeville US-HI 22.07735, -159.66582","2025-05-14 08:08",6,22.077347,-159.665824,TRUE,FALSE,TRUE,"S238033751"
"9","whttro","White-tailed Tropicbird","Phaethon lepturus","L45018142","Waimea Canyon State Park, Princeville US-HI 22.10629, -159.67382","2025-05-14 08:03",5,22.106287,-159.673823,TRUE,FALSE,TRUE,"S238033795"
"10","whttro","White-tailed Tropicbird","Phaethon lepturus","L20815790","Kōkeʻe State Park--Puʻu O Kila Lookout","2025-05-14 04:45",1,22.1477985,-159.6309566,TRUE,FALSE,FALSE,"S237875015"
"11","whttro","White-tailed Tropicbird","Phaethon lepturus","L20815783","Kōkeʻe State Park--Kalalau Lookout","2025-05-13 18:00",6,22.1506629,-159.6452744,TRUE,FALSE,FALSE,"S238006884"
"12","whttro","White-tailed Tropicbird","Phaethon lepturus","L8027824","Kīlauea Point NWR--Overlook (always open)","2025-05-13 14:31",2,22.2277391,-159.4012624,TRUE,FALSE,FALSE,"S237587771"
"13","whttro","White-tailed Tropicbird","Phaethon lepturus","L8138628","Fern Grotto","2025-05-12 22:11",1,22.0395432,-159.3592644,TRUE,FALSE,FALSE,"S237207128"
"14","whttro","White-tailed Tropicbird","Phaethon lepturus","L4796177","Sleeping Giant--Nounou East Trail","2025-05-12 15:04",1,22.0619372,-159.3489861,TRUE,FALSE,FALSE,"S237163951"
"15","whttro","White-tailed Tropicbird","Phaethon lepturus","L44853996","Smith’s River Boat Tour to Fern Grotto","2025-05-12 09:00",1,22.045707,-159.340362,TRUE,FALSE,TRUE,"S237067045"
"16","whttro","White-tailed Tropicbird","Phaethon lepturus","L1266647","Port Allen Airport--Seawatch","2025-05-11 15:00",3,21.8926556,-159.6046111,TRUE,FALSE,FALSE,"S236744961"
"17","whttro","White-tailed Tropicbird","Phaethon lepturus","L9030874","Waimanalo Beach Park","2025-05-11 11:20",2,21.3319577,-157.6939866,TRUE,FALSE,FALSE,"S236646076"
"18","whttro","White-tailed Tropicbird","Phaethon lepturus","L3195285","Lana'i'hale and Munro Trail","2025-05-10 14:00",2,20.8196665,-156.8806458,TRUE,FALSE,FALSE,"S236046835"
"19","whttro","White-tailed Tropicbird","Phaethon lepturus","L8679456","Kaumualii Highway, Hanapepe, Hawaii, US (21.951, -159.659)","2025-05-10 14:00",1,21.9506602,-159.6588521,TRUE,FALSE,TRUE,"S235963525"
"20","whttro","White-tailed Tropicbird","Phaethon lepturus","L1127546","Ala Moana Park and State Recreation Area","2025-05-10 12:31",1,21.2894543,-157.8464985,TRUE,FALSE,FALSE,"S235917665"
"21","whttro","White-tailed Tropicbird","Phaethon lepturus","L13862944","Hokulia Shoreline Park","2025-05-10 12:10",1,19.5211809,-155.9561125,TRUE,FALSE,FALSE,"S235956717"
"22","whttro","White-tailed Tropicbird","Phaethon lepturus","L34691276","Kōkeʻe SP road--Kalalau to Pu‘u O Kila lookout","2025-05-10 07:32",2,22.149111,-159.637159,TRUE,FALSE,FALSE,"S236089787"
"23","whttro","White-tailed Tropicbird","Phaethon lepturus","L44509750","Crater Rim Dr, Pahoa US-HI (19.4053,-155.2534)","2025-05-09 13:57",1,19.405307,-155.25343,TRUE,FALSE,TRUE,"S235254526"
"24","whttro","White-tailed Tropicbird","Phaethon lepturus","L44502957","Larsen's Beach, Kilauea US-HI 22.20680, -159.33958","2025-05-09 12:15",4,22.206796,-159.339576,TRUE,FALSE,TRUE,"S235218296"
"25","whttro","White-tailed Tropicbird","Phaethon lepturus","L10123074","Hawaiʻi Volcanoes NP--Devastation Trail","2025-05-09 09:47",1,19.4070035,-155.252863,TRUE,FALSE,FALSE,"S235199634"
"26","whttro","White-tailed Tropicbird","Phaethon lepturus","L391848","Waimea Canyon Lookout","2025-05-09 09:26",1,22.0714028,-159.6619892,TRUE,FALSE,FALSE,"S235154281"
"27","whttro","White-tailed Tropicbird","Phaethon lepturus","L9677388","Hanakāpīʻai Beach","2025-05-09 07:15",5,22.208811,-159.5978662,TRUE,FALSE,FALSE,"S237019665"
"28","whttro","White-tailed Tropicbird","Phaethon lepturus","L2574849","Keāhole Point","2025-05-08 17:42",1,19.727713,-156.0609278,TRUE,FALSE,FALSE,"S235211931"
"29","whttro","White-tailed Tropicbird","Phaethon lepturus","L10446546","Office Lanai (21.911, -159.586)","2025-05-08 14:12",1,21.9112535,-159.5862071,TRUE,FALSE,TRUE,"S234797267"
"30","whttro","White-tailed Tropicbird","Phaethon lepturus","L855806","Wailua Falls, Ma'alo Road","2025-05-07 11:11",2,22.0340784,-159.379102,TRUE,FALSE,FALSE,"S234350043"
"31","whttro","White-tailed Tropicbird","Phaethon lepturus","L7058871","Shipwreck Beach","2025-05-07 09:30",1,21.8747914,-159.4369039,TRUE,FALSE,FALSE,"S234331981"
"32","whttro","White-tailed Tropicbird","Phaethon lepturus","L19381369","Hā'ena State Park--Hā'ena Beach","2025-05-07 08:15",1,22.220002,-159.566344,TRUE,FALSE,FALSE,"S234459488"
