"","speciesCode","comName","sciName","locId","locName","obsDt","howMany","lat","lng","obsValid","obsReviewed","locationPrivate","subId"
"1","larbun","Lark Bunting","Calamospiza melanocorys","L46836614","82301, Rawlins US-WY 41.74704, -107.16272","2025-06-04 17:33",2,41.747036,-107.162724,TRUE,FALSE,TRUE,"S246784606"
"2","larbun","Lark Bunting","Calamospiza melanocorys","L3812976","Larimer CR 5 from CR 82 to 92 (bird from road)","2025-06-04 17:12",6,40.885908,-104.9812424,TRUE,FALSE,FALSE,"S246783056"
"3","larbun","Lark Bunting","Calamospiza melanocorys","L304168","Rawhide Energy Station/Hamilton Reservoir","2025-06-04 17:01",2,40.852235,-105.0259988,TRUE,FALSE,FALSE,"S246776621"
"4","larbun","Lark Bunting","Calamospiza melanocorys","L46831726","11392–11396 US-26, Kinnear US-WY (43.1563,-108.6968)","2025-06-04 15:59",10,43.156257,-108.696824,TRUE,FALSE,TRUE,"S246759557"
"5","larbun","Lark Bunting","Calamospiza melanocorys","L20482367","Rocky Mountain Arsenal National Wildlife Refuge, Commerce City US-CO 39.84770, -104.82053","2025-06-04 15:09",4,39.847696,-104.820534,TRUE,FALSE,TRUE,"S246756583"
"6","larbun","Lark Bunting","Calamospiza melanocorys","L449747","Pawnee NG--Crow Valley Work Center","2025-06-04 14:00",1,40.6504619,-104.3354845,TRUE,FALSE,FALSE,"S246733134"
"7","larbun","Lark Bunting","Calamospiza melanocorys","L46826036","1 57th Street Southwest, Amidon, North Dakota, US (46.583, -103.196)","2025-06-04 13:58",1,46.5831301,-103.1959616,TRUE,FALSE,TRUE,"S246732489"
"8","larbun","Lark Bunting","Calamospiza melanocorys","L46820949","100–158 N Rock Creek Rd, Fort Peck US-MT 47.75898, -106.15353","2025-06-04 12:41",3,47.758982,-106.15353,TRUE,FALSE,TRUE,"S246710615"
"9","larbun","Lark Bunting","Calamospiza melanocorys","L6647709","Central Park natural area","2025-06-04 12:40",1,39.762335,-104.883515,TRUE,FALSE,TRUE,"S246710610"
"10","larbun","Lark Bunting","Calamospiza melanocorys","L46822262","Wildlife Dr, Denver US-CO 39.81975, -104.82623","2025-06-04 12:18",1,39.819746,-104.826226,TRUE,FALSE,TRUE,"S246716135"
"11","larbun","Lark Bunting","Calamospiza melanocorys","L46818905","236–572 MT-24, Brockway US-MT 47.37070, -106.17070","2025-06-04 12:16",10,47.3707,-106.1707,TRUE,FALSE,TRUE,"S246702182"
"12","larbun","Lark Bunting","Calamospiza melanocorys","L46818869","2586–2598 Highway 200 W, Brockway US-MT 47.32544, -106.06935","2025-06-04 11:58",6,47.325441,-106.069353,TRUE,FALSE,TRUE,"S246702051"
"13","larbun","Lark Bunting","Calamospiza melanocorys","L7445182","Red Mountain Open Space","2025-06-04 11:40",9,40.9597289,-105.1607037,TRUE,FALSE,FALSE,"S246777413"
"14","larbun","Lark Bunting","Calamospiza melanocorys","L303255","Pawnee NG--Adams and Bunker Reservoir Number 1","2025-06-04 10:18",4,40.8835265,-104.3820477,TRUE,FALSE,FALSE,"S246688714"
"15","larbun","Lark Bunting","Calamospiza melanocorys","L46810312","County Road 79, Briggsdale, Colorado, US (40.618, -104.316)","2025-06-04 10:07",7,40.6178118,-104.3158511,TRUE,FALSE,TRUE,"S246666497"
"16","larbun","Lark Bunting","Calamospiza melanocorys","L4592296","Oshkosh","2025-06-04 10:02",1,41.4048769,-102.3482251,TRUE,FALSE,FALSE,"S246656643"
"17","larbun","Lark Bunting","Calamospiza melanocorys","L9645810","Pawnee NG Bird Tour—Stops 9-11 (CR-104)","2025-06-04 09:51",20,40.7396581,-104.4454206,TRUE,FALSE,FALSE,"S246690594"
"18","larbun","Lark Bunting","Calamospiza melanocorys","L46811112","CR-103 Keota","2025-06-04 09:49",5,40.674708,-104.086376,TRUE,FALSE,TRUE,"S246668577"
"19","larbun","Lark Bunting","Calamospiza melanocorys","L9644406","Pawnee NG Bird Tour—Stops 5-8","2025-06-04 09:18",10,40.683148,-104.410754,TRUE,FALSE,FALSE,"S246652854"
"20","larbun","Lark Bunting","Calamospiza melanocorys","L2703868","Briggsdale (town)","2025-06-04 09:14",15,40.6344487,-104.3278885,TRUE,FALSE,FALSE,"S246653020"
"21","larbun","Lark Bunting","Calamospiza melanocorys","L46801647","Big Sandy West Campground","2025-06-04 08:34",1,42.2461004,-109.4300981,TRUE,FALSE,TRUE,"S246647852"
"22","larbun","Lark Bunting","Calamospiza melanocorys","L934951","Pawnee NG Bird Tour--Stops 1-4 and Murphy's Pasture","2025-06-04 08:21",2,40.6827563,-104.3537387,TRUE,FALSE,FALSE,"S246629539"
"23","larbun","Lark Bunting","Calamospiza melanocorys","L6806746","Rocky Mountain Arsenal NWR-- East Auto Tour","2025-06-04 07:58",1,39.8179101,-104.8280454,TRUE,FALSE,FALSE,"S246626579"
"24","larbun","Lark Bunting","Calamospiza melanocorys","L46799561","1344 11th Street Northwest, Hettinger, North Dakota, US (46.183, -102.851)","2025-06-04 07:52",5,46.1832736,-102.8507516,TRUE,FALSE,TRUE,"S246616421"
"25","larbun","Lark Bunting","Calamospiza melanocorys","L754760","Pawnee NG--Pawnee Buttes and area","2025-06-04 07:37",1,40.8016295,-104.0129113,TRUE,FALSE,FALSE,"S246636633"
"26","larbun","Lark Bunting","Calamospiza melanocorys","L46807782","WY-BCR17-TB3","2025-06-04 06:44",11,43.3886266,-105.1675071,TRUE,FALSE,TRUE,"S246654611"
"27","larbun","Lark Bunting","Calamospiza melanocorys","L9034845","Rocky Mountain Arsenal NWR--Wildlife Drive","2025-06-04 06:31",6,39.8537552,-104.8238524,TRUE,FALSE,FALSE,"S246615213"
"28","larbun","Lark Bunting","Calamospiza melanocorys","L297381","Carolyn Holmberg Preserve & Rock Creek Farms","2025-06-04 06:30",1,39.9486763,-105.0980973,TRUE,FALSE,FALSE,"S246597749"
"29","larbun","Lark Bunting","Calamospiza melanocorys","L46799959","33717–33769 745 Rd, Imperial US-NE (40.6257,-101.5460)","2025-06-04 06:30",1,40.625667,-101.546046,TRUE,FALSE,TRUE,"S246618494"
"30","larbun","Lark Bunting","Calamospiza melanocorys","L11990307","585 12th Street Northwest, Reeder, North Dakota, US (46.073, -102.871)","2025-06-04 06:14",2,46.0731943,-102.8709922,TRUE,FALSE,TRUE,"S246578979"
"31","larbun","Lark Bunting","Calamospiza melanocorys","L4722513","Little Missouri SP","2025-06-04 06:00",2,47.5458404,-102.7349849,TRUE,FALSE,FALSE,"S246654361"
"32","larbun","Lark Bunting","Calamospiza melanocorys","L32094956","Wetlands off SD-34","2025-06-04 05:59",12,44.539183,-102.790679,TRUE,FALSE,FALSE,"S246615154"
"33","larbun","Lark Bunting","Calamospiza melanocorys","L46778534","BLM Parcel, Buffalo US-WY 44.10728, -106.36859","2025-06-04 05:40",65,44.107282,-106.368595,TRUE,FALSE,TRUE,"S246669309"
"34","larbun","Lark Bunting","Calamospiza melanocorys","L46816506","Loup County, Nebraska","2025-06-04 05:30",1,41.8272404,-99.3811876,TRUE,FALSE,TRUE,"S246692898"
"35","larbun","Lark Bunting","Calamospiza melanocorys","L1142785","Walker-OSMP","2025-06-04 05:27",1,40.0704199,-105.2614689,TRUE,FALSE,TRUE,"S246581728"
"36","larbun","Lark Bunting","Calamospiza melanocorys","L46820975","Dupree Area","2025-06-04 04:05",4,45.054181,-101.603132,TRUE,FALSE,TRUE,"S246710758"
"37","larbun","Lark Bunting","Calamospiza melanocorys","L18348336","Little Thunder Reservoir","2025-06-03 19:37",2,43.690398,-105.378616,TRUE,FALSE,FALSE,"S246486258"
"38","larbun","Lark Bunting","Calamospiza melanocorys","L15690794","I-70 (Gove)","2025-06-03 17:03",1,39.098586,-100.424095,TRUE,FALSE,TRUE,"S246451542"
"39","larbun","Lark Bunting","Calamospiza melanocorys","L46764304","Prairie Ridge Buffalo Ranch","2025-06-03 15:54",10,39.200334,-103.74055,TRUE,FALSE,TRUE,"S246429938"
"40","larbun","Lark Bunting","Calamospiza melanocorys","L46774978","Unnamed Road, Malta, Montana, US (47.924, -107.986)","2025-06-03 15:47",9,47.9240048,-107.9855814,TRUE,FALSE,TRUE,"S246486868"
"41","larbun","Lark Bunting","Calamospiza melanocorys","L9645819","Pawnee NG Bird Tour--Stops 12-13 (CR-61)","2025-06-03 15:38",26,40.6664292,-104.4865896,TRUE,FALSE,FALSE,"S246458288"
"42","larbun","Lark Bunting","Calamospiza melanocorys","L32474056","53rd St SW","2025-06-03 14:58",2,46.644231,-103.237693,TRUE,FALSE,TRUE,"S246492983"
"43","larbun","Lark Bunting","Calamospiza melanocorys","L18896362","31st St. Prairie (Stark Co.)","2025-06-03 14:48",3,46.9630658,-103.2259106,TRUE,FALSE,FALSE,"S246441794"
"44","larbun","Lark Bunting","Calamospiza melanocorys","L11856470","SBCR X","2025-06-03 14:25",6,41.727201,-103.948789,TRUE,FALSE,TRUE,"S246431411"
"45","larbun","Lark Bunting","Calamospiza melanocorys","L12075689","Montz Point WMA","2025-06-03 14:10",1,41.765719,-103.943356,TRUE,FALSE,TRUE,"S246431344"
"46","larbun","Lark Bunting","Calamospiza melanocorys","L46774965","Unnamed Road, Malta, Montana, US (47.926, -108.109)","2025-06-03 13:51",6,47.9258566,-108.1093922,TRUE,FALSE,TRUE,"S246486797"
"47","larbun","Lark Bunting","Calamospiza melanocorys","L16919984","Festo Lake","2025-06-03 13:47",2,42.0768621,-104.9995431,TRUE,FALSE,FALSE,"S246397255"
"48","larbun","Lark Bunting","Calamospiza melanocorys","L46767018","Clark Canyon Reservoir--Horse Prairie Inlet","2025-06-03 13:41",1,44.9760834,-112.9183384,TRUE,FALSE,TRUE,"S246446583"
"49","larbun","Lark Bunting","Calamospiza melanocorys","L19349775","47th St SW","2025-06-03 13:23",12,46.731258,-103.191528,TRUE,FALSE,TRUE,"S246566236"
"50","larbun","Lark Bunting","Calamospiza melanocorys","L46821382","46094–47974 County Road 77, Briggsdale US-CO 40.67489, -104.33471","2025-06-03 13:08",2,40.674889,-104.334707,TRUE,FALSE,TRUE,"S246712459"
"51","larbun","Lark Bunting","Calamospiza melanocorys","L46777439","Big Lake, Rapelje US-MT (45.8992,-109.0762)","2025-06-03 13:00",NA,45.89916,-109.076243,TRUE,FALSE,TRUE,"S246498911"
"52","larbun","Lark Bunting","Calamospiza melanocorys","L46753377","33900–33966 County Road 6, Rush US-CO 38.88333, -104.04459","2025-06-03 12:56",5,38.883328,-104.044594,TRUE,FALSE,TRUE,"S246376597"
"53","larbun","Lark Bunting","Calamospiza melanocorys","L46754390","201–225 Hailstone Basin Rd, Rapelje US-MT 45.97534, -109.17177","2025-06-03 12:51",2,45.975335,-109.17177,TRUE,FALSE,TRUE,"S246382263"
"54","larbun","Lark Bunting","Calamospiza melanocorys","L46752335","23477–23651 CR-C590, Wall US-SD 43.96567, -102.31544","2025-06-03 12:41",6,43.965672,-102.315438,TRUE,FALSE,TRUE,"S246372272"
"55","larbun","Lark Bunting","Calamospiza melanocorys","L46752327","18008–19520 County Road 114, Nunn US-CO 40.81194, -104.69127","2025-06-03 12:39",32,40.811943,-104.691273,TRUE,FALSE,TRUE,"S246372241"
"56","larbun","Lark Bunting","Calamospiza melanocorys","L46774931","Midale Cutacross Road, Malta, Montana, US (47.906, -108.077)","2025-06-03 12:38",8,47.9059508,-108.0769515,TRUE,FALSE,TRUE,"S246486621"
"57","larbun","Lark Bunting","Calamospiza melanocorys","L46774900","4381 Midale Road, Malta, Montana, US (48.06, -108.126)","2025-06-03 12:32",9,48.0595759,-108.1260775,TRUE,FALSE,TRUE,"S246486497"
"58","larbun","Lark Bunting","Calamospiza melanocorys","L46751934","County Road 96, Briggsdale US-CO 40.68302, -104.36359","2025-06-03 12:31",20,40.683024,-104.363586,TRUE,FALSE,TRUE,"S246370837"
"59","larbun","Lark Bunting","Calamospiza melanocorys","L46752023","Stagecoach Rd, Rapelje US-MT 45.93053, -109.31638","2025-06-03 12:25",1,45.930528,-109.316381,TRUE,FALSE,TRUE,"S246370738"
"60","larbun","Lark Bunting","Calamospiza melanocorys","L46774871","Midale Road, Malta, Montana, US (48.078, -108.141)","2025-06-03 12:12",8,48.0777896,-108.1409591,TRUE,FALSE,TRUE,"S246486352"
"61","larbun","Lark Bunting","Calamospiza melanocorys","L1025219","Chatfield SP--Plum Creek Nature Area","2025-06-03 11:54",8,39.5292348,-105.0404978,TRUE,TRUE,FALSE,"S246760738"
"62","larbun","Lark Bunting","Calamospiza melanocorys","L23552255","CO-24 (Elbert)","2025-06-03 11:34",2,39.216997,-103.817222,TRUE,FALSE,TRUE,"S246355156"
"63","larbun","Lark Bunting","Calamospiza melanocorys","L46763343","744–770 Stagecoach Rd, Rapelje US-MT 45.86805, -109.29782","2025-06-03 11:26",20,45.868048,-109.297816,TRUE,FALSE,TRUE,"S246425614"
"64","larbun","Lark Bunting","Calamospiza melanocorys","L3613685","Paint Mines Open Space","2025-06-03 10:54",1,39.0209842,-104.271841,TRUE,FALSE,FALSE,"S246342155"
"65","larbun","Lark Bunting","Calamospiza melanocorys","L25197799","N Currier Rd","2025-06-03 10:34",8,38.999932,-104.239016,TRUE,FALSE,TRUE,"S246337111"
"66","larbun","Lark Bunting","Calamospiza melanocorys","L167924","Rocky Mountain Arsenal NWR","2025-06-03 10:30",3,39.8209707,-104.8680639,TRUE,FALSE,FALSE,"S246391537"
"67","larbun","Lark Bunting","Calamospiza melanocorys","L12346171","Crow Valley Recreation Area, Briggsdale US-CO 40.64399, -104.34118","2025-06-03 10:25",1,40.643994,-104.341185,TRUE,FALSE,TRUE,"S246449519"
"68","larbun","Lark Bunting","Calamospiza melanocorys","L25197771","Funk Rd","2025-06-03 10:23",7,38.99813,-104.26612,TRUE,FALSE,TRUE,"S246330246"
"69","larbun","Lark Bunting","Calamospiza melanocorys","L21265457","Cherokee Water Facility","2025-06-03 10:15",1,38.7531366,-104.4782797,TRUE,FALSE,FALSE,"S246361590"
"70","larbun","Lark Bunting","Calamospiza melanocorys","L46743769","11712 County Road 174, Kiowa US-CO 39.49143, -104.45874","2025-06-03 10:11",5,39.491431,-104.458736,TRUE,FALSE,TRUE,"S246335548"
"71","larbun","Lark Bunting","Calamospiza melanocorys","L46776100","Pine Ridge Rd","2025-06-03 10:00",20,45.8293117,-107.8255659,TRUE,FALSE,TRUE,"S246493445"
"72","larbun","Lark Bunting","Calamospiza melanocorys","L46746502","700–710 Stagecoach Rd, Columbus US-MT 45.83349, -109.28022","2025-06-03 09:53",1,45.833486,-109.280217,TRUE,FALSE,TRUE,"S246347421"
"73","larbun","Lark Bunting","Calamospiza melanocorys","L3271366","WY highway 432 - Nowater Creek","2025-06-03 09:38",1,43.9738403,-107.9922152,TRUE,FALSE,TRUE,"S246319338"
"74","larbun","Lark Bunting","Calamospiza melanocorys","L11909705","Mailbox Prairie Dog Town","2025-06-03 09:31",12,47.940671,-108.012256,TRUE,FALSE,TRUE,"S246326567"
"75","larbun","Lark Bunting","Calamospiza melanocorys","L46738056","15301–15343 SD-44, Rapid City US-SD 43.99357, -102.98171","2025-06-03 09:24",1,43.993574,-102.981706,TRUE,FALSE,TRUE,"S246310051"
"76","larbun","Lark Bunting","Calamospiza melanocorys","L42446058","Restricted Access Study Site","2025-06-03 09:14",7,46.315498,-105.873558,TRUE,FALSE,TRUE,"S246377146"
"77","larbun","Lark Bunting","Calamospiza melanocorys","L43706697","Pond","2025-06-03 08:57",1,46.34178,-105.827521,TRUE,FALSE,TRUE,"S246303433"
"78","larbun","Lark Bunting","Calamospiza melanocorys","L7671448","Renner WHMA--Wetlands on Buffalo Creek","2025-06-03 08:35",5,44.1580592,-107.5387476,TRUE,FALSE,FALSE,"S246348658"
"79","larbun","Lark Bunting","Calamospiza melanocorys","L15561270","59538, Malta US-MT (47.9342,-108.0241)","2025-06-03 08:34",30,47.934231,-108.024144,TRUE,FALSE,TRUE,"S246326802"
"80","larbun","Lark Bunting","Calamospiza melanocorys","L46732948","59546, Zortman US-MT 47.73988, -108.67467","2025-06-03 07:58",6,47.739875,-108.674671,TRUE,FALSE,TRUE,"S246285303"
"81","larbun","Lark Bunting","Calamospiza melanocorys","L46831470","WY-CON BLM (43.0298,-104.9952)","2025-06-03 06:45",25,43.029759,-104.995203,TRUE,FALSE,TRUE,"S246758168"
"82","larbun","Lark Bunting","Calamospiza melanocorys","L44249499","Debz Lanai","2025-06-03 06:36",1,39.663288,-104.824658,TRUE,FALSE,TRUE,"S246247937"
"83","larbun","Lark Bunting","Calamospiza melanocorys","L46753150","57th St SW","2025-06-03 06:17",10,46.583946,-103.19785,TRUE,FALSE,TRUE,"S246375613"
"84","larbun","Lark Bunting","Calamospiza melanocorys","L3812244","Stoneham (town and playa area)","2025-06-03 06:09",6,40.5979223,-103.67064,TRUE,FALSE,FALSE,"S246439149"
"85","larbun","Lark Bunting","Calamospiza melanocorys","L46742666","SD-53, Vivian US-SD (43.7246,-100.3128)","2025-06-03 05:38",2,43.724636,-100.3128,TRUE,FALSE,TRUE,"S246330615"
"86","larbun","Lark Bunting","Calamospiza melanocorys","L46699694","2483–2487 County Road 410, Oakley US-KS 39.03843, -100.90632","2025-06-02 18:20",2,39.038434,-100.90632,TRUE,FALSE,TRUE,"S246109426"
"87","larbun","Lark Bunting","Calamospiza melanocorys","L4318610","Bowdoin NWR--second 5 mi. Auto Tour Route","2025-06-02 17:56",10,48.4081921,-107.6499653,TRUE,FALSE,FALSE,"S246134036"
"88","larbun","Lark Bunting","Calamospiza melanocorys","L41173336","59301, Miles City US-MT 46.31130, -105.97662","2025-06-02 17:55",1,46.311303,-105.976621,TRUE,FALSE,TRUE,"S246156639"
"89","larbun","Lark Bunting","Calamospiza melanocorys","L46740833","Pace Rd","2025-06-02 17:52",2,38.357276,-104.619699,TRUE,FALSE,TRUE,"S246322510"
"90","larbun","Lark Bunting","Calamospiza melanocorys","L46700156","z70329–70499 US Highway 191 N, Roy US-MT 47.41118, -108.75155","2025-06-02 17:32",1,47.411182,-108.75155,TRUE,FALSE,TRUE,"S246111998"
"91","larbun","Lark Bunting","Calamospiza melanocorys","L10956575","Bruce Dam","2025-06-02 16:49",1,43.964058,-102.2688948,TRUE,FALSE,FALSE,"S246098179"
"92","larbun","Lark Bunting","Calamospiza melanocorys","L46705623","Wyoming Horses (Private Property)","2025-06-02 16:10",6,43.2906836,-108.6984991,TRUE,FALSE,TRUE,"S246143214"
"93","larbun","Lark Bunting","Calamospiza melanocorys","L31673414","Coal Creek Oasis","2025-06-02 15:54",1,40.854686,-105.010043,TRUE,FALSE,FALSE,"S246085721"
"94","larbun","Lark Bunting","Calamospiza melanocorys","L40623109","Prairie Northeast of Rawhide Energy Station","2025-06-02 14:52",9,40.868757,-105.0138,TRUE,FALSE,TRUE,"S246081535"
"95","larbun","Lark Bunting","Calamospiza melanocorys","L46691758","Route 8 prairiedogtown,Chinook US-MT 48.21752, -108.46298","2025-06-02 14:39",13,48.217521,-108.46298,TRUE,FALSE,TRUE,"S246067891"
"96","larbun","Lark Bunting","Calamospiza melanocorys","L4576507","Hwy 8 wetland","2025-06-02 14:10",6,48.23779,-108.454762,TRUE,FALSE,FALSE,"S246059872"
"97","larbun","Lark Bunting","Calamospiza melanocorys","L46688330","25177–25197 Route 8, Dodson US-MT 48.35291, -108.36499","2025-06-02 13:46",15,48.352911,-108.36499,TRUE,FALSE,TRUE,"S246051100"
"98","larbun","Lark Bunting","Calamospiza melanocorys","L285733","Chico Basin Ranch--headquarters area (Pueblo Co) (mandatory registration required at www.aikenaudubon.com)","2025-06-02 13:39",3,38.5070217,-104.4403696,TRUE,FALSE,FALSE,"S246100147"
"99","larbun","Lark Bunting","Calamospiza melanocorys","L46678755","69032, Hayes Center US-NE 40.62379, -100.87486","2025-06-02 13:05",1,40.623791,-100.874858,TRUE,FALSE,TRUE,"S246008558"
"100","larbun","Lark Bunting","Calamospiza melanocorys","L46683235","955–987 Pryor Mountain Rd, Bridger US-MT 45.20513, -108.75746","2025-06-02 12:59",6,45.205132,-108.757462,TRUE,FALSE,TRUE,"S246028385"
"101","larbun","Lark Bunting","Calamospiza melanocorys","L2285228","Devils Backbone Open Space","2025-06-02 12:30",2,40.411697,-105.1524324,TRUE,FALSE,FALSE,"S246511869"
"102","larbun","Lark Bunting","Calamospiza melanocorys","L265647","Maxwell NWR","2025-06-02 12:05",1,36.5688651,-104.5815831,TRUE,FALSE,FALSE,"S246146692"
"103","larbun","Lark Bunting","Calamospiza melanocorys","L46727493","22577 Stage Coach Rd, Malta US-MT 48.18201, -108.26157","2025-06-02 12:00",2,48.182005,-108.26157,TRUE,FALSE,TRUE,"S246255324"
"104","larbun","Lark Bunting","Calamospiza melanocorys","L46677420","Pawnee NG kiosk Ault US-CO 40.64013, -104.48784","2025-06-02 11:42",2,40.64013,-104.487844,TRUE,FALSE,TRUE,"S246002809"
"105","larbun","Lark Bunting","Calamospiza melanocorys","L46676896","US-36, Anton US-CO 39.70321, -103.07231","2025-06-02 11:40",2,39.703213,-103.072306,TRUE,FALSE,TRUE,"S246000430"
"106","larbun","Lark Bunting","Calamospiza melanocorys","L46676165","Moreau River Loop","2025-06-02 11:28",3,45.32579,-103.507057,TRUE,FALSE,TRUE,"S245997165"
"107","larbun","Lark Bunting","Calamospiza melanocorys","L46675863","Conata Basin Road, Wall, South Dakota, US (43.775, -102.199)","2025-06-02 11:07",16,43.7752467,-102.198715,TRUE,FALSE,TRUE,"S245995856"
"108","larbun","Lark Bunting","Calamospiza melanocorys","L46674913","County Road 96, Briggsdale US-CO 40.68315, -104.39662","2025-06-02 10:44",28,40.683151,-104.396616,TRUE,FALSE,TRUE,"S245991689"
"109","larbun","Lark Bunting","Calamospiza melanocorys","L46751753","County Road 10, Holyoke US-CO 40.49801, -102.29263","2025-06-02 10:36",3,40.498012,-102.292629,TRUE,FALSE,TRUE,"S246369708"
"110","larbun","Lark Bunting","Calamospiza melanocorys","L285720","Chico Basin Ranch (El Paso Co) (mandatory registration required at www.aikenaudubon.com)","2025-06-02 10:25",12,38.5471585,-104.4583511,TRUE,FALSE,FALSE,"S246098837"
"111","larbun","Lark Bunting","Calamospiza melanocorys","L158584","Bowdoin NWR","2025-06-02 10:15",8,48.4018332,-107.6784611,TRUE,FALSE,FALSE,"S246083967"
"112","larbun","Lark Bunting","Calamospiza melanocorys","L24998359","Stage Coach Rd-Hwy 204","2025-06-02 10:05",2,47.9742727,-108.3053968,TRUE,FALSE,FALSE,"S246255903"
"113","larbun","Lark Bunting","Calamospiza melanocorys","L4721799","Badlands NP--Fossil Exhibit Trail","2025-06-02 10:01",1,43.7728183,-102.0032366,TRUE,FALSE,FALSE,"S245967336"
"114","larbun","Lark Bunting","Calamospiza melanocorys","L46670713","15501 County Road 197, Kim, Colorado, US (37.221, -103.355)","2025-06-02 09:59",1,37.2206458,-103.3549189,TRUE,FALSE,TRUE,"S245972134"
"115","larbun","Lark Bunting","Calamospiza melanocorys","L46707382","140000–140798 Robidoux Rd, Gering US-NE 41.79940, -103.80422","2025-06-02 09:55",1,41.799398,-103.804218,TRUE,FALSE,TRUE,"S246151707"
"116","larbun","Lark Bunting","Calamospiza melanocorys","L46670030","39248–39982 County Road 69, Briggsdale US-CO 40.64068, -104.41131","2025-06-02 09:49",40,40.640683,-104.411315,TRUE,FALSE,TRUE,"S245967860"
"117","larbun","Lark Bunting","Calamospiza melanocorys","L46666547","SH-14, Ault US-CO 40.63884, -104.51834","2025-06-02 09:44",1,40.638843,-104.518336,TRUE,FALSE,TRUE,"S245952116"
"118","larbun","Lark Bunting","Calamospiza melanocorys","L46703126","cookstove dam","2025-06-02 09:30",12,44.211347,-100.36712,TRUE,FALSE,TRUE,"S246133305"
"119","larbun","Lark Bunting","Calamospiza melanocorys","L46664690","Abarr BBS 44","2025-06-02 09:20",3,39.701587,-102.396171,TRUE,FALSE,TRUE,"S245943514"
"120","larbun","Lark Bunting","Calamospiza melanocorys","L1437705","Black Mesa Grasslands (Cimarron Co.)","2025-06-02 09:13",2,36.8065635,-102.8335157,TRUE,FALSE,FALSE,"S245958855"
"121","larbun","Lark Bunting","Calamospiza melanocorys","L4693481","Native prairie near Malta.","2025-06-02 09:13",6,48.2601985,-107.9735899,TRUE,FALSE,TRUE,"S246256070"
"122","larbun","Lark Bunting","Calamospiza melanocorys","L46767719","Pawnee NG--CR-103","2025-06-02 09:04",2,40.678314,-104.0862022,TRUE,FALSE,TRUE,"S246448070"
"123","larbun","Lark Bunting","Calamospiza melanocorys","L46663609","Abarr BBS 41","2025-06-02 09:01",3,39.701397,-102.423965,TRUE,FALSE,TRUE,"S245938773"
"124","larbun","Lark Bunting","Calamospiza melanocorys","L25673152","140th Ave SW","2025-06-02 09:00",9,46.486278,-103.279931,TRUE,FALSE,TRUE,"S246503484"
"125","larbun","Lark Bunting","Calamospiza melanocorys","L46661809","Abarr BBS 39","2025-06-02 08:45",3,39.701404,-102.44363,TRUE,FALSE,TRUE,"S245930085"
"126","larbun","Lark Bunting","Calamospiza melanocorys","L46661251","Abarr BBS 38","2025-06-02 08:39",3,39.701302,-102.452458,TRUE,FALSE,TRUE,"S245927842"
"127","larbun","Lark Bunting","Calamospiza melanocorys","L46664209","140th cruise","2025-06-02 08:38",4,46.569346,-103.290615,TRUE,FALSE,TRUE,"S245941426"
"128","larbun","Lark Bunting","Calamospiza melanocorys","L46661889","Abarr BBS 37","2025-06-02 08:34",2,39.701237,-102.462589,TRUE,FALSE,TRUE,"S245930344"
"129","larbun","Lark Bunting","Calamospiza melanocorys","L46661309","Abarr BBS 36","2025-06-02 08:28",1,39.708354,-102.462938,TRUE,FALSE,TRUE,"S245928056"
"130","larbun","Lark Bunting","Calamospiza melanocorys","L2399944","Birdsall Road","2025-06-02 08:04",14,38.6246493,-104.6569204,TRUE,FALSE,FALSE,"S245923197"
"131","larbun","Lark Bunting","Calamospiza melanocorys","L46658104","Abarr BBS 31","2025-06-02 07:58",2,39.715348,-102.500503,TRUE,FALSE,TRUE,"S245911547"
"132","larbun","Lark Bunting","Calamospiza melanocorys","L46657333","Abarr BBS 29","2025-06-02 07:48",3,39.715221,-102.519565,TRUE,FALSE,TRUE,"S245907477"
"133","larbun","Lark Bunting","Calamospiza melanocorys","L46656943","Abarr BBS 28","2025-06-02 07:42",2,39.715127,-102.52903,TRUE,FALSE,TRUE,"S245905569"
"134","larbun","Lark Bunting","Calamospiza melanocorys","L46671324","CR-30, Comanche Creek","2025-06-02 07:42",5,39.636395,-104.257095,TRUE,FALSE,TRUE,"S245976021"
"135","larbun","Lark Bunting","Calamospiza melanocorys","L46670101","Prospect Township, South Dakota, US (43.656, -101.133)","2025-06-02 07:34",5,43.6559892,-101.1329503,TRUE,FALSE,TRUE,"S245968103"
"136","larbun","Lark Bunting","Calamospiza melanocorys","L46655720","South Dakota 34, Midland, South Dakota, US (44.374, -101.317)","2025-06-02 07:30",1,44.3737411,-101.3172988,TRUE,FALSE,TRUE,"S245899109"
"137","larbun","Lark Bunting","Calamospiza melanocorys","L46700817","47th St SW, Belfield US-ND 46.73126, -103.20309","2025-06-02 07:27",5,46.731264,-103.203087,TRUE,FALSE,TRUE,"S246115687"
"138","larbun","Lark Bunting","Calamospiza melanocorys","L868939","Custer SP--Wildlife Loop","2025-06-02 07:14",1,43.7067869,-103.3406639,TRUE,FALSE,FALSE,"S246087241"
"139","larbun","Lark Bunting","Calamospiza melanocorys","L46653809","US Highway 14, Fort Pierre, South Dakota, US (44.386, -100.792)","2025-06-02 07:06",1,44.3862113,-100.7920913,TRUE,FALSE,TRUE,"S245887511"
"140","larbun","Lark Bunting","Calamospiza melanocorys","L46671518","CR-149, Comanche Creek","2025-06-02 06:35",3,39.573345,-104.361768,TRUE,FALSE,TRUE,"S245977103"
"141","larbun","Lark Bunting","Calamospiza melanocorys","L46649790","Abarr BBS 13","2025-06-02 06:05",2,39.772988,-102.594848,TRUE,FALSE,TRUE,"S245864192"
"142","larbun","Lark Bunting","Calamospiza melanocorys","L9645816","Pawnee NG Bird Tour--CR-96","2025-06-02 05:22",55,40.682221,-104.5055931,TRUE,FALSE,FALSE,"S245919781"
"143","larbun","Lark Bunting","Calamospiza melanocorys","L46652709","Abarr BBS 5","2025-06-02 05:12",1,39.815954,-102.613751,TRUE,FALSE,TRUE,"S245880753"
"144","larbun","Lark Bunting","Calamospiza melanocorys","L40072196","Brown's property","2025-06-01 20:16",9,40.6691073,-104.3209699,TRUE,FALSE,TRUE,"S245776293"
"145","larbun","Lark Bunting","Calamospiza melanocorys","L46626713","Warcreek Road, Fort Pierre, South Dakota, US (44.209, -100.358)","2025-06-01 19:49",1,44.2092514,-100.3580932,TRUE,FALSE,TRUE,"S245747861"
"146","larbun","Lark Bunting","Calamospiza melanocorys","L46626142","953 Wyoming 30, Basin, Wyoming, US (44.406, -108.172)","2025-06-01 18:39",1,44.40623,-108.1724909,TRUE,FALSE,TRUE,"S245744745"
"147","larbun","Lark Bunting","Calamospiza melanocorys","L46621124","Buzzard Road, Rawlins, Wyoming, US (41.988, -107.358)","2025-06-01 17:03",1,41.9881095,-107.3579055,TRUE,FALSE,TRUE,"S245718261"
"148","larbun","Lark Bunting","Calamospiza melanocorys","L46621264","drive","2025-06-01 17:02",2,46.285069,-103.363091,TRUE,FALSE,TRUE,"S245719044"
"149","larbun","Lark Bunting","Calamospiza melanocorys","L46619589","KS Calhan Hwy 24","2025-06-01 16:59",1,39.0737296,-104.2353506,TRUE,FALSE,TRUE,"S245710361"
"150","larbun","Lark Bunting","Calamospiza melanocorys","L11730994","Ward’s Dam","2025-06-01 16:45",12,48.667019,-106.625977,TRUE,FALSE,FALSE,"S245867245"
"151","larbun","Lark Bunting","Calamospiza melanocorys","L46619029","59215, Circle US-MT 47.56523, -106.23075","2025-06-01 16:43",2,47.565231,-106.230748,TRUE,FALSE,TRUE,"S245707640"
"152","larbun","Lark Bunting","Calamospiza melanocorys","L140460","Big Johnson Reservoir & Bluestem Prairie Open Space","2025-06-01 16:39",12,38.7482319,-104.6943795,TRUE,FALSE,FALSE,"S245753903"
"153","larbun","Lark Bunting","Calamospiza melanocorys","L31185109","Graveyard Creek Rd dam","2025-06-01 16:25",1,46.2559344,-106.1742133,TRUE,FALSE,TRUE,"S245701285"
"154","larbun","Lark Bunting","Calamospiza melanocorys","L46617495","RNA","2025-06-01 16:21",4,40.813242,-104.035697,TRUE,FALSE,TRUE,"S245699621"
"155","larbun","Lark Bunting","Calamospiza melanocorys","L46623964","N-61, Grant US-NE 40.75692, -101.66332","2025-06-01 16:10",1,40.756915,-101.663319,TRUE,FALSE,TRUE,"S245733405"
"156","larbun","Lark Bunting","Calamospiza melanocorys","L46616369","S County Road 193, Byers US-CO 39.60928, -104.15507","2025-06-01 15:58",25,39.609282,-104.155069,TRUE,FALSE,TRUE,"S245694056"
"157","larbun","Lark Bunting","Calamospiza melanocorys","L46614807","69522–69598 E County Road 38, Byers US-CO 39.60889, -104.16023","2025-06-01 15:52",11,39.608894,-104.160229,TRUE,FALSE,TRUE,"S245686678"
"158","larbun","Lark Bunting","Calamospiza melanocorys","L1190510","Little Bighorn NM","2025-06-01 15:50",1,45.559016,-107.426033,TRUE,FALSE,FALSE,"S245720878"
"159","larbun","Lark Bunting","Calamospiza melanocorys","L46609455","EW 15, Keyes US-OK 36.79152, -102.53094","2025-06-01 15:39",7,36.791522,-102.530938,TRUE,FALSE,TRUE,"S245662564"
"160","larbun","Lark Bunting","Calamospiza melanocorys","L46609441","EW 15, Keyes US-OK 36.79149, -102.53091","2025-06-01 15:39",7,36.791491,-102.530908,TRUE,FALSE,TRUE,"S245662486"
"161","larbun","Lark Bunting","Calamospiza melanocorys","L739433","JB Rd.","2025-06-01 14:55",9,45.4153,-103.425,TRUE,FALSE,FALSE,"S245683868"
"162","larbun","Lark Bunting","Calamospiza melanocorys","L46614788","Cmr Auto Nature Tour Rd, Zortman US-MT 47.72161, -108.66422","2025-06-01 14:49",6,47.721611,-108.664221,TRUE,FALSE,TRUE,"S245686553"
"163","larbun","Lark Bunting","Calamospiza melanocorys","L31750458","10000–10998 Sugar Factory Oil Rd, Scottsbluff US-NE 41.99590, -103.63888","2025-06-01 14:44",1,41.995905,-103.638882,TRUE,FALSE,TRUE,"S245661012"
"164","larbun","Lark Bunting","Calamospiza melanocorys","L46632790","Lake Mason NWR - Grazing District Rd","2025-06-01 14:40",16,46.575724,-108.605503,TRUE,FALSE,TRUE,"S245776389"
"165","larbun","Lark Bunting","Calamospiza melanocorys","L46634786","31st St, Belfield US-ND 46.96299, -103.27296","2025-06-01 14:39",2,46.962991,-103.272964,TRUE,FALSE,TRUE,"S245786743"
"166","larbun","Lark Bunting","Calamospiza melanocorys","L5983741","Badlands NP--Sage Creek CG","2025-06-01 14:30",1,43.8942433,-102.4138212,TRUE,FALSE,FALSE,"S245778823"
"167","larbun","Lark Bunting","Calamospiza melanocorys","L46621413","4381 Midale Rd, Malta US-MT (48.0597,-108.1245)","2025-06-01 14:25",121,48.059677,-108.124544,TRUE,FALSE,TRUE,"S245719801"
"168","larbun","Lark Bunting","Calamospiza melanocorys","L46605353","38528 County Ln 31, Sugar City, Colorado, US (38.194, -103.511)","2025-06-01 14:04",1,38.1943441,-103.5114677,TRUE,FALSE,TRUE,"S245645307"
"169","larbun","Lark Bunting","Calamospiza melanocorys","L342296","Box Springs Pond","2025-06-01 13:53",8,38.478466,-103.7018387,TRUE,FALSE,FALSE,"S246410368"
"170","larbun","Lark Bunting","Calamospiza melanocorys","L46615006","Cmr Auto Nature Tour Rd, Zortman US-MT 47.63359, -108.58495","2025-06-01 13:17",4,47.633594,-108.584954,TRUE,FALSE,TRUE,"S245687529"
"171","larbun","Lark Bunting","Calamospiza melanocorys","L131616","Lake Meredith","2025-06-01 12:24",3,38.2125578,-103.6908531,TRUE,FALSE,FALSE,"S246395220"
"172","larbun","Lark Bunting","Calamospiza melanocorys","L4318590","Bowdoin NWR--first 5 mi. Auto Tour Route","2025-06-01 12:23",6,48.3915524,-107.7287149,TRUE,FALSE,FALSE,"S245666413"
"173","larbun","Lark Bunting","Calamospiza melanocorys","L46596795","Havana Street, Commerce City, Colorado, US (39.834, -104.866)","2025-06-01 12:14",1,39.8338867,-104.8656412,TRUE,FALSE,TRUE,"S245610332"
"174","larbun","Lark Bunting","Calamospiza melanocorys","L15444273","Little Missouri NG--98th Ave. access","2025-06-01 12:09",2,48.0622859,-102.7232868,TRUE,FALSE,FALSE,"S245585446"
"175","larbun","Lark Bunting","Calamospiza melanocorys","L4858597","Sage Creek Rd. Lake","2025-06-01 12:09",12,43.850087,-102.4645472,TRUE,FALSE,FALSE,"S246641480"
"176","larbun","Lark Bunting","Calamospiza melanocorys","L46590624","Theodore Roosevelt Expy, Amidon US-ND (46.6016,-103.1954)","2025-06-01 11:54",1,46.601565,-103.195426,TRUE,FALSE,TRUE,"S245584589"
"177","larbun","Lark Bunting","Calamospiza melanocorys","L46589502","CR51 Bridge over Laramie River","2025-06-01 11:42",2,41.467724,-105.726012,TRUE,FALSE,TRUE,"S245579815"
"178","larbun","Lark Bunting","Calamospiza melanocorys","L46585584","80652, Roggen US-CO 40.17079, -104.28399","2025-06-01 11:14",12,40.17079,-104.283991,TRUE,FALSE,TRUE,"S245563590"
"179","larbun","Lark Bunting","Calamospiza melanocorys","L18512458","17825 Hanover Rd, Fountain US-CO 38.57815, -104.63451","2025-06-01 11:13",1,38.578155,-104.634505,TRUE,FALSE,TRUE,"S245567764"
"180","larbun","Lark Bunting","Calamospiza melanocorys","L285737","Chico Basin Ranch (Pueblo Co) (mandatory registration required at www.aikenaudubon.com)","2025-06-01 11:12",4,38.48682,-104.43801,TRUE,FALSE,FALSE,"S245666529"
"181","larbun","Lark Bunting","Calamospiza melanocorys","L854348","Bentonite Rd.","2025-06-01 10:53",4,48.1843787,-106.8158034,TRUE,FALSE,FALSE,"S245606680"
"182","larbun","Lark Bunting","Calamospiza melanocorys","L46582355","60073–60819 CR-42, Strasburg US-CO 39.59392, -104.28301","2025-06-01 10:36",9,39.593923,-104.283012,TRUE,FALSE,TRUE,"S245550201"
"183","larbun","Lark Bunting","Calamospiza melanocorys","L46618844","41864–41998 County Road 105, Briggsdale US-CO","2025-06-01 10:34",10,40.60985,-104.068943,TRUE,FALSE,TRUE,"S245706666"
"184","larbun","Lark Bunting","Calamospiza melanocorys","L46580046","Bentonite Rd, Glasgow US-MT 48.19855, -106.78469","2025-06-01 10:24",1,48.19855,-106.784687,TRUE,FALSE,TRUE,"S245540304"
"185","larbun","Lark Bunting","Calamospiza melanocorys","L285734","Chico Basin Ranch--Rose Pond area (Pueblo Co) (mandatory registration required at www.aikenaudubon.com)","2025-06-01 10:12",2,38.4969,-104.43792,TRUE,FALSE,FALSE,"S245560348"
"186","larbun","Lark Bunting","Calamospiza melanocorys","L131333","Pawnee NG--Crow Valley CG","2025-06-01 10:06",1,40.6438845,-104.3404627,TRUE,FALSE,FALSE,"S245556993"
"187","larbun","Lark Bunting","Calamospiza melanocorys","L4988360","Wind Cave NP--Approach from Wildlife Loop","2025-06-01 09:59",1,43.6429855,-103.4582734,TRUE,FALSE,FALSE,"S245631741"
"188","larbun","Lark Bunting","Calamospiza melanocorys","L46578254","County Road 390, Grover US-CO 40.75180, -104.13344","2025-06-01 09:56",1,40.751799,-104.133436,TRUE,FALSE,TRUE,"S245532993"
"189","larbun","Lark Bunting","Calamospiza melanocorys","L46574711","714–1098 MT-200S, Glendive US-MT 47.14005, -104.93663","2025-06-01 09:46",2,47.140046,-104.936626,TRUE,FALSE,TRUE,"S245516999"
"190","larbun","Lark Bunting","Calamospiza melanocorys","L46574528","2318–2698 S County Road 173, Byers US-CO 39.67275, -104.24736","2025-06-01 09:37",2,39.672746,-104.247359,TRUE,FALSE,TRUE,"S245516233"
"191","larbun","Lark Bunting","Calamospiza melanocorys","L3185506","Bee Lake Reservoir #5","2025-06-01 09:36",1,40.6969975,-105.0387383,TRUE,FALSE,FALSE,"S245511864"
"192","larbun","Lark Bunting","Calamospiza melanocorys","L26714477","East 88th Avenue, Commerce City, Colorado, US (39.856, -104.853)","2025-06-01 09:09",8,39.8562161,-104.8527156,TRUE,FALSE,TRUE,"S245513252"
"193","larbun","Lark Bunting","Calamospiza melanocorys","L948587","Hanover Road","2025-06-01 09:01",10,38.57793,-104.5293,TRUE,FALSE,FALSE,"S245616621"
"194","larbun","Lark Bunting","Calamospiza melanocorys","L268752","Lake Pueblo SP--Valco Ponds","2025-06-01 08:54",1,38.2599014,-104.6997499,TRUE,FALSE,FALSE,"S245534100"
"195","larbun","Lark Bunting","Calamospiza melanocorys","L5069936","Higbee Valley Road (Otero CR 804)","2025-06-01 08:46",2,37.7606101,-103.4667331,TRUE,FALSE,FALSE,"S246405721"
"196","larbun","Lark Bunting","Calamospiza melanocorys","L46618582","County Road 103, Briggsdale US-CO 40.64401, -104.08714","2025-06-01 08:39",16,40.644015,-104.087137,TRUE,FALSE,TRUE,"S245705374"
"197","larbun","Lark Bunting","Calamospiza melanocorys","L339981","Chico Basin Ranch--wooded areas (El Paso Co) (mandatory registration required at www.aikenaudubon.com)","2025-06-01 08:32",2,38.5411028,-104.4675811,TRUE,FALSE,FALSE,"S245558686"
"198","larbun","Lark Bunting","Calamospiza melanocorys","L1435090","Medicine Rocks SP","2025-06-01 08:27",NA,46.0423659,-104.469394,TRUE,FALSE,FALSE,"S245573603"
"199","larbun","Lark Bunting","Calamospiza melanocorys","L3762782","S Van Tassel Rd (town to Niobrara CR 6)","2025-06-01 08:14",18,42.6401973,-104.0972898,TRUE,FALSE,FALSE,"S245535616"
"200","larbun","Lark Bunting","Calamospiza melanocorys","L46565056","Lone Tree Rd, Ekalaka US-MT 45.63936, -104.38071","2025-06-01 08:05",3,45.63936,-104.380713,TRUE,FALSE,TRUE,"S245472698"
"201","larbun","Lark Bunting","Calamospiza melanocorys","L46569206","61026–61192 E County Road 30, Byers US-CO 39.63671, -104.25875","2025-06-01 08:01",3,39.63671,-104.258751,TRUE,FALSE,TRUE,"S245492705"
"202","larbun","Lark Bunting","Calamospiza melanocorys","L46598206","Hanover Rd East of S Peyton Hwy, Fountain","2025-06-01 07:59",3,38.578477,-104.457723,TRUE,FALSE,TRUE,"S245616420"
"203","larbun","Lark Bunting","Calamospiza melanocorys","L4625775","US-Colorado-Briggsdale - 40.683x-104.354 - May 21, 2016 1:38 PM","2025-06-01 07:46",NA,40.6829457,-104.354088,TRUE,FALSE,TRUE,"S245524205"
"204","larbun","Lark Bunting","Calamospiza melanocorys","L46561292","57036–57836 E County Road 30, Strasburg US-CO 39.63718, -104.32022","2025-06-01 07:45",4,39.637178,-104.320224,TRUE,FALSE,TRUE,"S245453897"
"205","larbun","Lark Bunting","Calamospiza melanocorys","L46609842","74953–74999 N-61, Madrid US-NE 40.70040, -101.62834","2025-06-01 07:24",1,40.700401,-101.628338,TRUE,FALSE,TRUE,"S245664147"
"206","larbun","Lark Bunting","Calamospiza melanocorys","L46609812","74479–74555 333 Ave, Imperial US-NE 40.62212, -101.62883","2025-06-01 07:18",1,40.622121,-101.628825,TRUE,FALSE,TRUE,"S245664031"
"207","larbun","Lark Bunting","Calamospiza melanocorys","L46597915","Hanover Rd east of Degroot rd, Fountain","2025-06-01 07:02",2,38.578035,-104.493565,TRUE,FALSE,TRUE,"S245615215"
"208","larbun","Lark Bunting","Calamospiza melanocorys","L5960463","Little Missouri NG--57th St. Prairie","2025-06-01 06:55",10,46.5838247,-103.2903257,TRUE,FALSE,FALSE,"S245445054"
"209","larbun","Lark Bunting","Calamospiza melanocorys","L46609921","115–167 N-61, Ogallala US-NE 41.00568, -101.72832","2025-06-01 06:50",1,41.005683,-101.728319,TRUE,FALSE,TRUE,"S245664465"
"210","larbun","Lark Bunting","Calamospiza melanocorys","L9887884","Chico Basin Ranch (Pueblo Co)","2025-06-01 06:49",4,38.514429,-104.436518,TRUE,FALSE,TRUE,"S245700798"
"211","larbun","Lark Bunting","Calamospiza melanocorys","L46651450","344–492 Gee Rd, Rapelje US-MT 45.88533, -109.19260","2025-06-01 06:44",2,45.885329,-109.1926,TRUE,FALSE,TRUE,"S245873490"
"212","larbun","Lark Bunting","Calamospiza melanocorys","L46552046","47th St SW, Belfield US-ND 46.73124, -103.23754","2025-06-01 06:08",8,46.731236,-103.237536,TRUE,FALSE,TRUE,"S245405322"
"213","larbun","Lark Bunting","Calamospiza melanocorys","L31047215","HHR, WY private road","2025-06-01 06:05",7,44.1331594,-106.576335,TRUE,FALSE,TRUE,"S245546729"
"214","larbun","Lark Bunting","Calamospiza melanocorys","L46667261","Las Animas CR 177.9 Thru Cholla Patch","2025-06-01 05:57",16,37.5562111,-103.5107638,TRUE,FALSE,TRUE,"S245956489"
"215","larbun","Lark Bunting","Calamospiza melanocorys","L129077","San Bernardino NWR","2025-06-01 05:54",1,31.3558004,-109.261533,TRUE,TRUE,FALSE,"S245610225"
"216","larbun","Lark Bunting","Calamospiza melanocorys","L46547177","6606 Road 179, Oshkosh, Nebraska, US (41.471, -102.347)","2025-06-01 05:46",1,41.471166,-102.3474664,TRUE,FALSE,TRUE,"S245378422"
"217","larbun","Lark Bunting","Calamospiza melanocorys","L46521952","Unnamed Road, Gering, Nebraska, US (41.715, -103.571)","2025-05-31 20:15",2,41.7150143,-103.5705343,TRUE,FALSE,TRUE,"S245261934"
"218","larbun","Lark Bunting","Calamospiza melanocorys","L1305656","Cumbres Pass & Continental Divide Trail","2025-05-31 20:15",2,37.0180657,-106.4506853,TRUE,FALSE,FALSE,"S245287152"
"219","larbun","Lark Bunting","Calamospiza melanocorys","L46523777","Little Beaver Rd","2025-05-31 19:41",15,48.042729,-106.908163,TRUE,FALSE,TRUE,"S245269853"
"220","larbun","Lark Bunting","Calamospiza melanocorys","L2175957","Crom Lake","2025-05-31 19:32",1,40.6337241,-104.7730494,TRUE,FALSE,FALSE,"S245269228"
"221","larbun","Lark Bunting","Calamospiza melanocorys","L46523724","Supposed Thrasher Spot","2025-05-31 19:14",15,48.028391,-107.001016,TRUE,FALSE,TRUE,"S245269644"
"222","larbun","Lark Bunting","Calamospiza melanocorys","L43804315","Pond","2025-05-31 18:52",1,41.524636,-99.128687,TRUE,FALSE,TRUE,"S245275432"
"223","larbun","Lark Bunting","Calamospiza melanocorys","L15364899","Woodruff area -- Deseret Rd betw town & Deseret Ranch","2025-05-31 18:50",1,41.5031473,-111.1667875,TRUE,TRUE,TRUE,"S245278557"
"224","larbun","Lark Bunting","Calamospiza melanocorys","L1384839","Woodruff area","2025-05-31 18:50",1,41.5168882,-111.15761,TRUE,TRUE,TRUE,"S245793007"
"225","larbun","Lark Bunting","Calamospiza melanocorys","L46523687","Arambide Rd","2025-05-31 18:45",1,48.09914,-107.047162,TRUE,FALSE,TRUE,"S245269510"
"226","larbun","Lark Bunting","Calamospiza melanocorys","L46517776","Bog (RLL) -BG","2025-05-31 18:40",NA,38.757915,-103.926974,TRUE,FALSE,TRUE,"S245242272"
"227","larbun","Lark Bunting","Calamospiza melanocorys","L46518239","56th st (Slope co.)","2025-05-31 18:30",2,46.598418,-103.198127,TRUE,FALSE,TRUE,"S245244405"
"228","larbun","Lark Bunting","Calamospiza melanocorys","L46623036","Pawnee NG - Weld CR 49 near CR 114","2025-05-31 18:26",10,40.818763,-104.600873,TRUE,FALSE,TRUE,"S245728158"
"229","larbun","Lark Bunting","Calamospiza melanocorys","L46516713","109–115 WY-133, Kinnear US-WY 43.15880, -108.69498","2025-05-31 18:24",3,43.1588,-108.694979,TRUE,FALSE,TRUE,"S245237216"
"230","larbun","Lark Bunting","Calamospiza melanocorys","L9645812","Pawnee NG Bird Tour—CR-57","2025-05-31 18:23",40,40.7362872,-104.5241871,TRUE,FALSE,FALSE,"S245944826"
"231","larbun","Lark Bunting","Calamospiza melanocorys","L46623323","Pawnee NG - Weld CR 55 near CR 122 Playa","2025-05-31 17:51",3,40.863694,-104.547151,TRUE,FALSE,TRUE,"S245729647"
"232","larbun","Lark Bunting","Calamospiza melanocorys","L46515736","132nd","2025-05-31 17:49",2,46.739519,-103.231271,TRUE,FALSE,TRUE,"S245232692"
"233","larbun","Lark Bunting","Calamospiza melanocorys","L46513834","South Fly Creek Road, Hardin US-MT (45.7649,-107.9485)","2025-05-31 17:34",7,45.764882,-107.948482,TRUE,FALSE,TRUE,"S245223810"
"234","larbun","Lark Bunting","Calamospiza melanocorys","L46513298","South Fly Creek Road, Hardin US-MT (45.7765,-107.9564)","2025-05-31 17:30",10,45.776481,-107.956436,TRUE,FALSE,TRUE,"S245221301"
"235","larbun","Lark Bunting","Calamospiza melanocorys","L46512626","843–879 N Fly Creek Rd, Pompeys Pillar US-MT (45.8393,-107.9646)","2025-05-31 17:21",15,45.839293,-107.96457,TRUE,FALSE,TRUE,"S245218195"
"236","larbun","Lark Bunting","Calamospiza melanocorys","L46624218","Pawnee NG - Weld CR 120","2025-05-31 17:18",12,40.856951,-104.46907,TRUE,FALSE,TRUE,"S245734772"
"237","larbun","Lark Bunting","Calamospiza melanocorys","L11548659","East Woodis Road, Byers, Colorado, US (39.609, -104.096)","2025-05-31 16:22",1,39.6091799,-104.095531,TRUE,FALSE,TRUE,"S245226254"
"238","larbun","Lark Bunting","Calamospiza melanocorys","L1515752","Moore Reservoir","2025-05-31 16:05",10,44.4528987,-106.6907215,TRUE,FALSE,FALSE,"S245307345"
"239","larbun","Lark Bunting","Calamospiza melanocorys","L46583173","Trigg Rd at 35.75631, -103.94667","2025-05-31 16:04",7,35.756308,-103.946667,TRUE,FALSE,TRUE,"S245553646"
"240","larbun","Lark Bunting","Calamospiza melanocorys","L22695504","US-30 (Keith)","2025-05-31 15:50",4,41.090998,-102.029224,TRUE,FALSE,TRUE,"S245218604"
"241","larbun","Lark Bunting","Calamospiza melanocorys","L46512282","Road 207","2025-05-31 15:37",25,41.171378,-102.074451,TRUE,FALSE,TRUE,"S245216722"
"242","larbun","Lark Bunting","Calamospiza melanocorys","L46507453","47th st from 85 (Stark co.)","2025-05-31 15:36",6,46.731284,-103.19186,TRUE,FALSE,TRUE,"S245195351"
"243","larbun","Lark Bunting","Calamospiza melanocorys","L46504532","K-96, Tribune US-KS 38.46564, -101.96834","2025-05-31 15:18",1,38.46564,-101.968341,TRUE,FALSE,TRUE,"S245183161"
"244","larbun","Lark Bunting","Calamospiza melanocorys","L375955","Dewald Slough","2025-05-31 15:15",1,46.8044071,-99.7814369,TRUE,FALSE,FALSE,"S245192711"
"245","larbun","Lark Bunting","Calamospiza melanocorys","L46501632","Old Highway 10, Sanders US-MT (46.2905,-107.0386)","2025-05-31 14:40",1,46.290576,-107.038691,TRUE,FALSE,TRUE,"S245171497"
"246","larbun","Lark Bunting","Calamospiza melanocorys","L46503638","15921 Pipeline Road, Sentinel Butte, North Dakota, US (46.731, -103.802)","2025-05-31 13:56",1,46.7309611,-103.8017946,TRUE,FALSE,TRUE,"S245179663"
"247","larbun","Lark Bunting","Calamospiza melanocorys","L159053","Cope (town)","2025-05-31 13:19",1,39.6654584,-102.8508722,TRUE,FALSE,FALSE,"S246495185"
"248","larbun","Lark Bunting","Calamospiza melanocorys","L46776636","6 at CR D","2025-05-31 13:13",1,39.6555666,-102.7450097,TRUE,FALSE,TRUE,"S246495044"
"249","larbun","Lark Bunting","Calamospiza melanocorys","L46518908","CR22  to Bead Mountain","2025-05-31 13:08",2,41.804,-103.6550467,TRUE,FALSE,TRUE,"S245247601"
"250","larbun","Lark Bunting","Calamospiza melanocorys","L46489842","14108–14850 State Road 94, Rush US-CO 38.84769, -103.79913","2025-05-31 12:37",1,38.847693,-103.799132,TRUE,FALSE,TRUE,"S245122802"
"251","larbun","Lark Bunting","Calamospiza melanocorys","L46526070","County Road 103, Grover US-CO (40.6813,-104.0862)","2025-05-31 12:18",20,40.681346,-104.086181,TRUE,FALSE,TRUE,"S245280775"
"252","larbun","Lark Bunting","Calamospiza melanocorys","L46489611","3860 Youngs Creek Rd, Sheridan US-WY 44.99327, -106.96646","2025-05-31 12:14",NA,44.993266,-106.966459,TRUE,FALSE,TRUE,"S245121855"
"253","larbun","Lark Bunting","Calamospiza melanocorys","L46496213","Def Not Someone’s Driveway","2025-05-31 12:04",1,46.003119,-103.413594,TRUE,FALSE,TRUE,"S245149257"
"254","larbun","Lark Bunting","Calamospiza melanocorys","L6196151","Pawnee NG--Weld CR 47 near CR 116","2025-05-31 12:00",15,40.8208245,-104.6189404,TRUE,FALSE,FALSE,"S245160401"
"255","larbun","Lark Bunting","Calamospiza melanocorys","L46501160","SH-59, Haxtun US-CO 40.43884, -102.62642","2025-05-31 11:57",9,40.438842,-102.62642,TRUE,FALSE,TRUE,"S245169735"
"256","larbun","Lark Bunting","Calamospiza melanocorys","L46485154","Havana Street, Denver, Colorado, US (39.832, -104.866)","2025-05-31 11:54",1,39.8315721,-104.8657494,TRUE,FALSE,TRUE,"S245103512"
"257","larbun","Lark Bunting","Calamospiza melanocorys","L2479154","Galpin Road, Ft. Peck","2025-05-31 11:49",1,48.0585206,-106.4793205,TRUE,FALSE,TRUE,"S245104914"
"258","larbun","Lark Bunting","Calamospiza melanocorys","L46497202","13522–13608 Milne Rd, Colorado Springs US-CO 38.63582, -104.47888","2025-05-31 11:36",4,38.635818,-104.478877,TRUE,FALSE,TRUE,"S245153385"
"259","larbun","Lark Bunting","Calamospiza melanocorys","L46479805","County Road C, Pritchett US-CO 37.00020, -102.98973","2025-05-31 11:01",1,37.000203,-102.989726,TRUE,FALSE,TRUE,"S245081431"
"260","larbun","Lark Bunting","Calamospiza melanocorys","L46479933","County Road C, Pritchett US-CO 37.00020, -102.98976","2025-05-31 10:59",1,37.000204,-102.989759,TRUE,FALSE,TRUE,"S245081961"
"261","larbun","Lark Bunting","Calamospiza melanocorys","L46577251","Cattle Guard on Mills Canyon Rd","2025-05-31 10:53",4,36.073173,-104.291177,TRUE,FALSE,TRUE,"S245528504"
"262","larbun","Lark Bunting","Calamospiza melanocorys","L46497069","17040 Hanover Rd, Colorado Springs US-CO 38.57787, -104.51258","2025-05-31 10:46",2,38.577872,-104.51258,TRUE,FALSE,TRUE,"S245152862"
"263","larbun","Lark Bunting","Calamospiza melanocorys","L687936","Chico Basin Ranch ,Pueblo Cty","2025-05-31 10:12",8,38.5079452,-104.4404125,TRUE,FALSE,TRUE,"S245184536"
"264","larbun","Lark Bunting","Calamospiza melanocorys","L46496750","Hanover Rd, Fountain US-CO 38.60081, -104.65979","2025-05-31 09:58",1,38.60081,-104.659795,TRUE,FALSE,TRUE,"S245151503"
"265","larbun","Lark Bunting","Calamospiza melanocorys","L20827665","Kiowa NG--Mills Canyon Rd.","2025-05-31 09:55",12,36.080146,-104.277051,TRUE,FALSE,FALSE,"S245527738"
"266","larbun","Lark Bunting","Calamospiza melanocorys","L18851674","Geographical Center of the United States","2025-05-31 09:49",3,44.967695,-103.77277,TRUE,FALSE,FALSE,"S245053102"
"267","larbun","Lark Bunting","Calamospiza melanocorys","L46516194","Road 82, Oshkosh, Nebraska, US (41.583, -102.341)","2025-05-31 09:48",28,41.5834684,-102.3412955,TRUE,FALSE,TRUE,"S245234746"
"268","larbun","Lark Bunting","Calamospiza melanocorys","L46471167","Apelt Ranch Road, Boone, Colorado, US (38.521, -104.437)","2025-05-31 09:47",1,38.5206002,-104.4366763,TRUE,FALSE,TRUE,"S245045325"
"269","larbun","Lark Bunting","Calamospiza melanocorys","L46469657","NM-39, Roy US-NM 36.02045, -104.22506","2025-05-31 09:46",1,36.020447,-104.225061,TRUE,FALSE,TRUE,"S245039315"
"270","larbun","Lark Bunting","Calamospiza melanocorys","L46469360","Apelt Ranch Road, Boone, Colorado, US (38.526, -104.443)","2025-05-31 09:43",1,38.5261166,-104.443093,TRUE,FALSE,TRUE,"S245038134"
"271","larbun","Lark Bunting","Calamospiza melanocorys","L46477173","Minneconjou Road, Fort Pierre, South Dakota, US (44.661, -100.833)","2025-05-31 09:38",1,44.6614116,-100.8333205,TRUE,FALSE,TRUE,"S245070397"
"272","larbun","Lark Bunting","Calamospiza melanocorys","L46468033","22500 South Peyton Highway, Colorado Springs, Colorado, US (38.531, -104.449)","2025-05-31 09:33",1,38.5313858,-104.449375,TRUE,FALSE,TRUE,"S245032386"
"273","larbun","Lark Bunting","Calamospiza melanocorys","L4755991","2 Mile Hill Rd","2025-05-31 09:32",8,44.0079614,-107.5035381,TRUE,FALSE,TRUE,"S245101632"
"274","larbun","Lark Bunting","Calamospiza melanocorys","L31699260","Road 179, Oshkosh, Nebraska, US (41.517, -102.347)","2025-05-31 09:30",7,41.5169141,-102.3474938,TRUE,FALSE,TRUE,"S245234165"
"275","larbun","Lark Bunting","Calamospiza melanocorys","L46467162","41600–41608 County Road 33, Springfield US-CO 37.59896, -102.47414","2025-05-31 09:25",2,37.598959,-102.474142,TRUE,FALSE,TRUE,"S245028577"
"276","larbun","Lark Bunting","Calamospiza melanocorys","L4755911","Old Hwy 16- Castle Gardens turnoff","2025-05-31 09:18",1,44.0255528,-107.4956417,TRUE,FALSE,TRUE,"S245101940"
"277","larbun","Lark Bunting","Calamospiza melanocorys","L46513854","Pawnee Buttes Trail","2025-05-31 09:10",6,40.81858,-103.990303,TRUE,FALSE,TRUE,"S245223901"
"278","larbun","Lark Bunting","Calamospiza melanocorys","L1445404","TNC--Smoky Valley Ranch","2025-05-31 09:03",6,38.8895092,-101.0193556,TRUE,FALSE,FALSE,"S245086468"
"279","larbun","Lark Bunting","Calamospiza melanocorys","L454527","Wagon Mound Waterfowl Area","2025-05-31 09:02",1,36.0307765,-104.7024536,TRUE,FALSE,FALSE,"S245224072"
"280","larbun","Lark Bunting","Calamospiza melanocorys","L4665693","S Meridian Rd--Hanover Rd to Pueblo Co line","2025-05-31 08:40",24,38.5664887,-104.6084905,TRUE,FALSE,FALSE,"S245012747"
"281","larbun","Lark Bunting","Calamospiza melanocorys","L46460688","County Road 40, Lyman, Nebraska, US (41.669, -103.985)","2025-05-31 08:27",25,41.668905,-103.9852943,TRUE,FALSE,TRUE,"S244999639"
"282","larbun","Lark Bunting","Calamospiza melanocorys","L9108083","Weld - CR 111 (CR 128 to CR 124)","2025-05-31 08:24",NA,40.890473,-104.009913,TRUE,FALSE,TRUE,"S245223576"
"283","larbun","Lark Bunting","Calamospiza melanocorys","L836926","Yellow House Draw downstream of Canyon Lake 6","2025-05-31 08:15",2,33.5583656,-101.7945528,TRUE,FALSE,FALSE,"S245107369"
"284","larbun","Lark Bunting","Calamospiza melanocorys","L46458275","Auto selected 38.57770, -104.57715","2025-05-31 08:14",5,38.5777,-104.577151,TRUE,FALSE,TRUE,"S244988875"
"285","larbun","Lark Bunting","Calamospiza melanocorys","L46458204","61026–61192 E County Road 30, Byers US-CO 39.63644, -104.25753","2025-05-31 08:13",5,39.636444,-104.257531,TRUE,FALSE,TRUE,"S244988515"
"286","larbun","Lark Bunting","Calamospiza melanocorys","L23796378","Weld - CR 134 east of CR 111","2025-05-31 08:01",17,40.959593,-104.007379,TRUE,FALSE,TRUE,"S245223427"
"287","larbun","Lark Bunting","Calamospiza melanocorys","L46518678","Lake 17.1","2025-05-31 08:00",1,48.07228,-108.80346,TRUE,FALSE,TRUE,"S245246628"
"288","larbun","Lark Bunting","Calamospiza melanocorys","L46458012","61026–61192 E County Road 30, Byers US-CO 39.63651, -104.25775","2025-05-31 07:42",6,39.636514,-104.257748,TRUE,FALSE,TRUE,"S244987663"
"289","larbun","Lark Bunting","Calamospiza melanocorys","L46453715","12420 Prairie Sun Point, Colorado Springs, Colorado, US (38.809, -104.597)","2025-05-31 07:38",NA,38.8094054,-104.5971882,TRUE,FALSE,TRUE,"S244966509"
"290","larbun","Lark Bunting","Calamospiza melanocorys","L9108084","Weld - CR 111 (CR 132 to CR 128)","2025-05-31 07:36",20,40.930815,-104.009546,TRUE,FALSE,TRUE,"S245223192"
"291","larbun","Lark Bunting","Calamospiza melanocorys","L11208984","Weld - CR 122 (CR 95 to CR 105)","2025-05-31 07:19",10,40.870628,-104.106485,TRUE,FALSE,TRUE,"S245223120"
"292","larbun","Lark Bunting","Calamospiza melanocorys","L46480783","TNC Smokey Valley Ranch restricted area","2025-05-31 07:09",10,38.893552,-100.98218,TRUE,FALSE,TRUE,"S245085540"
"293","larbun","Lark Bunting","Calamospiza melanocorys","L46467916","31637 County Road D, Holly, Colorado, US (37.688, -102.189)","2025-05-31 07:00",21,37.6877236,-102.189461,TRUE,FALSE,TRUE,"S245031888"
"294","larbun","Lark Bunting","Calamospiza melanocorys","L46463997","Herrick Ln, Laramie US-WY 41.35090, -105.73936","2025-05-31 06:56",1,41.350897,-105.739361,TRUE,FALSE,TRUE,"S245015060"
"295","larbun","Lark Bunting","Calamospiza melanocorys","L46448858","Hanover Road, Fountain, Colorado, US (38.578, -104.581)","2025-05-31 06:53",5,38.5778573,-104.5805022,TRUE,FALSE,TRUE,"S244942085"
"296","larbun","Lark Bunting","Calamospiza melanocorys","L46458031","57th St SW, Amidon US-ND 46.58396, -103.19753","2025-05-31 06:52",14,46.583956,-103.19753,TRUE,FALSE,TRUE,"S244987759"
"297","larbun","Lark Bunting","Calamospiza melanocorys","L46513673","Weld - CR 100","2025-05-31 06:48",15,40.711613,-104.316098,TRUE,FALSE,TRUE,"S245223018"
"298","larbun","Lark Bunting","Calamospiza melanocorys","L32171410","Chestnut longspur spot 2024","2025-05-31 06:34",18,38.998021,-104.227884,TRUE,FALSE,TRUE,"S245177208"
"299","larbun","Lark Bunting","Calamospiza melanocorys","L46467801","26531 County Road D, Granada, Colorado, US (37.688, -102.282)","2025-05-31 05:03",3,37.6879026,-102.2824777,TRUE,FALSE,TRUE,"S245031369"
"300","larbun","Lark Bunting","Calamospiza melanocorys","L46455028","BBS Route 412 - Prospect Valley 2","2025-05-31 05:00",84,39.9850087,-104.245583,TRUE,FALSE,TRUE,"S244973104"
"301","larbun","Lark Bunting","Calamospiza melanocorys","L46474675","WY-BCR17-TB7","2025-05-31 04:50",24,44.7327624,-105.2868168,TRUE,FALSE,TRUE,"S245059657"
"302","larbun","Lark Bunting","Calamospiza melanocorys","L19062609","Dry Creek Petrified Tree Environmental Education Area","2025-05-30 21:24",6,44.3502225,-106.5289209,TRUE,FALSE,FALSE,"S244826530"
"303","larbun","Lark Bunting","Calamospiza melanocorys","L18552700","Tipperary Rd - Paved Section","2025-05-30 20:56",9,44.371663,-106.4992607,TRUE,FALSE,TRUE,"S244826309"
"304","larbun","Lark Bunting","Calamospiza melanocorys","L46416564","Nebraska 71, Hemingford, Nebraska, US (42.312, -103.458)","2025-05-30 20:16",1,42.312,-103.4576199,TRUE,FALSE,TRUE,"S244789914"
"305","larbun","Lark Bunting","Calamospiza melanocorys","L18992227","Panorama Point","2025-05-30 17:30",7,41.0076544,-104.03134,TRUE,FALSE,FALSE,"S244754508"
"306","larbun","Lark Bunting","Calamospiza melanocorys","L38167547","93rd St NW, Alamo US-ND 48.76403, -103.54992","2025-05-30 17:18",2,48.764028,-103.549917,TRUE,FALSE,TRUE,"S244773818"
"307","larbun","Lark Bunting","Calamospiza melanocorys","L890170","Pawnee NG--Central Plains Experimental Range","2025-05-30 17:09",3,40.8131596,-104.7845078,TRUE,FALSE,FALSE,"S244788756"
"308","larbun","Lark Bunting","Calamospiza melanocorys","L46418339","55359 County Road 134, Grover, Colorado, US (40.96, -103.991)","2025-05-30 17:08",12,40.9599026,-103.9914567,TRUE,FALSE,TRUE,"S244797800"
"309","larbun","Lark Bunting","Calamospiza melanocorys","L46419601","1110–1276 CR-47, Ten Sleep US-WY 44.15519, -107.62051","2025-05-30 16:48",4,44.15519,-107.620514,TRUE,FALSE,TRUE,"S244804306"
"310","larbun","Lark Bunting","Calamospiza melanocorys","L46405552","Highway 18, Oelrichs, South Dakota, US (43.186, -103.092)","2025-05-30 16:43",1,43.1859888,-103.0919837,TRUE,FALSE,TRUE,"S244737493"
"311","larbun","Lark Bunting","Calamospiza melanocorys","L2224688","Horse Creek at Indian Hill Road","2025-05-30 15:15",1,41.4723,-104.7529006,TRUE,FALSE,TRUE,"S244766179"
"312","larbun","Lark Bunting","Calamospiza melanocorys","L46410846","CR 232 from ""Y"" to Indian Hill Rd","2025-05-30 15:01",32,41.4681528,-104.8147327,TRUE,FALSE,TRUE,"S244764262"
"313","larbun","Lark Bunting","Calamospiza melanocorys","L9586278","CR 224 west of I-25","2025-05-30 14:38",5,41.3496385,-104.8844204,TRUE,FALSE,TRUE,"S244761477"
"314","larbun","Lark Bunting","Calamospiza melanocorys","L9586281","CR 120 north section","2025-05-30 14:35",1,41.346795,-104.9020627,TRUE,FALSE,TRUE,"S244760691"
"315","larbun","Lark Bunting","Calamospiza melanocorys","L7495679","Telephone Road, north of Ridley Road","2025-05-30 14:10",27,41.3170341,-104.9048424,TRUE,FALSE,TRUE,"S244759204"
"316","larbun","Lark Bunting","Calamospiza melanocorys","L41107881","E 48th Ave, Watkins (39.7833,-104.6015)","2025-05-30 14:05",12,39.783273,-104.601495,TRUE,FALSE,TRUE,"S244791562"
"317","larbun","Lark Bunting","Calamospiza melanocorys","L46395816","18830 Lincoln Highway, Chappell, Nebraska, US (41.091, -102.254)","2025-05-30 13:57",5,41.0913095,-102.2536353,TRUE,FALSE,TRUE,"S244690724"
"318","larbun","Lark Bunting","Calamospiza melanocorys","L46394774","17615 Interstate 80 Alternate, Chappell, Nebraska, US (41.091, -102.369)","2025-05-30 13:52",3,41.0913591,-102.3690336,TRUE,FALSE,TRUE,"S244685715"
"319","larbun","Lark Bunting","Calamospiza melanocorys","L46395579","Lakeside Rd, Homestead US-MT (48.4326,-104.3677)","2025-05-30 13:49",5,48.432614,-104.367685,TRUE,FALSE,TRUE,"S244689589"
"320","larbun","Lark Bunting","Calamospiza melanocorys","L46397983","43249–43261 SH-109, Kim US-CO 37.61719, -103.33528","2025-05-30 13:46",4,37.617187,-103.335276,TRUE,FALSE,TRUE,"S244701398"
"321","larbun","Lark Bunting","Calamospiza melanocorys","L46393950","MT-323, Ekalaka US-MT 45.68561, -104.36605","2025-05-30 13:39",1,45.68561,-104.36605,TRUE,FALSE,TRUE,"S244681739"
"322","larbun","Lark Bunting","Calamospiza melanocorys","L46412423","Currier Rd, Calhan US-CO 39.00166, -104.23910","2025-05-30 12:47",5,39.001657,-104.239096,TRUE,FALSE,TRUE,"S244771158"
"323","larbun","Lark Bunting","Calamospiza melanocorys","L46390741","13018 47th Street Southwest, Belfield, North Dakota, US (46.731, -103.193)","2025-05-30 12:29",2,46.731291,-103.1929653,TRUE,FALSE,TRUE,"S244666987"
"324","larbun","Lark Bunting","Calamospiza melanocorys","L46386088","301–327 US-26, Wheatland US-WY 42.23463, -104.95339","2025-05-30 12:15",2,42.234627,-104.953392,TRUE,FALSE,TRUE,"S244654900"
"325","larbun","Lark Bunting","Calamospiza melanocorys","L2852835","Lake Cameahwait, WY","2025-05-30 12:03",2,43.2998701,-108.2434416,TRUE,FALSE,TRUE,"S244675867"
"326","larbun","Lark Bunting","Calamospiza melanocorys","L11856461","SBCR Z","2025-05-30 11:17",3,41.69823,-103.95802,TRUE,FALSE,TRUE,"S244753113"
"327","larbun","Lark Bunting","Calamospiza melanocorys","L3603371","ELB - CR 118 3.8 (from I-70)","2025-05-30 10:55",13,39.2854862,-103.8622463,TRUE,FALSE,TRUE,"S244673748"
"328","larbun","Lark Bunting","Calamospiza melanocorys","L5928734","A few miles north east of Roy (47.3505,-108.8500)","2025-05-30 10:54",1,47.350535,-108.850031,TRUE,FALSE,TRUE,"S245868182"
"329","larbun","Lark Bunting","Calamospiza melanocorys","L3603369","ELB - CR 118 3.3 (from I-70)","2025-05-30 10:52",23,39.2859595,-103.8526064,TRUE,FALSE,TRUE,"S244673616"
"330","larbun","Lark Bunting","Calamospiza melanocorys","L8336819","Big Sandy Creek--CR 118 (west crossing; distance <0.25 mi)","2025-05-30 10:33",6,39.2849112,-103.8426912,TRUE,FALSE,FALSE,"S244673459"
"331","larbun","Lark Bunting","Calamospiza melanocorys","L24810838","Elbert - CR 118 at I-70","2025-05-30 10:28",2,39.290765,-103.795212,TRUE,FALSE,TRUE,"S244673314"
"332","larbun","Lark Bunting","Calamospiza melanocorys","L332514","Medicine Lake NWR","2025-05-30 10:22",6,48.4844088,-104.451592,TRUE,FALSE,FALSE,"S244719610"
"333","larbun","Lark Bunting","Calamospiza melanocorys","L46411678","1500 E Antelope Rd, Douglas US-WY 42.74867, -105.11495","2025-05-30 09:44",1,42.748674,-105.114951,TRUE,FALSE,TRUE,"S244767388"
"334","larbun","Lark Bunting","Calamospiza melanocorys","L24406944","home","2025-05-30 09:30",8,42.2927996,-103.27003,TRUE,FALSE,TRUE,"S245204939"
"335","larbun","Lark Bunting","Calamospiza melanocorys","L46368392","I-80 W, Chappell US-NE 41.04717, -102.32096","2025-05-30 09:10",3,41.047172,-102.320963,TRUE,FALSE,TRUE,"S244578077"
"336","larbun","Lark Bunting","Calamospiza melanocorys","L46330508","Hannah Montana 3","2025-05-30 09:06",1,48.998575,-105.782721,TRUE,FALSE,TRUE,"S244779344"
"337","larbun","Lark Bunting","Calamospiza melanocorys","L46744917","82718, Gillette US-WY 44.10871, -105.42697","2025-05-30 09:02",1,44.108706,-105.426969,TRUE,FALSE,TRUE,"S246340725"
"338","larbun","Lark Bunting","Calamospiza melanocorys","L46234524","Karval BBS Route 17320 Stop 50","2025-05-30 08:56",8,38.750827,-103.782312,TRUE,FALSE,TRUE,"S244673137"
"339","larbun","Lark Bunting","Calamospiza melanocorys","L46234480","Karval BBS Route 17320 Stop 49","2025-05-30 08:51",6,38.750732,-103.773742,TRUE,FALSE,TRUE,"S244673075"
"340","larbun","Lark Bunting","Calamospiza melanocorys","L46234446","Karval BBS Route 17320 Stop 48","2025-05-30 08:49",5,38.75082,-103.765773,TRUE,FALSE,TRUE,"S245455995"
"341","larbun","Lark Bunting","Calamospiza melanocorys","L46744756","82718, Gillette US-WY 44.10600, -105.39899","2025-05-30 08:47",1,44.105998,-105.398992,TRUE,FALSE,TRUE,"S246339930"
"342","larbun","Lark Bunting","Calamospiza melanocorys","L46234395","Karval BBS Route 17320 Stop 47","2025-05-30 08:45",5,38.750751,-103.755259,TRUE,FALSE,TRUE,"S244672989"
"343","larbun","Lark Bunting","Calamospiza melanocorys","L46744705","2366–2462 Bishop Rd, Gillette US-WY 44.10612, -105.38752","2025-05-30 08:41",3,44.106116,-105.387524,TRUE,FALSE,TRUE,"S246339751"
"344","larbun","Lark Bunting","Calamospiza melanocorys","L46234359","Karval BBS Route 17320 Stop 46","2025-05-30 08:40",7,38.750629,-103.746391,TRUE,FALSE,TRUE,"S244672913"
"345","larbun","Lark Bunting","Calamospiza melanocorys","L46744663","2357–2449 Bishop Rd, Gillette US-WY 44.10712, -105.37930","2025-05-30 08:36",1,44.107118,-105.379296,TRUE,FALSE,TRUE,"S246339599"
"346","larbun","Lark Bunting","Calamospiza melanocorys","L46234318","Karval BBS Route 17320 Stop 45","2025-05-30 08:34",3,38.750425,-103.736602,TRUE,FALSE,TRUE,"S244672822"
"347","larbun","Lark Bunting","Calamospiza melanocorys","L46234276","Karval BBS Route 17320 Stop 44","2025-05-30 08:29",9,38.750432,-103.727514,TRUE,FALSE,TRUE,"S244672734"
"348","larbun","Lark Bunting","Calamospiza melanocorys","L46234233","Karval BBS Route 17320 Stop 43","2025-05-30 08:25",3,38.750399,-103.718354,TRUE,FALSE,TRUE,"S244672630"
"349","larbun","Lark Bunting","Calamospiza melanocorys","L46234197","Karval BBS Route 17320 Stop 42","2025-05-30 08:19",2,38.750333,-103.708255,TRUE,FALSE,TRUE,"S244672485"
"350","larbun","Lark Bunting","Calamospiza melanocorys","L46234136","Karval BBS Route 17320 Stop 41","2025-05-30 08:13",3,38.750293,-103.69993,TRUE,FALSE,TRUE,"S244672385"
"351","larbun","Lark Bunting","Calamospiza melanocorys","L46234090","Karval BBS Route 17320 Stop 40","2025-05-30 08:10",4,38.750184,-103.692547,TRUE,FALSE,TRUE,"S244672244"
"352","larbun","Lark Bunting","Calamospiza melanocorys","L46234041","Karval BBS Route 17320 Stop 39","2025-05-30 08:05",5,38.750116,-103.681851,TRUE,FALSE,TRUE,"S244672187"
"353","larbun","Lark Bunting","Calamospiza melanocorys","L46234010","Karval BBS Route 17320 Stop 38","2025-05-30 08:00",3,38.75006,-103.673516,TRUE,FALSE,TRUE,"S244672073"
"354","larbun","Lark Bunting","Calamospiza melanocorys","L46744323","1820–2016 Bishop Rd, Gillette US-WY 44.09615, -105.30271","2025-05-30 07:58",25,44.096151,-105.302707,TRUE,FALSE,TRUE,"S246338038"
"355","larbun","Lark Bunting","Calamospiza melanocorys","L46233959","Karval BBS Route 17320 Stop 37","2025-05-30 07:57",2,38.74993,-103.663082,TRUE,FALSE,TRUE,"S244671983"
"356","larbun","Lark Bunting","Calamospiza melanocorys","L46233913","Karval BBS Route 17320 Stop 36","2025-05-30 07:52",4,38.74985,-103.653496,TRUE,FALSE,TRUE,"S244671909"
"357","larbun","Lark Bunting","Calamospiza melanocorys","L46233864","Karval BBS Route 17320 Stop 35","2025-05-30 07:47",4,38.749652,-103.644577,TRUE,FALSE,TRUE,"S244671816"
"358","larbun","Lark Bunting","Calamospiza melanocorys","L46233808","Karval BBS Route 17320 Stop 34","2025-05-30 07:43",3,38.749509,-103.636539,TRUE,FALSE,TRUE,"S244671721"
"359","larbun","Lark Bunting","Calamospiza melanocorys","L46233772","Karval BBS Route 17320 Stop 33","2025-05-30 07:38",5,38.749422,-103.626347,TRUE,FALSE,TRUE,"S244671620"
"360","larbun","Lark Bunting","Calamospiza melanocorys","L46233725","Karval BBS Route 17320 Stop 32","2025-05-30 07:33",3,38.74924,-103.617199,TRUE,FALSE,TRUE,"S244671512"
"361","larbun","Lark Bunting","Calamospiza melanocorys","L46233683","Karval BBS Route 17320 Stop 31","2025-05-30 07:29",5,38.749191,-103.607912,TRUE,FALSE,TRUE,"S244671374"
"362","larbun","Lark Bunting","Calamospiza melanocorys","L46233631","Karval BBS Route 17320 Stop 30","2025-05-30 07:25",1,38.748823,-103.599193,TRUE,FALSE,TRUE,"S244671237"
"363","larbun","Lark Bunting","Calamospiza melanocorys","L46233566","Karval BBS Route 17320 Stop 29","2025-05-30 07:17",6,38.748349,-103.590497,TRUE,FALSE,TRUE,"S244671119"
"364","larbun","Lark Bunting","Calamospiza melanocorys","L46743940","1500–1818 Bishop Rd, Rozet US-WY (44.0852,-105.2256)","2025-05-30 07:13",35,44.085206,-105.22563,TRUE,FALSE,TRUE,"S246336373"
"365","larbun","Lark Bunting","Calamospiza melanocorys","L46233527","Karval BBS Route 17320 Stop 28","2025-05-30 07:12",5,38.748656,-103.580983,TRUE,FALSE,TRUE,"S244670992"
"366","larbun","Lark Bunting","Calamospiza melanocorys","L14493832","Old Gap Road","2025-05-30 07:08",1,46.5625274,-109.8149009,TRUE,FALSE,FALSE,"S244593755"
"367","larbun","Lark Bunting","Calamospiza melanocorys","L913756","Soldiers Memorial Co. Park","2025-05-30 07:06",2,39.1896243,-101.7603493,TRUE,FALSE,FALSE,"S245261704"
"368","larbun","Lark Bunting","Calamospiza melanocorys","L46367588","County Road 103, Grover US-CO (40.6824,-104.0861)","2025-05-30 07:04",40,40.682354,-104.086076,TRUE,FALSE,TRUE,"S244574440"
"369","larbun","Lark Bunting","Calamospiza melanocorys","L46743654","1523–1829 Bishop Rd, Gillette US-WY (44.0861,-105.2066)","2025-05-30 07:03",1,44.086141,-105.206638,TRUE,FALSE,TRUE,"S246335085"
"370","larbun","Lark Bunting","Calamospiza melanocorys","L46357789","Small Lek You Can Hear From Rd","2025-05-30 07:02",6,40.2504233,-102.2454842,TRUE,FALSE,TRUE,"S244527714"
"371","larbun","Lark Bunting","Calamospiza melanocorys","L46233490","Karval BBS Route 17320 Stop 27","2025-05-30 07:00",5,38.748637,-103.571523,TRUE,FALSE,TRUE,"S244670871"
"372","larbun","Lark Bunting","Calamospiza melanocorys","L46233429","Karval BBS Route 17320 Stop 26","2025-05-30 06:56",8,38.749113,-103.562012,TRUE,FALSE,TRUE,"S244670778"
"373","larbun","Lark Bunting","Calamospiza melanocorys","L1063329","Badlands NP--Sage Creek Rim Rd.","2025-05-30 06:55",8,43.9051204,-102.3092473,TRUE,FALSE,FALSE,"S245224095"
"374","larbun","Lark Bunting","Calamospiza melanocorys","L46233377","Karval BBS Route 17320 Stop 25","2025-05-30 06:52",6,38.749275,-103.552831,TRUE,FALSE,TRUE,"S244670695"
"375","larbun","Lark Bunting","Calamospiza melanocorys","L46233303","Karval BBS Route 17320 Stop 24","2025-05-30 06:48",10,38.749261,-103.54267,TRUE,FALSE,TRUE,"S244670617"
"376","larbun","Lark Bunting","Calamospiza melanocorys","L41109779","Graham County General Use (Private GRPC location)","2025-05-30 06:46",6,39.373662,-99.842182,TRUE,FALSE,TRUE,"S244610521"
"377","larbun","Lark Bunting","Calamospiza melanocorys","L46233133","Karval BBS Route 17320 Stop 23","2025-05-30 06:44",8,38.749249,-103.535561,TRUE,FALSE,TRUE,"S244670417"
"378","larbun","Lark Bunting","Calamospiza melanocorys","L46377878","Weston Road, Gillette, Wyoming, US (44.636, -105.355)","2025-05-30 06:40",31,44.6358006,-105.3553456,TRUE,FALSE,TRUE,"S244620534"
"379","larbun","Lark Bunting","Calamospiza melanocorys","L46233093","Karval BBS Route 17320 Stop 22","2025-05-30 06:39",5,38.74895,-103.52293,TRUE,FALSE,TRUE,"S244670325"
"380","larbun","Lark Bunting","Calamospiza melanocorys","L46233042","Karval BBS Route 17320 Stop 21","2025-05-30 06:34",4,38.748784,-103.516591,TRUE,FALSE,TRUE,"S244670213"
"381","larbun","Lark Bunting","Calamospiza melanocorys","L46181062","Karval BBS route 17320 Stop 20","2025-05-30 06:30",8,38.74865,-103.507233,TRUE,FALSE,TRUE,"S244670063"
"382","larbun","Lark Bunting","Calamospiza melanocorys","L22185987","Rocky Mountain Arsenal Wildlife Drive","2025-05-30 06:29",3,39.8195132,-104.8277664,TRUE,FALSE,TRUE,"S244698936"
"383","larbun","Lark Bunting","Calamospiza melanocorys","L46411688","Esterbrook Road (bird from road)","2025-05-30 06:28",1,42.755617,-105.408304,TRUE,FALSE,TRUE,"S244767472"
"384","larbun","Lark Bunting","Calamospiza melanocorys","L46181040","Karval BBS route 17320 Stop 19","2025-05-30 06:25",6,38.748447,-103.49691,TRUE,FALSE,TRUE,"S244669962"
"385","larbun","Lark Bunting","Calamospiza melanocorys","L46181022","Karval BBS route 17320 Stop 18","2025-05-30 06:21",1,38.748352,-103.489534,TRUE,FALSE,TRUE,"S244669833"
"386","larbun","Lark Bunting","Calamospiza melanocorys","L46180990","Karval BBS route 17320 Stop 17","2025-05-30 06:16",5,38.748815,-103.481015,TRUE,FALSE,TRUE,"S244669627"
"387","larbun","Lark Bunting","Calamospiza melanocorys","L46180970","Karval BBS route 17320 Stop 16","2025-05-30 06:12",8,38.754559,-103.478811,TRUE,FALSE,TRUE,"S244669584"
"388","larbun","Lark Bunting","Calamospiza melanocorys","L46743085","1039–1097 Bishop Rd, Rozet US-WY 44.13386, -105.16167","2025-05-30 06:10",1,44.13386,-105.161675,TRUE,FALSE,TRUE,"S246332532"
"389","larbun","Lark Bunting","Calamospiza melanocorys","L46180948","Karval BBS route 17320 Stop 15","2025-05-30 06:07",3,38.763075,-103.47839,TRUE,FALSE,TRUE,"S244669517"
"390","larbun","Lark Bunting","Calamospiza melanocorys","L46180874","Karval BBS route 17320 Stop 14","2025-05-30 06:03",6,38.763132,-103.469515,TRUE,FALSE,TRUE,"S244669453"
"391","larbun","Lark Bunting","Calamospiza melanocorys","L46355186","10466–10498 44th St SW, Dickinson US-ND 46.77490, -102.67322","2025-05-30 06:02",1,46.774897,-102.673223,TRUE,FALSE,TRUE,"S244514287"
"392","larbun","Lark Bunting","Calamospiza melanocorys","L46180850","Karval BBS route 17320 Stop 13","2025-05-30 05:58",6,38.763202,-103.45993,TRUE,FALSE,TRUE,"S244669350"
"393","larbun","Lark Bunting","Calamospiza melanocorys","L46180838","Karval BBS route 17320 Stop 12","2025-05-30 05:54",9,38.763063,-103.451739,TRUE,FALSE,TRUE,"S244602531"
"394","larbun","Lark Bunting","Calamospiza melanocorys","L46618097","134th Ave SW, Belfield US-ND 46.89879, -103.27399","2025-05-30 05:52",3,46.898795,-103.273986,TRUE,FALSE,TRUE,"S245702802"
"395","larbun","Lark Bunting","Calamospiza melanocorys","L46180818","Karval BBS route 17320 Stop 11","2025-05-30 05:48",5,38.763038,-103.441208,TRUE,FALSE,TRUE,"S244600819"
"396","larbun","Lark Bunting","Calamospiza melanocorys","L46180460","Karval BBS route 17320 Stop 10","2025-05-30 05:44",6,38.762968,-103.432293,TRUE,FALSE,TRUE,"S244600763"
"397","larbun","Lark Bunting","Calamospiza melanocorys","L46180435","Karval BBS route 17320 Stop 9","2025-05-30 05:40",5,38.762751,-103.423355,TRUE,FALSE,TRUE,"S244600713"
"398","larbun","Lark Bunting","Calamospiza melanocorys","L46180414","Karval BBS route 17320 Stop 8","2025-05-30 05:36",4,38.762705,-103.41479,TRUE,FALSE,TRUE,"S244600657"
"399","larbun","Lark Bunting","Calamospiza melanocorys","L46180307","Karval BBS route 17320 Stop 7","2025-05-30 05:31",4,38.762711,-103.404277,TRUE,FALSE,TRUE,"S244600625"
"400","larbun","Lark Bunting","Calamospiza melanocorys","L46180283","Karval BBS route 17320 Stop 6","2025-05-30 05:27",1,38.762531,-103.395388,TRUE,FALSE,TRUE,"S244600578"
"401","larbun","Lark Bunting","Calamospiza melanocorys","L46180182","Karval BBS route 17320 Stop 5","2025-05-30 05:20",2,38.762465,-103.386487,TRUE,FALSE,TRUE,"S244600155"
"402","larbun","Lark Bunting","Calamospiza melanocorys","L46180164","Karval BBS route 17320 Stop 4","2025-05-30 05:16",3,38.762452,-103.378712,TRUE,FALSE,TRUE,"S244600112"
"403","larbun","Lark Bunting","Calamospiza melanocorys","L46180094","Karval BBS route 17320 Stop 3","2025-05-30 05:11",4,38.762371,-103.367387,TRUE,FALSE,TRUE,"S244600045"
"404","larbun","Lark Bunting","Calamospiza melanocorys","L46180077","Karval BBS route 17320 Stop 2","2025-05-30 05:06",2,38.762327,-103.359188,TRUE,FALSE,TRUE,"S244600011"
"405","larbun","Lark Bunting","Calamospiza melanocorys","L46179939","Karval BBS route 17320 Stop 1","2025-05-30 04:59",3,38.762376,-103.349022,TRUE,FALSE,TRUE,"S244599629"
"406","larbun","Lark Bunting","Calamospiza melanocorys","L46742158","300–378 Bishop Rd, Rozet US-WY 44.23823, -105.17511","2025-05-30 04:52",2,44.238234,-105.175109,TRUE,FALSE,TRUE,"S246328345"
"407","larbun","Lark Bunting","Calamospiza melanocorys","L46742104","234–298 Bishop Rd, Rozet US-WY 44.24565, -105.17498","2025-05-30 04:46",1,44.245653,-105.174976,TRUE,FALSE,TRUE,"S246328135"
"408","larbun","Lark Bunting","Calamospiza melanocorys","L30602632","County Road 50, Akron US-CO 40.29179, -103.43413","2025-05-30 04:43",8,40.291786,-103.43413,TRUE,FALSE,TRUE,"S244682360"
"409","larbun","Lark Bunting","Calamospiza melanocorys","L479505","Pine Bluffs--exit 1","2025-05-30 04:17",3,41.1768451,-104.039669,TRUE,FALSE,FALSE,"S244469131"
"410","larbun","Lark Bunting","Calamospiza melanocorys","L46417348","Peyton Highway (Hanover Road to Chico Basin Ranch)","2025-05-30",4,38.5650957,-104.460345,TRUE,FALSE,TRUE,"S244793537"
"411","larbun","Lark Bunting","Calamospiza melanocorys","L46408235","Hanover Road (Old Pueblo to Peyton Hiway","2025-05-30",15,38.5779278,-104.5292098,TRUE,FALSE,TRUE,"S244750754"
"412","larbun","Lark Bunting","Calamospiza melanocorys","L46331834","Oglala National Grassland, Whitney US-NE (42.9118,-103.4980)","2025-05-29 20:14",1,42.911786,-103.498044,TRUE,FALSE,TRUE,"S244401418"
"413","larbun","Lark Bunting","Calamospiza melanocorys","L30747211","3522 Way Highway 59, Douglas, Wyoming, US (43.232, -105.259)","2025-05-29 19:38",9,43.2320339,-105.2590663,TRUE,FALSE,TRUE,"S244408275"
"414","larbun","Lark Bunting","Calamospiza melanocorys","L46329859","606–708 Lower Prairie Dog Rd, Sheridan US-WY 44.93434, -106.86836","2025-05-29 19:02",NA,44.934336,-106.868356,TRUE,FALSE,TRUE,"S244392235"
"415","larbun","Lark Bunting","Calamospiza melanocorys","L1497521","Karval Reservoir SWA","2025-05-29 18:13",20,38.7163247,-103.5080621,TRUE,FALSE,FALSE,"S244598737"
"416","larbun","Lark Bunting","Calamospiza melanocorys","L7802973","Karval (town)","2025-05-29 18:07",2,38.7353323,-103.5367886,TRUE,FALSE,FALSE,"S244597704"
"417","larbun","Lark Bunting","Calamospiza melanocorys","L18292405","Lincoln - CR S at CR 25 and vicinity","2025-05-29 18:02",30,38.734732,-103.607763,TRUE,FALSE,TRUE,"S244597485"
"418","larbun","Lark Bunting","Calamospiza melanocorys","L46334243","US-2 - east of Dodson","2025-05-29 17:57",1,48.382346,-108.11913,TRUE,FALSE,TRUE,"S244413765"
"419","larbun","Lark Bunting","Calamospiza melanocorys","L159562","Stewart Lake NWR","2025-05-29 17:45",6,46.3453878,-103.4339805,TRUE,FALSE,FALSE,"S244385011"
"420","larbun","Lark Bunting","Calamospiza melanocorys","L4584049","LIN - Highway 71 at North Rush Creek (S of Limon)","2025-05-29 17:35",2,39.0612993,-103.7034166,TRUE,FALSE,TRUE,"S244596629"
"421","larbun","Lark Bunting","Calamospiza melanocorys","L46323903","State Border Crossing Sign","2025-05-29 17:04",4,41.0049055,-103.6878055,TRUE,FALSE,TRUE,"S244359101"
"422","larbun","Lark Bunting","Calamospiza melanocorys","L2204916","Grover (town)","2025-05-29 16:26",2,40.8686428,-104.2283068,TRUE,FALSE,FALSE,"S245767413"
"423","larbun","Lark Bunting","Calamospiza melanocorys","L46798654","South Dakota, Badlands, Conata Road","2025-05-29 16:00",40,43.7620517,-102.1963417,TRUE,FALSE,TRUE,"S246614331"
"424","larbun","Lark Bunting","Calamospiza melanocorys","L1874705","Bench Rd.","2025-05-29 15:51",1,45.820296,-111.5760183,TRUE,FALSE,FALSE,"S244335205"
"425","larbun","Lark Bunting","Calamospiza melanocorys","L46394996","47553–47571 Heartland Expy, Limon US-CO 39.18304, -103.55002","2025-05-29 15:20",1,39.183045,-103.55002,TRUE,FALSE,TRUE,"S244686802"
"426","larbun","Lark Bunting","Calamospiza melanocorys","L46317540","206–314 Coal Creek Rd, Peerless US-MT 48.81322, -105.82476","2025-05-29 15:19",2,48.813217,-105.824763,TRUE,FALSE,TRUE,"S244324837"
"427","larbun","Lark Bunting","Calamospiza melanocorys","L741983","White Lake NWR","2025-05-29 15:15",7,46.4800669,-103.2103623,TRUE,FALSE,FALSE,"S244339768"
"428","larbun","Lark Bunting","Calamospiza melanocorys","L46317681","2461–3797 SH-10, Fowler US-CO 37.90006, -104.03007","2025-05-29 14:59",19,37.90006,-104.030075,TRUE,FALSE,TRUE,"S244325476"
"429","larbun","Lark Bunting","Calamospiza melanocorys","L1219633","Crescent Lake NWR","2025-05-29 14:49",44,41.7609727,-102.4375534,TRUE,FALSE,FALSE,"S244686385"
"430","larbun","Lark Bunting","Calamospiza melanocorys","L46315331","11125–11499 Red Top Rd, Fowler US-CO 37.81860, -104.27140","2025-05-29 14:30",1,37.8186,-104.2714,TRUE,FALSE,TRUE,"S244311399"
"431","larbun","Lark Bunting","Calamospiza melanocorys","L2235750","Sand Creek Massacre NHS","2025-05-29 13:34",6,38.5637909,-102.512083,TRUE,FALSE,FALSE,"S244313916"
"432","larbun","Lark Bunting","Calamospiza melanocorys","L46310278","NM-39, Roy US-NM 35.89606, -104.15432","2025-05-29 13:32",4,35.896061,-104.154323,TRUE,FALSE,TRUE,"S244286631"
"433","larbun","Lark Bunting","Calamospiza melanocorys","L46310023","Rasner Rd, Yoder US-CO 38.55100, -104.13452","2025-05-29 13:28",1,38.550995,-104.134516,TRUE,FALSE,TRUE,"S244285446"
"434","larbun","Lark Bunting","Calamospiza melanocorys","L46308401","60882–61304 Heartland Expy, New Raymer US-CO 40.92178, -103.68862","2025-05-29 13:07",5,40.921778,-103.688622,TRUE,FALSE,TRUE,"S244278062"
"435","larbun","Lark Bunting","Calamospiza melanocorys","L46304368","US-56, Guymon US-OK 36.93807, -101.97399","2025-05-29 12:52",4,36.938073,-101.973993,TRUE,FALSE,TRUE,"S244259071"
"436","larbun","Lark Bunting","Calamospiza melanocorys","L948592","Hanover Fire Station area","2025-05-29 12:22",10,38.57695,-104.46048,TRUE,FALSE,FALSE,"S244290697"
"437","larbun","Lark Bunting","Calamospiza melanocorys","L46304577","20913–20997 US-40, Kit Carson US-CO 38.77173, -102.75747","2025-05-29 12:20",4,38.771727,-102.757469,TRUE,FALSE,TRUE,"S244260017"
"438","larbun","Lark Bunting","Calamospiza melanocorys","L7494260","Fresno Reservoir","2025-05-29 12:07",1,48.5997317,-109.9464941,TRUE,FALSE,FALSE,"S244311730"
"439","larbun","Lark Bunting","Calamospiza melanocorys","L4318634","Bowdoin NWR--third 5 mi. Auto Tour Route","2025-05-29 11:46",2,48.3753633,-107.6999617,TRUE,FALSE,FALSE,"S244404689"
"440","larbun","Lark Bunting","Calamospiza melanocorys","L46830065","South Dakota, Highway 44, Conata","2025-05-29 10:50",15,43.7166292,-102.1458937,TRUE,FALSE,TRUE,"S246752585"
"441","larbun","Lark Bunting","Calamospiza melanocorys","L27799449","Pasture 7","2025-05-29 10:45",11,45.8006136,-102.0937578,TRUE,FALSE,FALSE,"S244258180"
"442","larbun","Lark Bunting","Calamospiza melanocorys","L46506263","Sowbelly Road, Harrison, Nebraska, US (42.702, -103.873)","2025-05-29 10:27",2,42.7020507,-103.8728853,TRUE,FALSE,TRUE,"S245190223"
"443","larbun","Lark Bunting","Calamospiza melanocorys","L3077520","Wellington SWA--Cobb Lake Unit","2025-05-29 10:27",1,40.660574,-104.9630088,TRUE,FALSE,FALSE,"S245063688"
"444","larbun","Lark Bunting","Calamospiza melanocorys","L46296663","Riedy Rd, Lemmon, US-SD 45.82651, -102.01096","2025-05-29 10:15",11,45.826512,-102.010959,TRUE,FALSE,TRUE,"S244225334"
"445","larbun","Lark Bunting","Calamospiza melanocorys","L46294425","16872 54th Street Southwest, Golva, North Dakota, US (46.63, -104.004)","2025-05-29 10:05",3,46.6297779,-104.0044673,TRUE,FALSE,TRUE,"S244215092"
"446","larbun","Lark Bunting","Calamospiza melanocorys","L46293393","Route 8, Chinook US-MT 48.21334, -108.47076","2025-05-29 09:42",5,48.213335,-108.47076,TRUE,FALSE,TRUE,"S244208738"
"447","larbun","Lark Bunting","Calamospiza melanocorys","L46294047","Route 8 in Phillips County US-MT (48.3256,-108.4154)","2025-05-29 09:20",1,48.325637,-108.415376,TRUE,FALSE,TRUE,"S244211563"
"448","larbun","Lark Bunting","Calamospiza melanocorys","L3991363","Rueter-Hess Reservoir (restricted access)","2025-05-29 09:15",6,39.4890391,-104.8257065,TRUE,FALSE,FALSE,"S244191860"
"449","larbun","Lark Bunting","Calamospiza melanocorys","L46505566","Henry Road, Harrison, Nebraska, US (42.618, -104.052)","2025-05-29 08:45",12,42.6184364,-104.0523371,TRUE,FALSE,TRUE,"S245187316"
"450","larbun","Lark Bunting","Calamospiza melanocorys","L46522857","227th St, Philip US-SD 44.11189, -101.90659","2025-05-29 08:42",4,44.111891,-101.906588,TRUE,FALSE,TRUE,"S245265850"
"451","larbun","Lark Bunting","Calamospiza melanocorys","L19425103","8 miles south of Crescent Lake NWR ON HIGHWAY 181","2025-05-29 08:37",8,41.5978147,-102.3319007,TRUE,FALSE,TRUE,"S245139379"
"452","larbun","Lark Bunting","Calamospiza melanocorys","L46285642","County Road 103, Grover US-CO 40.67171, -104.08639","2025-05-29 08:21",3,40.671709,-104.086391,TRUE,FALSE,TRUE,"S244174240"
"453","larbun","Lark Bunting","Calamospiza melanocorys","L46287469","Stoneham, Colorado, US (40.647, -103.607)","2025-05-29 08:17",4,40.6467533,-103.6070153,TRUE,FALSE,TRUE,"S244182701"
"454","larbun","Lark Bunting","Calamospiza melanocorys","L6110674","Mascarenas Rd. and Alfalfa Fields to Co. Road B-067","2025-05-29 08:15",1,36.902374,-105.582286,TRUE,FALSE,FALSE,"S244191262"
"455","larbun","Lark Bunting","Calamospiza melanocorys","L46700447","Buffalo Creek Rd, Upton US-WY (44.1102,-104.6999)","2025-05-29 08:09",2,44.110191,-104.699913,TRUE,FALSE,TRUE,"S246113652"
"456","larbun","Lark Bunting","Calamospiza melanocorys","L46700386","Buffalo Creek Rd, Upton US-WY (44.1100,-104.7085)","2025-05-29 08:04",2,44.110025,-104.708489,TRUE,FALSE,TRUE,"S246113358"
"457","larbun","Lark Bunting","Calamospiza melanocorys","L46700351","Buffalo Creek Rd, Upton US-WY 44.10983, -104.71930","2025-05-29 07:59",1,44.109825,-104.7193,TRUE,FALSE,TRUE,"S246113141"
"458","larbun","Lark Bunting","Calamospiza melanocorys","L3646608","Mullen WTP","2025-05-29 07:55",1,42.0453664,-101.0115623,TRUE,FALSE,FALSE,"S244159186"
"459","larbun","Lark Bunting","Calamospiza melanocorys","L46700264","Buffalo Creek Rd, Upton US-WY (44.1098,-104.7286)","2025-05-29 07:51",2,44.109836,-104.728635,TRUE,FALSE,TRUE,"S246112612"
"460","larbun","Lark Bunting","Calamospiza melanocorys","L46700225","Buffalo Creek Rd, Upton US-WY (44.1099,-104.7396)","2025-05-29 07:47",8,44.109944,-104.739587,TRUE,FALSE,TRUE,"S246112408"
"461","larbun","Lark Bunting","Calamospiza melanocorys","L24850475","6103–6191 Road 179, Oshkosh US-NE 41.44388, -102.34749","2025-05-29 07:46",2,41.443876,-102.347493,TRUE,FALSE,TRUE,"S246346353"
"462","larbun","Lark Bunting","Calamospiza melanocorys","L3129354","North Platte River--Oshkosh crossing","2025-05-29 07:46",2,41.3810978,-102.3476887,TRUE,FALSE,FALSE,"S245138552"
"463","larbun","Lark Bunting","Calamospiza melanocorys","L46700195","Buffalo Creek Rd, Upton US-WY (44.1096,-104.7486)","2025-05-29 07:42",1,44.109648,-104.748634,TRUE,FALSE,TRUE,"S246112229"
"464","larbun","Lark Bunting","Calamospiza melanocorys","L46333088","164–286 Beaver Creek Rd, Winston US-MT (46.4952,-111.6406)","2025-05-29 07:36",1,46.495172,-111.640649,TRUE,FALSE,TRUE,"S244407405"
"465","larbun","Lark Bunting","Calamospiza melanocorys","L46330507","road 149,","2025-05-29 07:33",1,40.6201394,-103.6574515,TRUE,FALSE,TRUE,"S244396786"
"466","larbun","Lark Bunting","Calamospiza melanocorys","L46700066","Buffalo Creek Rd, Upton US-WY 44.10898, -104.76829","2025-05-29 07:31",1,44.108982,-104.768288,TRUE,FALSE,TRUE,"S246111449"
"467","larbun","Lark Bunting","Calamospiza melanocorys","L46700027","Buffalo Creek Rd, Upton US-WY 44.10243, -104.77454","2025-05-29 07:26",3,44.102431,-104.774542,TRUE,FALSE,TRUE,"S246111268"
"468","larbun","Lark Bunting","Calamospiza melanocorys","L46280368","13000–13338 County Road 110, Carr US-CO 40.78329, -104.79277","2025-05-29 07:25",2,40.783288,-104.792769,TRUE,FALSE,TRUE,"S244149404"
"469","larbun","Lark Bunting","Calamospiza melanocorys","L46699984","Buffalo Creek Rd, Upton US-WY 44.10014, -104.78065","2025-05-29 07:21",2,44.100145,-104.780647,TRUE,FALSE,TRUE,"S246110980"
"470","larbun","Lark Bunting","Calamospiza melanocorys","L46699957","Buffalo Creek Rd, Upton US-WY 44.09797, -104.79442","2025-05-29 07:16",1,44.097968,-104.794419,TRUE,FALSE,TRUE,"S246110809"
"471","larbun","Lark Bunting","Calamospiza melanocorys","L46699933","Buffalo Creek Rd, Upton US-WY (44.0984,-104.8008)","2025-05-29 07:10",3,44.098394,-104.80084,TRUE,FALSE,TRUE,"S246110670"
"472","larbun","Lark Bunting","Calamospiza melanocorys","L46699914","Buffalo Creek Rd, Upton US-WY (44.0991,-104.8134)","2025-05-29 07:04",1,44.099141,-104.813367,TRUE,FALSE,TRUE,"S246110563"
"473","larbun","Lark Bunting","Calamospiza melanocorys","L1743750","Jackson Lake SP--Marina area","2025-05-29 07:04",2,40.3931037,-104.09091,TRUE,FALSE,FALSE,"S244214795"
"474","larbun","Lark Bunting","Calamospiza melanocorys","L46449878","Trail off Colorado","2025-05-29 07:00",3,40.077728,-104.94572,TRUE,FALSE,TRUE,"S244947239"
"475","larbun","Lark Bunting","Calamospiza melanocorys","L17988228","17687 East Loyola Drive, Aurora, Colorado, US (39.646, -104.783)Toll Gate Trail round trip","2025-05-29 06:58",1,39.6457375,-104.7826414,TRUE,FALSE,TRUE,"S244160329"
"476","larbun","Lark Bunting","Calamospiza melanocorys","L46699873","Buffalo Creek Rd, Upton US-WY 44.10257, -104.82044","2025-05-29 06:58",5,44.102575,-104.820436,TRUE,FALSE,TRUE,"S246110379"
"477","larbun","Lark Bunting","Calamospiza melanocorys","L46699839","Buffalo Creek Rd, Upton US-WY (44.1048,-104.8301)","2025-05-29 06:53",4,44.104754,-104.830057,TRUE,FALSE,TRUE,"S246110212"
"478","larbun","Lark Bunting","Calamospiza melanocorys","L2565471","Gunbarrel Hill","2025-05-29 06:53",1,40.0650372,-105.1561039,TRUE,FALSE,FALSE,"S244144482"
"479","larbun","Lark Bunting","Calamospiza melanocorys","L46699799","Buffalo Creek Rd, Upton US-WY 44.10598, -104.83966","2025-05-29 06:48",3,44.105981,-104.839656,TRUE,FALSE,TRUE,"S246110022"
"480","larbun","Lark Bunting","Calamospiza melanocorys","L46294523","57th St SW, Amidon US-ND 46.58397, -103.19768","2025-05-29 06:46",10,46.58397,-103.197677,TRUE,FALSE,TRUE,"S244215646"
"481","larbun","Lark Bunting","Calamospiza melanocorys","L46699772","Buffalo Creek Rd, Upton US-WY 44.10589, -104.84971","2025-05-29 06:41",1,44.105893,-104.849712,TRUE,FALSE,TRUE,"S246109843"
"482","larbun","Lark Bunting","Calamospiza melanocorys","L46699732","Buffalo Creek Rd, Upton US-WY 44.10575, -104.85960","2025-05-29 06:36",2,44.105753,-104.859605,TRUE,FALSE,TRUE,"S246109626"
"483","larbun","Lark Bunting","Calamospiza melanocorys","L46328575","WY BCR17 TB4","2025-05-29 06:30",18,43.8663234,-104.5511911,TRUE,FALSE,TRUE,"S244385534"
"484","larbun","Lark Bunting","Calamospiza melanocorys","L46692471","Driving on County Road 179 between 6057 ( 2.1 miles from Oshkosh) and 2.7 more miles.","2025-05-29 06:23",8,41.4705507,-102.3469592,TRUE,FALSE,TRUE,"S246077501"
"485","larbun","Lark Bunting","Calamospiza melanocorys","L46699516","663 Materi Rd, Upton US-WY (44.0840,-104.8597)","2025-05-29 06:20",3,44.084041,-104.859655,TRUE,FALSE,TRUE,"S246108420"
"486","larbun","Lark Bunting","Calamospiza melanocorys","L46284925","County Road 103","2025-05-29 06:08",NA,40.662762,-104.086671,TRUE,FALSE,TRUE,"S244171110"
"487","larbun","Lark Bunting","Calamospiza melanocorys","L46699272","601–635 Materi Rd, Upton US-WY 44.06237, -104.85933","2025-05-29 06:03",2,44.062373,-104.859329,TRUE,FALSE,TRUE,"S246107171"
"488","larbun","Lark Bunting","Calamospiza melanocorys","L46699222","663 Materi Rd, Upton US-WY 44.06223, -104.84953","2025-05-29 05:58",2,44.062232,-104.84953,TRUE,FALSE,TRUE,"S246106884"
"489","larbun","Lark Bunting","Calamospiza melanocorys","L46699156","663 Materi Rd, Upton US-WY 44.06234, -104.83978","2025-05-29 05:53",3,44.062343,-104.839782,TRUE,FALSE,TRUE,"S246106472"
"490","larbun","Lark Bunting","Calamospiza melanocorys","L46699112","439–491 Materi Rd, Upton US-WY (44.0613,-104.8310)","2025-05-29 05:48",6,44.061322,-104.831017,TRUE,FALSE,TRUE,"S246106271"
"491","larbun","Lark Bunting","Calamospiza melanocorys","L46699014","422–436 Materi Rd, Upton US-WY 44.06139, -104.82054","2025-05-29 05:43",1,44.061394,-104.820539,TRUE,FALSE,TRUE,"S246105797"
"492","larbun","Lark Bunting","Calamospiza melanocorys","L46698952","2272–2298 Raven Creek Rd, Upton US-WY (44.0590,-104.8129)","2025-05-29 05:37",4,44.058976,-104.812933,TRUE,FALSE,TRUE,"S246105442"
"493","larbun","Lark Bunting","Calamospiza melanocorys","L46698878","2119 Raven Creek Rd, Upton US-WY (44.0524,-104.8116)","2025-05-29 05:32",4,44.052418,-104.811584,TRUE,FALSE,TRUE,"S246105004"
"494","larbun","Lark Bunting","Calamospiza melanocorys","L46698825","2119 Raven Creek Rd, Upton US-WY (44.0445,-104.8057)","2025-05-29 05:27",1,44.044502,-104.805675,TRUE,FALSE,TRUE,"S246104718"
"495","larbun","Lark Bunting","Calamospiza melanocorys","L46698779","303–399 Soda Butte Rd, Upton US-WY 44.04740, -104.80075","2025-05-29 05:22",3,44.047404,-104.800754,TRUE,FALSE,TRUE,"S246104473"
"496","larbun","Lark Bunting","Calamospiza melanocorys","L46698727","303–399 Soda Butte Rd, Upton US-WY (44.0475,-104.7908)","2025-05-29 05:17",3,44.047477,-104.790792,TRUE,FALSE,TRUE,"S246104203"
"497","larbun","Lark Bunting","Calamospiza melanocorys","L46698669","256B Soda Butte Rd, Upton US-WY 44.04736, -104.78127","2025-05-29 05:12",1,44.04736,-104.781268,TRUE,FALSE,TRUE,"S246103929"
"498","larbun","Lark Bunting","Calamospiza melanocorys","L46698452","210 Soda Butte Rd, Upton US-WY (44.0475,-104.7606)","2025-05-29 05:01",2,44.047522,-104.760602,TRUE,FALSE,TRUE,"S246102735"
"499","larbun","Lark Bunting","Calamospiza melanocorys","L46698401","110–120 Soda Butte Rd, Upton US-WY 44.04772, -104.75064","2025-05-29 04:56",2,44.047724,-104.750638,TRUE,FALSE,TRUE,"S246102372"
"500","larbun","Lark Bunting","Calamospiza melanocorys","L46698313","51–107 Soda Butte Rd, Upton US-WY (44.0480,-104.7402)","2025-05-29 04:51",1,44.047971,-104.74018,TRUE,FALSE,TRUE,"S246101883"
"501","larbun","Lark Bunting","Calamospiza melanocorys","L37730162","Exmoor Road (Knudtson Road to I-70)","2025-05-29",9,39.6281901,-104.2110151,TRUE,FALSE,TRUE,"S244236190"
"502","larbun","Lark Bunting","Calamospiza melanocorys","L37729841","Quincy Road (E-470 to Bradbury Road)","2025-05-29",8,39.63793,-104.5944079,TRUE,FALSE,TRUE,"S244231151"
"503","larbun","Lark Bunting","Calamospiza melanocorys","L31890059","Knudtson Road (Strasburg Road to Exmoor Road)","2025-05-29",18,39.5940658,-104.2763579,TRUE,FALSE,TRUE,"S244233153"
"504","larbun","Lark Bunting","Calamospiza melanocorys","L46298855","Strasburg Road (I-70 to Knudtson Road)","2025-05-29",5,39.614622,-104.3234897,TRUE,FALSE,TRUE,"S244235484"
"505","larbun","Lark Bunting","Calamospiza melanocorys","L37730074","Bradbury Road (I-70 to Quincy)","2025-05-29",16,39.6721391,-104.2474267,TRUE,FALSE,TRUE,"S244234262"
"506","larbun","Lark Bunting","Calamospiza melanocorys","L46253591","396–412 Missouri Valley Rd, Shoshoni US-WY 43.18639, -108.33770","2025-05-28 20:01",1,43.186387,-108.337696,TRUE,FALSE,TRUE,"S244020762"
"507","larbun","Lark Bunting","Calamospiza melanocorys","L15020047","24503 East Ford Drive, Aurora, Colorado","2025-05-28 19:58",1,39.6988288,-104.7018689,TRUE,FALSE,TRUE,"S244020371"
"508","larbun","Lark Bunting","Calamospiza melanocorys","L46250785","3401 Rd, Mullen US-NE 41.75114, -101.25674","2025-05-28 17:57",1,41.751143,-101.256738,TRUE,FALSE,TRUE,"S244006785"
"509","larbun","Lark Bunting","Calamospiza melanocorys","L1527803","Sundance Nature Trail","2025-05-28 17:45",4,44.4042484,-104.3769271,TRUE,FALSE,FALSE,"S244013479"
"510","larbun","Lark Bunting","Calamospiza melanocorys","L46664798","Road 7, Syracuse US-KS 38.17512, -101.97550","2025-05-28 17:38",1,38.175119,-101.975501,TRUE,FALSE,TRUE,"S245944111"
"511","larbun","Lark Bunting","Calamospiza melanocorys","L46246943","N-88, Harrisburg US-NE 41.63946, -104.00768","2025-05-28 17:15",NA,41.639458,-104.007681,TRUE,FALSE,TRUE,"S243986399"
"512","larbun","Lark Bunting","Calamospiza melanocorys","L12634065","Wheatland Reservoir Number 1","2025-05-28 17:00",2,41.9993829,-105.0369627,TRUE,FALSE,FALSE,"S244018841"
"513","larbun","Lark Bunting","Calamospiza melanocorys","L46273574","Flourishing Farms","2025-05-28 17:00",3,42.3228882,-103.41821,TRUE,FALSE,TRUE,"S244115734"
"514","larbun","Lark Bunting","Calamospiza melanocorys","L3868061","Pawnee NG--Norma's Grove","2025-05-28 16:44",2,40.7108818,-104.5177782,TRUE,FALSE,FALSE,"S244025858"
"515","larbun","Lark Bunting","Calamospiza melanocorys","L46243012","359th Ave SW, Ryder US-ND 47.86253, -101.60457","2025-05-28 16:30",1,47.862532,-101.604566,TRUE,FALSE,TRUE,"S243964643"
"516","larbun","Lark Bunting","Calamospiza melanocorys","L46253856","Cmr Auto Nature Tour Rd, Zortman US-MT 47.75976, -108.69431","2025-05-28 16:27",3,47.759761,-108.694306,TRUE,FALSE,TRUE,"S244022151"
"517","larbun","Lark Bunting","Calamospiza melanocorys","L46245325","Auto selected 47.97415, -108.28617","2025-05-28 16:15",13,47.974148,-108.286169,TRUE,FALSE,TRUE,"S243977632"
"518","larbun","Lark Bunting","Calamospiza melanocorys","L46273155","2200–2298 US-18, Keeline US-WY 42.75963, -104.79584","2025-05-28 16:10",5,42.759625,-104.795838,TRUE,FALSE,TRUE,"S244112339"
"519","larbun","Lark Bunting","Calamospiza melanocorys","L46238891","57468, Pierpont US-SD 45.45698, -97.72208","2025-05-28 15:36",1,45.456977,-97.722082,TRUE,FALSE,TRUE,"S243943153"
"520","larbun","Lark Bunting","Calamospiza melanocorys","L3037439","County Road CC (West)","2025-05-28 15:12",3,38.0105008,-102.6474953,TRUE,FALSE,TRUE,"S246424419"
"521","larbun","Lark Bunting","Calamospiza melanocorys","L385426","Baker","2025-05-28 15:02",12,37.9975831,-102.6687384,TRUE,FALSE,TRUE,"S246424372"
"522","larbun","Lark Bunting","Calamospiza melanocorys","L683009","Hickock","2025-05-28 14:55",5,37.9417607,-102.6332474,TRUE,FALSE,TRUE,"S246424315"
"523","larbun","Lark Bunting","Calamospiza melanocorys","L46239495","County Road 122, Nunn, Colorado, US (40.87, -104.673)","2025-05-28 14:50",20,40.8700208,-104.6726289,TRUE,FALSE,TRUE,"S243946323"
"524","larbun","Lark Bunting","Calamospiza melanocorys","L2204924","Pawnee NG--Weld CR 45 from CR 114 to 122","2025-05-28 14:09",2,40.857191,-104.639481,TRUE,FALSE,FALSE,"S243944640"
"525","larbun","Lark Bunting","Calamospiza melanocorys","L46252112","1814–1898 Dry Fork Rd, Zortman US-MT 47.81408, -108.48888","2025-05-28 14:06",5,47.814084,-108.488877,TRUE,FALSE,TRUE,"S244013495"
"526","larbun","Lark Bunting","Calamospiza melanocorys","L46231164","US Highway 14, Midland, South Dakota, US (44.252, -101.128)","2025-05-28 12:31",1,44.2521247,-101.1278908,TRUE,FALSE,TRUE,"S243905798"
"527","larbun","Lark Bunting","Calamospiza melanocorys","L46242344","County Road F, Brush US-CO 40.07397, -103.60851","2025-05-28 12:30",4,40.07397,-103.608508,TRUE,FALSE,TRUE,"S243960904"
"528","larbun","Lark Bunting","Calamospiza melanocorys","L46251682","Little Beaver Rd, Glasgow US-MT 48.02950, -106.93445","2025-05-28 12:02",2,48.029499,-106.934448,TRUE,FALSE,TRUE,"S244011224"
"529","larbun","Lark Bunting","Calamospiza melanocorys","L46251714","59230, Glasgow US-MT 48.02388, -107.00083","2025-05-28 11:32",18,48.023884,-107.000832,TRUE,FALSE,TRUE,"S244011366"
"530","larbun","Lark Bunting","Calamospiza melanocorys","L46241733","Sansarc Road, Fort Pierre, South Dakota, US","2025-05-28 11:30",4,44.499878,-100.7538855,TRUE,FALSE,TRUE,"S243957785"
"531","larbun","Lark Bunting","Calamospiza melanocorys","L46222280","59230, Glasgow US-MT 48.07023, -107.02850","2025-05-28 10:43",1,48.070234,-107.028505,TRUE,FALSE,TRUE,"S243864362"
"532","larbun","Lark Bunting","Calamospiza melanocorys","L46237810","Montana 5, Plentywood, Montana, US (48.793, -104.811)","2025-05-28 10:33",1,48.7933457,-104.8110819,TRUE,FALSE,TRUE,"S243937904"
"533","larbun","Lark Bunting","Calamospiza melanocorys","L3843182","ELB - CR 149 at Hwy 86","2025-05-28 10:21",2,39.2869145,-103.97506,TRUE,FALSE,TRUE,"S243929132"
"534","larbun","Lark Bunting","Calamospiza melanocorys","L3579879","ELB - CR 149 1.5 (N of Matheson; pond to W)","2025-05-28 10:03",1,39.1926261,-103.9762026,TRUE,FALSE,TRUE,"S243929051"
"535","larbun","Lark Bunting","Calamospiza melanocorys","L46228643","Chatfield Lake Rd, Littleton (outside the park)","2025-05-28 10:00",3,39.517791,-105.046391,TRUE,FALSE,TRUE,"S243893110"
"536","larbun","Lark Bunting","Calamospiza melanocorys","L46220373","46039 County Road 103, Briggsdale, Colorado, US (40.682, -104.086)","2025-05-28 09:57",NA,40.6824149,-104.0861468,TRUE,FALSE,TRUE,"S243855871"
"537","larbun","Lark Bunting","Calamospiza melanocorys","L46251817","59230, Glasgow US-MT 48.10410, -107.06784","2025-05-28 09:52",2,48.104103,-107.067839,TRUE,FALSE,TRUE,"S244011907"
"538","larbun","Lark Bunting","Calamospiza melanocorys","L46218976","5451 169th Avenue Southwest, Golva, North Dakota, US (46.621, -104.011)","2025-05-28 09:39",2,46.6208856,-104.0108246,TRUE,FALSE,TRUE,"S243849479"
"539","larbun","Lark Bunting","Calamospiza melanocorys","L130673","Clear Spring Ranch","2025-05-28 09:28",6,38.6126414,-104.6770847,TRUE,FALSE,FALSE,"S243895766"
"540","larbun","Lark Bunting","Calamospiza melanocorys","L15485734","Rushwater Road, Bridger, Montana, US (45.272, -108.894)","2025-05-28 09:27",1,45.2721719,-108.8939523,TRUE,FALSE,TRUE,"S243949567"
"541","larbun","Lark Bunting","Calamospiza melanocorys","L46216102","16876 54th Street Southwest, Golva, North Dakota, US (46.63, -104.006)","2025-05-28 09:14",5,46.6298104,-104.0056298,TRUE,FALSE,TRUE,"S243836671"
"542","larbun","Lark Bunting","Calamospiza melanocorys","L46251810","59230, Glasgow US-MT 48.13302, -107.02397","2025-05-28 09:11",18,48.133018,-107.023971,TRUE,FALSE,TRUE,"S244011847"
"543","larbun","Lark Bunting","Calamospiza melanocorys","L46226230","80611, Briggsdale US-CO 40.50819, -104.31873","2025-05-28 09:09",2,40.508186,-104.318729,TRUE,FALSE,TRUE,"S243882434"
"544","larbun","Lark Bunting","Calamospiza melanocorys","L43847008","Clement","2025-05-28 09:00",1,45.9739806,-102.6214955,TRUE,FALSE,TRUE,"S243881254"
"545","larbun","Lark Bunting","Calamospiza melanocorys","L46213632","SD-34, Midland US-SD 44.36881, -101.25661","2025-05-28 08:54",1,44.368807,-101.25661,TRUE,FALSE,TRUE,"S243824804"
"546","larbun","Lark Bunting","Calamospiza melanocorys","L46213247","Sage Creek Road, Scenic, South Dakota, US (43.78, -102.537)","2025-05-28 08:44",2,43.7800554,-102.5369592,TRUE,FALSE,TRUE,"S243823012"
"547","larbun","Lark Bunting","Calamospiza melanocorys","L46210991","240th Ave","2025-05-28 08:38",1,38.703989,-99.913277,TRUE,FALSE,TRUE,"S243811591"
"548","larbun","Lark Bunting","Calamospiza melanocorys","L3690411","BBS Route Limon 17-213 Stop 50","2025-05-28 08:36",6,39.345939,-103.4074241,TRUE,FALSE,TRUE,"S243927279"
"549","larbun","Lark Bunting","Calamospiza melanocorys","L3690409","BBS Route Limon 17-213 Stop 49","2025-05-28 08:31",6,39.3459598,-103.4167019,TRUE,FALSE,TRUE,"S243927240"
