"","speciesCode","comName","sciName","locId","locName","obsDt","howMany","lat","lng","obsValid","obsReviewed","locationPrivate","subId"
"1","glwgul","Glaucous-winged Gull","Larus glaucescens","L36139435","Strait of Juan de Fuca--Salmon Bank","2025-06-26 16:31",300,48.4174754,-122.9789329,TRUE,FALSE,FALSE,"S254389918"
"2","glwgul","Glaucous-winged Gull","Larus glaucescens","L374382","Edmonds Waterfront","2025-06-26 15:24",2,47.8119268,-122.3854144,TRUE,FALSE,FALSE,"S254387389"
"3","glwgul","Glaucous-winged Gull","Larus glaucescens","L318691","Lincoln Park, Seattle","2025-06-26 15:16",3,47.5302762,-122.3955921,TRUE,FALSE,FALSE,"S254382735"
"4","glwgul","Glaucous-winged Gull","Larus glaucescens","L726174","Umpqua River--Salmon Harbor Marina","2025-06-26 15:06",3,43.6839497,-124.1812992,TRUE,FALSE,FALSE,"S254377576"
"5","glwgul","Glaucous-winged Gull","Larus glaucescens","L190512","Ediz Hook","2025-06-26 15:01",100,48.14035,-123.44711,TRUE,FALSE,FALSE,"S254380697"
"6","glwgul","Glaucous-winged Gull","Larus glaucescens","L526379","Purdy Spit","2025-06-26 15:01",2,47.3789407,-122.6417542,TRUE,FALSE,FALSE,"S254372201"
"7","glwgul","Glaucous-winged Gull","Larus glaucescens","L245894","Port Angeles City Pier","2025-06-26 14:53",NA,48.1205005,-123.4287722,TRUE,FALSE,FALSE,"S254389995"
"8","glwgul","Glaucous-winged Gull","Larus glaucescens","L265438","Three Crabs","2025-06-26 14:46",1,48.151945,-123.1222855,TRUE,FALSE,FALSE,"S254371589"
"9","glwgul","Glaucous-winged Gull","Larus glaucescens","L27062189","seeing birds","2025-06-26 14:41",1,47.9949033,-122.5384626,TRUE,FALSE,TRUE,"S254375418"
"10","glwgul","Glaucous-winged Gull","Larus glaucescens","L48525972","Gwin’s Lodge, Cooper Landing","2025-06-26 14:07",4,60.481467,-149.921858,TRUE,FALSE,TRUE,"S254388165"
"11","glwgul","Glaucous-winged Gull","Larus glaucescens","L2906581","Glacier Bay NP--Sittakaday Narrows","2025-06-26 14:00",20,58.483286,-136.0430145,TRUE,FALSE,FALSE,"S254384433"
"12","glwgul","Glaucous-winged Gull","Larus glaucescens","L1463292","Fort Flagler SP -- Marrowstone Point","2025-06-26 13:59",10,48.1015682,-122.6882685,TRUE,FALSE,FALSE,"S254382710"
"13","glwgul","Glaucous-winged Gull","Larus glaucescens","L738429","Belfair State Park","2025-06-26 13:46",8,47.4293937,-122.8781319,TRUE,FALSE,FALSE,"S254361334"
"14","glwgul","Glaucous-winged Gull","Larus glaucescens","L235280","Larrabee State Park","2025-06-26 13:37",3,48.6515,-122.4933833,TRUE,FALSE,FALSE,"S254359109"
"15","glwgul","Glaucous-winged Gull","Larus glaucescens","L548476","Haystack Rock","2025-06-26 13:26",NA,45.8847357,-123.9683104,TRUE,FALSE,FALSE,"S254349808"
"16","glwgul","Glaucous-winged Gull","Larus glaucescens","L1325204","Olympia--KGY Point","2025-06-26 13:26",6,47.0586041,-122.9038811,TRUE,FALSE,FALSE,"S254353684"
"17","glwgul","Glaucous-winged Gull","Larus glaucescens","L767320","Anchor Point","2025-06-26 13:23",13,59.7790573,-151.8633485,TRUE,FALSE,FALSE,"S254381404"
"18","glwgul","Glaucous-winged Gull","Larus glaucescens","L7983234","Unalakleet (town)","2025-06-26 13:20",1,63.880643,-160.791146,TRUE,FALSE,FALSE,"S254365714"
"19","glwgul","Glaucous-winged Gull","Larus glaucescens","L1335743","Rosario Resort/Cascade Bay, Orcas Island","2025-06-26 13:14",1,48.6461529,-122.8709271,TRUE,FALSE,FALSE,"S254352444"
"20","glwgul","Glaucous-winged Gull","Larus glaucescens","L2085776","City Park, Edmonds","2025-06-26 13:09",3,47.8045079,-122.3816872,TRUE,FALSE,FALSE,"S254367640"
"21","glwgul","Glaucous-winged Gull","Larus glaucescens","L6464135","Ruston Way--Dickman Mill Park","2025-06-26 12:44",10,47.2773273,-122.4702322,TRUE,FALSE,FALSE,"S254371059"
"22","glwgul","Glaucous-winged Gull","Larus glaucescens","L1232767","Gardiner Beach","2025-06-26 12:30",1,48.056878,-122.9152966,TRUE,FALSE,FALSE,"S254354398"
"23","glwgul","Glaucous-winged Gull","Larus glaucescens","L2096098","Potter Marsh (general area)","2025-06-26 12:15",NA,61.0715323,-149.8160934,TRUE,FALSE,FALSE,"S254353380"
"24","glwgul","Glaucous-winged Gull","Larus glaucescens","L6270237","Diamond Creek North Beach","2025-06-26 12:15",1,59.6733976,-151.7128658,TRUE,FALSE,TRUE,"S254369041"
"25","glwgul","Glaucous-winged Gull","Larus glaucescens","L6169475","32nd Ave W Boat Launch, Magnolia","2025-06-26 12:14",6,47.632088,-122.398792,TRUE,FALSE,FALSE,"S254332946"
"26","glwgul","Glaucous-winged Gull","Larus glaucescens","L48522398","Discovery Park, Seattle US-WA 47.66555, -122.41432","2025-06-26 12:13",10,47.665552,-122.414317,TRUE,FALSE,TRUE,"S254372167"
"27","glwgul","Glaucous-winged Gull","Larus glaucescens","L374380","Edmonds Marsh","2025-06-26 12:09",4,47.8085287,-122.3864508,TRUE,FALSE,FALSE,"S254343392"
"28","glwgul","Glaucous-winged Gull","Larus glaucescens","L791486","Fauntleroy Ferry Terminal","2025-06-26 12:08",5,47.5232362,-122.3943123,TRUE,FALSE,FALSE,"S254371528"
"29","glwgul","Glaucous-winged Gull","Larus glaucescens","L1788797","Ocean Ave (Water St), Edmonds","2025-06-26 12:00",2,47.825776,-122.3687986,TRUE,FALSE,FALSE,"S254353864"
"30","glwgul","Glaucous-winged Gull","Larus glaucescens","L48512144","Salsbury Point County Park, Poulsbo US-WA 47.85679, -122.60736","2025-06-26 11:49",2,47.856794,-122.607355,TRUE,FALSE,TRUE,"S254327010"
"31","glwgul","Glaucous-winged Gull","Larus glaucescens","L48511974","Poulsbo Harbor","2025-06-26 11:47",3,47.734754,-122.647082,TRUE,FALSE,TRUE,"S254326314"
"32","glwgul","Glaucous-winged Gull","Larus glaucescens","L629009","Cape Blanco SP","2025-06-26 11:44",2,42.8363249,-124.5461655,TRUE,FALSE,FALSE,"S254327440"
"33","glwgul","Glaucous-winged Gull","Larus glaucescens","L16070366","Edgewater","2025-06-26 11:34",10,48.1092717,-122.7696832,TRUE,FALSE,TRUE,"S254361794"
"34","glwgul","Glaucous-winged Gull","Larus glaucescens","L9847543","Kachemak Bay--Gull Island","2025-06-26 11:21",1500,59.5850521,-151.3284206,TRUE,FALSE,FALSE,"S254334441"
"35","glwgul","Glaucous-winged Gull","Larus glaucescens","L1002782","Dash Point SP (King Co.)","2025-06-26 11:17",1,47.3205851,-122.4122429,TRUE,FALSE,FALSE,"S254332262"
"36","glwgul","Glaucous-winged Gull","Larus glaucescens","L1627186","Titlow Park & Beach","2025-06-26 11:12",4,47.2489682,-122.5517227,TRUE,FALSE,FALSE,"S254333204"
"37","glwgul","Glaucous-winged Gull","Larus glaucescens","L298030","Carkeek Park","2025-06-26 11:07",3,47.7126411,-122.377647,TRUE,FALSE,FALSE,"S254372359"
"38","glwgul","Glaucous-winged Gull","Larus glaucescens","L2967054","Meadowdale County Park","2025-06-26 10:54",3,47.8596993,-122.3351455,TRUE,FALSE,FALSE,"S254393716"
"39","glwgul","Glaucous-winged Gull","Larus glaucescens","L2324547","Glacier Bay NP--Margerie Glacier","2025-06-26 10:48",1,59.0400248,-137.0704079,TRUE,FALSE,FALSE,"S254326289"
"40","glwgul","Glaucous-winged Gull","Larus glaucescens","L3869478","Annette Island--Race Pt.","2025-06-26 10:42",2,55.28503,-131.5698259,TRUE,FALSE,FALSE,"S254325898"
"41","glwgul","Glaucous-winged Gull","Larus glaucescens","L9699954","P. Martin Boxes, PT Boat Haven (48.108, -122.772)","2025-06-26 10:36",6,48.1076509,-122.7719014,TRUE,FALSE,TRUE,"S254390537"
"42","glwgul","Glaucous-winged Gull","Larus glaucescens","L3631645","Sitka--Indian River-East Tidal Flat","2025-06-26 10:32",5,57.044769,-135.3130417,TRUE,FALSE,FALSE,"S254357609"
"43","glwgul","Glaucous-winged Gull","Larus glaucescens","L1246577","Fishing Rock","2025-06-26 10:30",2,44.846032,-124.051888,TRUE,FALSE,FALSE,"S254312713"
"44","glwgul","Glaucous-winged Gull","Larus glaucescens","L2492616","Kingston Ferry Terminal","2025-06-26 10:30",12,47.7958271,-122.496078,TRUE,FALSE,FALSE,"S254320025"
"45","glwgul","Glaucous-winged Gull","Larus glaucescens","L509262","Point Wilson","2025-06-26 10:15",1,48.1442626,-122.7539778,TRUE,FALSE,FALSE,"S254349208"
"46","glwgul","Glaucous-winged Gull","Larus glaucescens","L1877342","Browns Point Lighthouse Park","2025-06-26 10:15",1,47.3057,-122.44382,TRUE,FALSE,FALSE,"S254351597"
"47","glwgul","Glaucous-winged Gull","Larus glaucescens","L3440023","Discovery Park--Visitor Center","2025-06-26 10:07",14,47.658152,-122.406103,TRUE,FALSE,FALSE,"S254341217"
"48","glwgul","Glaucous-winged Gull","Larus glaucescens","L1018792","Boiler Bay State Wayside","2025-06-26 10:03",1,44.8288173,-124.0658998,TRUE,FALSE,FALSE,"S254304896"
"49","glwgul","Glaucous-winged Gull","Larus glaucescens","L39345556","Fort Flagler State Park, Nordland US-WA 48.09810, -122.69476","2025-06-26 10:02",5,48.098098,-122.694755,TRUE,FALSE,TRUE,"S254310315"
"50","glwgul","Glaucous-winged Gull","Larus glaucescens","L4045629","Lake Union Park","2025-06-26 10:01",2,47.6265,-122.3379028,TRUE,FALSE,FALSE,"S254308439"
"51","glwgul","Glaucous-winged Gull","Larus glaucescens","L45656664","6516 Jones Ave NW, Seattle US-WA 47.67647, -122.38620","2025-06-26 09:47",5,47.676465,-122.386205,TRUE,FALSE,TRUE,"S254307518"
"52","glwgul","Glaucous-winged Gull","Larus glaucescens","L26200850","Del Rey Auto Access to Sunset Beach Auto Access linear survey, Oregon","2025-06-26 09:44",1,46.0492056,-123.9323811,TRUE,FALSE,TRUE,"S254302581"
"53","glwgul","Glaucous-winged Gull","Larus glaucescens","L682177","Glacier Bay NP--Tarr Inlet","2025-06-26 09:34",50,59.0008815,-136.9730759,TRUE,FALSE,FALSE,"S254373319"
"54","glwgul","Glaucous-winged Gull","Larus glaucescens","L1652747","Silverbow Farm (private)","2025-06-26 09:33",4,47.3311427,-122.733555,TRUE,FALSE,TRUE,"S254328844"
"55","glwgul","Glaucous-winged Gull","Larus glaucescens","L159273","Tony Knowles Coastal Trail--Chester Creek to Ship Creek","2025-06-26 09:27",3,61.2155506,-149.9119878,TRUE,FALSE,FALSE,"S254307180"
"56","glwgul","Glaucous-winged Gull","Larus glaucescens","L1233960","Cape Resurrection","2025-06-26 09:19",NA,59.8725703,-149.2733002,TRUE,FALSE,FALSE,"S254371394"
"57","glwgul","Glaucous-winged Gull","Larus glaucescens","L976636","Mad River spit","2025-06-26 09:18",2,40.9439908,-124.1309166,TRUE,FALSE,FALSE,"S254341726"
"58","glwgul","Glaucous-winged Gull","Larus glaucescens","L189242","Seahurst Park","2025-06-26 09:14",7,47.47795,-122.362434,TRUE,FALSE,FALSE,"S254310793"
"59","glwgul","Glaucous-winged Gull","Larus glaucescens","L128530","Discovery Park","2025-06-26 09:01",41,47.663868,-122.4215317,TRUE,FALSE,FALSE,"S254319300"
"60","glwgul","Glaucous-winged Gull","Larus glaucescens","L109542","Point No Point","2025-06-26 08:34",47,47.9118696,-122.5283182,TRUE,FALSE,FALSE,"S254315741"
"61","glwgul","Glaucous-winged Gull","Larus glaucescens","L1432660","West Kingston Wetland (roadside viewing only)","2025-06-26 08:13",1,47.7994915,-122.5387492,TRUE,FALSE,FALSE,"S254282280"
"62","glwgul","Glaucous-winged Gull","Larus glaucescens","L284679","Gog-Le-Hi-Te Mitigated Wetlands","2025-06-26 08:12",10,47.2515553,-122.4103975,TRUE,FALSE,FALSE,"S254283687"
"63","glwgul","Glaucous-winged Gull","Larus glaucescens","L48500529","Auto selected 58.76103, -136.33793","2025-06-26 07:48",5,58.761034,-136.337928,TRUE,FALSE,TRUE,"S254281862"
"64","glwgul","Glaucous-winged Gull","Larus glaucescens","L501969","Stan Sayres Memorial Park","2025-06-26 07:42",1,47.5711695,-122.277317,TRUE,FALSE,FALSE,"S254351969"
"65","glwgul","Glaucous-winged Gull","Larus glaucescens","L2680460","Cornwall Park","2025-06-26 07:32",3,48.7743352,-122.4812508,TRUE,FALSE,FALSE,"S254338083"
"66","glwgul","Glaucous-winged Gull","Larus glaucescens","L48498301","2615 25th St, Bremerton US-WA 47.58419, -122.65279","2025-06-26 07:08",3,47.584191,-122.652792,TRUE,FALSE,TRUE,"S254272789"
"67","glwgul","Glaucous-winged Gull","Larus glaucescens","L242192","Pillar Point Harbor","2025-06-26 07:05",1,37.5033407,-122.4819213,TRUE,FALSE,FALSE,"S254275310"
"68","glwgul","Glaucous-winged Gull","Larus glaucescens","L2591776","Sunset Pond (Bellingham)","2025-06-26 07:03",4,48.776484,-122.461843,TRUE,FALSE,FALSE,"S254337333"
"69","glwgul","Glaucous-winged Gull","Larus glaucescens","L48507677","12th Ave SE","2025-06-26 07:00",1,47.0382993,-122.8860066,TRUE,FALSE,TRUE,"S254310935"
"70","glwgul","Glaucous-winged Gull","Larus glaucescens","L47185878","Larrabee Avenue","2025-06-26 06:53",2,48.7182503,-122.4946205,TRUE,FALSE,TRUE,"S254265974"
"71","glwgul","Glaucous-winged Gull","Larus glaucescens","L638805","Cannon Beach","2025-06-26 06:43",3,45.888186,-123.9646626,TRUE,FALSE,FALSE,"S254278137"
"72","glwgul","Glaucous-winged Gull","Larus glaucescens","L168688","Ocean Shores--Pt. Brown Jetty","2025-06-26 06:34",7,46.92816,-124.17397,TRUE,FALSE,FALSE,"S254309151"
"73","glwgul","Glaucous-winged Gull","Larus glaucescens","L11051615","West side Dungeness River delta and mudflats","2025-06-26 05:55",25,48.153185,-123.13476,TRUE,FALSE,TRUE,"S254242180"
"74","glwgul","Glaucous-winged Gull","Larus glaucescens","L20643235","Edmonds Public Fishing Pier","2025-06-26 05:47",2,47.8110241,-122.3899493,TRUE,FALSE,FALSE,"S254245679"
"75","glwgul","Glaucous-winged Gull","Larus glaucescens","L2793074","E 7th & Francis St Port Angeles WA","2025-06-26 05:32",1,48.1085703,-123.4254876,TRUE,FALSE,TRUE,"S254296969"
"76","glwgul","Glaucous-winged Gull","Larus glaucescens","L3545488","Taiya Inlet--Skagway to Haines","2025-06-26 05:10",8,59.3570259,-135.3762603,TRUE,FALSE,FALSE,"S254256807"
"77","glwgul","Glaucous-winged Gull","Larus glaucescens","L35798700","Bryce Drive house","2025-06-26 05:00",20,48.48964,-122.6636407,TRUE,FALSE,TRUE,"S254394119"
"78","glwgul","Glaucous-winged Gull","Larus glaucescens","L6060782","Chugach NF--Power Creek outlet","2025-06-26 04:50",4,60.587157,-145.6450868,TRUE,FALSE,FALSE,"S254276625"
"79","glwgul","Glaucous-winged Gull","Larus glaucescens","L1339539","Kenai Flats--Sea Catch Dr. & Cannery Rd.","2025-06-25 21:57",NA,60.5351637,-151.2629414,TRUE,FALSE,FALSE,"S254200613"
"80","glwgul","Glaucous-winged Gull","Larus glaucescens","L9494727","Valdez--Harborside","2025-06-25 20:36",NA,61.1267701,-146.3467113,TRUE,FALSE,FALSE,"S254163574"
"81","glwgul","Glaucous-winged Gull","Larus glaucescens","L48458622","Gastineau Channel, Juneau US-AK 58.28979, -134.39771","2025-06-25 20:19",19,58.289794,-134.397713,TRUE,FALSE,TRUE,"S254164034"
"82","glwgul","Glaucous-winged Gull","Larus glaucescens","L14350486","Green Lake - Winona Walk","2025-06-25 19:34",1,47.6835986,-122.3431109,TRUE,FALSE,TRUE,"S254268538"
"83","glwgul","Glaucous-winged Gull","Larus glaucescens","L5982256","Seattle Center","2025-06-25 19:18",10,47.6220168,-122.3520541,TRUE,FALSE,FALSE,"S254150202"
"84","glwgul","Glaucous-winged Gull","Larus glaucescens","L270792","Shemya Island--Eareckson AS (restricted access)","2025-06-25 18:30",10,52.7207244,174.1123276,TRUE,FALSE,FALSE,"S254168276"
"85","glwgul","Glaucous-winged Gull","Larus glaucescens","L769082","Alaska Maritime NWR--Chiswell Islands","2025-06-25 18:15",NA,59.6431112,-149.6138763,TRUE,FALSE,FALSE,"S254164236"
"86","glwgul","Glaucous-winged Gull","Larus glaucescens","L4891872","Seward--Small Boat Harbor","2025-06-25 18:09",80,60.1198113,-149.4356704,TRUE,FALSE,FALSE,"S254149592"
"87","glwgul","Glaucous-winged Gull","Larus glaucescens","L4050044","Northwest 60th St Viewpoint, Ballard","2025-06-25 18:04",1,47.6722294,-122.4061596,TRUE,FALSE,FALSE,"S254143242"
"88","glwgul","Glaucous-winged Gull","Larus glaucescens","L15804884","939 Caroline St, Port Angeles US-WA 48.11532, -123.41390","2025-06-25 17:53",7,48.115318,-123.413897,TRUE,FALSE,TRUE,"S254311622"
"89","glwgul","Glaucous-winged Gull","Larus glaucescens","L129842","Resurrection Bay","2025-06-25 17:50",25,60.0497812,-149.3878636,TRUE,FALSE,FALSE,"S254148807"
"90","glwgul","Glaucous-winged Gull","Larus glaucescens","L11727907","Hamilton International Middle School, Seattle","2025-06-25 17:30",1,47.6586209,-122.3370702,TRUE,FALSE,FALSE,"S254139385"
"91","glwgul","Glaucous-winged Gull","Larus glaucescens","L30702527","Seaside home","2025-06-25 17:10",NA,45.987067,-123.926614,TRUE,FALSE,TRUE,"S254161655"
"92","glwgul","Glaucous-winged Gull","Larus glaucescens","L7673414","Kenai Fjords NP--Quicksand Cove","2025-06-25 17:00",NA,59.7866862,-149.7845936,TRUE,FALSE,FALSE,"S254164021"
"93","glwgul","Glaucous-winged Gull","Larus glaucescens","L3707232","Endicott Arm--Dawes Glacier","2025-06-25 16:26",NA,57.5025446,-132.8720856,TRUE,FALSE,FALSE,"S254132559"
"94","glwgul","Glaucous-winged Gull","Larus glaucescens","L782103","Devils Punchbowl SP","2025-06-25 16:20",3,44.7473581,-124.0657926,TRUE,FALSE,FALSE,"S254121465"
"95","glwgul","Glaucous-winged Gull","Larus glaucescens","L1875831","Westhaven SP","2025-06-25 16:16",1,46.9011251,-124.1268446,TRUE,FALSE,FALSE,"S254132518"
"96","glwgul","Glaucous-winged Gull","Larus glaucescens","L3870549","Bar Point Harbor--breakwater","2025-06-25 15:48",3,55.3473215,-131.6784554,TRUE,FALSE,FALSE,"S254126829"
"97","glwgul","Glaucous-winged Gull","Larus glaucescens","L3350751","Seattle Aquarium","2025-06-25 15:45",1,47.6074868,-122.34272,TRUE,FALSE,FALSE,"S254109656"
"98","glwgul","Glaucous-winged Gull","Larus glaucescens","L1105354","Seward--4th of July Beach","2025-06-25 15:43",3,60.0834989,-149.3514007,TRUE,FALSE,FALSE,"S254123212"
"99","glwgul","Glaucous-winged Gull","Larus glaucescens","L47219784","Lower Padden Creek And Larrabee Trail","2025-06-25 15:41",3,48.718966,-122.5070261,TRUE,FALSE,TRUE,"S254109510"
"100","glwgul","Glaucous-winged Gull","Larus glaucescens","L3997955","Post Point Estuary","2025-06-25 15:39",3,48.7178235,-122.5162375,TRUE,FALSE,FALSE,"S254108302"
"101","glwgul","Glaucous-winged Gull","Larus glaucescens","L36816866","Bellingham Cruise Terminal","2025-06-25 15:33",4,48.7215295,-122.5124258,TRUE,FALSE,FALSE,"S254107138"
"102","glwgul","Glaucous-winged Gull","Larus glaucescens","L941868","Resurrection Bay--Aialik Cape","2025-06-25 15:22",355,59.7062094,-149.5252991,TRUE,FALSE,FALSE,"S254143883"
"103","glwgul","Glaucous-winged Gull","Larus glaucescens","L1498816","Boulevard Park, Bellingham","2025-06-25 15:16",4,48.731747,-122.5035768,TRUE,FALSE,FALSE,"S254103721"
"104","glwgul","Glaucous-winged Gull","Larus glaucescens","L11966111","Cape Disappointment SP--Waikiki Beach","2025-06-25 15:02",NA,46.2817492,-124.0585827,TRUE,FALSE,FALSE,"S254119777"
"105","glwgul","Glaucous-winged Gull","Larus glaucescens","L847455","Blakely Rocks","2025-06-25 15:00",5,47.5945373,-122.4803978,TRUE,FALSE,FALSE,"S254167215"
"106","glwgul","Glaucous-winged Gull","Larus glaucescens","L3857154","Steep Creek Boardwalk Bear Viewing Area","2025-06-25 14:42",1,58.4150433,-134.5468354,TRUE,FALSE,FALSE,"S254150554"
"107","glwgul","Glaucous-winged Gull","Larus glaucescens","L4532426","Sprague's Pond Mini Park","2025-06-25 14:42",1,47.8170402,-122.3026345,TRUE,FALSE,FALSE,"S254105826"
"108","glwgul","Glaucous-winged Gull","Larus glaucescens","L781842","Kenai Fjords NP--Aialik Bay","2025-06-25 14:40",25,59.9046068,-149.6933556,TRUE,FALSE,FALSE,"S254143854"
"109","glwgul","Glaucous-winged Gull","Larus glaucescens","L6475830","Lynnwood Municipal Golf Course trail","2025-06-25 14:39",1,47.8106802,-122.32615,TRUE,FALSE,FALSE,"S254115995"
"110","glwgul","Glaucous-winged Gull","Larus glaucescens","L4930859","Sitka Sedge State Natural Area","2025-06-25 14:38",3,45.2641693,-123.9605749,TRUE,FALSE,FALSE,"S254096627"
"111","glwgul","Glaucous-winged Gull","Larus glaucescens","L28374955","Lisabuela","2025-06-25 14:22",5,47.405535,-122.522066,TRUE,FALSE,TRUE,"S254100510"
"112","glwgul","Glaucous-winged Gull","Larus glaucescens","L1067145","Kasilof--Kasilof River Mouth","2025-06-25 14:15",10,60.3859137,-151.302166,TRUE,FALSE,FALSE,"S254161782"
"113","glwgul","Glaucous-winged Gull","Larus glaucescens","L375127","Morro Creek mouth","2025-06-25 14:06",1,35.376104,-120.8624411,TRUE,FALSE,FALSE,"S254109091"
"114","glwgul","Glaucous-winged Gull","Larus glaucescens","L941877","Kenai Fjords NP--Aialik Bay-Aialik Glacier","2025-06-25 14:02",5,59.9470162,-149.7445107,TRUE,FALSE,FALSE,"S254155965"
"115","glwgul","Glaucous-winged Gull","Larus glaucescens","L4387576","Whatcom Creek at Maritime Heritage Park","2025-06-25 14:00",8,48.7533524,-122.4836755,TRUE,FALSE,FALSE,"S254095128"
"116","glwgul","Glaucous-winged Gull","Larus glaucescens","L828590","Dungeness Landing Park/Oyster House","2025-06-25 13:57",1,48.1514639,-123.143456,TRUE,FALSE,FALSE,"S254090515"
"117","glwgul","Glaucous-winged Gull","Larus glaucescens","L3570687","Skagway--Pullen Pond & Creek","2025-06-25 13:54",5,59.4524733,-135.3156563,TRUE,FALSE,FALSE,"S254117216"
"118","glwgul","Glaucous-winged Gull","Larus glaucescens","L48467998","Granite Island - West Side","2025-06-25 13:54",75,59.6603651,-149.840156,TRUE,FALSE,TRUE,"S254131163"
"119","glwgul","Glaucous-winged Gull","Larus glaucescens","L1773890","Bellingham--Padden Lagoon","2025-06-25 13:23",7,48.7214584,-122.5085879,TRUE,FALSE,FALSE,"S254078633"
"120","glwgul","Glaucous-winged Gull","Larus glaucescens","L232479","Juanita Bay Park","2025-06-25 13:22",4,47.6981686,-122.2101878,TRUE,FALSE,FALSE,"S254091926"
"121","glwgul","Glaucous-winged Gull","Larus glaucescens","L48456284","Washington, US (47.893, -122.387)","2025-06-25 13:10",3,47.8931937,-122.3871476,TRUE,FALSE,TRUE,"S254075889"
"122","glwgul","Glaucous-winged Gull","Larus glaucescens","L12772864","Shaw Park/Heron's Key","2025-06-25 13:10",1,47.3596268,-122.597487,TRUE,FALSE,FALSE,"S254118952"
"123","glwgul","Glaucous-winged Gull","Larus glaucescens","L208659","Hiram M. Chittenden Ballard Locks","2025-06-25 13:00",3,47.6653579,-122.3974647,TRUE,FALSE,FALSE,"S254162283"
"124","glwgul","Glaucous-winged Gull","Larus glaucescens","L1542324","Valdez--City Dock & Ferry Terminal","2025-06-25 12:51",2,61.1243397,-146.3630078,TRUE,FALSE,FALSE,"S254141421"
"125","glwgul","Glaucous-winged Gull","Larus glaucescens","L3883686","Sitka Sound--Kasiana Islands","2025-06-25 12:33",125,57.0833843,-135.4092236,TRUE,FALSE,FALSE,"S254122325"
"126","glwgul","Glaucous-winged Gull","Larus glaucescens","L836994","Salmon Creek mouth (SON Co.)","2025-06-25 12:32",1,38.3547149,-123.0679035,TRUE,FALSE,FALSE,"S254080459"
"127","glwgul","Glaucous-winged Gull","Larus glaucescens","L19828060","Ledgewood Beach","2025-06-25 12:28",1,48.146277,-122.606507,TRUE,FALSE,TRUE,"S254090316"
"128","glwgul","Glaucous-winged Gull","Larus glaucescens","L6317728","Whittier--Black-legged Kittiwake colony","2025-06-25 12:01",21,60.7983775,-148.6751118,TRUE,FALSE,FALSE,"S254133945"
"129","glwgul","Glaucous-winged Gull","Larus glaucescens","L902023","Cordova--Odiak Pond","2025-06-25 11:55",12,60.540017,-145.751523,TRUE,FALSE,FALSE,"S254073125"
"130","glwgul","Glaucous-winged Gull","Larus glaucescens","L48455375","Auto selected 59.55029, -151.46661","2025-06-25 11:53",10,59.550294,-151.466609,TRUE,FALSE,TRUE,"S254072172"
"131","glwgul","Glaucous-winged Gull","Larus glaucescens","L816594","Bloedel Reserve","2025-06-25 11:49",1,47.7078556,-122.5485849,TRUE,FALSE,FALSE,"S254149449"
"132","glwgul","Glaucous-winged Gull","Larus glaucescens","L1254311","Kenai Fjords NP--Northwestern Fiord","2025-06-25 11:47",120,59.7803768,-150.026207,TRUE,FALSE,FALSE,"S254131274"
"133","glwgul","Glaucous-winged Gull","Larus glaucescens","L48454456","Auto selected 57.16002, -135.56860","2025-06-25 11:40",5,57.160021,-135.568603,TRUE,FALSE,TRUE,"S254068601"
"134","glwgul","Glaucous-winged Gull","Larus glaucescens","L2212788","Kayak Point County Park","2025-06-25 11:38",2,48.1358239,-122.3658085,TRUE,FALSE,FALSE,"S254291473"
"135","glwgul","Glaucous-winged Gull","Larus glaucescens","L2897580","Utqiaġvik--Nunavaaq Rd.","2025-06-25 11:32",1,71.2757153,-156.8049967,TRUE,FALSE,FALSE,"S254330349"
"136","glwgul","Glaucous-winged Gull","Larus glaucescens","L3084346","Harris Beach SP--Day Use Area","2025-06-25 11:27",1,42.0682032,-124.3147445,TRUE,FALSE,FALSE,"S254049285"
"137","glwgul","Glaucous-winged Gull","Larus glaucescens","L1523077","St. Paul Island--High Cliffs","2025-06-25 11:15",6,57.1759297,-170.4177308,TRUE,FALSE,FALSE,"S254145888"
"138","glwgul","Glaucous-winged Gull","Larus glaucescens","L32911096","Kenai Fjords NP--Ripple & Fire Coves","2025-06-25 11:04",50,59.660222,-149.805409,TRUE,FALSE,FALSE,"S254131405"
"139","glwgul","Glaucous-winged Gull","Larus glaucescens","L758978","Schel-chelb Estuary","2025-06-25 11:02",8,47.6042768,-122.5516963,TRUE,FALSE,FALSE,"S254100650"
"140","glwgul","Glaucous-winged Gull","Larus glaucescens","L1489177","Olympic Sculpture Park","2025-06-25 10:55",7,47.61644,-122.3545268,TRUE,FALSE,FALSE,"S254056425"
"141","glwgul","Glaucous-winged Gull","Larus glaucescens","L48452288","Seamen’s Memorial","2025-06-25 10:42",3,60.115123,-149.435273,TRUE,FALSE,TRUE,"S254068145"
"142","glwgul","Glaucous-winged Gull","Larus glaucescens","L1130056","Kodiak Is.--Kalsin Pond and Olds River Estuary","2025-06-25 10:34",2,57.584638,-152.4485207,TRUE,FALSE,FALSE,"S254098535"
"143","glwgul","Glaucous-winged Gull","Larus glaucescens","L234894","Salt Creek County Park","2025-06-25 10:31",3,48.1631912,-123.6972883,TRUE,FALSE,FALSE,"S254037641"
"144","glwgul","Glaucous-winged Gull","Larus glaucescens","L37333770","Guemes Shore Trail to Skyline","2025-06-25 10:25",5,48.5000932,-122.6577914,TRUE,FALSE,TRUE,"S254046773"
"145","glwgul","Glaucous-winged Gull","Larus glaucescens","L48468087","Alaska, US (59.694, -149.543)","2025-06-25 10:21",500,59.6939037,-149.5428851,TRUE,FALSE,TRUE,"S254131741"
"146","glwgul","Glaucous-winged Gull","Larus glaucescens","L2158283","Ship Harbor Interpretive Preserve","2025-06-25 09:55",35,48.5035261,-122.6748633,TRUE,FALSE,FALSE,"S254045823"
"147","glwgul","Glaucous-winged Gull","Larus glaucescens","L571490","Discovery Park--West Point","2025-06-25 09:45",5,47.6618703,-122.4355298,TRUE,FALSE,FALSE,"S254159631"
"148","glwgul","Glaucous-winged Gull","Larus glaucescens","L36873173","Harding Gateway","2025-06-25 09:36",450,59.7989025,-149.4510564,TRUE,FALSE,FALSE,"S254131517"
"149","glwgul","Glaucous-winged Gull","Larus glaucescens","L9856002","North Spit--Samoa Beach & dunes","2025-06-25 09:28",1,40.8185768,-124.1920018,TRUE,FALSE,FALSE,"S254091270"
"150","glwgul","Glaucous-winged Gull","Larus glaucescens","L9564097","Resurrection Bay--Rugged Island","2025-06-25 09:19",10,59.8667823,-149.4055922,TRUE,FALSE,FALSE,"S254131453"
"151","glwgul","Glaucous-winged Gull","Larus glaucescens","L31103927","Seward Airport, Seward US-AK 60.12773, -149.42217","2025-06-25 09:13",1,60.127732,-149.422173,TRUE,FALSE,TRUE,"S254043325"
"152","glwgul","Glaucous-winged Gull","Larus glaucescens","L22187146","Resurrection Bay--Spire Cove","2025-06-25 09:10",20,59.8764992,-149.5736218,TRUE,FALSE,FALSE,"S254142014"
"153","glwgul","Glaucous-winged Gull","Larus glaucescens","L1865028","Fouts Park","2025-06-25 09:00",2,48.758807,-122.4845791,TRUE,FALSE,TRUE,"S254250137"
"154","glwgul","Glaucous-winged Gull","Larus glaucescens","L162766","Union Bay Natural Area/Montlake Fill","2025-06-25 08:39",2,47.65424,-122.29137,TRUE,FALSE,FALSE,"S254048284"
"155","glwgul","Glaucous-winged Gull","Larus glaucescens","L3528174","Skagway--small boat harbor","2025-06-25 08:35",20,59.449529,-135.3205175,TRUE,FALSE,FALSE,"S254016073"
"156","glwgul","Glaucous-winged Gull","Larus glaucescens","L165740","Washington Park Arboretum","2025-06-25 08:32",2,47.6370819,-122.29574,TRUE,FALSE,FALSE,"S254137499"
"157","glwgul","Glaucous-winged Gull","Larus glaucescens","L392640","Washington Park, Anacortes","2025-06-25 08:25",5,48.495268,-122.6951408,TRUE,FALSE,FALSE,"S254044524"
"158","glwgul","Glaucous-winged Gull","Larus glaucescens","L261146","St. Paul Island","2025-06-25 08:23",8,57.17012,-170.296751,TRUE,FALSE,FALSE,"S254192895"
"159","glwgul","Glaucous-winged Gull","Larus glaucescens","L6644743","East Fremont Neighborhood (45th to 40th, Whitman to Stone)","2025-06-25 08:20",2,47.661466,-122.34608,TRUE,FALSE,TRUE,"S254045003"
"160","glwgul","Glaucous-winged Gull","Larus glaucescens","L3568552","Chambers Creek Trail","2025-06-25 08:15",3,47.1918268,-122.5730681,TRUE,FALSE,FALSE,"S254023769"
"161","glwgul","Glaucous-winged Gull","Larus glaucescens","L9456246","Harrington Pigeon Guillemot colony - north end","2025-06-25 07:43",7,48.206516,-122.605239,TRUE,FALSE,TRUE,"S254001302"
"162","glwgul","Glaucous-winged Gull","Larus glaucescens","L589327","Seward--Tonsina Creek/Caines Head Trail","2025-06-25 07:28",50,60.062656,-149.4459915,TRUE,FALSE,FALSE,"S254043084"
"163","glwgul","Glaucous-winged Gull","Larus glaucescens","L48439987","Stephens Passage, Juneau US-AK 58.17031, -134.17244","2025-06-25 07:20",5,58.170311,-134.172436,TRUE,FALSE,TRUE,"S254008084"
"164","glwgul","Glaucous-winged Gull","Larus glaucescens","L769984","Bellingham--Little Squalicum Beach","2025-06-25 07:11",3,48.7649587,-122.5199604,TRUE,FALSE,FALSE,"S254002459"
"165","glwgul","Glaucous-winged Gull","Larus glaucescens","L39932232","Private Property near Salty Dr NW, Olympia US-WA","2025-06-25 06:54",4,47.157061,-122.925282,TRUE,FALSE,TRUE,"S254321932"
"166","glwgul","Glaucous-winged Gull","Larus glaucescens","L48404646","3704–3812 Kachemak Dr, Homer US-AK 59.65144, -151.44607","2025-06-25 06:50",1,59.651442,-151.446074,TRUE,FALSE,TRUE,"S253991038"
"167","glwgul","Glaucous-winged Gull","Larus glaucescens","L4115903","Primary location","2025-06-25 06:30",2,47.4879333,-122.5194743,TRUE,FALSE,TRUE,"S254142537"
"168","glwgul","Glaucous-winged Gull","Larus glaucescens","L742889","Siuslaw River--North Jetty-Mudflats","2025-06-25 06:30",1,44.0151171,-124.1272044,TRUE,FALSE,FALSE,"S254061820"
"169","glwgul","Glaucous-winged Gull","Larus glaucescens","L10794631","Fir Ridge II","2025-06-25 06:00",1,48.8014685,-122.5021797,TRUE,FALSE,TRUE,"S254004653"
"170","glwgul","Glaucous-winged Gull","Larus glaucescens","L282253","Billy Frank Jr. Nisqually NWR","2025-06-25 05:56",1,47.0812514,-122.7180576,TRUE,FALSE,FALSE,"S254159482"
"171","glwgul","Glaucous-winged Gull","Larus glaucescens","L269461","Magnuson Park","2025-06-25 05:46",2,47.6815336,-122.2505453,TRUE,FALSE,FALSE,"S253990388"
"172","glwgul","Glaucous-winged Gull","Larus glaucescens","L8024841","Mineral Springs Park","2025-06-25",NA,47.7056031,-122.3366582,TRUE,FALSE,FALSE,"S254165025"
"173","glwgul","Glaucous-winged Gull","Larus glaucescens","L682181","Sitka Sound","2025-06-25",25,57.0317632,-135.5122375,TRUE,FALSE,FALSE,"S254182844"
"174","glwgul","Glaucous-winged Gull","Larus glaucescens","L19049755","Sitka, Alaska, US (57.011, -135.612)","2025-06-25",NA,57.0111937,-135.6119799,TRUE,FALSE,TRUE,"S254182245"
"175","glwgul","Glaucous-winged Gull","Larus glaucescens","L235914","Alaska Maritime NWR--St. Lazaria Island","2025-06-25",100,56.9873598,-135.7105632,TRUE,FALSE,FALSE,"S254182494"
"176","glwgul","Glaucous-winged Gull","Larus glaucescens","L586756","Seward--Iditarod Memorial","2025-06-24 21:45",10,60.1014771,-149.4355201,TRUE,FALSE,FALSE,"S253881509"
"177","glwgul","Glaucous-winged Gull","Larus glaucescens","L47267130","Bear River ADFG Camp","2025-06-24 21:18",2,56.038488,-160.270499,TRUE,FALSE,TRUE,"S253876921"
"178","glwgul","Glaucous-winged Gull","Larus glaucescens","L586881","Seward--Airport Mudflats","2025-06-24 20:35",32,60.1253055,-149.4220018,TRUE,FALSE,FALSE,"S254377429"
"179","glwgul","Glaucous-winged Gull","Larus glaucescens","L685834","Alaska Maritime NWR--Buldir Island","2025-06-24 20:08",350,52.3504409,175.9172058,TRUE,FALSE,FALSE,"S253888424"
"180","glwgul","Glaucous-winged Gull","Larus glaucescens","L1352149","Echo Lake","2025-06-24 19:59",1,47.772968,-122.3413914,TRUE,FALSE,FALSE,"S253865684"
"181","glwgul","Glaucous-winged Gull","Larus glaucescens","L7670841","Pier 54, Seattle","2025-06-24 19:31",35,47.6038482,-122.3388147,TRUE,FALSE,FALSE,"S253866929"
"182","glwgul","Glaucous-winged Gull","Larus glaucescens","L3100821","Seattle-Tacoma International Airport (restricted access)","2025-06-24 19:26",1,47.4502565,-122.3087955,TRUE,FALSE,FALSE,"S253858835"
"183","glwgul","Glaucous-winged Gull","Larus glaucescens","L661970","Kodiak Is.--Fort Abercrombie State Historical Park","2025-06-24 19:26",2,57.8326893,-152.3559093,TRUE,FALSE,FALSE,"S253910373"
"184","glwgul","Glaucous-winged Gull","Larus glaucescens","L2752419","Seward--Waterfront Park","2025-06-24 18:01",16,60.1067459,-149.4337238,TRUE,FALSE,FALSE,"S253856502"
"185","glwgul","Glaucous-winged Gull","Larus glaucescens","L1053294","Indian Island County Park","2025-06-24 17:40",10,48.0255241,-122.7212334,TRUE,FALSE,FALSE,"S253841315"
"186","glwgul","Glaucous-winged Gull","Larus glaucescens","L3014750","Cape Ommaney to Hazy Islands Wilderness","2025-06-24 17:39",10,55.981482,-134.6292114,TRUE,FALSE,FALSE,"S254282092"
"187","glwgul","Glaucous-winged Gull","Larus glaucescens","L48371213","Gastineau Channel, Juneau US-AK 58.29782, -134.40690","2025-06-24 17:26",5,58.29782,-134.406896,TRUE,FALSE,TRUE,"S253850618"
"188","glwgul","Glaucous-winged Gull","Larus glaucescens","L48407945","Auto selected 48.24864, -123.34968","2025-06-24 17:00",1,48.248641,-123.34968,TRUE,FALSE,TRUE,"S253857761"
"189","glwgul","Glaucous-winged Gull","Larus glaucescens","L7888554","Misty Fjords NMW--Rudyerd Bay","2025-06-24 16:42",4,55.5991034,-130.7024748,TRUE,FALSE,FALSE,"S253853946"
"190","glwgul","Glaucous-winged Gull","Larus glaucescens","L7706326","Smith Island","2025-06-24 16:32",NA,48.318233,-122.8410187,TRUE,FALSE,FALSE,"S253857357"
"191","glwgul","Glaucous-winged Gull","Larus glaucescens","L887381","Fort Stevens SP--South Jetty/Parking Area C","2025-06-24 16:30",2,46.2286726,-124.0217721,TRUE,FALSE,FALSE,"S253834770"
"192","glwgul","Glaucous-winged Gull","Larus glaucescens","L520653","Ebey's Landing NHP--Fort Ebey--Gun Battery","2025-06-24 16:27",2,48.2169401,-122.7618407,TRUE,FALSE,FALSE,"S253859956"
"193","glwgul","Glaucous-winged Gull","Larus glaucescens","L46626347","Smith Island","2025-06-24 16:26",200,48.318548,-122.841833,TRUE,FALSE,TRUE,"S253843091"
"194","glwgul","Glaucous-winged Gull","Larus glaucescens","L815222","Humboldt Bay--Woodley Island","2025-06-24 15:29",14,40.809868,-124.161412,TRUE,FALSE,FALSE,"S253818909"
"195","glwgul","Glaucous-winged Gull","Larus glaucescens","L6097875","Point Edwards Community Trail, Edmonds","2025-06-24 15:05",4,47.8035231,-122.3861609,TRUE,FALSE,FALSE,"S253813247"
"196","glwgul","Glaucous-winged Gull","Larus glaucescens","L127964","Seward--Lowell Point","2025-06-24 15:02",4,60.0706365,-149.4349383,TRUE,FALSE,FALSE,"S253831238"
"197","glwgul","Glaucous-winged Gull","Larus glaucescens","L684244","Skagway--Lower Dewey Lake Trail","2025-06-24 14:42",6,59.4513054,-135.3035917,TRUE,FALSE,FALSE,"S254036538"
"198","glwgul","Glaucous-winged Gull","Larus glaucescens","L486925","Crescent City Harbor--B Street pier and jetty","2025-06-24 14:39",1,41.7439081,-124.1976929,TRUE,FALSE,FALSE,"S253859864"
"199","glwgul","Glaucous-winged Gull","Larus glaucescens","L590833","La Push","2025-06-24 14:36",1,47.9082232,-124.6395031,TRUE,FALSE,FALSE,"S254162448"
"200","glwgul","Glaucous-winged Gull","Larus glaucescens","L2977912","Seaside (town)","2025-06-24 14:20",2,45.9930925,-123.9230647,TRUE,FALSE,FALSE,"S254091464"
"201","glwgul","Glaucous-winged Gull","Larus glaucescens","L1764188","Bodega Bay--Gaffney Pt. - includes Marine Lab and residence entrances","2025-06-24 13:55",1,38.3150602,-123.0578613,TRUE,FALSE,FALSE,"S254173112"
"202","glwgul","Glaucous-winged Gull","Larus glaucescens","L2879090","Fort Stevens SP--Wreck of the Peter Iredale","2025-06-24 13:51",7,46.1771308,-123.9787881,TRUE,FALSE,FALSE,"S253805423"
"203","glwgul","Glaucous-winged Gull","Larus glaucescens","L38977976","Adak Island--city limits (east of airport)","2025-06-24 13:45",4,51.8764454,-176.6334005,TRUE,FALSE,TRUE,"S253873555"
"204","glwgul","Glaucous-winged Gull","Larus glaucescens","L1064269","Sportsmens Club Road (Cowlitz Co.)","2025-06-24 13:11",6,46.03891,-122.87399,TRUE,FALSE,FALSE,"S253788221"
"205","glwgul","Glaucous-winged Gull","Larus glaucescens","L5819467","Austin Estuary Park","2025-06-24 13:06",4,47.3368887,-122.5924712,TRUE,FALSE,FALSE,"S253792859"
"206","glwgul","Glaucous-winged Gull","Larus glaucescens","L1894620","Edmonds-Kingston Ferry (Kitsap Co.)","2025-06-24 13:05",1,47.7905873,-122.4693278,TRUE,FALSE,FALSE,"S253783689"
"207","glwgul","Glaucous-winged Gull","Larus glaucescens","L14319095","Renton Technical College","2025-06-24 13:04",1,47.4919186,-122.175365,TRUE,FALSE,TRUE,"S253803376"
"208","glwgul","Glaucous-winged Gull","Larus glaucescens","L48392313","Auto selected 60.77302, -147.96175","2025-06-24 13:01",200,60.773022,-147.961747,TRUE,FALSE,TRUE,"S253794661"
"209","glwgul","Glaucous-winged Gull","Larus glaucescens","L480335","Oak Bay County Park","2025-06-24 12:57",1,48.0201853,-122.7313614,TRUE,FALSE,FALSE,"S253804506"
"210","glwgul","Glaucous-winged Gull","Larus glaucescens","L1122288","Kodiak Is.--Buskin River SRS","2025-06-24 12:54",4,57.7560906,-152.4844837,TRUE,FALSE,FALSE,"S253852861"
"211","glwgul","Glaucous-winged Gull","Larus glaucescens","L280301","Edmonds-Kingston Ferry (Snohomish Co.)","2025-06-24 12:49",2,47.8097152,-122.4237442,TRUE,FALSE,FALSE,"S253782067"
"212","glwgul","Glaucous-winged Gull","Larus glaucescens","L16969244","Mouth of Ecola Creek, Cannon Beach","2025-06-24 12:44",1,45.8975546,-123.9641207,TRUE,FALSE,TRUE,"S253783433"
"213","glwgul","Glaucous-winged Gull","Larus glaucescens","L4021198","Chambers Creek Regional Park","2025-06-24 12:28",2,47.2006984,-122.5778787,TRUE,FALSE,FALSE,"S253874430"
"214","glwgul","Glaucous-winged Gull","Larus glaucescens","L6001547","Dr Jose Rizal Park","2025-06-24 12:23",8,47.592171,-122.319014,TRUE,FALSE,FALSE,"S253786487"
"215","glwgul","Glaucous-winged Gull","Larus glaucescens","L20643232","Brackett's Landing","2025-06-24 12:20",2,47.8133344,-122.3820588,TRUE,FALSE,FALSE,"S253777928"
"216","glwgul","Glaucous-winged Gull","Larus glaucescens","L3494695","Elliott Bay Trail--Terminal 91","2025-06-24 12:15",4,47.631283,-122.3778409,TRUE,FALSE,FALSE,"S253774807"
"217","glwgul","Glaucous-winged Gull","Larus glaucescens","L48386058","809 Stewart St, Seattle US-WA 47.61525, -122.33460","2025-06-24 12:12",3,47.615249,-122.334603,TRUE,FALSE,TRUE,"S253771271"
"218","glwgul","Glaucous-winged Gull","Larus glaucescens","L48391522","32100–32160 Old Nash Rd, Seward US-AK (60.1435,-149.4148)","2025-06-24 12:02",2,60.143543,-149.414794,TRUE,FALSE,TRUE,"S253791451"
"219","glwgul","Glaucous-winged Gull","Larus glaucescens","L2488014","Apple Cove Point","2025-06-24 11:45",6,47.8083164,-122.4834824,TRUE,FALSE,FALSE,"S253828820"
"220","glwgul","Glaucous-winged Gull","Larus glaucescens","L1431997","Seward--Lowell Point Rd.","2025-06-24 11:39",10,60.0920271,-149.4438457,TRUE,FALSE,FALSE,"S253779728"
"221","glwgul","Glaucous-winged Gull","Larus glaucescens","L10916861","Keyport Saltwater Park","2025-06-24 11:26",7,47.7008292,-122.6273819,TRUE,FALSE,FALSE,"S253762353"
"222","glwgul","Glaucous-winged Gull","Larus glaucescens","L8180226","Fred Hutchinson Cancer Center","2025-06-24 11:23",4,47.6276314,-122.3308009,TRUE,FALSE,FALSE,"S253767012"
"223","glwgul","Glaucous-winged Gull","Larus glaucescens","L19437855","Iceberg Island","2025-06-24 11:17",2,48.42738,-122.888885,TRUE,FALSE,TRUE,"S253855082"
"224","glwgul","Glaucous-winged Gull","Larus glaucescens","L1049118","Port Townsend Marine Science Center","2025-06-24 11:16",1,48.1357285,-122.7616489,TRUE,FALSE,FALSE,"S254298418"
"225","glwgul","Glaucous-winged Gull","Larus glaucescens","L284497","John Wayne Marina","2025-06-24 11:13",3,48.0623184,-123.0416377,TRUE,FALSE,FALSE,"S253770475"
"226","glwgul","Glaucous-winged Gull","Larus glaucescens","L8096432","Mendenhall Glacier--Nugget Falls","2025-06-24 11:13",2,58.4275357,-134.5369849,TRUE,FALSE,FALSE,"S254118418"
"227","glwgul","Glaucous-winged Gull","Larus glaucescens","L744276","Sea Lion Pt. & Overlook","2025-06-24 11:11",1,44.1255763,-124.1258445,TRUE,FALSE,FALSE,"S253766008"
"228","glwgul","Glaucous-winged Gull","Larus glaucescens","L16077275","Cormorant Cove, West Seattle","2025-06-24 11:07",30,47.5708987,-122.4115382,TRUE,FALSE,FALSE,"S253777085"
"229","glwgul","Glaucous-winged Gull","Larus glaucescens","L1037302","Fauntleroy-Vashon Island Ferry","2025-06-24 11:05",13,47.5197512,-122.4285507,TRUE,FALSE,FALSE,"S253764337"
"230","glwgul","Glaucous-winged Gull","Larus glaucescens","L48390177","Chichagof Island, Elfin Cove US-AK 58.10144, -136.28413","2025-06-24 10:58",50,58.101443,-136.284134,TRUE,FALSE,TRUE,"S253787701"
"231","glwgul","Glaucous-winged Gull","Larus glaucescens","L15395322","Auto selected 48.41698, -122.87335","2025-06-24 10:55",2,48.416984,-122.873346,TRUE,FALSE,TRUE,"S253855153"
"232","glwgul","Glaucous-winged Gull","Larus glaucescens","L7245050","Auke Bay--Statter Harbor","2025-06-24 10:55",12,58.3831334,-134.6492529,TRUE,FALSE,FALSE,"S253788764"
"233","glwgul","Glaucous-winged Gull","Larus glaucescens","L48385590","Sitka Sound, Sitka US-AK 57.13073, -135.39866","2025-06-24 10:40",6,57.130727,-135.398656,TRUE,FALSE,TRUE,"S253769375"
"234","glwgul","Glaucous-winged Gull","Larus glaucescens","L726782","March Point","2025-06-24 10:35",4,48.4988626,-122.5581551,TRUE,FALSE,FALSE,"S253771323"
"235","glwgul","Glaucous-winged Gull","Larus glaucescens","L2297349","Anacortes -- Sunset Cove Community Gazebo","2025-06-24 10:35",4,48.4922679,-122.6887867,TRUE,FALSE,FALSE,"S253771982"
"236","glwgul","Glaucous-winged Gull","Larus glaucescens","L5786158","Ebey Waterfront Trail, Marysville","2025-06-24 10:25",2,48.0458046,-122.1758652,TRUE,FALSE,FALSE,"S253778508"
"237","glwgul","Glaucous-winged Gull","Larus glaucescens","L48381339","Oregon Institute of Marine Biology","2025-06-24 10:17",4,43.34593,-124.329136,TRUE,FALSE,TRUE,"S253752177"
"238","glwgul","Glaucous-winged Gull","Larus glaucescens","L5582722","Minter Creek Fish Hatchery","2025-06-24 10:15",1,47.3724236,-122.7026993,TRUE,FALSE,FALSE,"S253846599"
"239","glwgul","Glaucous-winged Gull","Larus glaucescens","L1603455","Rancho del Oso--Marsh Trail","2025-06-24 10:00",1,37.0987722,-122.2749828,TRUE,FALSE,FALSE,"S253833869"
"240","glwgul","Glaucous-winged Gull","Larus glaucescens","L295630","Devils Elbow SP (Heceta Head Lighthouse State Scenic Area)","2025-06-24 09:57",1,44.1350095,-124.1230775,TRUE,FALSE,FALSE,"S253852436"
"241","glwgul","Glaucous-winged Gull","Larus glaucescens","L18858661","Whiskey Gulch Beach","2025-06-24 09:48",58,59.8320957,-151.8198617,TRUE,FALSE,FALSE,"S253753719"
"242","glwgul","Glaucous-winged Gull","Larus glaucescens","L2763900","Shipwreck Point","2025-06-24 09:33",7,48.3159527,-124.4472885,TRUE,FALSE,FALSE,"S254035997"
"243","glwgul","Glaucous-winged Gull","Larus glaucescens","L45576655","1800 Harborview Dr, Aberdeen US-WA 46.98793, -123.83662","2025-06-24 09:15",3,46.987931,-123.836616,TRUE,FALSE,TRUE,"S253836808"
"244","glwgul","Glaucous-winged Gull","Larus glaucescens","L8363744","Rockaway sewage pond (restricted access)","2025-06-24 09:13",6,45.6085293,-123.9407792,TRUE,FALSE,FALSE,"S253759054"
"245","glwgul","Glaucous-winged Gull","Larus glaucescens","L32953849","Lowell Point Wastewater Treatment Plant","2025-06-24 09:08",4,60.072466,-149.444503,TRUE,FALSE,FALSE,"S253743562"
"246","glwgul","Glaucous-winged Gull","Larus glaucescens","L22164722","Seward--Waterfall Beach","2025-06-24 08:59",10,60.0977612,-149.4440871,TRUE,FALSE,FALSE,"S253743331"
"247","glwgul","Glaucous-winged Gull","Larus glaucescens","L447385","Ecola SP","2025-06-24 08:45",3,45.9183632,-123.9774513,TRUE,FALSE,FALSE,"S253761876"
"248","glwgul","Glaucous-winged Gull","Larus glaucescens","L618446","Seward--Lagoon & Benny Benson Memorial Park","2025-06-24 08:41",2,60.1185392,-149.4424081,TRUE,FALSE,FALSE,"S253746192"
"249","glwgul","Glaucous-winged Gull","Larus glaucescens","L1904567","Petersburg (town)","2025-06-24 08:35",10,56.8119983,-132.955513,TRUE,FALSE,FALSE,"S253797967"
"250","glwgul","Glaucous-winged Gull","Larus glaucescens","L3043942","James Island","2025-06-24 08:22",13,48.5115878,-122.771616,TRUE,FALSE,FALSE,"S253758593"
"251","glwgul","Glaucous-winged Gull","Larus glaucescens","L13785694","UW--Fritz Hedges Waterway Park & Sakuma","2025-06-24 08:16",2,47.6520764,-122.3160052,TRUE,FALSE,FALSE,"S253736578"
"252","glwgul","Glaucous-winged Gull","Larus glaucescens","L7900725","Alaska Maritime NWR--Chowiet Island","2025-06-24 08:00",80,56.032946,-156.705554,TRUE,FALSE,FALSE,"S253894473"
"253","glwgul","Glaucous-winged Gull","Larus glaucescens","L3079377","Bandon Marsh NWR--Observation Deck","2025-06-24 07:57",1,43.130861,-124.4013423,TRUE,FALSE,FALSE,"S253712088"
"254","glwgul","Glaucous-winged Gull","Larus glaucescens","L16707421","Morse Creek Estuary","2025-06-24 07:53",2,48.116971,-123.352917,TRUE,FALSE,TRUE,"S253808739"
"255","glwgul","Glaucous-winged Gull","Larus glaucescens","L29936942","752 West Hemlock Street, Sequim, Washington","2025-06-24 07:51",2,48.0754061,-123.1196153,TRUE,FALSE,TRUE,"S253777857"
"256","glwgul","Glaucous-winged Gull","Larus glaucescens","L9597284","Point Defiance Park--Dune Peninsula & Wilson Way","2025-06-24 07:44",1,47.3050674,-122.5095794,TRUE,FALSE,FALSE,"S253713364"
"257","glwgul","Glaucous-winged Gull","Larus glaucescens","L1026441","University of Washington Seattle Campus","2025-06-24 07:39",2,47.6572653,-122.3072076,TRUE,FALSE,FALSE,"S253736991"
"258","glwgul","Glaucous-winged Gull","Larus glaucescens","L1528742","Dock Point Trail","2025-06-24 07:25",4,61.1282181,-146.3303329,TRUE,FALSE,FALSE,"S253864534"
"259","glwgul","Glaucous-winged Gull","Larus glaucescens","L25377355","Foote St House","2025-06-24 07:22",1,47.041481,-122.915746,TRUE,FALSE,TRUE,"S253751282"
"260","glwgul","Glaucous-winged Gull","Larus glaucescens","L4944874","Olympic NP--Second Beach","2025-06-24 07:15",1,47.8903918,-124.627018,TRUE,FALSE,FALSE,"S253737911"
"261","glwgul","Glaucous-winged Gull","Larus glaucescens","L9753733","Endicott Arm (SE end)","2025-06-24 07:01",1,57.6118957,-133.228275,TRUE,FALSE,FALSE,"S254281315"
"262","glwgul","Glaucous-winged Gull","Larus glaucescens","L7196603","Kodiak Is.--City of Kodiak-Pier 2","2025-06-24 06:55",2,57.7837618,-152.4261671,TRUE,FALSE,FALSE,"S253852917"
"263","glwgul","Glaucous-winged Gull","Larus glaucescens","L285366","Golden Gardens Park","2025-06-24 06:50",NA,47.6928546,-122.4054806,TRUE,FALSE,FALSE,"S253712696"
"264","glwgul","Glaucous-winged Gull","Larus glaucescens","L13774820","Clark’s Point (Whatcom Land Trust)","2025-06-24 06:05",3,48.698089,-122.511059,TRUE,FALSE,FALSE,"S253686767"
"265","glwgul","Glaucous-winged Gull","Larus glaucescens","L5254555","Gearhart Ocean State Park","2025-06-24 06:00",4,46.0174524,-123.9264379,TRUE,FALSE,FALSE,"S253822130"
"266","glwgul","Glaucous-winged Gull","Larus glaucescens","L5548250","Appletree Cove--Marina Boat Ramp","2025-06-23 19:00",1,47.7965336,-122.4993476,TRUE,FALSE,FALSE,"S253708624"
"267","glwgul","Glaucous-winged Gull","Larus glaucescens","L383284","Juneau (town)","2025-06-23 18:20",2,58.3022738,-134.4198704,TRUE,FALSE,FALSE,"S253582770"
"268","glwgul","Glaucous-winged Gull","Larus glaucescens","L4337832","Point Defiance Park--Rose Garden Pond","2025-06-23 17:50",3,47.3027739,-122.5167203,TRUE,FALSE,FALSE,"S253595171"
"269","glwgul","Glaucous-winged Gull","Larus glaucescens","L210903","Cordova--Hartney Bay","2025-06-23 17:42",5,60.4983201,-145.868013,TRUE,FALSE,FALSE,"S253791395"
"270","glwgul","Glaucous-winged Gull","Larus glaucescens","L3143017","Homer Spit--Outer Spit (Fishing Hole to Lands End)","2025-06-23 17:42",1000,59.6070451,-151.4331865,TRUE,FALSE,FALSE,"S253578028"
"271","glwgul","Glaucous-winged Gull","Larus glaucescens","L48343400","4535 Homer Spit Road, Homer, Alaska, US (59.601, -151.416)","2025-06-23 17:23",70,59.6008287,-151.4160664,TRUE,FALSE,TRUE,"S253576826"
"272","glwgul","Glaucous-winged Gull","Larus glaucescens","L22410914","Baywood Nature Trail","2025-06-23 17:17",53,48.0179423,-122.2109686,TRUE,FALSE,FALSE,"S253570859"
"273","glwgul","Glaucous-winged Gull","Larus glaucescens","L491769","Unalaska Is.--Dutch Harbor","2025-06-23 17:14",2,53.8891656,-166.5398598,TRUE,FALSE,FALSE,"S253572866"
"274","glwgul","Glaucous-winged Gull","Larus glaucescens","L13059250","Cape Disappointment SP--Bell's View","2025-06-23 17:12",1,46.3008874,-124.0758611,TRUE,FALSE,FALSE,"S253565127"
"275","glwgul","Glaucous-winged Gull","Larus glaucescens","L48340008","Samueli deck","2025-06-23 17:08",2,48.668584,-122.779956,TRUE,FALSE,TRUE,"S253561568"
"276","glwgul","Glaucous-winged Gull","Larus glaucescens","L2024109","Seward--New Headlands","2025-06-23 17:07",1,60.1151715,-149.4371939,TRUE,FALSE,FALSE,"S253584128"
"277","glwgul","Glaucous-winged Gull","Larus glaucescens","L1465184","Fisherman's Terminal (Magnolia)","2025-06-23 17:07",3,47.6558744,-122.3806241,TRUE,FALSE,FALSE,"S253586042"
"278","glwgul","Glaucous-winged Gull","Larus glaucescens","L937659","Kenai--Tarbox Wildlife Viewing Platform","2025-06-23 16:50",250,60.5420341,-151.2194681,TRUE,FALSE,FALSE,"S253591405"
"279","glwgul","Glaucous-winged Gull","Larus glaucescens","L840172","Whittier (town)","2025-06-23 16:48",15,60.777602,-148.7033844,TRUE,FALSE,FALSE,"S253582354"
"280","glwgul","Glaucous-winged Gull","Larus glaucescens","L336663","Lighthouse Marine Park, Point Roberts","2025-06-23 16:44",55,48.9722422,-123.0836705,TRUE,FALSE,FALSE,"S254393241"
"281","glwgul","Glaucous-winged Gull","Larus glaucescens","L3545525","Mendenhall Glacier--E. Glacier Trail","2025-06-23 16:25",4,58.4207409,-134.5365143,TRUE,FALSE,FALSE,"S253573991"
"282","glwgul","Glaucous-winged Gull","Larus glaucescens","L153926","Tongass NF--Mendenhall Visitor Center & Trails","2025-06-23 16:17",4,58.4165947,-134.5469507,TRUE,FALSE,FALSE,"S253580552"
"283","glwgul","Glaucous-winged Gull","Larus glaucescens","L10972959","Seola Pond","2025-06-23 16:13",2,47.5090484,-122.3701644,TRUE,FALSE,FALSE,"S253556520"
"284","glwgul","Glaucous-winged Gull","Larus glaucescens","L490844","Colman Park","2025-06-23 16:01",2,47.58632,-122.288135,TRUE,FALSE,FALSE,"S253581688"
"285","glwgul","Glaucous-winged Gull","Larus glaucescens","L33625551","Pier 62","2025-06-23 15:54",5,47.608624,-122.3450532,TRUE,FALSE,FALSE,"S253552770"
"286","glwgul","Glaucous-winged Gull","Larus glaucescens","L273591","Diamond Point","2025-06-23 15:53",2,48.0952891,-122.9202042,TRUE,FALSE,FALSE,"S253543288"
"287","glwgul","Glaucous-winged Gull","Larus glaucescens","L1476784","Blaine Marina","2025-06-23 15:49",135,48.9917595,-122.7665542,TRUE,FALSE,FALSE,"S253672837"
"288","glwgul","Glaucous-winged Gull","Larus glaucescens","L1667064","Leque Island--Eide Rd.","2025-06-23 15:46",5,48.2320943,-122.3829746,TRUE,FALSE,FALSE,"S253556431"
"289","glwgul","Glaucous-winged Gull","Larus glaucescens","L16653103","Mattole Campground","2025-06-23 15:33",1,40.2891806,-124.3561362,TRUE,FALSE,FALSE,"S254083074"
"290","glwgul","Glaucous-winged Gull","Larus glaucescens","L48348781","Auto selected 59.63379, -149.59245","2025-06-23 15:32",210,59.63379,-149.592455,TRUE,FALSE,TRUE,"S253601916"
"291","glwgul","Glaucous-winged Gull","Larus glaucescens","L695979","Disenchantment Bay","2025-06-23 15:31",10,59.9510513,-139.5788381,TRUE,FALSE,FALSE,"S253597387"
"292","glwgul","Glaucous-winged Gull","Larus glaucescens","L6114756","Yakutat Bay","2025-06-23 15:25",5,59.683818,-139.8881006,TRUE,FALSE,FALSE,"S253852508"
"293","glwgul","Glaucous-winged Gull","Larus glaucescens","L591433","Stinson Beach","2025-06-23 15:15",1,37.8963357,-122.6392436,TRUE,FALSE,FALSE,"S253561248"
"294","glwgul","Glaucous-winged Gull","Larus glaucescens","L1309593","Keystone Ferry Landing","2025-06-23 15:04",9,48.1566961,-122.6702499,TRUE,FALSE,FALSE,"S253544724"
"295","glwgul","Glaucous-winged Gull","Larus glaucescens","L1284994","Me-Kwa-Mooks Park","2025-06-23 14:49",8,47.563362,-122.4064708,TRUE,FALSE,FALSE,"S253546229"
"296","glwgul","Glaucous-winged Gull","Larus glaucescens","L2765154","Kenai--Warren Ames Bridge (river, flats & gull roost)","2025-06-23 14:30",5,60.525399,-151.2090182,TRUE,FALSE,FALSE,"S253590953"
"297","glwgul","Glaucous-winged Gull","Larus glaucescens","L48343488","Cape Romanzof LRRS--Nilumat Creek Mouth (restricted access)","2025-06-23 14:26",1,61.7666127,-166.0533633,TRUE,FALSE,TRUE,"S253577203"
"298","glwgul","Glaucous-winged Gull","Larus glaucescens","L48317335","Ocean Dr, Warrenton US-OR","2025-06-23 14:22",3,46.072649,-123.92986,TRUE,FALSE,TRUE,"S253531095"
"299","glwgul","Glaucous-winged Gull","Larus glaucescens","L48337119","Glacier Bay inlet","2025-06-23 14:17",5,58.834112,-136.490031,TRUE,FALSE,TRUE,"S253547611"
"300","glwgul","Glaucous-winged Gull","Larus glaucescens","L48348751","Auto selected 59.74161, -149.90348","2025-06-23 14:16",14,59.741614,-149.903481,TRUE,FALSE,TRUE,"S253601710"
"301","glwgul","Glaucous-winged Gull","Larus glaucescens","L2349115","Cape Disappointment SP--North Head","2025-06-23 14:14",5,46.29863,-124.0775084,TRUE,FALSE,FALSE,"S253541381"
"302","glwgul","Glaucous-winged Gull","Larus glaucescens","L27442797","Smith Cove Park","2025-06-23 14:06",2,47.6316678,-122.3868041,TRUE,FALSE,FALSE,"S253579037"
"303","glwgul","Glaucous-winged Gull","Larus glaucescens","L384800","High Bluff Overlook","2025-06-23 13:50",1,41.5093165,-124.0792251,TRUE,FALSE,FALSE,"S254244777"
"304","glwgul","Glaucous-winged Gull","Larus glaucescens","L800185","Cape Flattery","2025-06-23 13:45",3,48.385884,-124.7266299,TRUE,FALSE,FALSE,"S253542352"
"305","glwgul","Glaucous-winged Gull","Larus glaucescens","L30709626","1023–1051 Lutak Rd, Haines US-AK 59.24163, -135.43153","2025-06-23 13:43",6,59.241627,-135.431532,TRUE,FALSE,TRUE,"S253575151"
"306","glwgul","Glaucous-winged Gull","Larus glaucescens","L48330891","Fletcher Bay Landing","2025-06-23 13:39",2,47.642338,-122.578672,TRUE,FALSE,TRUE,"S253521083"
"307","glwgul","Glaucous-winged Gull","Larus glaucescens","L4084597","Subaru dealer","2025-06-23 13:17",2,47.526731,-122.694504,TRUE,FALSE,TRUE,"S253521762"
"308","glwgul","Glaucous-winged Gull","Larus glaucescens","L31958502","Fort Stevens SP--Social Security Beach","2025-06-23 13:12",1,46.2373632,-124.0056326,TRUE,FALSE,FALSE,"S253530459"
"309","glwgul","Glaucous-winged Gull","Larus glaucescens","L22153701","Bellingham Boardwalk","2025-06-23 13:00",6,48.7303793,-122.5038135,TRUE,FALSE,FALSE,"S253517704"
"310","glwgul","Glaucous-winged Gull","Larus glaucescens","L283821","Cedar River mouth","2025-06-23 12:49",9,47.5007162,-122.2146012,TRUE,FALSE,FALSE,"S253519677"
"311","glwgul","Glaucous-winged Gull","Larus glaucescens","L4349262","Anacortes--Tommy Thompson Trail","2025-06-23 12:15",24,48.4938254,-122.6018509,TRUE,FALSE,FALSE,"S253514638"
"312","glwgul","Glaucous-winged Gull","Larus glaucescens","L48346539","2201 Skyline Way, Anacortes, Washington, US (48.492, -122.684)","2025-06-23 12:05",1,48.492116,-122.6838585,TRUE,FALSE,TRUE,"S253590478"
"313","glwgul","Glaucous-winged Gull","Larus glaucescens","L2528153","Marine Park, Bellingham","2025-06-23 11:52",1,48.719177,-122.515797,TRUE,FALSE,FALSE,"S253496273"
"314","glwgul","Glaucous-winged Gull","Larus glaucescens","L949540","Gasworks Park","2025-06-23 11:48",1,47.6467207,-122.3341799,TRUE,FALSE,FALSE,"S253503711"
"315","glwgul","Glaucous-winged Gull","Larus glaucescens","L4566503","Cordova--Fleming Spit","2025-06-23 11:27",32,60.5627448,-145.7432945,TRUE,FALSE,FALSE,"S253541667"
"316","glwgul","Glaucous-winged Gull","Larus glaucescens","L9673053","Stariski Tern Colony","2025-06-23 11:25",15,59.8374996,-151.8067878,TRUE,FALSE,FALSE,"S253515150"
"317","glwgul","Glaucous-winged Gull","Larus glaucescens","L2699321","Weaverling Spit (restricted access)","2025-06-23 11:22",6,48.4825939,-122.5888824,TRUE,FALSE,FALSE,"S253514567"
"318","glwgul","Glaucous-winged Gull","Larus glaucescens","L48335044","North Pacific Ocean, Samish TDSA US-WA 48.51228, -122.67441","2025-06-23 11:17",40,48.512279,-122.674412,TRUE,FALSE,TRUE,"S253538343"
"319","glwgul","Glaucous-winged Gull","Larus glaucescens","L5228143","Elliott Bay Trail, Seattle","2025-06-23 11:08",1,47.6154919,-122.3563221,TRUE,FALSE,FALSE,"S253499165"
"320","glwgul","Glaucous-winged Gull","Larus glaucescens","L8151616","Kodiak Is.--Near Island","2025-06-23 11:06",7,57.7810021,-152.4018664,TRUE,FALSE,FALSE,"S253516248"
"321","glwgul","Glaucous-winged Gull","Larus glaucescens","L26511424","Lumen Field","2025-06-23 10:46",5,47.5951769,-122.3316345,TRUE,FALSE,FALSE,"S253485186"
"322","glwgul","Glaucous-winged Gull","Larus glaucescens","L1335609","Camano Island SP","2025-06-23 10:33",3,48.1253264,-122.4930504,TRUE,FALSE,FALSE,"S253479949"
"323","glwgul","Glaucous-winged Gull","Larus glaucescens","L1144607","Cape Disappointment SP--Cape Disappointment Lighthouse","2025-06-23 10:19",1,46.2756,-124.0518,TRUE,FALSE,FALSE,"S253495092"
"324","glwgul","Glaucous-winged Gull","Larus glaucescens","L48348698","Auto selected 59.77661, -149.43550","2025-06-23 09:56",405,59.776606,-149.435497,TRUE,FALSE,TRUE,"S253601510"
"325","glwgul","Glaucous-winged Gull","Larus glaucescens","L48350095","Cruise Between Whittier And Hubbard Glacier","2025-06-23 09:55",4,59.4977181,-141.6963224,TRUE,FALSE,TRUE,"S253608275"
"326","glwgul","Glaucous-winged Gull","Larus glaucescens","L39599518","Roundabout Wetland","2025-06-23 09:30",1,47.5469713,-122.0429008,TRUE,FALSE,TRUE,"S253604279"
"327","glwgul","Glaucous-winged Gull","Larus glaucescens","L864689","Olympic NP--Rialto Beach","2025-06-23 08:59",2,47.9196209,-124.6385193,TRUE,FALSE,FALSE,"S253496724"
"328","glwgul","Glaucous-winged Gull","Larus glaucescens","L3871507","Roxhill Park, Seattle","2025-06-23 08:58",1,47.5199463,-122.3688555,TRUE,FALSE,FALSE,"S253460239"
"329","glwgul","Glaucous-winged Gull","Larus glaucescens","L48314134","Three graces","2025-06-23 08:47",1,45.563989,-123.936607,TRUE,FALSE,TRUE,"S253456262"
"330","glwgul","Glaucous-winged Gull","Larus glaucescens","L441068","Greyhound Rock CP","2025-06-23 08:32",1,37.0794856,-122.2650003,TRUE,FALSE,FALSE,"S253460501"
"331","glwgul","Glaucous-winged Gull","Larus glaucescens","L48317743","27321–27335 Seward Hwy, Anchorage US-AK 60.98905, -149.61539","2025-06-23 08:30",4,60.989054,-149.61539,TRUE,FALSE,TRUE,"S253470595"
"332","glwgul","Glaucous-winged Gull","Larus glaucescens","L496326","Outer Point Trail","2025-06-23 08:24",1,58.302364,-134.6786499,TRUE,FALSE,FALSE,"S253514405"
"333","glwgul","Glaucous-winged Gull","Larus glaucescens","L13170453","Wynn Jones Park","2025-06-23 08:14",1,47.5868899,-122.5560062,TRUE,FALSE,TRUE,"S253456329"
"334","glwgul","Glaucous-winged Gull","Larus glaucescens","L250091","Theler Wetlands","2025-06-23 08:13",1,47.4378813,-122.8411134,TRUE,FALSE,FALSE,"S253588840"
"335","glwgul","Glaucous-winged Gull","Larus glaucescens","L5530198","Pike Place Market, Seattle","2025-06-23 08:11",2,47.6101389,-122.3420106,TRUE,FALSE,FALSE,"S253452839"
"336","glwgul","Glaucous-winged Gull","Larus glaucescens","L5154795","Clinton Ferry Terminal","2025-06-23 08:11",2,47.975396,-122.3494577,TRUE,FALSE,FALSE,"S253445541"
"337","glwgul","Glaucous-winged Gull","Larus glaucescens","L23183513","Shopping","2025-06-23 08:04",4,48.0753652,-123.1196112,TRUE,FALSE,TRUE,"S253492108"
"338","glwgul","Glaucous-winged Gull","Larus glaucescens","L2493739","Exit Glacier Road","2025-06-23 07:53",10,60.1936882,-149.6094131,TRUE,FALSE,TRUE,"S253479617"
"339","glwgul","Glaucous-winged Gull","Larus glaucescens","L450388","Lake Hood & Lake Spenard","2025-06-23 07:53",5,61.1787982,-149.9607182,TRUE,FALSE,FALSE,"S253542664"
"340","glwgul","Glaucous-winged Gull","Larus glaucescens","L1022652","Ketchikan (town)","2025-06-23 07:53",1,55.3427645,-131.6462517,TRUE,FALSE,FALSE,"S253451654"
"341","glwgul","Glaucous-winged Gull","Larus glaucescens","L15647292","8546 Mill Bight Rd NE, Olympia US-WA 47.15606, -122.79824","2025-06-23 07:49",1,47.156055,-122.798236,TRUE,FALSE,TRUE,"S253447002"
"342","glwgul","Glaucous-winged Gull","Larus glaucescens","L3883703","Sitka--Harbor","2025-06-23 07:41",100,57.0574415,-135.3578796,TRUE,FALSE,FALSE,"S253572935"
"343","glwgul","Glaucous-winged Gull","Larus glaucescens","L608334","Point Hudson","2025-06-23 07:35",4,48.117861,-122.7494931,TRUE,FALSE,FALSE,"S253452467"
"344","glwgul","Glaucous-winged Gull","Larus glaucescens","L164411","Necanicum River Estuary","2025-06-23 07:28",1,46.016186,-123.918976,TRUE,FALSE,FALSE,"S253452375"
"345","glwgul","Glaucous-winged Gull","Larus glaucescens","L292851","Fort Worden SP","2025-06-23 07:14",2,48.1408906,-122.7680969,TRUE,FALSE,FALSE,"S253429515"
"346","glwgul","Glaucous-winged Gull","Larus glaucescens","L47890468","Saint George Island, St. George US-AK 56.60376, -169.60779","2025-06-23 07:07",8,56.603762,-169.607795,TRUE,FALSE,TRUE,"S253589091"
"347","glwgul","Glaucous-winged Gull","Larus glaucescens","L30556992","Carpenter Lake, Kingston US-WA 47.80335, -122.51725","2025-06-23 06:51",1,47.803346,-122.517246,TRUE,FALSE,TRUE,"S253431598"
"348","glwgul","Glaucous-winged Gull","Larus glaucescens","L593689","North Vashon Ferry Terminal","2025-06-23 06:50",1,47.5102442,-122.4645996,TRUE,FALSE,FALSE,"S253445657"
"349","glwgul","Glaucous-winged Gull","Larus glaucescens","L18271769","Interurban Trail—Mathay-Ballinger Park to 220th St SW","2025-06-23 06:46",1,47.7917156,-122.3317029,TRUE,FALSE,TRUE,"S253458816"
"350","glwgul","Glaucous-winged Gull","Larus glaucescens","L13019091","Cape Disappointment SP--O'Neil Lake","2025-06-23 06:33",2,46.2840356,-124.0562674,TRUE,FALSE,FALSE,"S253431942"
"351","glwgul","Glaucous-winged Gull","Larus glaucescens","L5609326","Cordova--Goose Cove (Pt. Whitshed)","2025-06-23 06:30",NA,60.4598416,-145.9562016,TRUE,FALSE,FALSE,"S253752875"
"352","glwgul","Glaucous-winged Gull","Larus glaucescens","L1884624","Jenner Beach","2025-06-23 06:30",1,38.4486922,-123.1276559,TRUE,FALSE,FALSE,"S253512862"
"353","glwgul","Glaucous-winged Gull","Larus glaucescens","L8365620","Issaquah High School","2025-06-23 06:20",1,47.52249,-122.028687,TRUE,FALSE,FALSE,"S253457550"
"354","glwgul","Glaucous-winged Gull","Larus glaucescens","L901766","Billy Frank Jr. Nisqually NWR--Twin Barns Loop","2025-06-23 06:15",15,47.0780133,-122.7119207,TRUE,FALSE,FALSE,"S253513002"
"355","glwgul","Glaucous-winged Gull","Larus glaucescens","L391210","Point Bridget SP","2025-06-23 05:15",5,58.6640847,-134.9630928,TRUE,FALSE,FALSE,"S253531770"
"356","glwgul","Glaucous-winged Gull","Larus glaucescens","L684243","Haines--Chilkoot Inlet ","2025-06-23 05:04",15,59.2353375,-135.3743935,TRUE,FALSE,FALSE,"S253425812"
"357","glwgul","Glaucous-winged Gull","Larus glaucescens","L834171","Deception Pass SP -- West Beach","2025-06-23 04:26",3,48.4000277,-122.6643831,TRUE,FALSE,FALSE,"S254106152"
"358","glwgul","Glaucous-winged Gull","Larus glaucescens","L10225531","Arboretum Waterfront Trail","2025-06-22 20:50",1,47.6460263,-122.2970218,TRUE,FALSE,FALSE,"S253326481"
"359","glwgul","Glaucous-winged Gull","Larus glaucescens","L48287464","Lincoln City Beach","2025-06-22 20:15",1,44.9819073,-124.0154682,TRUE,FALSE,TRUE,"S253331929"
"360","glwgul","Glaucous-winged Gull","Larus glaucescens","L16412360","Hood Canal Floating Bridge (Jefferson Co.)","2025-06-22 19:15",1,47.861875,-122.627992,TRUE,FALSE,FALSE,"S253311000"
"361","glwgul","Glaucous-winged Gull","Larus glaucescens","L16412047","Hood Canal Floating Bridge (Kitsap Co.)","2025-06-22 19:11",2,47.856359,-122.618212,TRUE,FALSE,FALSE,"S253310498"
"362","glwgul","Glaucous-winged Gull","Larus glaucescens","L48327096","Unalaska, Alaska, US (53.913, -166.56)","2025-06-22 18:45",5,53.9126055,-166.5602985,TRUE,FALSE,TRUE,"S253506346"
"363","glwgul","Glaucous-winged Gull","Larus glaucescens","L9482939","Gulf of Alaska--sea SW of Cape St. Elias","2025-06-22 18:22",3,59.7634347,-144.6535602,TRUE,FALSE,FALSE,"S253472465"
"364","glwgul","Glaucous-winged Gull","Larus glaucescens","L523265","Ship Creek--Ship Creek Mouth & Small Boat Launch Rd.","2025-06-22 17:39",1,61.2250765,-149.9045473,TRUE,FALSE,FALSE,"S253311779"
"365","glwgul","Glaucous-winged Gull","Larus glaucescens","L4433484","Guemes Channel Trail","2025-06-22 17:31",10,48.5046493,-122.6685333,TRUE,FALSE,FALSE,"S253314222"
"366","glwgul","Glaucous-winged Gull","Larus glaucescens","L3691252","Kodiak Is.--Chiniak Lake and vicinity","2025-06-22 17:27",NA,57.6203161,-152.1791346,TRUE,FALSE,FALSE,"S253523580"
"367","glwgul","Glaucous-winged Gull","Larus glaucescens","L16967064","3241 12th ave w","2025-06-22 17:19",14,47.6499595,-122.3725748,TRUE,FALSE,TRUE,"S253423666"
"368","glwgul","Glaucous-winged Gull","Larus glaucescens","L33663290","Seattle--Elliott Bay Trail","2025-06-22 16:58",6,47.622624,-122.366431,TRUE,FALSE,FALSE,"S253305373"
"369","glwgul","Glaucous-winged Gull","Larus glaucescens","L4826772","Dungeness Landing","2025-06-22 16:53",3,48.150554,-123.1425588,TRUE,FALSE,TRUE,"S253285689"
"370","glwgul","Glaucous-winged Gull","Larus glaucescens","L355346","Bullards Beach SP","2025-06-22 16:30",2,43.1497598,-124.4026532,TRUE,FALSE,FALSE,"S253303932"
"371","glwgul","Glaucous-winged Gull","Larus glaucescens","L1281984","Akutan Pass","2025-06-22 16:30",5,54.0440701,-166.2341309,TRUE,FALSE,FALSE,"S253313236"
"372","glwgul","Glaucous-winged Gull","Larus glaucescens","L48254447","Kalsin Bay","2025-06-22 16:06",1,57.644614,-152.393653,TRUE,FALSE,TRUE,"S253602667"
"373","glwgul","Glaucous-winged Gull","Larus glaucescens","L889837","Humboldt pelagic--Humboldt Bay portion only","2025-06-22 16:02",3,40.7585725,-124.2123591,TRUE,FALSE,FALSE,"S253750454"
"374","glwgul","Glaucous-winged Gull","Larus glaucescens","L1353392","Cline Spit","2025-06-22 15:35",22,48.1519101,-123.1518205,TRUE,FALSE,FALSE,"S253268006"
"375","glwgul","Glaucous-winged Gull","Larus glaucescens","L716993","Chester Creek & Fish Creek Mouths (Audubon Bench & Fish Creek Bench)","2025-06-22 15:24",2,61.2075708,-149.9289732,TRUE,FALSE,FALSE,"S253290927"
"376","glwgul","Glaucous-winged Gull","Larus glaucescens","L48283728","Bellingham Channel, Samish TDSA","2025-06-22 15:08",6,48.578863,-122.666396,TRUE,FALSE,TRUE,"S253314023"
"377","glwgul","Glaucous-winged Gull","Larus glaucescens","L793855","Elwha River Mouth -- west access","2025-06-22 15:07",100,48.1454438,-123.5673952,TRUE,FALSE,FALSE,"S253263505"
"378","glwgul","Glaucous-winged Gull","Larus glaucescens","L48274891","Auto selected 59.59228, -151.35442","2025-06-22 15:02",650,59.592284,-151.354419,TRUE,FALSE,TRUE,"S253274665"
"379","glwgul","Glaucous-winged Gull","Larus glaucescens","L38831349","Seaside Beach-Necanicum confluence","2025-06-22 15:02",12,46.009454,-123.926542,TRUE,FALSE,TRUE,"S253319408"
"380","glwgul","Glaucous-winged Gull","Larus glaucescens","L48283756","The Rock Pile","2025-06-22 15:02",1,48.2687423,-123.3079974,TRUE,FALSE,TRUE,"S253314152"
"381","glwgul","Glaucous-winged Gull","Larus glaucescens","L958170","Volunteer Park, Anacortes","2025-06-22 15:00",1,48.5084309,-122.627517,TRUE,FALSE,FALSE,"S253271094"
"382","glwgul","Glaucous-winged Gull","Larus glaucescens","L247966","Coyote Point County Park","2025-06-22 14:48",1,37.5899626,-122.3215145,TRUE,FALSE,FALSE,"S253259715"
"383","glwgul","Glaucous-winged Gull","Larus glaucescens","L35445165","University Village","2025-06-22 14:16",3,47.6617023,-122.2990537,TRUE,FALSE,FALSE,"S253422998"
"384","glwgul","Glaucous-winged Gull","Larus glaucescens","L3870544","Ketchikan Int. Airport--floatplane base","2025-06-22 13:40",1,55.3585752,-131.7118864,TRUE,FALSE,FALSE,"S253249734"
"385","glwgul","Glaucous-winged Gull","Larus glaucescens","L207315","Alki Beach","2025-06-22 13:24",30,47.5841938,-122.4005256,TRUE,FALSE,FALSE,"S253256114"
"386","glwgul","Glaucous-winged Gull","Larus glaucescens","L12643780","Point Ruston and Waterwalk","2025-06-22 13:18",6,47.297813,-122.5017113,TRUE,FALSE,FALSE,"S253321809"
"387","glwgul","Glaucous-winged Gull","Larus glaucescens","L1252571","Washington Park--Green Point","2025-06-22 13:08",6,48.498746,-122.701145,TRUE,FALSE,FALSE,"S253263254"
"388","glwgul","Glaucous-winged Gull","Larus glaucescens","L2600345","Sprague's Warehouse","2025-06-22 13:03",7,56.8174177,-132.954435,TRUE,FALSE,TRUE,"S253240521"
"389","glwgul","Glaucous-winged Gull","Larus glaucescens","L4337834","Point Defiance Park--Owen Beach","2025-06-22 12:46",NA,47.3130234,-122.5286669,TRUE,FALSE,FALSE,"S253238668"
"390","glwgul","Glaucous-winged Gull","Larus glaucescens","L3880058","Auke Bay","2025-06-22 12:41",2,58.3725578,-134.6680498,TRUE,FALSE,FALSE,"S253280303"
"391","glwgul","Glaucous-winged Gull","Larus glaucescens","L15217763","Hood Canal Floating Bridge, Nordland US-WA 47.86526, -122.63396","2025-06-22 12:37",1,47.865264,-122.633964,TRUE,FALSE,TRUE,"S253215165"
"392","glwgul","Glaucous-winged Gull","Larus glaucescens","L856260","South Beach SP","2025-06-22 12:34",4,44.6063572,-124.0631104,TRUE,FALSE,FALSE,"S253281394"
"393","glwgul","Glaucous-winged Gull","Larus glaucescens","L789874","Bering Sea--N of Dutch Harbor","2025-06-22 12:30",15,54.0835623,-166.4923096,TRUE,FALSE,FALSE,"S253313245"
"394","glwgul","Glaucous-winged Gull","Larus glaucescens","L40113600","Ballard 4","2025-06-22 12:11",NA,47.6685511,-122.40127,TRUE,FALSE,TRUE,"S253225635"
"395","glwgul","Glaucous-winged Gull","Larus glaucescens","L15174323","Moss Bay Neighborhood","2025-06-22 12:02",80,47.6745539,-122.2066021,TRUE,FALSE,TRUE,"S253206404"
"396","glwgul","Glaucous-winged Gull","Larus glaucescens","L613298","Mark Hatfield Marine Science Center and Estuary Trail","2025-06-22 12:02",1,44.6231604,-124.0434766,TRUE,FALSE,FALSE,"S253296155"
"397","glwgul","Glaucous-winged Gull","Larus glaucescens","L152823","Mendenhall Wetlands SGR--Airport Dike Trail","2025-06-22 11:42",16,58.3523993,-134.5945144,TRUE,FALSE,FALSE,"S253240809"
"398","glwgul","Glaucous-winged Gull","Larus glaucescens","L372668","Freeway Park, Seattle","2025-06-22 11:39",3,47.6110889,-122.3306608,TRUE,FALSE,FALSE,"S253275030"
"399","glwgul","Glaucous-winged Gull","Larus glaucescens","L7233446","Ruston Way--Chinese Reconciliation Park","2025-06-22 11:37",3,47.2744522,-122.4594726,TRUE,FALSE,FALSE,"S253200973"
"400","glwgul","Glaucous-winged Gull","Larus glaucescens","L2787879","Semiahmoo Resort","2025-06-22 11:27",120,48.9891449,-122.7741265,TRUE,FALSE,FALSE,"S253223357"
"401","glwgul","Glaucous-winged Gull","Larus glaucescens","L48264001","Stephens Passage, Juneau","2025-06-22 11:18",2,58.125484,-134.113783,TRUE,FALSE,TRUE,"S253228176"
"402","glwgul","Glaucous-winged Gull","Larus glaucescens","L726597","Gazos Creek Beach -- west of Hwy 1 only","2025-06-22 11:15",1,37.1664418,-122.3617825,TRUE,FALSE,FALSE,"S253197887"
"403","glwgul","Glaucous-winged Gull","Larus glaucescens","L1461080","Seacrest Park","2025-06-22 11:07",6,47.5894755,-122.3802077,TRUE,FALSE,FALSE,"S253202360"
"404","glwgul","Glaucous-winged Gull","Larus glaucescens","L1886184","Liberty Bay","2025-06-22 11:00",8,47.7348678,-122.6482665,TRUE,FALSE,FALSE,"S253181690"
"405","glwgul","Glaucous-winged Gull","Larus glaucescens","L4995988","Prince William Sound--Naked Island Archipelago (Naked, Storey, & Peak Is.)","2025-06-22 10:54",NA,60.6693107,-147.3954535,TRUE,FALSE,FALSE,"S253199696"
"406","glwgul","Glaucous-winged Gull","Larus glaucescens","L1844191","Little Squalicum Park","2025-06-22 10:53",3,48.7671239,-122.5163472,TRUE,FALSE,FALSE,"S253187739"
"407","glwgul","Glaucous-winged Gull","Larus glaucescens","L4759385","Point Nowell, PWS","2025-06-22 10:40",1,60.4393142,-147.9388617,TRUE,FALSE,TRUE,"S253208292"
"408","glwgul","Glaucous-winged Gull","Larus glaucescens","L3884432","Sunnyside Beach Park","2025-06-22 10:34",4,47.1778987,-122.5904102,TRUE,FALSE,FALSE,"S253180692"
"409","glwgul","Glaucous-winged Gull","Larus glaucescens","L48257072","Des Moines Creek Trail, Des Moines US-WA (47.4118,-122.3175)","2025-06-22 10:15",100,47.411784,-122.317518,TRUE,FALSE,TRUE,"S253199619"
"410","glwgul","Glaucous-winged Gull","Larus glaucescens","L763879","Potter Marsh Boardwalk","2025-06-22 10:06",5,61.0775802,-149.8262,TRUE,FALSE,FALSE,"S253191452"
"411","glwgul","Glaucous-winged Gull","Larus glaucescens","L2367905","Monroe Landing","2025-06-22 10:05",15,48.2397487,-122.679981,TRUE,FALSE,FALSE,"S253185531"
"412","glwgul","Glaucous-winged Gull","Larus glaucescens","L11305950","Duwamish Waterway Park","2025-06-22 09:48",3,47.5309897,-122.3198327,TRUE,FALSE,FALSE,"S253214222"
"413","glwgul","Glaucous-winged Gull","Larus glaucescens","L28163358","discovery park","2025-06-22 09:30",NA,47.6576576,-122.4101486,TRUE,FALSE,TRUE,"S253324339"
"414","glwgul","Glaucous-winged Gull","Larus glaucescens","L15889882","301–397 Sunset Ave N, Edmonds US-WA 47.81462, -122.38004","2025-06-22 09:29",2,47.814619,-122.380041,TRUE,FALSE,TRUE,"S253153717"
"415","glwgul","Glaucous-winged Gull","Larus glaucescens","L1311451","Dutch Harbor--Sitka Spruce Park","2025-06-22 09:15",2,53.8871722,-166.5439045,TRUE,FALSE,FALSE,"S253211894"
"416","glwgul","Glaucous-winged Gull","Larus glaucescens","L8138871","Olalla Bay","2025-06-22 08:54",25,47.4212923,-122.5418879,TRUE,FALSE,FALSE,"S253146581"
"417","glwgul","Glaucous-winged Gull","Larus glaucescens","L787853","Tokeland--marina","2025-06-22 08:51",4,46.7063518,-123.9671946,TRUE,FALSE,FALSE,"S253331825"
"418","glwgul","Glaucous-winged Gull","Larus glaucescens","L34755635","Strait of Juan de Fuca--Partridge Bank","2025-06-22 08:34",4,48.2753473,-122.8799494,TRUE,FALSE,FALSE,"S253197947"
"419","glwgul","Glaucous-winged Gull","Larus glaucescens","L48265424","Cape Newenham (58.644, -162.075)","2025-06-22 08:31",4,58.6435782,-162.0749769,TRUE,FALSE,TRUE,"S253233718"
"420","glwgul","Glaucous-winged Gull","Larus glaucescens","L12199115","Samish Bay","2025-06-22 08:30",14,48.5907733,-122.4924468,TRUE,FALSE,TRUE,"S253209274"
"421","glwgul","Glaucous-winged Gull","Larus glaucescens","L1406877","832 Gardiner Beach Road my yard","2025-06-22 08:30",1,48.0583226,-122.9198055,TRUE,FALSE,TRUE,"S253152401"
"422","glwgul","Glaucous-winged Gull","Larus glaucescens","L1460642","Port Townsend-Keystone Ferry (Island Co.)","2025-06-22 08:29",5,48.1472328,-122.6790196,TRUE,FALSE,FALSE,"S253191439"
"423","glwgul","Glaucous-winged Gull","Larus glaucescens","L2372397","Oyster Creek mouth","2025-06-22 08:23",1,48.6116763,-122.4375629,TRUE,FALSE,FALSE,"S253131390"
"424","glwgul","Glaucous-winged Gull","Larus glaucescens","L5966006","Freshwater Bay, Batchelor Rock48.15x-123.637","2025-06-22 07:53",2,48.1498847,-123.6370106,TRUE,FALSE,TRUE,"S253143581"
"425","glwgul","Glaucous-winged Gull","Larus glaucescens","L20643227","Marina Beach Park","2025-06-22 07:52",15,47.8046691,-122.3942634,TRUE,FALSE,FALSE,"S253129531"
"426","glwgul","Glaucous-winged Gull","Larus glaucescens","L496902","Dumas Bay Park","2025-06-22 07:50",1,47.325779,-122.38838,TRUE,FALSE,FALSE,"S253129509"
"427","glwgul","Glaucous-winged Gull","Larus glaucescens","L3034707","Kincaid Park--Little Campbell Lake","2025-06-22 07:29",1,61.1616013,-150.0241041,TRUE,FALSE,FALSE,"S253163755"
"428","glwgul","Glaucous-winged Gull","Larus glaucescens","L3871234","Frederick Sound--W end (Chatham Strait to Keku Strait)","2025-06-22 07:23",15,57.0141957,-134.3107452,TRUE,FALSE,FALSE,"S253137530"
"429","glwgul","Glaucous-winged Gull","Larus glaucescens","L782141","Gustavus--Forelands Preserve (Salmon River)","2025-06-22 07:12",NA,58.3996429,-135.7380581,TRUE,FALSE,FALSE,"S253204120"
"430","glwgul","Glaucous-winged Gull","Larus glaucescens","L782177","Gustavus--Forelands (W of dock to Critical Habitat boundary)","2025-06-22 07:10",50,58.3921763,-135.7899857,TRUE,FALSE,FALSE,"S253201354"
"431","glwgul","Glaucous-winged Gull","Larus glaucescens","L13784754","Orchards Home","2025-06-22 07:00",2,45.6714721,-122.5631674,TRUE,FALSE,TRUE,"S253180629"
"432","glwgul","Glaucous-winged Gull","Larus glaucescens","L47430975","2201 26th Street, Anacortes, Washington, US (48.501, -122.632)","2025-06-22 06:58",1,48.5010072,-122.6318278,TRUE,FALSE,TRUE,"S253099792"
"433","glwgul","Glaucous-winged Gull","Larus glaucescens","L48229780","Discovery Park, Seattle US-WA 47.65968, -122.42864","2025-06-22 06:50",4,47.659677,-122.428636,TRUE,FALSE,TRUE,"S253091263"
"434","glwgul","Glaucous-winged Gull","Larus glaucescens","L48269026","Auto selected 55.29971, -131.61470","2025-06-22 06:29",6,55.299712,-131.614702,TRUE,FALSE,TRUE,"S253249794"
"435","glwgul","Glaucous-winged Gull","Larus glaucescens","L47731334","Private","2025-06-22 06:04",3,47.120958,-122.964469,TRUE,FALSE,TRUE,"S253078668"
"436","glwgul","Glaucous-winged Gull","Larus glaucescens","L2693297","Chugach NF--Child's Glacier RA","2025-06-21 22:53",2,60.6652138,-144.7568906,TRUE,FALSE,FALSE,"S252971866"
"437","glwgul","Glaucous-winged Gull","Larus glaucescens","L48201807","North Pacific Ocean US-AK (57.7833,-152.1371)","2025-06-21 20:46",3,57.78332,-152.137139,TRUE,FALSE,TRUE,"S252955879"
"438","glwgul","Glaucous-winged Gull","Larus glaucescens","L6111126","College Fjord","2025-06-21 20:39",8,61.1212834,-147.916832,TRUE,FALSE,FALSE,"S252947829"
"439","glwgul","Glaucous-winged Gull","Larus glaucescens","L35419961","Kenai River, Cooper Landing US-AK (60.4813,-150.0864)","2025-06-21 20:16",6,60.481269,-150.086354,TRUE,FALSE,TRUE,"S253610117"
"440","glwgul","Glaucous-winged Gull","Larus glaucescens","L339645","Point Roberts","2025-06-21 20:00",3,48.9862249,-123.0545188,TRUE,FALSE,FALSE,"S253231556"
"441","glwgul","Glaucous-winged Gull","Larus glaucescens","L444581","Sitka National Historical Park","2025-06-21 19:44",1,57.0476401,-135.3161573,TRUE,FALSE,FALSE,"S252946430"
"442","glwgul","Glaucous-winged Gull","Larus glaucescens","L48201178","Danger Point","2025-06-21 19:32",4,55.3402535,-160.4363651,TRUE,FALSE,TRUE,"S252952247"
"443","glwgul","Glaucous-winged Gull","Larus glaucescens","L48340464","Boot Cove","2025-06-21 19:30",NA,60.679174,-147.8740511,TRUE,FALSE,TRUE,"S253564423"
"444","glwgul","Glaucous-winged Gull","Larus glaucescens","L29150098","Blue Ridge BGs","2025-06-21 19:05",2,47.708905,-122.378272,TRUE,FALSE,TRUE,"S252936258"
"445","glwgul","Glaucous-winged Gull","Larus glaucescens","L48289462","Sitka Sound, Sitka US-AK (56.9805,-135.7067)","2025-06-21 19:00",NA,56.980514,-135.706712,TRUE,FALSE,TRUE,"S253341237"
"446","glwgul","Glaucous-winged Gull","Larus glaucescens","L6517534","Neah Bay--town and bay only","2025-06-21 18:22",4,48.3666101,-124.6215677,TRUE,FALSE,FALSE,"S252930780"
"447","glwgul","Glaucous-winged Gull","Larus glaucescens","L48202478","Sitka Sound, Sitka US-AK 56.97583, -135.65526","2025-06-21 18:15",200,56.975826,-135.65526,TRUE,FALSE,TRUE,"S252959837"
"448","glwgul","Glaucous-winged Gull","Larus glaucescens","L3403344","Sand Point (town)","2025-06-21 17:42",8,55.3390306,-160.4992875,TRUE,FALSE,FALSE,"S252930664"
"449","glwgul","Glaucous-winged Gull","Larus glaucescens","L48198004","North Pacific Ocean US (58.0631,-151.6997)","2025-06-21 17:38",5,58.063058,-151.699674,TRUE,FALSE,TRUE,"S252937328"
"450","glwgul","Glaucous-winged Gull","Larus glaucescens","L1855923","Sunset Hill Park","2025-06-21 17:18",5,47.683891,-122.4005622,TRUE,FALSE,FALSE,"S252913470"
"451","glwgul","Glaucous-winged Gull","Larus glaucescens","L10216419","Homer Spit--Green Timbers","2025-06-21 17:18",5,59.6277719,-151.4729304,TRUE,FALSE,FALSE,"S252925048"
"452","glwgul","Glaucous-winged Gull","Larus glaucescens","L48106966","99576, Dillingham US-AK 59.03734, -158.47588","2025-06-21 17:15",116,59.037343,-158.475881,TRUE,FALSE,TRUE,"S252939155"
"453","glwgul","Glaucous-winged Gull","Larus glaucescens","L2786593","Tillamook Bay--Garibaldi Marina","2025-06-21 16:38",3,45.5559147,-123.913192,TRUE,FALSE,FALSE,"S254019555"
"454","glwgul","Glaucous-winged Gull","Larus glaucescens","L6464340","Valley Creek Estuary Park","2025-06-21 16:32",14,48.1222956,-123.4365034,TRUE,FALSE,FALSE,"S252904101"
"455","glwgul","Glaucous-winged Gull","Larus glaucescens","L207333","Birch Bay State Park","2025-06-21 16:19",2,48.9056565,-122.7625198,TRUE,FALSE,FALSE,"S252896323"
"456","glwgul","Glaucous-winged Gull","Larus glaucescens","L36613944","Ballard 3","2025-06-21 16:12",NA,47.670868,-122.3833656,TRUE,FALSE,TRUE,"S252921962"
"457","glwgul","Glaucous-winged Gull","Larus glaucescens","L17042504","Frank D. Robinson Beach","2025-06-21 16:04",NA,47.992703,-122.541157,TRUE,FALSE,FALSE,"S252896678"
"458","glwgul","Glaucous-winged Gull","Larus glaucescens","L16935052","Samish Island Conservation Area, Samish Island (Skagit Land Trust)","2025-06-21 15:30",6,48.5661704,-122.5034752,TRUE,FALSE,FALSE,"S253064941"
"459","glwgul","Glaucous-winged Gull","Larus glaucescens","L48024414","Cape Newenham (58.659, -162.07)","2025-06-21 15:17",12,58.6589865,-162.0700259,TRUE,FALSE,TRUE,"S252930297"
"460","glwgul","Glaucous-winged Gull","Larus glaucescens","L1328935","Old SR 105 @ Washaway Beach","2025-06-21 15:15",NA,46.7377891,-124.0766332,TRUE,FALSE,FALSE,"S253173776"
"461","glwgul","Glaucous-winged Gull","Larus glaucescens","L272612","Blaine Marine Park","2025-06-21 15:00",27,48.9950387,-122.7580957,TRUE,FALSE,FALSE,"S252880727"
"462","glwgul","Glaucous-winged Gull","Larus glaucescens","L48256921","Deepwater Bay","2025-06-21 14:40",3,60.49706,-148.399865,TRUE,FALSE,TRUE,"S253199061"
"463","glwgul","Glaucous-winged Gull","Larus glaucescens","L4001190","Chilkoot River mouth","2025-06-21 14:35",14,59.322363,-135.5571591,TRUE,FALSE,FALSE,"S253575772"
"464","glwgul","Glaucous-winged Gull","Larus glaucescens","L997003","Coyote Point County Park--yacht club, harbor and freshwater marsh","2025-06-21 14:14",1,37.5886459,-122.3152274,TRUE,FALSE,FALSE,"S253795498"
"465","glwgul","Glaucous-winged Gull","Larus glaucescens","L48185249","North Pacific Ocean US-AK (58.3683,-152.0229)","2025-06-21 14:04",1,58.368291,-152.022937,TRUE,FALSE,TRUE,"S252884978"
"466","glwgul","Glaucous-winged Gull","Larus glaucescens","L14462114","Penny Creek Natural Area","2025-06-21 13:54",1,47.8714531,-122.1811438,TRUE,FALSE,FALSE,"S252905824"
"467","glwgul","Glaucous-winged Gull","Larus glaucescens","L15431851","Downtown Bellingham","2025-06-21 13:30",1,48.7494181,-122.4754258,TRUE,FALSE,TRUE,"S252889690"
"468","glwgul","Glaucous-winged Gull","Larus glaucescens","L48196997","Auto selected 60.54951, -145.74931","2025-06-21 12:50",2,60.549511,-145.749311,TRUE,FALSE,TRUE,"S252933251"
"469","glwgul","Glaucous-winged Gull","Larus glaucescens","L6330362","Gig Harbor spit","2025-06-21 12:34",39,47.32674,-122.572819,TRUE,FALSE,FALSE,"S252846976"
"470","glwgul","Glaucous-winged Gull","Larus glaucescens","L18726044","Sportsman`s Landing","2025-06-21 12:18",6,60.4866666,-150.0027171,TRUE,FALSE,FALSE,"S254377888"
"471","glwgul","Glaucous-winged Gull","Larus glaucescens","L941875","Kenai Fjords NP--Aialik Bay-Holgate Head","2025-06-21 12:18",NA,59.8207471,-149.756012,TRUE,FALSE,FALSE,"S252905626"
"472","glwgul","Glaucous-winged Gull","Larus glaucescens","L2692026","Fremont Canal Park","2025-06-21 12:01",NA,47.6514476,-122.3570377,TRUE,FALSE,FALSE,"S252905278"
"473","glwgul","Glaucous-winged Gull","Larus glaucescens","L48239800","Red Rock Beach","2025-06-21 12:00",1,37.8887328,-122.6327768,TRUE,FALSE,TRUE,"S253134031"
"474","glwgul","Glaucous-winged Gull","Larus glaucescens","L390227","Eagle Beach SRA","2025-06-21 11:52",76,58.5283716,-134.8270512,TRUE,FALSE,FALSE,"S252857994"
"475","glwgul","Glaucous-winged Gull","Larus glaucescens","L42990729","5425 Petticote Dr, Blaine US-WA 48.89327, -122.78035","2025-06-21 11:51",30,48.893269,-122.780347,TRUE,FALSE,TRUE,"S252846266"
"476","glwgul","Glaucous-winged Gull","Larus glaucescens","L776831","Shark Reef County Park, Lopez Island","2025-06-21 11:36",2,48.4613685,-122.942698,TRUE,FALSE,FALSE,"S252854228"
"477","glwgul","Glaucous-winged Gull","Larus glaucescens","L521432","Scout Camp Trail","2025-06-21 11:36",2,58.5225682,-134.8283815,TRUE,FALSE,FALSE,"S254085771"
"478","glwgul","Glaucous-winged Gull","Larus glaucescens","L15996975","1 Briar Rd, Bellingham US-WA (starting point)","2025-06-21 10:52",1,48.7155373,-122.5146518,TRUE,FALSE,TRUE,"S252957503"
"479","glwgul","Glaucous-winged Gull","Larus glaucescens","L268250","Adak Island","2025-06-21 10:51",2,51.8941856,-176.6443634,TRUE,FALSE,FALSE,"S252944822"
"480","glwgul","Glaucous-winged Gull","Larus glaucescens","L2802650","American Legion Park","2025-06-21 10:19",3,47.7384287,-122.6499081,TRUE,FALSE,FALSE,"S252787919"
"481","glwgul","Glaucous-winged Gull","Larus glaucescens","L48161705","Bellingham Farmers Market","2025-06-21 10:18",4,48.7474255,-122.4801177,TRUE,FALSE,TRUE,"S252795854"
"482","glwgul","Glaucous-winged Gull","Larus glaucescens","L17608277","Amalga Harbor","2025-06-21 10:04",12,58.4932535,-134.79152,TRUE,FALSE,FALSE,"S253160042"
"483","glwgul","Glaucous-winged Gull","Larus glaucescens","L48168668","North Pacific Ocean US-AK (58.4435,-152.1488)","2025-06-21 09:55",9,58.443483,-152.148818,TRUE,FALSE,TRUE,"S252822363"
"484","glwgul","Glaucous-winged Gull","Larus glaucescens","L815296","Broughton Beach","2025-06-21 09:18",2,45.6003622,-122.6152539,TRUE,FALSE,FALSE,"S252772264"
"485","glwgul","Glaucous-winged Gull","Larus glaucescens","L464767","Luhr Beach","2025-06-21 09:14",10,47.1004537,-122.7266407,TRUE,FALSE,FALSE,"S252768371"
"486","glwgul","Glaucous-winged Gull","Larus glaucescens","L48024199","Cape Newenham (58.652, -162.08)","2025-06-21 08:57",1,58.6523433,-162.0798444,TRUE,FALSE,TRUE,"S252823442"
"487","glwgul","Glaucous-winged Gull","Larus glaucescens","L1461769","South Harbor, north ramp & Hammer Slough","2025-06-21 08:56",10,56.8103553,-132.9608201,TRUE,FALSE,TRUE,"S252781183"
"488","glwgul","Glaucous-winged Gull","Larus glaucescens","L48150514","15737 Point Monroe Dr NE, Bainbridge Island US-WA 47.70777, -122.51424","2025-06-21 08:47",20,47.707773,-122.514239,TRUE,FALSE,TRUE,"S252752920"
"489","glwgul","Glaucous-winged Gull","Larus glaucescens","L713779","San Lorenzo River mouth","2025-06-21 08:45",1,36.9638097,-122.0124171,TRUE,FALSE,FALSE,"S252777080"
"490","glwgul","Glaucous-winged Gull","Larus glaucescens","L6801484","Kodiak Is.--Spruce Cape","2025-06-21 08:37",3,57.8219561,-152.329289,TRUE,FALSE,FALSE,"S252832185"
"491","glwgul","Glaucous-winged Gull","Larus glaucescens","L48169019","Cape Newenham (58.654, -162.084)","2025-06-21 08:34",3,58.6540403,-162.0840474,TRUE,FALSE,TRUE,"S252823642"
"492","glwgul","Glaucous-winged Gull","Larus glaucescens","L48157837","Perenosa Bay","2025-06-21 08:18",11,58.46019,-152.36972,TRUE,FALSE,TRUE,"S252780119"
"493","glwgul","Glaucous-winged Gull","Larus glaucescens","L4029914","Blakely Harbor Park","2025-06-21 07:49",1,47.5969828,-122.5156206,TRUE,FALSE,FALSE,"S252760619"
"494","glwgul","Glaucous-winged Gull","Larus glaucescens","L48241068","Cook Inlet US-AK (60.1306,-152.3577)","2025-06-21 07:45",2,60.130586,-152.357685,TRUE,FALSE,TRUE,"S253139060"
"495","glwgul","Glaucous-winged Gull","Larus glaucescens","L20234350","PiGu survey Manzanita Rd Bainbridge Island US-WA 47.68319, -122.56484","2025-06-21 07:03",2,47.683186,-122.56484,TRUE,FALSE,TRUE,"S252769694"
"496","glwgul","Glaucous-winged Gull","Larus glaucescens","L491609","Yaquina River--SW Jetty Way","2025-06-21 06:29",10,44.6158891,-124.0618658,TRUE,FALSE,FALSE,"S252737709"
"497","glwgul","Glaucous-winged Gull","Larus glaucescens","L48169290","Cape Newenham (58.643, -162.055)","2025-06-21 06:23",1,58.6428552,-162.0554095,TRUE,FALSE,TRUE,"S252824597"
"498","glwgul","Glaucous-winged Gull","Larus glaucescens","L48169335","Cape Newenham (58.639, -162.057)","2025-06-21 06:05",1,58.6394489,-162.0566969,TRUE,FALSE,TRUE,"S252824801"
"499","glwgul","Glaucous-winged Gull","Larus glaucescens","L23982781","3134 E Laurelhurst Dr NE, Seattle US-WA 47.65143, -122.27667","2025-06-21 06:02",2,47.651428,-122.276673,TRUE,FALSE,TRUE,"S252694496"
"500","glwgul","Glaucous-winged Gull","Larus glaucescens","L2161039","Ventura River bottom--Ventura Hillsides Conservancy property","2025-06-21 05:55",1,34.2809073,-119.3079185,TRUE,FALSE,FALSE,"S252724518"
"501","glwgul","Glaucous-winged Gull","Larus glaucescens","L48240505","4786 Homer Spit Rd, Homer US-AK (59.6003,-151.4085)","2025-06-21 05:45",10,59.600345,-151.408506,TRUE,FALSE,TRUE,"S253136901"
"502","glwgul","Glaucous-winged Gull","Larus glaucescens","L48188136","Gulf of Alaska, Ninilchik US-AK 59.62749, -151.90966","2025-06-21 05:38",2,59.627489,-151.909658,TRUE,FALSE,TRUE,"S252896817"
"503","glwgul","Glaucous-winged Gull","Larus glaucescens","L44786303","45658 Davison Ave, Kenai US-AK 60.51183, -151.11080","2025-06-21 05:32",1,60.511825,-151.110799,TRUE,FALSE,TRUE,"S252697855"
"504","glwgul","Glaucous-winged Gull","Larus glaucescens","L48121069","Alaska, US (59.63, -149.609)","2025-06-21 02:05",30,59.6301044,-149.6091852,TRUE,FALSE,TRUE,"S252615549"
"505","glwgul","Glaucous-winged Gull","Larus glaucescens","L5070181","Gustavus--ferry dock","2025-06-20 21:35",60,58.3901089,-135.7296596,TRUE,FALSE,FALSE,"S252747683"
"506","glwgul","Glaucous-winged Gull","Larus glaucescens","L48111360","Shuyak Strait - Shuyak Is","2025-06-20 20:05",2,58.511441,-152.810478,TRUE,FALSE,TRUE,"S252573543"
"507","glwgul","Glaucous-winged Gull","Larus glaucescens","L242028","Seattle-Winslow Ferry (Kitsap Co.)","2025-06-20 19:19",3,47.6084199,-122.491293,TRUE,FALSE,FALSE,"S252542862"
"508","glwgul","Glaucous-winged Gull","Larus glaucescens","L24499015","Edmonds—95th Pl W","2025-06-20 19:06",1,47.793999,-122.35964,TRUE,FALSE,TRUE,"S252545851"
"509","glwgul","Glaucous-winged Gull","Larus glaucescens","L3869433","Tongass Narrows--channel E of Pennock Is.","2025-06-20 19:02",2,55.3203043,-131.6111126,TRUE,FALSE,FALSE,"S252547001"
"510","glwgul","Glaucous-winged Gull","Larus glaucescens","L2063935","Echo Cove Campground","2025-06-20 18:59",4,58.662565,-134.9058587,TRUE,FALSE,FALSE,"S252817131"
"511","glwgul","Glaucous-winged Gull","Larus glaucescens","L6551864","Trinidad (town)","2025-06-20 18:53",6,41.0599547,-124.1420317,TRUE,FALSE,FALSE,"S252545985"
"512","glwgul","Glaucous-winged Gull","Larus glaucescens","L489240","Dungeness NWR","2025-06-20 18:45",6,48.1628795,-123.164978,TRUE,FALSE,FALSE,"S253138307"
"513","glwgul","Glaucous-winged Gull","Larus glaucescens","L29061786","Cordata Park","2025-06-20 18:34",2,48.80415,-122.4946833,TRUE,FALSE,FALSE,"S252538846"
"514","glwgul","Glaucous-winged Gull","Larus glaucescens","L48111384","North Pacific Ocean US-AK (58.3275,-152.9801)","2025-06-20 18:09",1,58.327463,-152.980087,TRUE,FALSE,TRUE,"S252573667"
"515","glwgul","Glaucous-winged Gull","Larus glaucescens","L276431","Olympic NP--Ruby Beach","2025-06-20 17:56",1,47.7097578,-124.4143641,TRUE,FALSE,FALSE,"S252535945"
"516","glwgul","Glaucous-winged Gull","Larus glaucescens","L523657","Potter Marsh--mm 116","2025-06-20 17:45",1,61.0617949,-149.8090553,TRUE,FALSE,FALSE,"S252537111"
"517","glwgul","Glaucous-winged Gull","Larus glaucescens","L3707759","Patterson Bay","2025-06-20 17:42",2,56.5717782,-134.6613121,TRUE,FALSE,FALSE,"S252954228"
"518","glwgul","Glaucous-winged Gull","Larus glaucescens","L684397","Potlatch State Park","2025-06-20 17:40",2,47.3610803,-123.1569099,TRUE,FALSE,FALSE,"S252529480"
"519","glwgul","Glaucous-winged Gull","Larus glaucescens","L685549","Frye Cove County Park","2025-06-20 17:11",3,47.1167813,-122.96628,TRUE,FALSE,FALSE,"S252555212"
"520","glwgul","Glaucous-winged Gull","Larus glaucescens","L2487978","Shilshole Bay Marina","2025-06-20 17:10",10,47.6776422,-122.4070072,TRUE,FALSE,FALSE,"S252519586"
"521","glwgul","Glaucous-winged Gull","Larus glaucescens","L48103142","Deception Pass Boat Tour","2025-06-20 16:54",11,48.4012218,-122.6246861,TRUE,FALSE,TRUE,"S252535973"
"522","glwgul","Glaucous-winged Gull","Larus glaucescens","L766025","Mukilteo-Clinton Ferry","2025-06-20 16:36",NA,47.9590353,-122.3177703,TRUE,FALSE,FALSE,"S252896731"
"523","glwgul","Glaucous-winged Gull","Larus glaucescens","L48097157","Puget Sound from RCCI Anthem","2025-06-20 16:07",10,47.635016,-122.44896,TRUE,FALSE,TRUE,"S252510835"
"524","glwgul","Glaucous-winged Gull","Larus glaucescens","L48094545","Suquamish Clearwater Casino Resort, Poulsbo US-WA 47.71120, -122.57269","2025-06-20 16:04",2,47.711199,-122.572685,TRUE,FALSE,TRUE,"S252499031"
"525","glwgul","Glaucous-winged Gull","Larus glaucescens","L48094603","1026 Andis Road, Burlington, Washington, US (48.466, -122.346)","2025-06-20 15:50",1,48.4662967,-122.3458332,TRUE,FALSE,TRUE,"S252499298"
"526","glwgul","Glaucous-winged Gull","Larus glaucescens","L34913128","Halfway Trail to City Creek","2025-06-20 15:45",2,56.803627,-132.909778,TRUE,FALSE,TRUE,"S252521116"
"527","glwgul","Glaucous-winged Gull","Larus glaucescens","L48102786","North Pacific Ocean US-AK (58.2676,-153.1336)","2025-06-20 15:18",4,58.267615,-153.133629,TRUE,FALSE,TRUE,"S252534487"
"528","glwgul","Glaucous-winged Gull","Larus glaucescens","L31102692","Pioneer Square Habitat Beach","2025-06-20 15:09",6,47.6012582,-122.336379,TRUE,FALSE,FALSE,"S252530143"
"529","glwgul","Glaucous-winged Gull","Larus glaucescens","L48097199","1906 Airport Beach Road, Unalaska, Alaska, US (53.886, -166.552)","2025-06-20 14:59",1,53.8856983,-166.5517517,TRUE,FALSE,TRUE,"S252510986"
"530","glwgul","Glaucous-winged Gull","Larus glaucescens","L469546","Skagit Wildlife Area--Fir Island Farm Reserve (Hayton Reserve)","2025-06-20 14:26",NA,48.3356338,-122.4131659,TRUE,FALSE,FALSE,"S252486094"
"531","glwgul","Glaucous-winged Gull","Larus glaucescens","L48092228","Pederson Point","2025-06-20 14:20",50,58.7612491,-157.0643929,TRUE,FALSE,TRUE,"S252489306"
"532","glwgul","Glaucous-winged Gull","Larus glaucescens","L186739","Tukwila Pond","2025-06-20 14:04",1,47.45544,-122.26027,TRUE,FALSE,FALSE,"S252472379"
"533","glwgul","Glaucous-winged Gull","Larus glaucescens","L294441","Anacortes Ferry Terminal","2025-06-20 14:00",35,48.5064005,-122.6780041,TRUE,FALSE,FALSE,"S252473279"
"534","glwgul","Glaucous-winged Gull","Larus glaucescens","L321969","Lake Sammamish SP","2025-06-20 12:56",1,47.5597558,-122.0549817,TRUE,FALSE,FALSE,"S252511654"
"535","glwgul","Glaucous-winged Gull","Larus glaucescens","L1925502","Bainbridge Island Ferry Terminal","2025-06-20 12:20",3,47.6226137,-122.5104683,TRUE,FALSE,FALSE,"S252575720"
"536","glwgul","Glaucous-winged Gull","Larus glaucescens","L279360","Nome River Mouth","2025-06-20 12:11",2,64.4831392,-165.3024186,TRUE,FALSE,FALSE,"S252957441"
"537","glwgul","Glaucous-winged Gull","Larus glaucescens","L24749296","Jefferson Beach Estates neighborhood","2025-06-20 11:55",2,47.747074,-122.479038,TRUE,FALSE,TRUE,"S252453655"
"538","glwgul","Glaucous-winged Gull","Larus glaucescens","L48152671","Alaska SeaLife Center, Seward US","2025-06-20 11:47",19,60.099679,-149.440452,TRUE,FALSE,TRUE,"S252761120"
"539","glwgul","Glaucous-winged Gull","Larus glaucescens","L2896376","Glacier Bay NP--Johns Hopkins Inlet","2025-06-20 11:43",6,58.911383,-137.0056915,TRUE,FALSE,FALSE,"S252467131"
"540","glwgul","Glaucous-winged Gull","Larus glaucescens","L617382","White Center Heights Park Pond","2025-06-20 11:36",1,47.5097441,-122.3434496,TRUE,FALSE,FALSE,"S252447321"
"541","glwgul","Glaucous-winged Gull","Larus glaucescens","L962710","Deception Pass SP -- North Beach","2025-06-20 11:24",2,48.4042492,-122.646904,TRUE,FALSE,FALSE,"S252476104"
"542","glwgul","Glaucous-winged Gull","Larus glaucescens","L20643239","Edmonds Marina","2025-06-20 11:23",28,47.8079405,-122.3924276,TRUE,FALSE,FALSE,"S252476584"
"543","glwgul","Glaucous-winged Gull","Larus glaucescens","L467222","Richmond Beach Saltwater Park","2025-06-20 11:03",20,47.7635752,-122.3851633,TRUE,FALSE,FALSE,"S252456913"
"544","glwgul","Glaucous-winged Gull","Larus glaucescens","L913355","Orcas Ferry Landing","2025-06-20 11:01",2,48.5970464,-122.9432774,TRUE,FALSE,FALSE,"S252501047"
"545","glwgul","Glaucous-winged Gull","Larus glaucescens","L48256872","King’s Bay","2025-06-20 10:53",1,60.458273,-148.714972,TRUE,FALSE,TRUE,"S253199660"
"546","glwgul","Glaucous-winged Gull","Larus glaucescens","L17997034","Big Port Walter","2025-06-20 10:40",3,56.385705,-134.669415,TRUE,FALSE,FALSE,"S252954186"
"547","glwgul","Glaucous-winged Gull","Larus glaucescens","L256021","Moss Landing--Jetty Road, north jetty & State Beach","2025-06-20 10:33",1,36.8151691,-121.7900355,TRUE,FALSE,FALSE,"S252543027"
"548","glwgul","Glaucous-winged Gull","Larus glaucescens","L1799504","Kayu Kayu Ac Park","2025-06-20 10:32",40,47.7739592,-122.3925439,TRUE,FALSE,FALSE,"S252415066"
"549","glwgul","Glaucous-winged Gull","Larus glaucescens","L267165","Hobuck Beach","2025-06-20 10:24",1,48.3395317,-124.6717641,TRUE,FALSE,FALSE,"S252505341"
"550","glwgul","Glaucous-winged Gull","Larus glaucescens","L15669069","Glacier Bay NP--Bartlett Cove Campground","2025-06-20 10:02",1,58.4507812,-135.8944094,TRUE,FALSE,FALSE,"S252460909"
"551","glwgul","Glaucous-winged Gull","Larus glaucescens","L766034","Fort Casey State Park","2025-06-20 09:57",50,48.1581848,-122.6776314,TRUE,FALSE,FALSE,"S252440043"
"552","glwgul","Glaucous-winged Gull","Larus glaucescens","L48101629","Alaska, US (58.824, -136.448)","2025-06-20 09:55",1,58.8236681,-136.4482664,TRUE,FALSE,TRUE,"S252529948"
"553","glwgul","Glaucous-winged Gull","Larus glaucescens","L48067526","Whale Watching","2025-06-20 09:42",100,47.822461,-122.391926,TRUE,FALSE,TRUE,"S252473005"
"554","glwgul","Glaucous-winged Gull","Larus glaucescens","L48084957","Oregon, US (44.619, -124.068)","2025-06-20 09:36",5,44.6185191,-124.0684963,TRUE,FALSE,TRUE,"S252459969"
"555","glwgul","Glaucous-winged Gull","Larus glaucescens","L16500533","Port of Astoria","2025-06-20 09:35",10,46.1870164,-123.8588913,TRUE,FALSE,TRUE,"S252405540"
"556","glwgul","Glaucous-winged Gull","Larus glaucescens","L15759514","Stikine River","2025-06-20 09:23",2,56.6841364,-132.2554298,TRUE,FALSE,TRUE,"S252949843"
"557","glwgul","Glaucous-winged Gull","Larus glaucescens","L1464569","Lake Ballinger","2025-06-20 09:21",1,47.7845834,-122.3263574,TRUE,FALSE,FALSE,"S252386139"
"558","glwgul","Glaucous-winged Gull","Larus glaucescens","L42092229","41329 Foulweather Bluff Rd NE, Hansville US-WA 47.93902, -122.61430","2025-06-20 09:21",7,47.939018,-122.614304,TRUE,FALSE,TRUE,"S252389721"
"559","glwgul","Glaucous-winged Gull","Larus glaucescens","L48077061","Auto selected 57.33584, -133.12420","2025-06-20 08:59",21,57.335836,-133.124198,TRUE,FALSE,TRUE,"S252428751"
"560","glwgul","Glaucous-winged Gull","Larus glaucescens","L48080323","Whale Watch out of Auke Bay Harbor Rd, Juneau US-AK","2025-06-20 08:43",1,58.385429,-134.6459,TRUE,FALSE,TRUE,"S252441826"
"561","glwgul","Glaucous-winged Gull","Larus glaucescens","L48078832","Shelikof Strait US (58.0748,-153.5317)","2025-06-20 08:31",3,58.074774,-153.531708,TRUE,FALSE,TRUE,"S252435463"
"562","glwgul","Glaucous-winged Gull","Larus glaucescens","L1967972","Allyn Waterfront Park","2025-06-20 08:29",15,47.3845417,-122.8267729,TRUE,FALSE,FALSE,"S252387750"
"563","glwgul","Glaucous-winged Gull","Larus glaucescens","L2981817","Beards Hollow","2025-06-20 08:26",15,46.3044115,-124.0652776,TRUE,FALSE,FALSE,"S252394654"
"564","glwgul","Glaucous-winged Gull","Larus glaucescens","L2626629","Eagle Harbor Pullout","2025-06-20 08:20",9,47.6231068,-122.5374377,TRUE,FALSE,TRUE,"S252368297"
"565","glwgul","Glaucous-winged Gull","Larus glaucescens","L2281058","Glacier Bay NP--South Marble Island ","2025-06-20 08:10",200,58.6452846,-136.0467911,TRUE,FALSE,FALSE,"S252529840"
"566","glwgul","Glaucous-winged Gull","Larus glaucescens","L20576180","NW 84th & 1st","2025-06-20 08:09",3,47.689827,-122.359646,TRUE,FALSE,TRUE,"S252364378"
"567","glwgul","Glaucous-winged Gull","Larus glaucescens","L20926100","Ballinger Park, Mountlake Terrace US-WA 47.78911, -122.32979","2025-06-20 08:04",1,47.789106,-122.329788,TRUE,FALSE,TRUE,"S252385793"
"568","glwgul","Glaucous-winged Gull","Larus glaucescens","L3678631","Finger Lake Campground","2025-06-20 08:00",1,61.6099981,-149.2633116,TRUE,FALSE,FALSE,"S252387097"
"569","glwgul","Glaucous-winged Gull","Larus glaucescens","L5752807","Ocean Shores--SR 115 Beach Access","2025-06-20 07:50",12,47.0174823,-124.174068,TRUE,FALSE,FALSE,"S252384681"
"570","glwgul","Glaucous-winged Gull","Larus glaucescens","L276426","Grays Harbor NWR","2025-06-20 07:35",4,46.9731644,-123.9436064,TRUE,FALSE,FALSE,"S252365967"
"571","glwgul","Glaucous-winged Gull","Larus glaucescens","L588041","Waterfront Park and Eastbank Esplanade","2025-06-20 07:30",1,45.5175943,-122.6720095,TRUE,FALSE,FALSE,"S252379527"
