"","speciesCode","comName","sciName","locId","locName","obsDt","howMany","lat","lng","obsValid","obsReviewed","locationPrivate","subId"
"1","botspa","Botteri's Sparrow","Peucaea botterii","L281844","Montosa Canyon--km 1 (culvert area)","2025-06-15 09:47",1,31.6714585,-110.941082,TRUE,FALSE,FALSE,"S250808521"
"2","botspa","Botteri's Sparrow","Peucaea botterii","L7671203","San Pedro Trail-Waters Rd to Hereford Rd","2025-06-15 07:15",3,31.416206,-110.106658,TRUE,FALSE,TRUE,"S250722485"
"3","botspa","Botteri's Sparrow","Peucaea botterii","L128965","Florida Wash at Madera Canyon Rd","2025-06-15 06:15",2,31.7835694,-110.8863696,TRUE,FALSE,FALSE,"S250791214"
"4","botspa","Botteri's Sparrow","Peucaea botterii","L393566","Casa de San Pedro B&B--Visitors Welcome","2025-06-15 06:03",1,31.4088134,-110.1067829,TRUE,FALSE,FALSE,"S250669091"
"5","botspa","Botteri's Sparrow","Peucaea botterii","L6718077","3 Canyons Ranch (west of Deer Ridge Trail)","2025-06-14 19:25",1,31.4089416,-110.2331257,TRUE,FALSE,TRUE,"S250432563"
"6","botspa","Botteri's Sparrow","Peucaea botterii","L765027","Las Cienegas NCA--Empire Gulch","2025-06-14 08:00",1,31.7878465,-110.6365728,TRUE,FALSE,FALSE,"S250311517"
"7","botspa","Botteri's Sparrow","Peucaea botterii","L514799","Palo Alto Battlefield NHP (LTC 031)","2025-06-14 07:37",2,26.0191488,-97.4760676,TRUE,FALSE,FALSE,"S250186422"
"8","botspa","Botteri's Sparrow","Peucaea botterii","L128986","San Pedro RNCA--Hereford Bridge","2025-06-14 06:30",1,31.4384285,-110.1076526,TRUE,FALSE,FALSE,"S250439245"
"9","botspa","Botteri's Sparrow","Peucaea botterii","L47536492","Botteri’s Sparrow Spot","2025-06-13 15:33",1,31.762556,-110.88994,TRUE,FALSE,TRUE,"S249992314"
"10","botspa","Botteri's Sparrow","Peucaea botterii","L106949","Wild Horse - Hereford","2025-06-13 09:33",1,31.401968,-110.2308004,TRUE,FALSE,TRUE,"S249881013"
"11","botspa","Botteri's Sparrow","Peucaea botterii","L375967","Madera Canyon--Pima Co.","2025-06-13 08:08",2,31.7310142,-110.881319,TRUE,FALSE,FALSE,"S250038950"
"12","botspa","Botteri's Sparrow","Peucaea botterii","L47503474","East Greaterville Road, Sonoita, Arizona, US (31.766, -110.753)","2025-06-13 07:02",3,31.7656301,-110.7525073,TRUE,FALSE,TRUE,"S249857044"
"13","botspa","Botteri's Sparrow","Peucaea botterii","L749795","Grasslands between Proctor Rd and Florida Wash","2025-06-13 05:42",1,31.769332,-110.8873272,TRUE,FALSE,FALSE,"S249805102"
"14","botspa","Botteri's Sparrow","Peucaea botterii","L9968763","Double B Ranchito","2025-06-13 05:13",1,31.40989,-110.22613,TRUE,FALSE,TRUE,"S249825455"
"15","botspa","Botteri's Sparrow","Peucaea botterii","L40446378","Singing Hills Trail grasslands","2025-06-12 07:57",2,31.756756,-110.6782984,TRUE,FALSE,FALSE,"S249556809"
"16","botspa","Botteri's Sparrow","Peucaea botterii","L1957708","Weissler Yard, Hereford","2025-06-12 06:35",1,31.40261,-110.23148,TRUE,FALSE,TRUE,"S249519627"
"17","botspa","Botteri's Sparrow","Peucaea botterii","L6695785","Casa Doyle","2025-06-12 06:00",1,31.4100244,-110.2277579,TRUE,FALSE,TRUE,"S249884771"
"18","botspa","Botteri's Sparrow","Peucaea botterii","L47379153","Botteri’s Sparrow spot off Madera Canyon Rd (31.7631,-110.8891)","2025-06-11 08:39",1,31.7631,-110.889108,TRUE,FALSE,TRUE,"S249267011"
"19","botspa","Botteri's Sparrow","Peucaea botterii","L199300","Ash Canyon Bird Sanctuary (closed Thursday morning)","2025-06-11 07:31",1,31.3904516,-110.2392496,TRUE,FALSE,FALSE,"S249230734"
"20","botspa","Botteri's Sparrow","Peucaea botterii","L47354468","Auto selected 31.74632, -110.88750","2025-06-11 05:50",1,31.74632,-110.887501,TRUE,FALSE,TRUE,"S249158238"
"21","botspa","Botteri's Sparrow","Peucaea botterii","L129080","San Pedro RNCA--San Pedro House and trails","2025-06-11 05:39",1,31.5478992,-110.1408997,TRUE,FALSE,FALSE,"S249249114"
"22","botspa","Botteri's Sparrow","Peucaea botterii","L47391610","Madera Nature Trail, Green Valley US-AZ 31.74122, -110.88697","2025-06-11 05:03",2,31.741221,-110.886973,TRUE,FALSE,TRUE,"S249321040"
"23","botspa","Botteri's Sparrow","Peucaea botterii","L47314494","helipad turn around","2025-06-10 07:10",1,31.7628679,-110.8897827,TRUE,FALSE,TRUE,"S248967760"
"24","botspa","Botteri's Sparrow","Peucaea botterii","L47314243","Gate above Florida Wash","2025-06-10 06:45",2,31.7806472,-110.8878509,TRUE,FALSE,TRUE,"S248966223"
"25","botspa","Botteri's Sparrow","Peucaea botterii","L33345916","85614, Green Valley US-AZ 31.76278, -110.88992","2025-06-09 07:04",1,31.762781,-110.889924,TRUE,FALSE,TRUE,"S249019373"
"26","botspa","Botteri's Sparrow","Peucaea botterii","L2489849","McCleary Wash (historical Buff-collared Nightjar spot 1985-1994)","2025-06-07 18:25",1,31.7591884,-110.885691,TRUE,FALSE,FALSE,"S248207023"
"27","botspa","Botteri's Sparrow","Peucaea botterii","L504328","Sacahuistale Flats (LTC 013) and woodlands along SH186","2025-06-07 16:41",2,26.5038367,-97.4975252,TRUE,FALSE,FALSE,"S247890136"
"28","botspa","Botteri's Sparrow","Peucaea botterii","L47080042","SH-186, Raymondville US-TX 26.48095, -97.60859","2025-06-07 16:33",1,26.480953,-97.60859,TRUE,FALSE,TRUE,"S247907724"
"29","botspa","Botteri's Sparrow","Peucaea botterii","L47026070","S Madera Canyon Rd, Green Valley US-AZ 31.75363, -110.88779","2025-06-07 07:29",1,31.753629,-110.887795,TRUE,FALSE,TRUE,"S247686798"
"30","botspa","Botteri's Sparrow","Peucaea botterii","L1546530","Brown Canyon Ranch (opened 2011)","2025-06-06 17:45",1,31.4740051,-110.2977887,TRUE,FALSE,FALSE,"S247503291"
"31","botspa","Botteri's Sparrow","Peucaea botterii","L1040130","West Box Canyon Rd--desert scrub/mesquite grasslands","2025-06-06 10:07",1,31.7916584,-110.8193064,TRUE,FALSE,FALSE,"S247516630"
"32","botspa","Botteri's Sparrow","Peucaea botterii","L46949668","Madera Canyon Rd--Old Helibase Pulloff","2025-06-06 09:11",2,31.7537531,-110.8874567,TRUE,FALSE,TRUE,"S247340430"
"33","botspa","Botteri's Sparrow","Peucaea botterii","L46942571","Heli Pad Area.  (31.754, -110.887)","2025-06-06 07:14",1,31.753626,-110.8874485,TRUE,FALSE,TRUE,"S247312375"
"34","botspa","Botteri's Sparrow","Peucaea botterii","L211809","Madera Canyon--Proctor Rd.","2025-06-06 06:50",1,31.739938,-110.886147,TRUE,FALSE,FALSE,"S247289540"
"35","botspa","Botteri's Sparrow","Peucaea botterii","L45832337","85614, Green Valley US-AZ 31.76278, -110.89001","2025-06-06 05:44",1,31.762777,-110.890012,TRUE,FALSE,TRUE,"S247266473"
