"","speciesCode","comName","sciName","locId","locName","obsDt","howMany","lat","lng","obsValid","obsReviewed","locationPrivate","subId"
"1","grepew","Greater Pewee","Contopus pertinax","L748283","Gila NF--Cherry Creek Campground","2025-05-21 11:14",1,32.9142967,-108.2246983,TRUE,FALSE,FALSE,"S241028765"
"2","grepew","Greater Pewee","Contopus pertinax","L45616294","Twilight Road","2025-05-21 10:59",1,32.6315008,-109.8228001,TRUE,FALSE,TRUE,"S240996573"
"3","grepew","Greater Pewee","Contopus pertinax","L753059","Mt. Lemmon--Incinerator Ridge","2025-05-21 09:53",1,32.4111248,-110.7064819,TRUE,FALSE,FALSE,"S241002773"
"4","grepew","Greater Pewee","Contopus pertinax","L728980","Barfoot Lookout","2025-05-21 09:37",1,31.9164362,-109.2737471,TRUE,FALSE,FALSE,"S240953986"
"5","grepew","Greater Pewee","Contopus pertinax","L128885","Barfoot Park","2025-05-21 08:57",1,31.9172001,-109.2790985,TRUE,FALSE,FALSE,"S240951168"
"6","grepew","Greater Pewee","Contopus pertinax","L753061","Mt. Lemmon--Summerhaven","2025-05-21 08:52",1,32.4427119,-110.7598686,TRUE,FALSE,FALSE,"S240987110"
"7","grepew","Greater Pewee","Contopus pertinax","L129069","Rustler Park","2025-05-21 07:45",1,31.9030991,-109.2776031,TRUE,FALSE,FALSE,"S240951234"
"8","grepew","Greater Pewee","Contopus pertinax","L129068","Mt. Lemmon--Rose Canyon and Lake","2025-05-21 07:41",2,32.3926274,-110.7024693,TRUE,FALSE,FALSE,"S241056582"
"9","grepew","Greater Pewee","Contopus pertinax","L267654","Mt. Lemmon--Marshall Gulch","2025-05-21 06:57",2,32.4280212,-110.7556783,TRUE,FALSE,FALSE,"S241018734"
"10","grepew","Greater Pewee","Contopus pertinax","L3651544","Madera Canyon--Old Baldy Trail","2025-05-21 06:15",1,31.7064483,-110.868596,TRUE,FALSE,FALSE,"S240977083"
"11","grepew","Greater Pewee","Contopus pertinax","L302348","Dead Horse Ranch SP","2025-05-20 13:15",1,34.751972,-112.0131749,TRUE,FALSE,FALSE,"S240731377"
"12","grepew","Greater Pewee","Contopus pertinax","L264846","Carr Canyon--Ramsey Vista CG","2025-05-20 10:23",1,31.429,-110.304,TRUE,FALSE,FALSE,"S240714763"
"13","grepew","Greater Pewee","Contopus pertinax","L128884","Barfoot Junction","2025-05-20 09:15",1,31.9150326,-109.2690586,TRUE,FALSE,FALSE,"S240995278"
"14","grepew","Greater Pewee","Contopus pertinax","L129031","Miller Canyon Trail","2025-05-20 06:15",1,31.40806,-110.28619,TRUE,FALSE,FALSE,"S240875675"
"15","grepew","Greater Pewee","Contopus pertinax","L129056","Pinery Canyon","2025-05-19 09:53",1,31.9328003,-109.2713013,TRUE,FALSE,FALSE,"S240422101"
"16","grepew","Greater Pewee","Contopus pertinax","L2413068","Madera Canyon--Carrie Nation Trail","2025-05-19 09:16",2,31.704511,-110.8764482,TRUE,FALSE,FALSE,"S240357700"
"17","grepew","Greater Pewee","Contopus pertinax","L9287162","Huachuca Canyon--1.7 mile picnic area","2025-05-19 08:49",1,31.5177588,-110.3884391,TRUE,FALSE,FALSE,"S240317021"
"18","grepew","Greater Pewee","Contopus pertinax","L45494022","Arizona, US (32.383, -110.691)","2025-05-19 08:47",1,32.3831666,-110.6909074,TRUE,FALSE,TRUE,"S240380646"
"19","grepew","Greater Pewee","Contopus pertinax","L128937","Carr Canyon--Reef Townsite CG","2025-05-19 08:26",1,31.4286245,-110.2909517,TRUE,FALSE,FALSE,"S240323030"
"20","grepew","Greater Pewee","Contopus pertinax","L129062","Ramsey Canyon Preserve (formerly Mile Hi Ranch)","2025-05-19 07:50",1,31.4473746,-110.307608,TRUE,FALSE,FALSE,"S240403234"
"21","grepew","Greater Pewee","Contopus pertinax","L2193116","madera canyon first trail junction bench","2025-05-19 07:40",1,31.7100422,-110.8753324,TRUE,FALSE,TRUE,"S240315128"
"22","grepew","Greater Pewee","Contopus pertinax","L128936","Carr Canyon--Comfort Spring Trail","2025-05-19 06:29",1,31.4288359,-110.3095318,TRUE,FALSE,FALSE,"S240429804"
"23","grepew","Greater Pewee","Contopus pertinax","L5495120","stakeout Crescent-chested Warbler, Morse Canyon Trail #43 (2020)","2025-05-18 14:08",1,31.844851,-109.32641,TRUE,FALSE,FALSE,"S240931741"
"24","grepew","Greater Pewee","Contopus pertinax","L2126806","Madera Canyon--Bog Springs","2025-05-18 08:57",2,31.7213046,-110.8626723,TRUE,FALSE,FALSE,"S239947164"
"25","grepew","Greater Pewee","Contopus pertinax","L6530759","Upper Ramsey Canyon","2025-05-18 08:40",2,31.4409905,-110.3174114,TRUE,FALSE,TRUE,"S239912132"
"26","grepew","Greater Pewee","Contopus pertinax","L264842","Miller Canyon--Beatty's Guest Ranch","2025-05-18 08:04",1,31.4156019,-110.2765277,TRUE,FALSE,FALSE,"S240447746"
"27","grepew","Greater Pewee","Contopus pertinax","L583366","Madera Canyon--Kent Springs","2025-05-18 06:49",1,31.71293,-110.85703,TRUE,FALSE,FALSE,"S240035159"
"28","grepew","Greater Pewee","Contopus pertinax","L129021","Madera Canyon--Madera Picnic Area","2025-05-18 06:21",1,31.7271702,-110.8807518,TRUE,FALSE,FALSE,"S239777449"
"29","grepew","Greater Pewee","Contopus pertinax","L7529739","Madera Canyon--Super Trail to Sprung Spring","2025-05-18 06:15",1,31.7073679,-110.867613,TRUE,FALSE,TRUE,"S240045188"
"30","grepew","Greater Pewee","Contopus pertinax","L44782234","Gila NF--Sheep Corral Canyon Rd.","2025-05-18 06:10",2,32.9727715,-108.2448863,TRUE,FALSE,FALSE,"S240017878"
"31","grepew","Greater Pewee","Contopus pertinax","L5716623","Carr Canyon Road--BETWEEN Reef Townsite and Ramsey Vista CGs","2025-05-18 05:41",1,31.4283152,-110.2991402,TRUE,FALSE,FALSE,"S239660805"
"32","grepew","Greater Pewee","Contopus pertinax","L11898714","Coronado NF--42D Forest Rd. (31.9267, -109.2617)","2025-05-17 08:10",1,31.92671,-109.261738,TRUE,FALSE,TRUE,"S239317193"
"33","grepew","Greater Pewee","Contopus pertinax","L4094976","stakeout Sulphur-bellied Flycatcher, Bear Canyon pullout","2025-05-17 07:53",1,32.36573,-110.709329,TRUE,FALSE,FALSE,"S239289630"
"34","grepew","Greater Pewee","Contopus pertinax","L10304814","Cave Creek Canyon--Ash Spring Trail #247A","2025-05-17 06:22",1,31.8738218,-109.2353229,TRUE,FALSE,FALSE,"S239367936"
"35","grepew","Greater Pewee","Contopus pertinax","L45314158","Verde River: Sheep Bridge to Chalk Cliffs","2025-05-17 05:20",1,34.0540356,-111.7278498,TRUE,FALSE,TRUE,"S239502512"
"36","grepew","Greater Pewee","Contopus pertinax","L45202906","Coronado National Forest, Tucson US-AZ 32.39017, -110.70793","2025-05-16 13:15",1,32.390175,-110.707925,TRUE,FALSE,TRUE,"S238969136"
"37","grepew","Greater Pewee","Contopus pertinax","L8812892","Garden Canyon Rd--BETWEEN Upper Picnic Area and Sawmill Canyon","2025-05-16 08:10",2,31.460941,-110.361756,TRUE,FALSE,FALSE,"S238896875"
"38","grepew","Greater Pewee","Contopus pertinax","L903587","Homestead","2025-05-16 07:54",1,34.45061,-112.43255,TRUE,FALSE,TRUE,"S238994772"
"39","grepew","Greater Pewee","Contopus pertinax","L300587","Pinal Mountains--Sulfide del Rey Campground","2025-05-16 07:15",1,33.29467,-110.86638,TRUE,FALSE,FALSE,"S238934863"
"40","grepew","Greater Pewee","Contopus pertinax","L45169895","Sheep Corral Canyon Road, Silver City US-NM 32.97219, -108.24410","2025-05-16 06:28",1,32.972186,-108.244102,TRUE,FALSE,TRUE,"S238802193"
"41","grepew","Greater Pewee","Contopus pertinax","L45095629","Road from Portal to Rustler Park","2025-05-15 09:52",1,31.910175,-109.251115,TRUE,FALSE,TRUE,"S238466386"
"42","grepew","Greater Pewee","Contopus pertinax","L5619009","Mt. Lemmon--Palisades Trail--upper forest 7794-7230/0-1.6 mile","2025-05-15 06:35",3,32.40334,-110.72477,TRUE,FALSE,TRUE,"S238160991"
"43","grepew","Greater Pewee","Contopus pertinax","L292553","Madera Canyon--Whitehouse Picnic area","2025-05-14 15:19",1,31.733668,-110.882269,TRUE,FALSE,FALSE,"S239007770"
"44","grepew","Greater Pewee","Contopus pertinax","L720787","Florida Canyon--lower","2025-05-14 13:28",1,31.7633436,-110.8458804,TRUE,TRUE,FALSE,"S237921568"
"45","grepew","Greater Pewee","Contopus pertinax","L211809","Madera Canyon--Proctor Rd.","2025-05-14 10:41",1,31.739938,-110.886147,TRUE,FALSE,FALSE,"S237998102"
"46","grepew","Greater Pewee","Contopus pertinax","L2862383","East Turkey Creek at FR42/FR42B","2025-05-13 08:56",1,31.9086083,-109.2508256,TRUE,FALSE,FALSE,"S238349336"
