"","speciesCode","comName","sciName","locId","locName","obsDt","lat","lng","obsValid","obsReviewed","locationPrivate","subId","howMany"
"1","glwgul","Glaucous-winged Gull","Larus glaucescens","L1489177","Olympic Sculpture Park","2025-06-18 16:56",47.61644,-122.3545268,TRUE,FALSE,FALSE,"S251853017",NA
"2","glwgul","Glaucous-winged Gull","Larus glaucescens","L47948512","6049 Seaview Ave NW, Seattle US-WA 47.67337, -122.40771","2025-06-18 16:01",47.673365,-122.407708,TRUE,FALSE,TRUE,"S251852686",1
"3","glwgul","Glaucous-winged Gull","Larus glaucescens","L523657","Potter Marsh--mm 116","2025-06-18 15:38",61.0617949,-149.8090553,TRUE,FALSE,FALSE,"S251853022",5
"4","glwgul","Glaucous-winged Gull","Larus glaucescens","L10265485","Salmon Bay Natural Area","2025-06-18 15:31",47.6673533,-122.401002,TRUE,FALSE,FALSE,"S251835905",5
"5","glwgul","Glaucous-winged Gull","Larus glaucescens","L20830427","Union Bay Natural Area, Seattle US-WA 47.65573, -122.29093","2025-06-18 15:22",47.655727,-122.290926,TRUE,FALSE,TRUE,"S251850267",1
"6","glwgul","Glaucous-winged Gull","Larus glaucescens","L2576831","Scheffler Creek","2025-06-18 15:10",60.1139642,-149.4383526,TRUE,FALSE,TRUE,"S251843338",26
"7","glwgul","Glaucous-winged Gull","Larus glaucescens","L35520774","Skiff Point","2025-06-18 15:10",47.662815,-122.5003481,TRUE,FALSE,FALSE,"S251840940",2
"8","glwgul","Glaucous-winged Gull","Larus glaucescens","L129129","Westchester Lagoon","2025-06-18 15:00",61.2070462,-149.9198785,TRUE,FALSE,FALSE,"S251843426",2
"9","glwgul","Glaucous-winged Gull","Larus glaucescens","L20100530","470 S Franklin St, Juneau US-AK (58.2963,-134.4016)","2025-06-18 14:24",58.296262,-134.401573,TRUE,FALSE,TRUE,"S251850853",2
"10","glwgul","Glaucous-winged Gull","Larus glaucescens","L234894","Salt Creek County Park","2025-06-18 14:17",48.1631912,-123.6972883,TRUE,FALSE,FALSE,"S251834419",1
"11","glwgul","Glaucous-winged Gull","Larus glaucescens","L10373252","North Passage Point Park","2025-06-18 13:50",47.6537705,-122.3221696,TRUE,FALSE,FALSE,"S251814791",9
"12","glwgul","Glaucous-winged Gull","Larus glaucescens","L293994","Auke village recreation area","2025-06-18 13:42",58.3759998,-134.7181811,TRUE,FALSE,TRUE,"S251845312",40
"13","glwgul","Glaucous-winged Gull","Larus glaucescens","L588692","Seldovia (town)","2025-06-18 13:36",59.4415843,-151.7160416,TRUE,FALSE,FALSE,"S251849754",4
"14","glwgul","Glaucous-winged Gull","Larus glaucescens","L1158281","Mountain View Cemetery Marsh","2025-06-18 13:35",47.1800437,-122.4956918,TRUE,FALSE,FALSE,"S251820198",1
"15","glwgul","Glaucous-winged Gull","Larus glaucescens","L15126607","Sunset Beach","2025-06-18 13:21",47.6407981,-122.8577047,TRUE,FALSE,TRUE,"S251824047",4
"16","glwgul","Glaucous-winged Gull","Larus glaucescens","L47943243","Tenakee Inlet","2025-06-18 13:12",57.771134,-135.284714,TRUE,FALSE,TRUE,"S251828190",4
"17","glwgul","Glaucous-winged Gull","Larus glaucescens","L349636","Rosario Beach / Rosario Head","2025-06-18 13:05",48.4162023,-122.6644993,TRUE,FALSE,FALSE,"S251811311",1
"18","glwgul","Glaucous-winged Gull","Larus glaucescens","L285940","Cape Kiwanda SP","2025-06-18 13:00",45.2174028,-123.9778006,TRUE,FALSE,FALSE,"S251831055",NA
"19","glwgul","Glaucous-winged Gull","Larus glaucescens","L1406877","832 Gardiner Beach Road my yard","2025-06-18 13:00",48.0583226,-122.9198055,TRUE,FALSE,TRUE,"S251815199",2
"20","glwgul","Glaucous-winged Gull","Larus glaucescens","L109542","Point No Point","2025-06-18 13:00",47.9118696,-122.5283182,TRUE,FALSE,FALSE,"S251825393",8
"21","glwgul","Glaucous-winged Gull","Larus glaucescens","L9847543","Kachemak Bay--Gull Island","2025-06-18 12:49",59.5850521,-151.3284206,TRUE,FALSE,FALSE,"S251853216",30
"22","glwgul","Glaucous-winged Gull","Larus glaucescens","L2096098","Potter Marsh (general area)","2025-06-18 12:32",61.0715323,-149.8160934,TRUE,FALSE,FALSE,"S251839549",3
"23","glwgul","Glaucous-winged Gull","Larus glaucescens","L1325204","Olympia--KGY Point","2025-06-18 12:30",47.0586041,-122.9038811,TRUE,FALSE,FALSE,"S251843548",1
"24","glwgul","Glaucous-winged Gull","Larus glaucescens","L499668","English Boom","2025-06-18 12:30",48.2633127,-122.4367368,TRUE,FALSE,FALSE,"S251851921",2
"25","glwgul","Glaucous-winged Gull","Larus glaucescens","L168688","Ocean Shores--Pt. Brown Jetty","2025-06-18 12:17",46.92816,-124.17397,TRUE,FALSE,FALSE,"S251797680",4
"26","glwgul","Glaucous-winged Gull","Larus glaucescens","L902023","Cordova--Odiak Pond","2025-06-18 11:58",60.540017,-145.751523,TRUE,FALSE,FALSE,"S251801421",1
"27","glwgul","Glaucous-winged Gull","Larus glaucescens","L294441","Anacortes Ferry Terminal","2025-06-18 11:55",48.5064005,-122.6780041,TRUE,FALSE,FALSE,"S251784993",4
"28","glwgul","Glaucous-winged Gull","Larus glaucescens","L285366","Golden Gardens Park","2025-06-18 11:53",47.6928546,-122.4054806,TRUE,FALSE,FALSE,"S251798270",NA
"29","glwgul","Glaucous-winged Gull","Larus glaucescens","L763879","Potter Marsh Boardwalk","2025-06-18 11:36",61.0775802,-149.8262,TRUE,FALSE,FALSE,"S251812781",NA
"30","glwgul","Glaucous-winged Gull","Larus glaucescens","L190512","Ediz Hook","2025-06-18 11:34",48.14035,-123.44711,TRUE,FALSE,FALSE,"S251795760",21
"31","glwgul","Glaucous-winged Gull","Larus glaucescens","L879916","Friday Harbor -- Harbor area","2025-06-18 11:33",48.5365066,-123.014828,TRUE,FALSE,FALSE,"S251780309",2
"32","glwgul","Glaucous-winged Gull","Larus glaucescens","L1311564","Yaquina Bay SP","2025-06-18 11:28",44.624892,-124.063282,TRUE,FALSE,FALSE,"S251776886",1
"33","glwgul","Glaucous-winged Gull","Larus glaucescens","L4762812","Buck Bay, Orcas Island","2025-06-18 11:27",48.621172,-122.83098,TRUE,FALSE,FALSE,"S251778254",1
"34","glwgul","Glaucous-winged Gull","Larus glaucescens","L1232767","Gardiner Beach","2025-06-18 11:00",48.056878,-122.9152966,TRUE,FALSE,FALSE,"S251803367",1
"35","glwgul","Glaucous-winged Gull","Larus glaucescens","L47935918","Homer Boat Trip leg 4","2025-06-18 11:00",59.586164,-151.327068,TRUE,FALSE,TRUE,"S251795449",300
"36","glwgul","Glaucous-winged Gull","Larus glaucescens","L47943974","Marsh across from Railroad Portage Depot","2025-06-18 11:00",60.8362283,-148.9879211,TRUE,FALSE,TRUE,"S251831749",2
"37","glwgul","Glaucous-winged Gull","Larus glaucescens","L4936159","Favorite Channel--Aaron Island","2025-06-18 11:00",58.4371776,-134.8223691,TRUE,FALSE,FALSE,"S251846344",6
"38","glwgul","Glaucous-winged Gull","Larus glaucescens","L4891872","Seward--Small Boat Harbor","2025-06-18 10:50",60.1198113,-149.4356704,TRUE,FALSE,FALSE,"S251781450",1
"39","glwgul","Glaucous-winged Gull","Larus glaucescens","L548476","Haystack Rock","2025-06-18 10:49",45.8847357,-123.9683104,TRUE,FALSE,FALSE,"S251782176",1
"40","glwgul","Glaucous-winged Gull","Larus glaucescens","L9494727","Valdez--Harborside","2025-06-18 10:44",61.1267701,-146.3467113,TRUE,FALSE,FALSE,"S251810484",5
"41","glwgul","Glaucous-winged Gull","Larus glaucescens","L42524113","Rose Hill Meadows Park, Kirkland US-WA (47.6776,-122.1746)","2025-06-18 10:39",47.677621,-122.174565,TRUE,FALSE,TRUE,"S251788077",2
"42","glwgul","Glaucous-winged Gull","Larus glaucescens","L47930978","Waterfront By Juneau Cruise Terminal","2025-06-18 10:21",58.2976336,-134.4025939,TRUE,FALSE,TRUE,"S251774306",3
"43","glwgul","Glaucous-winged Gull","Larus glaucescens","L47933111","Homer Boat Trip leg 3","2025-06-18 09:59",59.603857,-151.188428,TRUE,FALSE,TRUE,"S251783426",250
"44","glwgul","Glaucous-winged Gull","Larus glaucescens","L3881355","Gastineau Channel","2025-06-18 09:55",58.293704,-134.4118452,TRUE,FALSE,FALSE,"S251766444",6
"45","glwgul","Glaucous-winged Gull","Larus glaucescens","L1560872","Port Orchard Marina","2025-06-18 09:55",47.5429335,-122.6373185,TRUE,FALSE,FALSE,"S251756868",NA
"46","glwgul","Glaucous-winged Gull","Larus glaucescens","L2158283","Ship Harbor Interpretive Preserve","2025-06-18 09:25",48.5035261,-122.6748633,TRUE,FALSE,FALSE,"S251756175",30
"47","glwgul","Glaucous-winged Gull","Larus glaucescens","L46896779","US Army Reserve Pier 23","2025-06-18 09:25",47.282225,-122.4098,TRUE,FALSE,TRUE,"S251743320",7
"48","glwgul","Glaucous-winged Gull","Larus glaucescens","L5982256","Seattle Center","2025-06-18 09:20",47.6220168,-122.3520541,TRUE,FALSE,FALSE,"S251751951",3
"49","glwgul","Glaucous-winged Gull","Larus glaucescens","L1018792","Boiler Bay State Wayside","2025-06-18 09:03",44.8288173,-124.0658998,TRUE,FALSE,FALSE,"S251734148",2
"50","glwgul","Glaucous-winged Gull","Larus glaucescens","L47928913","Homer Boat Trip leg 2","2025-06-18 09:00",59.655307,-151.185314,TRUE,FALSE,TRUE,"S251765021",1
"51","glwgul","Glaucous-winged Gull","Larus glaucescens","L374382","Edmonds Waterfront","2025-06-18 09:00",47.8119268,-122.3854144,TRUE,FALSE,FALSE,"S251762427",20
"52","glwgul","Glaucous-winged Gull","Larus glaucescens","L45674115","Point Louisa 2","2025-06-18 08:56",58.371963,-134.726044,TRUE,FALSE,TRUE,"S251759379",6
"53","glwgul","Glaucous-winged Gull","Larus glaucescens","L443195","Sitka (town)","2025-06-18 08:47",57.049881,-135.3335381,TRUE,FALSE,FALSE,"S251775729",4
"54","glwgul","Glaucous-winged Gull","Larus glaucescens","L162766","Union Bay Natural Area/Montlake Fill","2025-06-18 08:41",47.65424,-122.29137,TRUE,FALSE,FALSE,"S251802157",2
"55","glwgul","Glaucous-winged Gull","Larus glaucescens","L28015376","Seaside Beach, Seaside US-OR (46.0078,-123.9265)","2025-06-18 08:36",46.007771,-123.926513,TRUE,FALSE,TRUE,"S251734802",5
"56","glwgul","Glaucous-winged Gull","Larus glaucescens","L299264","Ventura River Estuary","2025-06-18 08:35",34.2756058,-119.3081546,TRUE,FALSE,FALSE,"S251850817",1
"57","glwgul","Glaucous-winged Gull","Larus glaucescens","L392640","Washington Park, Anacortes","2025-06-18 08:25",48.495268,-122.6951408,TRUE,FALSE,FALSE,"S251750096",14
"58","glwgul","Glaucous-winged Gull","Larus glaucescens","L3545525","Mendenhall Glacier--E. Glacier Trail","2025-06-18 08:20",58.4207409,-134.5365143,TRUE,FALSE,FALSE,"S251770540",1
"59","glwgul","Glaucous-winged Gull","Larus glaucescens","L47924838","Homer Boat Trip leg 1","2025-06-18 08:01",59.603403,-151.422369,TRUE,FALSE,TRUE,"S251748279",125
"60","glwgul","Glaucous-winged Gull","Larus glaucescens","L840172","Whittier (town)","2025-06-18 08:00",60.777602,-148.7033844,TRUE,FALSE,FALSE,"S251830154",3
"61","glwgul","Glaucous-winged Gull","Larus glaucescens","L2529193","Home - Old Glacier Hwy / Lena Loop Junction - Favorite Channel - Juneau","2025-06-18 07:30",58.3828943,-134.7464883,TRUE,FALSE,TRUE,"S251731396",20
"62","glwgul","Glaucous-winged Gull","Larus glaucescens","L2608551","Charles Richey Sr. Viewpoint","2025-06-18 07:22",47.5726544,-122.4140185,TRUE,FALSE,FALSE,"S251712871",NA
"63","glwgul","Glaucous-winged Gull","Larus glaucescens","L6644743","East Fremont Neighborhood (45th to 40th, Whitman to Stone)","2025-06-18 06:59",47.661466,-122.34608,TRUE,FALSE,TRUE,"S251709857",2
"64","glwgul","Glaucous-winged Gull","Larus glaucescens","L47813619","78 W Keystone Ave, Coupeville US-WA 48.16105, -122.61971","2025-06-18 06:51",48.161046,-122.619714,TRUE,FALSE,TRUE,"S251741281",1
"65","glwgul","Glaucous-winged Gull","Larus glaucescens","L37333770","Guemes Shore Trail to Skyline","2025-06-18 06:45",48.5000932,-122.6577914,TRUE,FALSE,TRUE,"S251748929",4
"66","glwgul","Glaucous-winged Gull","Larus glaucescens","L1627186","Titlow Park & Beach","2025-06-18 06:21",47.2489682,-122.5517227,TRUE,FALSE,FALSE,"S251721137",1
"67","glwgul","Glaucous-winged Gull","Larus glaucescens","L2793074","E 7th & Francis St Port Angeles WA","2025-06-18 05:32",48.1085703,-123.4254876,TRUE,FALSE,TRUE,"S251666586",3
"68","glwgul","Glaucous-winged Gull","Larus glaucescens","L6060782","Chugach NF--Power Creek outlet","2025-06-18 05:08",60.587157,-145.6450868,TRUE,FALSE,FALSE,"S251736835",5
"69","glwgul","Glaucous-winged Gull","Larus glaucescens","L1339539","Kenai Flats--Sea Catch Dr. & Cannery Rd.","2025-06-17 20:30",60.5351637,-151.2629414,TRUE,FALSE,FALSE,"S251578275",250
"70","glwgul","Glaucous-winged Gull","Larus glaucescens","L21680658","3202 S Dose Terr, Seattle US-WA 47.58367, -122.29154","2025-06-17 20:25",47.583675,-122.29154,TRUE,FALSE,TRUE,"S251563729",1
"71","glwgul","Glaucous-winged Gull","Larus glaucescens","L472642","Meadowbrook Pond","2025-06-17 20:15",47.7058052,-122.2889256,TRUE,FALSE,FALSE,"S251565652",1
"72","glwgul","Glaucous-winged Gull","Larus glaucescens","L4128669","Skyline, Anacortes","2025-06-17 20:00",48.489752,-122.676051,TRUE,FALSE,FALSE,"S251565503",4
"73","glwgul","Glaucous-winged Gull","Larus glaucescens","L47731334","Private","2025-06-17 19:39",47.120958,-122.964469,TRUE,FALSE,TRUE,"S251565861",3
"74","glwgul","Glaucous-winged Gull","Larus glaucescens","L47745221","Outlook Inn","2025-06-17 19:18",48.694399,-122.908722,TRUE,FALSE,TRUE,"S251556418",26
"75","glwgul","Glaucous-winged Gull","Larus glaucescens","L1233960","Cape Resurrection","2025-06-17 19:00",59.8725703,-149.2733002,TRUE,FALSE,FALSE,"S251840629",1
"76","glwgul","Glaucous-winged Gull","Larus glaucescens","L15873803","Anchor River SRA","2025-06-17 19:00",59.7739031,-151.8658974,TRUE,FALSE,FALSE,"S251567825",NA
"77","glwgul","Glaucous-winged Gull","Larus glaucescens","L27062189","seeing birds","2025-06-17 18:59",47.9949033,-122.5384626,TRUE,FALSE,TRUE,"S251557104",2
"78","glwgul","Glaucous-winged Gull","Larus glaucescens","L47889736","North Pacific Ocean US (57.6622,-152.0414)","2025-06-17 18:49",57.662241,-152.041361,TRUE,FALSE,TRUE,"S251570324",7
"79","glwgul","Glaucous-winged Gull","Larus glaucescens","L20354111","Hemlock St.","2025-06-17 18:34",47.8053324,-122.3711179,TRUE,FALSE,TRUE,"S251705068",NA
"80","glwgul","Glaucous-winged Gull","Larus glaucescens","L776555","Salt Pond A12","2025-06-17 18:28",37.4337723,-121.9832611,TRUE,FALSE,FALSE,"S251555997",2
"81","glwgul","Glaucous-winged Gull","Larus glaucescens","L1067145","Kasilof--Kasilof River Mouth","2025-06-17 18:20",60.3859137,-151.302166,TRUE,FALSE,FALSE,"S251583152",20
"82","glwgul","Glaucous-winged Gull","Larus glaucescens","L245894","Port Angeles City Pier","2025-06-17 18:19",48.1205005,-123.4287722,TRUE,FALSE,FALSE,"S251720221",1
"83","glwgul","Glaucous-winged Gull","Larus glaucescens","L838940","Bainbridge Island - Yard - Fletcher Bay Road","2025-06-17 18:12",47.6321976,-122.5587988,TRUE,FALSE,TRUE,"S251564229",2
"84","glwgul","Glaucous-winged Gull","Larus glaucescens","L273591","Diamond Point","2025-06-17 17:41",48.0952891,-122.9202042,TRUE,FALSE,FALSE,"S251539160",2
"85","glwgul","Glaucous-winged Gull","Larus glaucescens","L47882891","Stadium Place, Seattle US-WA 47.59826, -122.33068","2025-06-17 17:41",47.598263,-122.330679,TRUE,FALSE,TRUE,"S251539488",1
"86","glwgul","Glaucous-winged Gull","Larus glaucescens","L383517","Olympic NP--Kalaloch","2025-06-17 17:38",47.6053895,-124.3737439,TRUE,FALSE,FALSE,"S251567241",4
"87","glwgul","Glaucous-winged Gull","Larus glaucescens","L2752419","Seward--Waterfront Park","2025-06-17 17:36",60.1067459,-149.4337238,TRUE,FALSE,FALSE,"S251568070",2
"88","glwgul","Glaucous-winged Gull","Larus glaucescens","L491606","Seal Rock State Wayside","2025-06-17 17:27",44.4969645,-124.0839458,TRUE,FALSE,FALSE,"S251538275",1
"89","glwgul","Glaucous-winged Gull","Larus glaucescens","L1352149","Echo Lake","2025-06-17 17:20",47.772968,-122.3413914,TRUE,FALSE,FALSE,"S251543043",6
"90","glwgul","Glaucous-winged Gull","Larus glaucescens","L44932164","Fort Stevens State Park, Parking Area C","2025-06-17 17:19",46.2269012,-124.0142585,TRUE,FALSE,TRUE,"S251541356",1
"91","glwgul","Glaucous-winged Gull","Larus glaucescens","L766025","Mukilteo-Clinton Ferry","2025-06-17 16:33",47.9590353,-122.3177703,TRUE,FALSE,FALSE,"S251532181",NA
"92","glwgul","Glaucous-winged Gull","Larus glaucescens","L9597284","Point Defiance Park--Dune Peninsula & Wilson Way","2025-06-17 16:15",47.3050674,-122.5095794,TRUE,FALSE,FALSE,"S251745366",3
"93","glwgul","Glaucous-winged Gull","Larus glaucescens","L7706326","Smith Island","2025-06-17 16:09",48.318233,-122.8410187,TRUE,FALSE,FALSE,"S251771484",200
"94","glwgul","Glaucous-winged Gull","Larus glaucescens","L18726044","Sportsman`s Landing","2025-06-17 15:55",60.4866666,-150.0027171,TRUE,FALSE,FALSE,"S251568316",5
"95","glwgul","Glaucous-winged Gull","Larus glaucescens","L1309593","Keystone Ferry Landing","2025-06-17 15:49",48.1566961,-122.6702499,TRUE,FALSE,FALSE,"S251516027",27
"96","glwgul","Glaucous-winged Gull","Larus glaucescens","L3335355","Seward--Afognak Beach","2025-06-17 15:48",60.1217033,-149.370321,TRUE,FALSE,FALSE,"S251555700",14
"97","glwgul","Glaucous-winged Gull","Larus glaucescens","L36816866","Bellingham Cruise Terminal","2025-06-17 15:43",48.7215295,-122.5124258,TRUE,FALSE,FALSE,"S251514396",12
"98","glwgul","Glaucous-winged Gull","Larus glaucescens","L45576655","1800 Harborview Dr, Aberdeen US-WA 46.98793, -123.83662","2025-06-17 15:35",46.987931,-123.836616,TRUE,FALSE,TRUE,"S251529086",3
"99","glwgul","Glaucous-winged Gull","Larus glaucescens","L1773890","Bellingham--Padden Lagoon","2025-06-17 15:33",48.7214584,-122.5085879,TRUE,FALSE,FALSE,"S251511673",17
"100","glwgul","Glaucous-winged Gull","Larus glaucescens","L1764188","Bodega Bay--Gaffney Pt. - includes Marine Lab and residence entrances","2025-06-17 15:24",38.3150602,-123.0578613,TRUE,FALSE,FALSE,"S251551737",1
"101","glwgul","Glaucous-winged Gull","Larus glaucescens","L42315393","Auto selected 48.16197, -122.75341","2025-06-17 15:21",48.16197,-122.753411,TRUE,FALSE,TRUE,"S251559007",2
"102","glwgul","Glaucous-winged Gull","Larus glaucescens","L129842","Resurrection Bay","2025-06-17 15:16",60.0497812,-149.3878636,TRUE,FALSE,FALSE,"S251556283",6
"103","glwgul","Glaucous-winged Gull","Larus glaucescens","L265438","Three Crabs","2025-06-17 15:16",48.151945,-123.1222855,TRUE,FALSE,FALSE,"S251525179",38
"104","glwgul","Glaucous-winged Gull","Larus glaucescens","L2254910","Tillamook Bay--Garibaldi Public Pier","2025-06-17 15:00",45.5566472,-123.921305,TRUE,FALSE,FALSE,"S251559159",9
"105","glwgul","Glaucous-winged Gull","Larus glaucescens","L19644898","blue ridge beach","2025-06-17 14:49",47.7021913,-122.3910073,TRUE,FALSE,TRUE,"S251538385",3
"106","glwgul","Glaucous-winged Gull","Larus glaucescens","L25419017","Lowell Point SRS","2025-06-17 14:47",60.068127,-149.442029,TRUE,FALSE,FALSE,"S251540779",8
"107","glwgul","Glaucous-winged Gull","Larus glaucescens","L1788797","Ocean Ave (Water St), Edmonds","2025-06-17 14:43",47.825776,-122.3687986,TRUE,FALSE,FALSE,"S251505633",5
"108","glwgul","Glaucous-winged Gull","Larus glaucescens","L47875613","Squaxson Park Beach Trail, Olympia, Washington, US (47.069, -122.896)","2025-06-17 14:32",47.0690348,-122.8964575,TRUE,FALSE,TRUE,"S251505108",15
"109","glwgul","Glaucous-winged Gull","Larus glaucescens","L5287363","Unalaska Is.--Iliuliuk Bay","2025-06-17 14:20",53.9125997,-166.5040313,TRUE,FALSE,FALSE,"S251520190",5
"110","glwgul","Glaucous-winged Gull","Larus glaucescens","L286981","Point Defiance Park","2025-06-17 14:00",47.3069551,-122.5303152,TRUE,FALSE,FALSE,"S251819755",NA
"111","glwgul","Glaucous-winged Gull","Larus glaucescens","L258747","Seabeck / Big Beef Harbor","2025-06-17 13:52",47.6559214,-122.7845269,TRUE,FALSE,FALSE,"S251575306",35
"112","glwgul","Glaucous-winged Gull","Larus glaucescens","L47873855","Auto selected 48.39838, -124.48628","2025-06-17 13:50",48.398378,-124.486284,TRUE,FALSE,TRUE,"S251497502",5
"113","glwgul","Glaucous-winged Gull","Larus glaucescens","L25380044","Russian River, Cooper Landing, Alaska, US (60.485, -149.997)","2025-06-17 13:34",60.4854786,-149.9967872,TRUE,FALSE,TRUE,"S251555258",5
"114","glwgul","Glaucous-winged Gull","Larus glaucescens","L2212788","Kayak Point County Park","2025-06-17 13:34",48.1358239,-122.3658085,TRUE,FALSE,FALSE,"S251530116",3
"115","glwgul","Glaucous-winged Gull","Larus glaucescens","L1742212","Picnic Point Park","2025-06-17 13:27",47.8809387,-122.3332976,TRUE,FALSE,FALSE,"S251509309",6
"116","glwgul","Glaucous-winged Gull","Larus glaucescens","L1280391","həʔapus Village Park & Shoreline Habitat (formerly T107 Park)","2025-06-17 13:23",47.5592102,-122.3513514,TRUE,FALSE,FALSE,"S251510805",2
"117","glwgul","Glaucous-winged Gull","Larus glaucescens","L1043861","Nu'upia Ponds WMA - Marine Corps Base Hawaii","2025-06-17 13:20",21.4331362,-157.7493167,TRUE,TRUE,FALSE,"S251607955",1
"118","glwgul","Glaucous-winged Gull","Larus glaucescens","L323868","Cape Meares SP","2025-06-17 13:20",45.4879509,-123.9697133,TRUE,FALSE,FALSE,"S251558210",2
"119","glwgul","Glaucous-winged Gull","Larus glaucescens","L47870403","Tongue Point Rd, Port Angeles US-WA 48.16638, -123.70447","2025-06-17 12:53",48.166376,-123.704468,TRUE,FALSE,TRUE,"S251481967",50
"120","glwgul","Glaucous-winged Gull","Larus glaucescens","L800988","Yaquina Bay--Sally's Bend-LNG Facility","2025-06-17 12:45",44.6262136,-124.0254092,TRUE,FALSE,FALSE,"S251754935",25
"121","glwgul","Glaucous-winged Gull","Larus glaucescens","L20643232","Brackett's Landing","2025-06-17 12:42",47.8133344,-122.3820588,TRUE,FALSE,FALSE,"S251483070",4
"122","glwgul","Glaucous-winged Gull","Larus glaucescens","L834171","Deception Pass SP -- West Beach","2025-06-17 12:27",48.4000277,-122.6643831,TRUE,FALSE,FALSE,"S251479117",2
"123","glwgul","Glaucous-winged Gull","Larus glaucescens","L6517534","Neah Bay--town and bay only","2025-06-17 12:26",48.3666101,-124.6215677,TRUE,FALSE,FALSE,"S251517062",26
"124","glwgul","Glaucous-winged Gull","Larus glaucescens","L9505646","Kenai Fjords NP--Crater Bay & Harris Bay","2025-06-17 12:24",59.6915301,-149.8387715,TRUE,FALSE,FALSE,"S251569755",5
"125","glwgul","Glaucous-winged Gull","Larus glaucescens","L257994","Dash Point Park & Pier","2025-06-17 12:22",47.3193071,-122.4272552,TRUE,FALSE,FALSE,"S251478783",36
"126","glwgul","Glaucous-winged Gull","Larus glaucescens","L159618","Yaquina Head Outstanding Natural Area","2025-06-17 12:09",44.6757053,-124.0724874,TRUE,FALSE,FALSE,"S251568275",NA
"127","glwgul","Glaucous-winged Gull","Larus glaucescens","L36873173","Harding Gateway","2025-06-17 12:05",59.7989025,-149.4510564,TRUE,FALSE,FALSE,"S251547939",40
"128","glwgul","Glaucous-winged Gull","Larus glaucescens","L2324547","Glacier Bay NP--Margerie Glacier","2025-06-17 11:58",59.0400248,-137.0704079,TRUE,FALSE,FALSE,"S251490666",6
"129","glwgul","Glaucous-winged Gull","Larus glaucescens","L1536652","Puget Creek Natural Area","2025-06-17 11:58",47.276304,-122.4872189,TRUE,FALSE,FALSE,"S251478175",10
"130","glwgul","Glaucous-winged Gull","Larus glaucescens","L12393378","Meridian Habitat Park","2025-06-17 11:56",47.1236062,-122.29559,TRUE,FALSE,FALSE,"S251476631",1
"131","glwgul","Glaucous-winged Gull","Larus glaucescens","L47886078","Middleton Island (restricted) - Airstrip","2025-06-17 11:36",59.449212,-146.297864,TRUE,FALSE,TRUE,"S251554400",NA
"132","glwgul","Glaucous-winged Gull","Larus glaucescens","L47873687","North Pacific Ocean US (58.2370,-151.4277)","2025-06-17 11:35",58.237,-151.427721,TRUE,FALSE,TRUE,"S251496774",2
"133","glwgul","Glaucous-winged Gull","Larus glaucescens","L47869217","28955 Glacier Highway, Juneau, Alaska, US (58.537, -134.84)","2025-06-17 11:31",58.537163,-134.8404809,TRUE,FALSE,TRUE,"S251477096",40
"134","glwgul","Glaucous-winged Gull","Larus glaucescens","L47862781","1835 Watmough Head Rd, Lopez Island US-WA (48.4306,-122.8053)","2025-06-17 11:26",48.430639,-122.805349,TRUE,FALSE,TRUE,"S251449634",7
"135","glwgul","Glaucous-winged Gull","Larus glaucescens","L298030","Carkeek Park","2025-06-17 11:20",47.7126411,-122.377647,TRUE,FALSE,FALSE,"S251448609",6
"136","glwgul","Glaucous-winged Gull","Larus glaucescens","L268602","Olympic NP--Cape Alava","2025-06-17 11:19",48.1689555,-124.7296436,TRUE,FALSE,FALSE,"S251541025",27
"137","glwgul","Glaucous-winged Gull","Larus glaucescens","L6743152","Swartz Bay-Tswassen Ferry (WA water portion)","2025-06-17 11:10",48.9707523,-123.1677675,TRUE,FALSE,FALSE,"S251444209",NA
"138","glwgul","Glaucous-winged Gull","Larus glaucescens","L685549","Frye Cove County Park","2025-06-17 11:07",47.1167813,-122.96628,TRUE,FALSE,FALSE,"S251576378",1
"139","glwgul","Glaucous-winged Gull","Larus glaucescens","L743278","Tokatee Klootchman SP","2025-06-17 11:06",44.2082653,-124.1146785,TRUE,FALSE,FALSE,"S251460147",1
"140","glwgul","Glaucous-winged Gull","Larus glaucescens","L1451326","Marina Park, Kirkland","2025-06-17 11:01",47.6754824,-122.2084222,TRUE,FALSE,FALSE,"S251445816",7
"141","glwgul","Glaucous-winged Gull","Larus glaucescens","L769082","Alaska Maritime NWR--Chiswell Islands","2025-06-17 11:00",59.6431112,-149.6138763,TRUE,FALSE,FALSE,"S251569393",61
"142","glwgul","Glaucous-winged Gull","Larus glaucescens","L285627","Bayocean Spit--bay (east) side","2025-06-17 11:00",45.5217439,-123.9484406,TRUE,FALSE,FALSE,"S251557169",9
"143","glwgul","Glaucous-winged Gull","Larus glaucescens","L561441","Tongass NF--Moose Lake area","2025-06-17 10:30",58.4057814,-134.5713186,TRUE,FALSE,FALSE,"S251507045",2
"144","glwgul","Glaucous-winged Gull","Larus glaucescens","L1783363","Alaska Wildlife Conservation Center","2025-06-17 10:20",60.8215092,-148.9844546,TRUE,FALSE,FALSE,"S251833242",1
"145","glwgul","Glaucous-winged Gull","Larus glaucescens","L618446","Seward--Lagoon & Benny Benson Memorial Park","2025-06-17 10:17",60.1185392,-149.4424081,TRUE,FALSE,FALSE,"S251450614",2
"146","glwgul","Glaucous-winged Gull","Larus glaucescens","L391210","Point Bridget SP","2025-06-17 10:12",58.6640847,-134.9630928,TRUE,FALSE,FALSE,"S251521054",2
"147","glwgul","Glaucous-winged Gull","Larus glaucescens","L901766","Billy Frank Jr. Nisqually NWR--Twin Barns Loop","2025-06-17 10:09",47.0780133,-122.7119207,TRUE,FALSE,FALSE,"S251483997",NA
"148","glwgul","Glaucous-winged Gull","Larus glaucescens","L1452870","Kodiak Is.--City of Kodiak (includes Near Island)","2025-06-17 10:00",57.7909656,-152.3988976,TRUE,FALSE,FALSE,"S251571005",NA
"149","glwgul","Glaucous-winged Gull","Larus glaucescens","L282253","Billy Frank Jr. Nisqually NWR","2025-06-17 10:00",47.0812514,-122.7180576,TRUE,FALSE,FALSE,"S251507236",20
"150","glwgul","Glaucous-winged Gull","Larus glaucescens","L776836","Iceberg Point, Lopez Island","2025-06-17 09:58",48.4221807,-122.8939891,TRUE,FALSE,FALSE,"S251557289",1
"151","glwgul","Glaucous-winged Gull","Larus glaucescens","L40113600","Ballard 4","2025-06-17 09:54",47.6685511,-122.40127,TRUE,FALSE,TRUE,"S251439552",NA
"152","glwgul","Glaucous-winged Gull","Larus glaucescens","L4037120","Oakbrook","2025-06-17 09:50",47.1904707,-122.5573397,TRUE,FALSE,TRUE,"S251444288",1
"153","glwgul","Glaucous-winged Gull","Larus glaucescens","L4337834","Point Defiance Park--Owen Beach","2025-06-17 09:47",47.3130234,-122.5286669,TRUE,FALSE,FALSE,"S251439234",1
"154","glwgul","Glaucous-winged Gull","Larus glaucescens","L781855","Gustavus--Forelands Preserve (E of Gustavus Dock)","2025-06-17 09:45",58.3959998,-135.7105064,TRUE,FALSE,FALSE,"S251500846",20
"155","glwgul","Glaucous-winged Gull","Larus glaucescens","L2492616","Kingston Ferry Terminal","2025-06-17 09:38",47.7958271,-122.496078,TRUE,FALSE,FALSE,"S251427202",2
"156","glwgul","Glaucous-winged Gull","Larus glaucescens","L152823","Mendenhall Wetlands SGR--Airport Dike Trail","2025-06-17 09:30",58.3523993,-134.5945144,TRUE,FALSE,FALSE,"S251583927",6
"157","glwgul","Glaucous-winged Gull","Larus glaucescens","L21474732","Aerated Stabilization Basin","2025-06-17 09:30",48.7504603,-122.4928932,TRUE,FALSE,FALSE,"S251511762",20
"158","glwgul","Glaucous-winged Gull","Larus glaucescens","L585126","Palmer Hay Flats SGR--Reflections Lake","2025-06-17 09:24",61.4860865,-149.2568207,TRUE,FALSE,FALSE,"S251452751",2
"159","glwgul","Glaucous-winged Gull","Larus glaucescens","L35234272","Bolinas lagoon from Seadrift","2025-06-17 09:20",37.906211,-122.653191,TRUE,FALSE,TRUE,"S251460026",1
"160","glwgul","Glaucous-winged Gull","Larus glaucescens","L632852","Jack Block Park","2025-06-17 09:15",47.5833866,-122.3709583,TRUE,FALSE,FALSE,"S251524584",2
"161","glwgul","Glaucous-winged Gull","Larus glaucescens","L2080984","Astoria Riverwalk","2025-06-17 09:15",46.1900215,-123.8220549,TRUE,FALSE,FALSE,"S251531713",2
"162","glwgul","Glaucous-winged Gull","Larus glaucescens","L2024109","Seward--New Headlands","2025-06-17 09:14",60.1151715,-149.4371939,TRUE,FALSE,FALSE,"S251556352",2
"163","glwgul","Glaucous-winged Gull","Larus glaucescens","L7900725","Alaska Maritime NWR--Chowiet Island","2025-06-17 09:00",56.032946,-156.705554,TRUE,FALSE,FALSE,"S251752987",80
"164","glwgul","Glaucous-winged Gull","Larus glaucescens","L726782","March Point","2025-06-17 08:50",48.4988626,-122.5581551,TRUE,FALSE,FALSE,"S251419712",6
"165","glwgul","Glaucous-winged Gull","Larus glaucescens","L3263510","Chugach SP--Windy Corner Trailhead","2025-06-17 08:43",60.9848249,-149.6045423,TRUE,FALSE,FALSE,"S251555399",3
"166","glwgul","Glaucous-winged Gull","Larus glaucescens","L47870295","Portlock Bank","2025-06-17 08:30",58.299124,-150.473804,TRUE,FALSE,TRUE,"S251481483",1
"167","glwgul","Glaucous-winged Gull","Larus glaucescens","L47853916","110 Peoples Wharf, Juneau US-AK 58.29684, -134.40253","2025-06-17 08:15",58.296844,-134.402528,TRUE,FALSE,TRUE,"S251413609",2
"168","glwgul","Glaucous-winged Gull","Larus glaucescens","L20093447","Patio, 1244 NE 188th St, Shoreline US-WA 47.76536, -122.31433","2025-06-17 08:15",47.765359,-122.314326,TRUE,FALSE,TRUE,"S251394815",1
"169","glwgul","Glaucous-winged Gull","Larus glaucescens","L324052","Nome Dump","2025-06-17 08:00",64.5238417,-165.2812528,TRUE,FALSE,FALSE,"S251493708",5
"170","glwgul","Glaucous-winged Gull","Larus glaucescens","L2834905","Deception Pass SP--Dunes Interpretive Trail at West Beach","2025-06-17 07:50",48.396469,-122.663768,TRUE,FALSE,FALSE,"S251426894",5
"171","glwgul","Glaucous-winged Gull","Larus glaucescens","L198202","Auke Recreation Area--Pt. Louisa","2025-06-17 07:50",58.3729854,-134.7267151,TRUE,FALSE,FALSE,"S251426711",20
"172","glwgul","Glaucous-winged Gull","Larus glaucescens","L5395316","Commodore Park","2025-06-17 07:45",47.6656928,-122.4009646,TRUE,FALSE,FALSE,"S251395240",11
"173","glwgul","Glaucous-winged Gull","Larus glaucescens","L269461","Magnuson Park","2025-06-17 07:37",47.6815336,-122.2505453,TRUE,FALSE,FALSE,"S251390680",1
"174","glwgul","Glaucous-winged Gull","Larus glaucescens","L128553","Chugach NF--Tern Lake","2025-06-17 07:31",60.5340384,-149.5476663,TRUE,FALSE,FALSE,"S251401438",NA
"175","glwgul","Glaucous-winged Gull","Larus glaucescens","L1026441","University of Washington Seattle Campus","2025-06-17 07:31",47.6572653,-122.3072076,TRUE,FALSE,FALSE,"S251501458",2
"176","glwgul","Glaucous-winged Gull","Larus glaucescens","L2787845","Drayton Harbor - Milhollin Boat Launch","2025-06-17 07:25",48.9929465,-122.7533448,TRUE,FALSE,FALSE,"S251380446",25
"177","glwgul","Glaucous-winged Gull","Larus glaucescens","L5567043","Taylor Wetlands","2025-06-17 07:07",47.0380947,-122.8527421,TRUE,FALSE,FALSE,"S251388167",1
"178","glwgul","Glaucous-winged Gull","Larus glaucescens","L279300","Younger Lagoon (restricted; access only to the overhang)","2025-06-17 07:00",36.9506136,-122.0661477,TRUE,FALSE,FALSE,"S251381705",1
"179","glwgul","Glaucous-winged Gull","Larus glaucescens","L47185878","Larrabee Avenue","2025-06-17 06:52",48.7182503,-122.4946205,TRUE,FALSE,TRUE,"S251378961",1
"180","glwgul","Glaucous-winged Gull","Larus glaucescens","L272612","Blaine Marine Park","2025-06-17 06:44",48.9950387,-122.7580957,TRUE,FALSE,FALSE,"S251371643",50
"181","glwgul","Glaucous-winged Gull","Larus glaucescens","L517778","Deer Lagoon","2025-06-17 06:43",47.9938851,-122.4926662,TRUE,FALSE,FALSE,"S251507860",10
"182","glwgul","Glaucous-winged Gull","Larus glaucescens","L128530","Discovery Park","2025-06-17 06:40",47.663868,-122.4215317,TRUE,FALSE,FALSE,"S251514716",14
"183","glwgul","Glaucous-winged Gull","Larus glaucescens","L47846504","Auto selected 58.27971, -136.40344","2025-06-17 06:35",58.279706,-136.403445,TRUE,FALSE,TRUE,"S251382154",1
"184","glwgul","Glaucous-winged Gull","Larus glaucescens","L11051615","West side Dungeness River delta and mudflats","2025-06-17 06:22",48.153185,-123.13476,TRUE,FALSE,TRUE,"S251377841",12
"185","glwgul","Glaucous-winged Gull","Larus glaucescens","L2348957","Bellingham--Downtown Riparian Corridor","2025-06-17 06:20",48.7551795,-122.4814898,TRUE,FALSE,FALSE,"S251355037",2
"186","glwgul","Glaucous-winged Gull","Larus glaucescens","L1498816","Boulevard Park, Bellingham","2025-06-17 06:01",48.731747,-122.5035768,TRUE,FALSE,FALSE,"S251349413",8
"187","glwgul","Glaucous-winged Gull","Larus glaucescens","L35798700","Bryce Drive house","2025-06-17 06:00",48.48964,-122.6636407,TRUE,FALSE,TRUE,"S251565780",6
"188","glwgul","Glaucous-winged Gull","Larus glaucescens","L4115903","Primary location","2025-06-17 05:48",47.4879333,-122.5194743,TRUE,FALSE,TRUE,"S251542430",3
"189","glwgul","Glaucous-winged Gull","Larus glaucescens","L8365620","Issaquah High School","2025-06-17 05:45",47.52249,-122.028687,TRUE,FALSE,FALSE,"S251472609",2
"190","glwgul","Glaucous-winged Gull","Larus glaucescens","L47837708","1320 NW 75th St, Seattle US-WA (47.6833,-122.3728)","2025-06-17 04:53",47.68326,-122.372814,TRUE,FALSE,TRUE,"S251339064",1
"191","glwgul","Glaucous-winged Gull","Larus glaucescens","L47890699","Sea Lion Cove","2025-06-17",57.3006232,-135.8262818,TRUE,FALSE,TRUE,"S251582059",NA
"192","glwgul","Glaucous-winged Gull","Larus glaucescens","L47824024","Hyatt Regency, Lake Washington Blvd N, Renton US-WA 47.50320, -122.20544","2025-06-16 20:35",47.503198,-122.205438,TRUE,FALSE,TRUE,"S251272827",1
"193","glwgul","Glaucous-winged Gull","Larus glaucescens","L1460642","Port Townsend-Keystone Ferry (Island Co.)","2025-06-16 19:56",48.1472328,-122.6790196,TRUE,FALSE,FALSE,"S251248614",3
"194","glwgul","Glaucous-winged Gull","Larus glaucescens","L2528334","Chuckanut Pocket Estuary","2025-06-16 19:50",48.701234,-122.498147,TRUE,FALSE,FALSE,"S251253800",2
"195","glwgul","Glaucous-winged Gull","Larus glaucescens","L22305731","Seola Beach Dr.","2025-06-16 19:48",47.5012403,-122.3732579,TRUE,FALSE,FALSE,"S251253148",3
"196","glwgul","Glaucous-winged Gull","Larus glaucescens","L19732213","Port","2025-06-16 19:32",43.120853,-124.411265,TRUE,FALSE,TRUE,"S251249445",2
"197","glwgul","Glaucous-winged Gull","Larus glaucescens","L3874969","Ingenstrem Rocks","2025-06-16 19:31",52.6373443,174.5232851,TRUE,FALSE,FALSE,"S251258205",10
"198","glwgul","Glaucous-winged Gull","Larus glaucescens","L47822343","4961 Main St, Tacoma US-WA 47.29773, -122.50247","2025-06-16 18:57",47.297731,-122.502469,TRUE,FALSE,TRUE,"S251261912",2
"199","glwgul","Glaucous-winged Gull","Larus glaucescens","L47822034","West of Barren Islands","2025-06-16 18:31",58.97794,-152.453744,TRUE,FALSE,TRUE,"S251260244",1
"200","glwgul","Glaucous-winged Gull","Larus glaucescens","L208659","Hiram M. Chittenden Ballard Locks","2025-06-16 18:22",47.6653579,-122.3974647,TRUE,FALSE,FALSE,"S251235396",1
"201","glwgul","Glaucous-winged Gull","Larus glaucescens","L34478330","Sitka, Alaska, US (57.009, -135.437)","2025-06-16 18:21",57.0089939,-135.437303,TRUE,FALSE,TRUE,"S251250951",2
"202","glwgul","Glaucous-winged Gull","Larus glaucescens","L47817615","308 Homestead Ln, Soldotna US-AK 60.48460, -151.05716","2025-06-16 18:00",60.4846,-151.057164,TRUE,FALSE,TRUE,"S251239658",3
"203","glwgul","Glaucous-winged Gull","Larus glaucescens","L1877342","Browns Point Lighthouse Park","2025-06-16 18:00",47.3057,-122.44382,TRUE,FALSE,FALSE,"S251240251",2
"204","glwgul","Glaucous-winged Gull","Larus glaucescens","L3870984","Snow Passage (S of Sumner Strait)","2025-06-16 18:00",56.3099655,-133.0960693,TRUE,FALSE,FALSE,"S251269275",10
"205","glwgul","Glaucous-winged Gull","Larus glaucescens","L2786593","Tillamook Bay--Garibaldi Marina","2025-06-16 17:46",45.5559147,-123.913192,TRUE,FALSE,FALSE,"S251763913",1
"206","glwgul","Glaucous-winged Gull","Larus glaucescens","L15804884","939 Caroline St, Port Angeles US-WA 48.11532, -123.41390","2025-06-16 17:45",48.115318,-123.413897,TRUE,FALSE,TRUE,"S251459138",34
"207","glwgul","Glaucous-winged Gull","Larus glaucescens","L46768341","Adams St SE","2025-06-16 17:20",47.0447274,-122.8979142,TRUE,FALSE,TRUE,"S251227559",30
"208","glwgul","Glaucous-winged Gull","Larus glaucescens","L25928121","The Yard and Garden, Burien WA","2025-06-16 17:09",47.4811974,-122.3430809,TRUE,FALSE,TRUE,"S251257393",7
"209","glwgul","Glaucous-winged Gull","Larus glaucescens","L695979","Disenchantment Bay","2025-06-16 16:51",59.9510513,-139.5788381,TRUE,FALSE,FALSE,"S251254371",6
"210","glwgul","Glaucous-winged Gull","Larus glaucescens","L47945367","Seward Cruise Ship Terminal","2025-06-16 16:40",60.1193864,-149.4280905,TRUE,FALSE,TRUE,"S251839060",10
"211","glwgul","Glaucous-winged Gull","Larus glaucescens","L490844","Colman Park","2025-06-16 16:25",47.58632,-122.288135,TRUE,FALSE,FALSE,"S251231525",5
"212","glwgul","Glaucous-winged Gull","Larus glaucescens","L1284994","Me-Kwa-Mooks Park","2025-06-16 16:08",47.563362,-122.4064708,TRUE,FALSE,FALSE,"S251213786",20
"213","glwgul","Glaucous-winged Gull","Larus glaucescens","L685834","Alaska Maritime NWR--Buldir Island","2025-06-16 16:00",52.3504409,175.9172058,TRUE,FALSE,FALSE,"S251280682",240
"214","glwgul","Glaucous-winged Gull","Larus glaucescens","L7670841","Pier 54, Seattle","2025-06-16 15:40",47.6038482,-122.3388147,TRUE,FALSE,FALSE,"S251197205",5
"215","glwgul","Glaucous-winged Gull","Larus glaucescens","L9048171","Kenai River Trailhead","2025-06-16 15:26",60.4813142,-150.1280455,TRUE,FALSE,FALSE,"S251243610",30
"216","glwgul","Glaucous-winged Gull","Larus glaucescens","L480306","Bay View State Park","2025-06-16 15:12",48.4881122,-122.4809933,TRUE,FALSE,FALSE,"S251567436",50
"217","glwgul","Glaucous-winged Gull","Larus glaucescens","L1266546","Williamson Rocks","2025-06-16 15:00",48.4495494,-122.7059984,TRUE,FALSE,FALSE,"S251249953",46
"218","glwgul","Glaucous-winged Gull","Larus glaucescens","L280301","Edmonds-Kingston Ferry (Snohomish Co.)","2025-06-16 14:32",47.8097152,-122.4237442,TRUE,FALSE,FALSE,"S251185610",5
"219","glwgul","Glaucous-winged Gull","Larus glaucescens","L47810235","5436–5446 Water Slote St, Tacoma US-WA (47.3048,-122.5082)","2025-06-16 14:30",47.304825,-122.508158,TRUE,FALSE,TRUE,"S251203723",3
"220","glwgul","Glaucous-winged Gull","Larus glaucescens","L1053294","Indian Island County Park","2025-06-16 14:17",48.0255241,-122.7212334,TRUE,FALSE,FALSE,"S251295727",1
"221","glwgul","Glaucous-winged Gull","Larus glaucescens","L2087998","Eastsound, Orcas Island","2025-06-16 14:07",48.69443,-122.908155,TRUE,FALSE,FALSE,"S251180663",10
"222","glwgul","Glaucous-winged Gull","Larus glaucescens","L559390","Middleton Island (restricted access)","2025-06-16 14:05",59.4278983,-146.33008,TRUE,FALSE,FALSE,"S251238390",NA
"223","glwgul","Glaucous-winged Gull","Larus glaucescens","L47806595","2466–2488 Westside Rd, Bodega Bay US-CA 38.30546, -123.05792","2025-06-16 14:05",38.305459,-123.057917,TRUE,FALSE,TRUE,"S251186372",1
"224","glwgul","Glaucous-winged Gull","Larus glaucescens","L886605","Burfoot Park","2025-06-16 13:57",47.1324324,-122.9007483,TRUE,FALSE,FALSE,"S251182986",2
"225","glwgul","Glaucous-winged Gull","Larus glaucescens","L818127","Norwegian Point","2025-06-16 13:52",47.9173631,-122.5458169,TRUE,FALSE,FALSE,"S251176163",6
"226","glwgul","Glaucous-winged Gull","Larus glaucescens","L586756","Seward--Iditarod Memorial","2025-06-16 13:45",60.1014771,-149.4355201,TRUE,FALSE,FALSE,"S251191363",10
"227","glwgul","Glaucous-winged Gull","Larus glaucescens","L27992163","Olympic View Park","2025-06-16 13:45",48.0339797,-122.1509197,TRUE,FALSE,FALSE,"S251565281",1
"228","glwgul","Glaucous-winged Gull","Larus glaucescens","L766034","Fort Casey State Park","2025-06-16 13:34",48.1581848,-122.6776314,TRUE,FALSE,FALSE,"S251181814",20
"229","glwgul","Glaucous-winged Gull","Larus glaucescens","L1028900","English Camp","2025-06-16 13:28",48.5875545,-123.1503096,TRUE,FALSE,FALSE,"S251253564",4
"230","glwgul","Glaucous-winged Gull","Larus glaucescens","L8146851","Sitka--Castle Hill","2025-06-16 13:24",57.0487166,-135.338054,TRUE,FALSE,FALSE,"S251200833",4
"231","glwgul","Glaucous-winged Gull","Larus glaucescens","L3403344","Sand Point (town)","2025-06-16 13:23",55.3390306,-160.4992875,TRUE,FALSE,FALSE,"S251186095",5
"232","glwgul","Glaucous-winged Gull","Larus glaucescens","L1799504","Kayu Kayu Ac Park","2025-06-16 13:23",47.7739592,-122.3925439,TRUE,FALSE,FALSE,"S251171903",14
"233","glwgul","Glaucous-winged Gull","Larus glaucescens","L29061786","Cordata Park","2025-06-16 13:17",48.80415,-122.4946833,TRUE,FALSE,FALSE,"S251185106",4
"234","glwgul","Glaucous-winged Gull","Larus glaucescens","L1192585","Mt. Roberts Trail--Spruce/Hemlock Slope","2025-06-16 13:13",58.3054869,-134.4033909,TRUE,FALSE,FALSE,"S251575018",2
"235","glwgul","Glaucous-winged Gull","Larus glaucescens","L29690471","Dungeness NWR","2025-06-16 13:09",48.1463111,-123.1865094,TRUE,FALSE,FALSE,"S251169290",16
"236","glwgul","Glaucous-winged Gull","Larus glaucescens","L3659024","Tony Knowles Coastal Trail--Pete's Place to Audubon Wayside","2025-06-16 13:00",61.2022996,-149.9509227,TRUE,FALSE,FALSE,"S251201405",NA
"237","glwgul","Glaucous-winged Gull","Larus glaucescens","L34755635","Strait of Juan de Fuca--Partridge Bank","2025-06-16 13:00",48.2753473,-122.8799494,TRUE,FALSE,FALSE,"S251250378",25
"238","glwgul","Glaucous-winged Gull","Larus glaucescens","L47801565","6000–6020 Littlerock Rd SW, Tumwater US-WA 46.99371, -122.92179","2025-06-16 12:52",46.993709,-122.921789,TRUE,FALSE,TRUE,"S251163949",1
"239","glwgul","Glaucous-winged Gull","Larus glaucescens","L828590","Dungeness Landing Park/Oyster House","2025-06-16 12:27",48.1514639,-123.143456,TRUE,FALSE,FALSE,"S251250101",11
"240","glwgul","Glaucous-winged Gull","Larus glaucescens","L1254311","Kenai Fjords NP--Northwestern Fiord","2025-06-16 12:14",59.7803768,-150.026207,TRUE,FALSE,FALSE,"S251251980",8
"241","glwgul","Glaucous-winged Gull","Larus glaucescens","L47802166","Loop Trail, Seattle, Washington, US (47.656, -122.408)","2025-06-16 12:05",47.6561659,-122.4077122,TRUE,FALSE,TRUE,"S251166500",1
"242","glwgul","Glaucous-winged Gull","Larus glaucescens","L5966006","Freshwater Bay, Batchelor Rock48.15x-123.637","2025-06-16 12:02",48.1498847,-123.6370106,TRUE,FALSE,TRUE,"S251813954",22
"243","glwgul","Glaucous-winged Gull","Larus glaucescens","L47800845","Church Grounda, Orthodox Avenue, Ninilchik, Alaska, US (60.05, -151.664)","2025-06-16 11:40",60.0503695,-151.6637733,TRUE,FALSE,TRUE,"S251160702",8
"244","glwgul","Glaucous-winged Gull","Larus glaucescens","L941875","Kenai Fjords NP--Aialik Bay-Holgate Head","2025-06-16 11:39",59.8207471,-149.756012,TRUE,FALSE,FALSE,"S251224670",75
"245","glwgul","Glaucous-winged Gull","Larus glaucescens","L835042","Woodland Park Zoo","2025-06-16 11:30",47.6684798,-122.3506165,TRUE,FALSE,FALSE,"S251397374",1
"246","glwgul","Glaucous-winged Gull","Larus glaucescens","L4606931","Palmer Hay Flats SGR--Wasilla Creek Boardwalk","2025-06-16 11:17",61.5504655,-149.2958629,TRUE,FALSE,FALSE,"S251176994",2
"247","glwgul","Glaucous-winged Gull","Larus glaucescens","L2735983","Glacier Bay NP--Queen Inlet","2025-06-16 11:16",58.8943883,-136.5391846,TRUE,FALSE,FALSE,"S251579708",20
"248","glwgul","Glaucous-winged Gull","Larus glaucescens","L47802375","3327 Ruston Way, Tacoma US-WA (47.2826,-122.4796)","2025-06-16 11:15",47.282556,-122.479596,TRUE,FALSE,TRUE,"S251167424",2
"249","glwgul","Glaucous-winged Gull","Larus glaucescens","L809071","Point Robinson","2025-06-16 10:58",47.3885078,-122.3736084,TRUE,FALSE,FALSE,"S251119610",1
"250","glwgul","Glaucous-winged Gull","Larus glaucescens","L2094690","Gig Harbor","2025-06-16 10:57",47.3334713,-122.5806427,TRUE,FALSE,FALSE,"S251328593",2
"251","glwgul","Glaucous-winged Gull","Larus glaucescens","L470545","Sequim Bay State Park","2025-06-16 10:55",48.0392418,-123.0294085,TRUE,FALSE,FALSE,"S251179748",5
"252","glwgul","Glaucous-winged Gull","Larus glaucescens","L268312","Siuslaw River--North Jetty","2025-06-16 10:43",44.0182419,-124.136678,TRUE,FALSE,FALSE,"S251159046",8
"253","glwgul","Glaucous-winged Gull","Larus glaucescens","L2346164","Hood Canal--Rendsland Creek mouth","2025-06-16 10:43",47.3874546,-123.1118274,TRUE,FALSE,FALSE,"S251111294",2
"254","glwgul","Glaucous-winged Gull","Larus glaucescens","L24098371","Space Needle","2025-06-16 10:32",47.6205126,-122.3492861,TRUE,FALSE,FALSE,"S251118000",3
"255","glwgul","Glaucous-winged Gull","Larus glaucescens","L467222","Richmond Beach Saltwater Park","2025-06-16 10:29",47.7635752,-122.3851633,TRUE,FALSE,FALSE,"S251160682",6
"256","glwgul","Glaucous-winged Gull","Larus glaucescens","L33663290","Seattle--Elliott Bay Trail","2025-06-16 10:28",47.622624,-122.366431,TRUE,FALSE,FALSE,"S251115179",4
"257","glwgul","Glaucous-winged Gull","Larus glaucescens","L453386","Pt. Reyes--Fish Docks (DO NOT INCLUDE Chimney Rock area)","2025-06-16 10:23",37.9956216,-122.9782104,TRUE,FALSE,FALSE,"S251103304",1
"258","glwgul","Glaucous-winged Gull","Larus glaucescens","L47799945","University of Washington, Seattle US-WA 47.65628, -122.30298","2025-06-16 10:06",47.656275,-122.302983,TRUE,FALSE,TRUE,"S251156381",1
"259","glwgul","Glaucous-winged Gull","Larus glaucescens","L16657901","Jones Park Renton","2025-06-16 10:05",47.4823774,-122.2050311,TRUE,FALSE,TRUE,"S251182052",1
"260","glwgul","Glaucous-winged Gull","Larus glaucescens","L47787610","Ruston Walk","2025-06-16 10:02",47.294109,-122.497799,TRUE,FALSE,TRUE,"S251104466",2
"261","glwgul","Glaucous-winged Gull","Larus glaucescens","L5786158","Ebey Waterfront Trail, Marysville","2025-06-16 09:58",48.0458046,-122.1758652,TRUE,FALSE,FALSE,"S251136339",3
"262","glwgul","Glaucous-winged Gull","Larus glaucescens","L156941","Yaquina Head Outstanding Natural Area--Lighthouse","2025-06-16 09:51",44.6768624,-124.0788388,TRUE,FALSE,FALSE,"S251191216",1
"263","glwgul","Glaucous-winged Gull","Larus glaucescens","L1796157","Olympia--Capitol Lake North Pool","2025-06-16 09:38",47.0400325,-122.9092042,TRUE,FALSE,FALSE,"S251151386",NA
"264","glwgul","Glaucous-winged Gull","Larus glaucescens","L1449054","Mutiny Bay","2025-06-16 09:35",48.008611,-122.5717821,TRUE,FALSE,FALSE,"S251160792",225
"265","glwgul","Glaucous-winged Gull","Larus glaucescens","L22515222","Umpqua River, Gardiner US-OR 43.67606, -124.19172","2025-06-16 09:35",43.676059,-124.19172,TRUE,FALSE,TRUE,"S251099461",4
"266","glwgul","Glaucous-winged Gull","Larus glaucescens","L571490","Discovery Park--West Point","2025-06-16 09:29",47.6618703,-122.4355298,TRUE,FALSE,FALSE,"S251107743",10
"267","glwgul","Glaucous-winged Gull","Larus glaucescens","L47889771","20GOA2025","2025-06-16 09:00",58.6595,-151.1223,TRUE,FALSE,TRUE,"S251570614",NA
"268","glwgul","Glaucous-winged Gull","Larus glaucescens","L47798939","13500–13672 Lowell Point Rd, Seward US-AK 60.08712, -149.44360","2025-06-16 08:53",60.087118,-149.443598,TRUE,FALSE,TRUE,"S251151550",30
"269","glwgul","Glaucous-winged Gull","Larus glaucescens","L109535","Ocean Shores--Oyhut Wildlife Area","2025-06-16 08:49",46.9444663,-124.1522412,TRUE,FALSE,FALSE,"S251151436",1
"270","glwgul","Glaucous-winged Gull","Larus glaucescens","L815296","Broughton Beach","2025-06-16 08:49",45.6003622,-122.6152539,TRUE,FALSE,FALSE,"S251117550",1
"271","glwgul","Glaucous-winged Gull","Larus glaucescens","L3631645","Sitka--Indian River-East Tidal Flat","2025-06-16 08:48",57.044769,-135.3130417,TRUE,FALSE,FALSE,"S251241631",50
"272","glwgul","Glaucous-winged Gull","Larus glaucescens","L502380","Heron's Head Park","2025-06-16 08:45",37.7381243,-122.3725462,TRUE,TRUE,FALSE,"S251093501",1
"273","glwgul","Glaucous-winged Gull","Larus glaucescens","L280267","Foster Island & Marsh Island","2025-06-16 08:45",47.646592,-122.2909732,TRUE,FALSE,FALSE,"S251180373",2
"274","glwgul","Glaucous-winged Gull","Larus glaucescens","L726174","Umpqua River--Salmon Harbor Marina","2025-06-16 08:39",43.6839497,-124.1812992,TRUE,FALSE,FALSE,"S251081414",2
"275","glwgul","Glaucous-winged Gull","Larus glaucescens","L10474416","Olympic NP--Double Parking","2025-06-16 08:15",47.9920476,-123.4028914,TRUE,FALSE,FALSE,"S251059563",1
"276","glwgul","Glaucous-winged Gull","Larus glaucescens","L42092229","41329 Foulweather Bluff Rd NE, Hansville US-WA 47.93902, -122.61430","2025-06-16 08:08",47.939018,-122.614304,TRUE,FALSE,TRUE,"S251062206",28
"277","glwgul","Glaucous-winged Gull","Larus glaucescens","L336663","Lighthouse Marine Park, Point Roberts","2025-06-16 08:00",48.9722422,-123.0836705,TRUE,FALSE,FALSE,"S251145176",8
"278","glwgul","Glaucous-winged Gull","Larus glaucescens","L235914","Alaska Maritime NWR--St. Lazaria Island","2025-06-16 08:00",56.9873598,-135.7105632,TRUE,FALSE,FALSE,"S251262081",200
"279","glwgul","Glaucous-winged Gull","Larus glaucescens","L20643235","Edmonds Public Fishing Pier","2025-06-16 07:50",47.8110241,-122.3899493,TRUE,FALSE,FALSE,"S251063549",40
"280","glwgul","Glaucous-winged Gull","Larus glaucescens","L450388","Lake Hood & Lake Spenard","2025-06-16 07:15",61.1787982,-149.9607182,TRUE,FALSE,FALSE,"S251093766",2
"281","glwgul","Glaucous-winged Gull","Larus glaucescens","L818961","Laguna Creek beach and marsh","2025-06-16 07:07",36.9833776,-122.1554614,TRUE,FALSE,FALSE,"S251567094",1
"282","glwgul","Glaucous-winged Gull","Larus glaucescens","L16707421","Morse Creek Estuary","2025-06-16 07:00",48.116971,-123.352917,TRUE,FALSE,TRUE,"S251267886",30
"283","glwgul","Glaucous-winged Gull","Larus glaucescens","L694772","Denny Park (Seattle)","2025-06-16 06:45",47.61913,-122.341057,TRUE,FALSE,FALSE,"S251034254",2
"284","glwgul","Glaucous-winged Gull","Larus glaucescens","L163354","Green Lake","2025-06-16 06:42",47.6783945,-122.3382464,TRUE,FALSE,FALSE,"S251035666",4
"285","glwgul","Glaucous-winged Gull","Larus glaucescens","L47871855","N Parks Hwy, Big Lake US-AK 63.00043, -149.60854","2025-06-16 06:29",63.00043,-149.608536,TRUE,FALSE,TRUE,"S251488587",1
"286","glwgul","Glaucous-winged Gull","Larus glaucescens","L139567","Rodeo Lagoon (including beach and offshore)","2025-06-16 06:25",37.8304863,-122.5329514,TRUE,FALSE,FALSE,"S251129448",1
"287","glwgul","Glaucous-winged Gull","Larus glaucescens","L1333982","Port Townsend--waterfront","2025-06-16 06:13",48.1117433,-122.762578,TRUE,FALSE,FALSE,"S251027223",5
"288","glwgul","Glaucous-winged Gull","Larus glaucescens","L2771352","Fidalgo Bay","2025-06-16 05:59",48.4674867,-122.5763941,TRUE,FALSE,FALSE,"S251107501",2
"289","glwgul","Glaucous-winged Gull","Larus glaucescens","L8268918","Alki (including north and south beaches)","2025-06-16 05:50",47.5761017,-122.4190941,TRUE,FALSE,FALSE,"S251164943",2
"290","glwgul","Glaucous-winged Gull","Larus glaucescens","L1223431","Kenai NWR - Skilak Lake Road","2025-06-16 05:15",60.451631,-150.243187,TRUE,FALSE,TRUE,"S251269782",3
"291","glwgul","Glaucous-winged Gull","Larus glaucescens","L8024841","Mineral Springs Park","2025-06-16",47.7056031,-122.3366582,TRUE,FALSE,FALSE,"S251255886",NA
"292","glwgul","Glaucous-winged Gull","Larus glaucescens","L5764627","Broadview Bird Observatory","2025-06-15 20:31",47.725029,-122.3629289,TRUE,FALSE,TRUE,"S250909963",1
"293","glwgul","Glaucous-winged Gull","Larus glaucescens","L47774437","Auto selected 58.86375, -152.84627","2025-06-15 20:11",58.863753,-152.846266,TRUE,FALSE,TRUE,"S251041721",3
"294","glwgul","Glaucous-winged Gull","Larus glaucescens","L155141","Nome--Center Creek Rd.","2025-06-15 19:45",64.52735,-165.41586,TRUE,FALSE,FALSE,"S250933845",1
"295","glwgul","Glaucous-winged Gull","Larus glaucescens","L11212978","Madison Park South Beach","2025-06-15 18:45",47.6358484,-122.2767702,TRUE,FALSE,FALSE,"S250908912",NA
"296","glwgul","Glaucous-winged Gull","Larus glaucescens","L276529","Westport (general)","2025-06-15 18:35",46.9095527,-124.1167938,TRUE,FALSE,FALSE,"S250905719",6
"297","glwgul","Glaucous-winged Gull","Larus glaucescens","L47749531","North Pacific Ocean, Dillingham US-AK 59.00242, -158.53293","2025-06-15 18:30",59.002423,-158.532931,TRUE,FALSE,TRUE,"S250916135",100
"298","glwgul","Glaucous-winged Gull","Larus glaucescens","L3698404","Pete and Sue's","2025-06-15 18:26",48.5473,-123.024456,TRUE,FALSE,TRUE,"S250905410",1
"299","glwgul","Glaucous-winged Gull","Larus glaucescens","L962225","San Juan Islands ferry","2025-06-15 17:36",48.5529782,-122.8422546,TRUE,FALSE,FALSE,"S250889167",3
"300","glwgul","Glaucous-winged Gull","Larus glaucescens","L469546","Skagit Wildlife Area--Fir Island Farm Reserve (Hayton Reserve)","2025-06-15 17:30",48.3356338,-122.4131659,TRUE,FALSE,FALSE,"S250894600",3
"301","glwgul","Glaucous-winged Gull","Larus glaucescens","L7908055","Kodiak Is.--Roslyn Beach","2025-06-15 17:11",57.6215498,-152.3198393,TRUE,FALSE,FALSE,"S250925249",2
"302","glwgul","Glaucous-winged Gull","Larus glaucescens","L296606","Port Gamble","2025-06-15 17:08",47.8567542,-122.5816383,TRUE,FALSE,FALSE,"S250874918",9
"303","glwgul","Glaucous-winged Gull","Larus glaucescens","L390227","Eagle Beach SRA","2025-06-15 17:04",58.5283716,-134.8270512,TRUE,FALSE,FALSE,"S251053339",25
"304","glwgul","Glaucous-winged Gull","Larus glaucescens","L464480","Ninilchik--Deep Creek","2025-06-15 17:01",60.0325353,-151.7000127,TRUE,FALSE,FALSE,"S250916833",5
"305","glwgul","Glaucous-winged Gull","Larus glaucescens","L744276","Sea Lion Pt. & Overlook","2025-06-15 16:48",44.1255763,-124.1258445,TRUE,FALSE,FALSE,"S250893418",1
"306","glwgul","Glaucous-winged Gull","Larus glaucescens","L937659","Kenai--Tarbox Wildlife Viewing Platform","2025-06-15 16:42",60.5420341,-151.2194681,TRUE,FALSE,FALSE,"S250896866",NA
"307","glwgul","Glaucous-winged Gull","Larus glaucescens","L47742797","2241 Woodworth Cir, Anchorage US-AK 61.20626, -149.92575","2025-06-15 16:33",61.206255,-149.925747,TRUE,FALSE,TRUE,"S250885433",4
"308","glwgul","Glaucous-winged Gull","Larus glaucescens","L374380","Edmonds Marsh","2025-06-15 16:30",47.8085287,-122.3864508,TRUE,FALSE,FALSE,"S250918042",1
"309","glwgul","Glaucous-winged Gull","Larus glaucescens","L913355","Orcas Ferry Landing","2025-06-15 16:25",48.5970464,-122.9432774,TRUE,FALSE,FALSE,"S250861968",1
"310","glwgul","Glaucous-winged Gull","Larus glaucescens","L39566591","Amazon trail","2025-06-15 16:24",48.010357,-122.181025,TRUE,FALSE,TRUE,"S250873871",2
"311","glwgul","Glaucous-winged Gull","Larus glaucescens","L3100821","Seattle-Tacoma International Airport (restricted access)","2025-06-15 16:23",47.4502565,-122.3087955,TRUE,FALSE,FALSE,"S250856023",1
"312","glwgul","Glaucous-winged Gull","Larus glaucescens","L1924233","Discovery Park--South Meadow","2025-06-15 16:13",47.655213,-122.4141312,TRUE,FALSE,FALSE,"S250862577",2
"313","glwgul","Glaucous-winged Gull","Larus glaucescens","L4419555","Potter Valley","2025-06-15 15:41",61.0533942,-149.7889012,TRUE,FALSE,FALSE,"S250937025",2
"314","glwgul","Glaucous-winged Gull","Larus glaucescens","L1300999","Cheney Lake Park","2025-06-15 15:36",61.2002484,-149.7619794,TRUE,FALSE,FALSE,"S250988509",1
"315","glwgul","Glaucous-winged Gull","Larus glaucescens","L5238628","TESC North Campus Forest","2025-06-15 15:36",47.0801175,-122.9767621,TRUE,FALSE,FALSE,"S250873343",3
"316","glwgul","Glaucous-winged Gull","Larus glaucescens","L480335","Oak Bay County Park","2025-06-15 15:34",48.0201853,-122.7313614,TRUE,FALSE,FALSE,"S250844668",NA
"317","glwgul","Glaucous-winged Gull","Larus glaucescens","L1252571","Washington Park--Green Point","2025-06-15 15:33",48.498746,-122.701145,TRUE,FALSE,FALSE,"S250859971",4
"318","glwgul","Glaucous-winged Gull","Larus glaucescens","L22187146","Resurrection Bay--Spire Cove","2025-06-15 15:16",59.8764992,-149.5736218,TRUE,FALSE,FALSE,"S250891098",2
"319","glwgul","Glaucous-winged Gull","Larus glaucescens","L318691","Lincoln Park, Seattle","2025-06-15 15:15",47.5302762,-122.3955921,TRUE,FALSE,FALSE,"S250835589",4
"320","glwgul","Glaucous-winged Gull","Larus glaucescens","L1311787","Ketchikan--Mud Bight","2025-06-15 15:05",55.4177461,-131.7628741,TRUE,FALSE,FALSE,"S251573630",3
"321","glwgul","Glaucous-winged Gull","Larus glaucescens","L1463292","Fort Flagler SP -- Marrowstone Point","2025-06-15 14:59",48.1015682,-122.6882685,TRUE,FALSE,FALSE,"S250840933",57
"322","glwgul","Glaucous-winged Gull","Larus glaucescens","L9753733","Endicott Arm (SE end)","2025-06-15 14:59",57.6118957,-133.228275,TRUE,FALSE,FALSE,"S250858068",23
"323","glwgul","Glaucous-winged Gull","Larus glaucescens","L809077","Quartermaster Harbor - Burton Acres Park","2025-06-15 14:46",47.3897935,-122.4524331,TRUE,FALSE,FALSE,"S250845859",7
"324","glwgul","Glaucous-winged Gull","Larus glaucescens","L812287","Fort Flagler SP - Campground/Beach","2025-06-15 14:40",48.0938751,-122.7226067,TRUE,FALSE,FALSE,"S250826326",17
"325","glwgul","Glaucous-winged Gull","Larus glaucescens","L4964571","Big Lagoon County Park","2025-06-15 14:40",41.1630832,-124.1315979,TRUE,FALSE,FALSE,"S251110633",2
"326","glwgul","Glaucous-winged Gull","Larus glaucescens","L7245050","Auke Bay--Statter Harbor","2025-06-15 14:36",58.3831334,-134.6492529,TRUE,FALSE,FALSE,"S250868604",3
"327","glwgul","Glaucous-winged Gull","Larus glaucescens","L2403871","Olympia--Percival Landing Park","2025-06-15 14:31",47.0470904,-122.9043639,TRUE,FALSE,FALSE,"S250821186",10
"328","glwgul","Glaucous-winged Gull","Larus glaucescens","L4920688","Katmai NP--Brooks Falls","2025-06-15 14:30",58.5552303,-155.7909822,TRUE,FALSE,FALSE,"S251555070",1
"329","glwgul","Glaucous-winged Gull","Larus glaucescens","L1022652","Ketchikan (town)","2025-06-15 14:30",55.3427645,-131.6462517,TRUE,FALSE,FALSE,"S250867562",8
"330","glwgul","Glaucous-winged Gull","Larus glaucescens","L47729585","D Avenue, Anacortes","2025-06-15 14:29",48.512579,-122.6313672,TRUE,FALSE,TRUE,"S250824053",4
"331","glwgul","Glaucous-winged Gull","Larus glaucescens","L776824","Spencer Spit SP, Lopez Island","2025-06-15 14:24",48.5358175,-122.8573608,TRUE,FALSE,FALSE,"S251201550",5
"332","glwgul","Glaucous-winged Gull","Larus glaucescens","L1105354","Seward--4th of July Beach","2025-06-15 14:16",60.0834989,-149.3514007,TRUE,FALSE,FALSE,"S250836742",10
"333","glwgul","Glaucous-winged Gull","Larus glaucescens","L47887215","Auto selected 59.44942, -135.32450","2025-06-15 14:05",59.449419,-135.324496,TRUE,FALSE,TRUE,"S251558856",1
"334","glwgul","Glaucous-winged Gull","Larus glaucescens","L8180226","Fred Hutchinson Cancer Center","2025-06-15 13:55",47.6276314,-122.3308009,TRUE,FALSE,FALSE,"S250838427",15
"335","glwgul","Glaucous-winged Gull","Larus glaucescens","L47774482","Auto selected 58.08223, -154.04675","2025-06-15 13:53",58.082235,-154.046746,TRUE,FALSE,TRUE,"S251042126",5
"336","glwgul","Glaucous-winged Gull","Larus glaucescens","L491609","Yaquina River--SW Jetty Way","2025-06-15 13:51",44.6158891,-124.0618658,TRUE,FALSE,FALSE,"S250841267",2
"337","glwgul","Glaucous-winged Gull","Larus glaucescens","L1218789","Hastie Lake Rd beach access","2025-06-15 13:38",48.264558,-122.7479535,TRUE,FALSE,FALSE,"S250862769",3
"338","glwgul","Glaucous-winged Gull","Larus glaucescens","L3693381","Sitka--Cove Marina Sitka","2025-06-15 13:33",57.11698,-135.3878,TRUE,FALSE,FALSE,"S250891229",2
"339","glwgul","Glaucous-winged Gull","Larus glaucescens","L21250342","Salmon Bank (48.433, -122.984)","2025-06-15 13:31",48.4328023,-122.9836679,TRUE,FALSE,TRUE,"S250814357",10
"340","glwgul","Glaucous-winged Gull","Larus glaucescens","L47730436","I & J Waterway","2025-06-15 13:30",48.7534774,-122.4964074,TRUE,FALSE,TRUE,"S250828657",10
"341","glwgul","Glaucous-winged Gull","Larus glaucescens","L32911096","Kenai Fjords NP--Ripple & Fire Coves","2025-06-15 13:26",59.660222,-149.805409,TRUE,FALSE,FALSE,"S250908328",15
"342","glwgul","Glaucous-winged Gull","Larus glaucescens","L2367905","Monroe Landing","2025-06-15 13:26",48.2397487,-122.679981,TRUE,FALSE,FALSE,"S250799860",5
"343","glwgul","Glaucous-winged Gull","Larus glaucescens","L862963","Westport Marina","2025-06-15 13:16",46.9096434,-124.1138792,TRUE,FALSE,FALSE,"S250799033",300
"344","glwgul","Glaucous-winged Gull","Larus glaucescens","L47731831","On the outside patio at Anthony’s","2025-06-15 13:10",47.339225,-122.589738,TRUE,FALSE,TRUE,"S250833442",1
"345","glwgul","Glaucous-winged Gull","Larus glaucescens","L47741084","Homer Boat Harbor, Homer US-AK 59.60468, -151.42544","2025-06-15 13:08",59.604677,-151.425444,TRUE,FALSE,TRUE,"S250877062",4
"346","glwgul","Glaucous-winged Gull","Larus glaucescens","L3290265","UW Seattle Campus--South Waterfront","2025-06-15 13:07",47.6475384,-122.3052936,TRUE,FALSE,FALSE,"S250914126",1
"347","glwgul","Glaucous-winged Gull","Larus glaucescens","L47740117","Auto selected 59.74871, -149.65229","2025-06-15 13:07",59.748714,-149.652288,TRUE,FALSE,TRUE,"S250872179",NA
"348","glwgul","Glaucous-winged Gull","Larus glaucescens","L47728797","Farmer’s Market Heron Colony","2025-06-15 13:07",47.049391,-122.902192,TRUE,FALSE,TRUE,"S250819804",5
"349","glwgul","Glaucous-winged Gull","Larus glaucescens","L8138871","Olalla Bay","2025-06-15 13:07",47.4212923,-122.5418879,TRUE,FALSE,FALSE,"S251051196",2
"350","glwgul","Glaucous-winged Gull","Larus glaucescens","L271497","Humboldt Bay--King Salmon","2025-06-15 12:58",40.740336,-124.218596,TRUE,FALSE,FALSE,"S250806582",1
"351","glwgul","Glaucous-winged Gull","Larus glaucescens","L4681554","North Winds Weir","2025-06-15 12:58",47.5031009,-122.296173,TRUE,FALSE,FALSE,"S250814189",1
"352","glwgul","Glaucous-winged Gull","Larus glaucescens","L1432605","Swantown / Bos Lake","2025-06-15 12:55",48.2986787,-122.7238317,TRUE,FALSE,FALSE,"S250790215",8
"353","glwgul","Glaucous-winged Gull","Larus glaucescens","L2976073","Carlyon Beach Park","2025-06-15 12:52",47.18141,-122.939195,TRUE,FALSE,FALSE,"S250801765",3
"354","glwgul","Glaucous-winged Gull","Larus glaucescens","L47724415","Oregon Institute of Marine Biology, Coos Bay US-OR 43.34615, -124.32915","2025-06-15 12:38",43.346148,-124.329151,TRUE,FALSE,TRUE,"S250802280",1
"355","glwgul","Glaucous-winged Gull","Larus glaucescens","L1067143","Ninilchik (town)","2025-06-15 12:36",60.0485606,-151.6710663,TRUE,FALSE,FALSE,"S250802656",3
"356","glwgul","Glaucous-winged Gull","Larus glaucescens","L5886917","US-Washington-Blaine-1561-1577 D Street - 48.998x-122.731","2025-06-15 12:35",48.9978712,-122.7309225,TRUE,FALSE,TRUE,"S250780899",15
"357","glwgul","Glaucous-winged Gull","Larus glaucescens","L47720776","Alaska Packer Rd, Coos Bay US-OR 43.34704, -124.32853","2025-06-15 12:23",43.347035,-124.328527,TRUE,FALSE,TRUE,"S250787456",1
"358","glwgul","Glaucous-winged Gull","Larus glaucescens","L47720408","Chinook WIND
2925 South 112th Street, Tukwila, Washington, US (47.502, -122.296)","2025-06-15 12:21",47.5024887,-122.2955081,TRUE,FALSE,TRUE,"S250785962",1
"359","glwgul","Glaucous-winged Gull","Larus glaucescens","L109309","Pt. Pinos--seawatch only","2025-06-15 12:20",36.6373821,-121.9357538,TRUE,FALSE,FALSE,"S251547524",1
"360","glwgul","Glaucous-winged Gull","Larus glaucescens","L1316721","Joseph Whidbey SP","2025-06-15 12:20",48.3083511,-122.7134208,TRUE,FALSE,FALSE,"S250785863",4
"361","glwgul","Glaucous-winged Gull","Larus glaucescens","L1840584","Westport Light SP","2025-06-15 12:19",46.8887211,-124.1274368,TRUE,FALSE,FALSE,"S250852059",4
"362","glwgul","Glaucous-winged Gull","Larus glaucescens","L1819576","Port Townsend -- North Beach","2025-06-15 12:18",48.1426097,-122.7820954,TRUE,FALSE,FALSE,"S250807072",3
"363","glwgul","Glaucous-winged Gull","Larus glaucescens","L1519076","Petersburg in City","2025-06-15 12:18",56.8092717,-132.953453,TRUE,FALSE,TRUE,"S251070427",2
"364","glwgul","Glaucous-winged Gull","Larus glaucescens","L47716582","3009 Northwest Avenue, Bellingham, Washington, US (48.77, -122.493)","2025-06-15 12:17",48.7704676,-122.4932197,TRUE,FALSE,TRUE,"S250770981",1
"365","glwgul","Glaucous-winged Gull","Larus glaucescens","L2967054","Meadowdale County Park","2025-06-15 12:13",47.8596993,-122.3351455,TRUE,FALSE,FALSE,"S250800752",1
"366","glwgul","Glaucous-winged Gull","Larus glaucescens","L383999","Maryhill Museum","2025-06-15 12:08",45.6772213,-120.8648872,TRUE,FALSE,FALSE,"S250773406",1
"367","glwgul","Glaucous-winged Gull","Larus glaucescens","L387534","Fay Bainbridge Park","2025-06-15 12:03",47.7032927,-122.5071716,TRUE,FALSE,FALSE,"S250775096",18
"368","glwgul","Glaucous-winged Gull","Larus glaucescens","L21123076","Nuupia Ponds","2025-06-15 11:55",21.4380753,-157.7522688,TRUE,TRUE,TRUE,"S250894469",1
"369","glwgul","Glaucous-winged Gull","Larus glaucescens","L350179","Cape Disappointment SP--North Jetty Columbia River","2025-06-15 11:47",46.2682069,-124.0796438,TRUE,FALSE,FALSE,"S250763930",NA
"370","glwgul","Glaucous-winged Gull","Larus glaucescens","L3035890","Netarts Bay--Boat Basin","2025-06-15 11:45",45.4300818,-123.9473569,TRUE,FALSE,FALSE,"S250759978",1
"371","glwgul","Glaucous-winged Gull","Larus glaucescens","L4763838","Crescent Beach Preserve--Woodland Trail, Orcas Island","2025-06-15 11:43",48.699909,-122.893718,TRUE,FALSE,FALSE,"S250781819",1
"372","glwgul","Glaucous-winged Gull","Larus glaucescens","L36142098","Waldron Island - Seversons Bay area","2025-06-15 11:30",48.7155417,-123.0291917,TRUE,FALSE,TRUE,"S250827746",3
"373","glwgul","Glaucous-winged Gull","Larus glaucescens","L813395","Dugualla Bay","2025-06-15 11:28",48.3547946,-122.5939465,TRUE,FALSE,FALSE,"S250759428",2
"374","glwgul","Glaucous-winged Gull","Larus glaucescens","L36613944","Ballard 3","2025-06-15 11:27",47.670868,-122.3833656,TRUE,FALSE,TRUE,"S250762146",1
"375","glwgul","Glaucous-winged Gull","Larus glaucescens","L1454902","South Beach, San Juan Island","2025-06-15 11:10",48.4556661,-122.9961548,TRUE,FALSE,FALSE,"S251253582",1
"376","glwgul","Glaucous-winged Gull","Larus glaucescens","L14876308","American Camp - Mt Finlayson","2025-06-15 11:08",48.4581267,-122.9843149,TRUE,FALSE,FALSE,"S250800118",2
"377","glwgul","Glaucous-winged Gull","Larus glaucescens","L9505643","Kenai Fjords NP--Aligo Point","2025-06-15 11:00",59.6382556,-149.7389586,TRUE,FALSE,FALSE,"S250908411",8
"378","glwgul","Glaucous-winged Gull","Larus glaucescens","L444581","Sitka National Historical Park","2025-06-15 10:49",57.0476401,-135.3161573,TRUE,FALSE,FALSE,"S250793288",22
"379","glwgul","Glaucous-winged Gull","Larus glaucescens","L47726382","Billy Frank Jr. Nisqually National Wildlife Refuge, Olympia US-WA 47.07267, -122.71308","2025-06-15 10:47",47.07267,-122.713081,TRUE,FALSE,TRUE,"S250810293",10
"380","glwgul","Glaucous-winged Gull","Larus glaucescens","L716993","Chester Creek & Fish Creek Mouths (Audubon Bench & Fish Creek Bench)","2025-06-15 10:47",61.2075708,-149.9289732,TRUE,FALSE,FALSE,"S250758813",4
"381","glwgul","Glaucous-winged Gull","Larus glaucescens","L1144607","Cape Disappointment SP--Cape Disappointment Lighthouse","2025-06-15 10:42",46.2756,-124.0518,TRUE,FALSE,FALSE,"S250750152",NA
"382","glwgul","Glaucous-winged Gull","Larus glaucescens","L36855741","Salmon Grove Campground","2025-06-15 10:37",61.95201,-145.3090439,TRUE,FALSE,FALSE,"S250754701",2
"383","glwgul","Glaucous-winged Gull","Larus glaucescens","L800185","Cape Flattery","2025-06-15 10:31",48.385884,-124.7266299,TRUE,FALSE,FALSE,"S251241280",1001
"384","glwgul","Glaucous-winged Gull","Larus glaucescens","L2615753","Kiket Island","2025-06-15 10:30",48.4195063,-122.5660515,TRUE,FALSE,FALSE,"S250878752",1
"385","glwgul","Glaucous-winged Gull","Larus glaucescens","L1297375","Deception Pass SP-- Pass Island","2025-06-15 10:25",48.4073831,-122.6446295,TRUE,FALSE,FALSE,"S250731940",2
"386","glwgul","Glaucous-winged Gull","Larus glaucescens","L1894620","Edmonds-Kingston Ferry (Kitsap Co.)","2025-06-15 10:13",47.7905873,-122.4693278,TRUE,FALSE,FALSE,"S250724419",4
"387","glwgul","Glaucous-winged Gull","Larus glaucescens","L33302477","19110 94th Avenue West, Edmonds, Washington, US (47.826, -122.359)","2025-06-15 10:07",47.8256907,-122.3594374,TRUE,FALSE,TRUE,"S250724519",1
"388","glwgul","Glaucous-winged Gull","Larus glaucescens","L2281032","Glacier Bay NP--Tlinget Trail","2025-06-15 10:03",58.4553433,-135.8739281,TRUE,FALSE,FALSE,"S250816918",1
"389","glwgul","Glaucous-winged Gull","Larus glaucescens","L22410914","Baywood Nature Trail","2025-06-15 10:01",48.0179423,-122.2109686,TRUE,FALSE,FALSE,"S250708525",2
"390","glwgul","Glaucous-winged Gull","Larus glaucescens","L11156261","Samish Island Loop","2025-06-15 10:00",48.5727608,-122.513544,TRUE,FALSE,TRUE,"S250893339",15
"391","glwgul","Glaucous-winged Gull","Larus glaucescens","L5548250","Appletree Cove--Marina Boat Ramp","2025-06-15 09:53",47.7965336,-122.4993476,TRUE,FALSE,FALSE,"S250713690",1
"392","glwgul","Glaucous-winged Gull","Larus glaucescens","L153927","Gold Creek Delta","2025-06-15 09:52",58.2983519,-134.4208145,TRUE,FALSE,FALSE,"S250749074",2
"393","glwgul","Glaucous-winged Gull","Larus glaucescens","L8523232","Lincoln City--NW 15th St. beach access","2025-06-15 09:51",44.975803,-124.017605,TRUE,FALSE,FALSE,"S250721282",1
"394","glwgul","Glaucous-winged Gull","Larus glaucescens","L20576180","NW 84th & 1st","2025-06-15 09:50",47.689827,-122.359646,TRUE,FALSE,TRUE,"S250706387",1
"395","glwgul","Glaucous-winged Gull","Larus glaucescens","L47369052","22914 75th Ave SW, Vashon US-WA 47.39912, -122.42658","2025-06-15 09:37",47.399121,-122.42658,TRUE,FALSE,TRUE,"S250918867",1
"396","glwgul","Glaucous-winged Gull","Larus glaucescens","L1563949","Denali SP--Denali Viewpoint South","2025-06-15 09:36",62.5929776,-150.2405289,TRUE,FALSE,FALSE,"S250898159",1
"397","glwgul","Glaucous-winged Gull","Larus glaucescens","L47696181","Hood Canal Floating Bridge, Poulsbo US-WA 47.85884, -122.62273","2025-06-15 09:18",47.858845,-122.622726,TRUE,FALSE,TRUE,"S250689897",1
"398","glwgul","Glaucous-winged Gull","Larus glaucescens","L742888","Siuslaw River--South Jetty-Crab Docks","2025-06-15 09:12",44.007657,-124.1322332,TRUE,FALSE,FALSE,"S250777809",5
"399","glwgul","Glaucous-winged Gull","Larus glaucescens","L12722609","Leque Island--Davis Slough Access","2025-06-15 09:06",48.2394953,-122.3929974,TRUE,FALSE,FALSE,"S251232028",1
"400","glwgul","Glaucous-winged Gull","Larus glaucescens","L47701214","Auto selected 60.07882, -149.41438","2025-06-15 09:05",60.078822,-149.414382,TRUE,FALSE,TRUE,"S250710481",NA
"401","glwgul","Glaucous-winged Gull","Larus glaucescens","L47713267","North Pacific Ocean US-AK (57.7160,-154.0955)","2025-06-15 08:58",57.715995,-154.095535,TRUE,FALSE,TRUE,"S250758795",7
"402","glwgul","Glaucous-winged Gull","Larus glaucescens","L163490","Fort Stevens SP","2025-06-15 08:55",46.2302,-124.003624,TRUE,FALSE,FALSE,"S250763943",1
"403","glwgul","Glaucous-winged Gull","Larus glaucescens","L2281058","Glacier Bay NP--South Marble Island ","2025-06-15 08:51",58.6452846,-136.0467911,TRUE,FALSE,FALSE,"S250773805",20
"404","glwgul","Glaucous-winged Gull","Larus glaucescens","L15073257","Ship Harbor, Anacortes US-WA 48.50417, -122.67502","2025-06-15 08:50",48.504169,-122.675025,TRUE,FALSE,TRUE,"S250676402",50
"405","glwgul","Glaucous-winged Gull","Larus glaucescens","L127964","Seward--Lowell Point","2025-06-15 08:23",60.0706365,-149.4349383,TRUE,FALSE,FALSE,"S250693170",2
"406","glwgul","Glaucous-winged Gull","Larus glaucescens","L47812501","Kachemak Bay - Bay Excursions Boat Trip","2025-06-15 08:17",59.607246,-151.403685,TRUE,FALSE,TRUE,"S251215418",NA
"407","glwgul","Glaucous-winged Gull","Larus glaucescens","L283821","Cedar River mouth","2025-06-15 08:14",47.5007162,-122.2146012,TRUE,FALSE,FALSE,"S250733922",3
"408","glwgul","Glaucous-winged Gull","Larus glaucescens","L47709160","24455 Cobbler Lane, Kasilof, Alaska, US (60.336, -151.283)","2025-06-15 08:07",60.3355367,-151.2828581,TRUE,FALSE,TRUE,"S250741910",5
"409","glwgul","Glaucous-winged Gull","Larus glaucescens","L788284","Homer--Beluga Slough & Bishops Beach","2025-06-15 08:03",59.6385129,-151.5362263,TRUE,FALSE,FALSE,"S250785923",15
"410","glwgul","Glaucous-winged Gull","Larus glaucescens","L47889720","19GOA2025","2025-06-15 08:00",58.5613,-153.5813,TRUE,FALSE,TRUE,"S251570370",NA
"411","glwgul","Glaucous-winged Gull","Larus glaucescens","L30209178","Uyak Bay","2025-06-15 07:56",57.552254,-153.907843,TRUE,FALSE,TRUE,"S250758981",2
"412","glwgul","Glaucous-winged Gull","Larus glaucescens","L22164722","Seward--Waterfall Beach","2025-06-15 07:22",60.0977612,-149.4440871,TRUE,FALSE,FALSE,"S250662494",5
"413","glwgul","Glaucous-winged Gull","Larus glaucescens","L47691733","100.5 Richardson Hwy, Copper Center US-AK 61.95230, -145.31690","2025-06-15 07:21",61.952305,-145.316904,TRUE,FALSE,TRUE,"S250671486",1
"414","glwgul","Glaucous-winged Gull","Larus glaucescens","L18271769","Interurban Trail—Mathay-Ballinger Park to 220th St SW","2025-06-15 07:10",47.7917156,-122.3317029,TRUE,FALSE,TRUE,"S250652729",1
"415","glwgul","Glaucous-winged Gull","Larus glaucescens","L1337710","American Camp","2025-06-15 06:57",48.4618452,-123.0083008,TRUE,FALSE,FALSE,"S251480142",2
"416","glwgul","Glaucous-winged Gull","Larus glaucescens","L47691368","Inner Uyak Bay - Kodiak","2025-06-15 06:49",57.49615,-153.904538,TRUE,FALSE,TRUE,"S250670044",1
"417","glwgul","Glaucous-winged Gull","Larus glaucescens","L2348594","Westport pelagic--Offshore waters north of Grays Canyon","2025-06-15 06:33",47.15,-124.7667,TRUE,FALSE,FALSE,"S250794383",10
"418","glwgul","Glaucous-winged Gull","Larus glaucescens","L47665954","The Waves Flagship Suite","2025-06-15 06:30",45.898509,-123.962342,TRUE,FALSE,TRUE,"S250616059",1
"419","glwgul","Glaucous-winged Gull","Larus glaucescens","L42499326","Chambers Bay, University Place US-WA 47.20214, -122.57802","2025-06-15 06:22",47.202139,-122.57802,TRUE,FALSE,TRUE,"S250631030",1
"420","glwgul","Glaucous-winged Gull","Larus glaucescens","L9101479","Heaton Cabin","2025-06-15 06:15",48.5753285,-122.5168981,TRUE,FALSE,TRUE,"S250893699",35
"421","glwgul","Glaucous-winged Gull","Larus glaucescens","L2095948","Cascade Locks--Marine Park (island)","2025-06-15 06:08",45.668031,-121.897456,TRUE,FALSE,FALSE,"S250592066",1
"422","glwgul","Glaucous-winged Gull","Larus glaucescens","L47670939","Whatcom County And Bellingham Interurban Trail","2025-06-15 05:53",48.7156461,-122.5001482,TRUE,FALSE,TRUE,"S250572635",2
"423","glwgul","Glaucous-winged Gull","Larus glaucescens","L2510794","Kasilof--Crooked Creek","2025-06-15 04:46",60.3221499,-151.2833369,TRUE,FALSE,FALSE,"S250614020",18
"424","glwgul","Glaucous-winged Gull","Larus glaucescens","L9897602","Hampton Inn Anchorage","2025-06-15 04:28",61.181926,-149.887506,TRUE,FALSE,TRUE,"S250559521",3
"425","glwgul","Glaucous-winged Gull","Larus glaucescens","L20477614","11470 Joann Way, Juneau US-AK 58.39418, -134.62374","2025-06-15 04:26",58.394179,-134.623743,TRUE,FALSE,TRUE,"S250566764",5
"426","glwgul","Glaucous-winged Gull","Larus glaucescens","L47643179","13500–13672 Lowell Point Rd, Lowell Point US-AK 60.07875, -149.44387","2025-06-14 20:19",60.078747,-149.44387,TRUE,FALSE,TRUE,"S250440065",NA
"427","glwgul","Glaucous-winged Gull","Larus glaucescens","L21134079","2221 32nd Ave S, Seattle US-WA 47.58294, -122.29203","2025-06-14 20:18",47.582937,-122.292035,TRUE,FALSE,TRUE,"S250434664",1
"428","glwgul","Glaucous-winged Gull","Larus glaucescens","L820722","Homer Spit--Lands End","2025-06-14 20:11",59.6003137,-151.408596,TRUE,FALSE,FALSE,"S250454029",2
"429","glwgul","Glaucous-winged Gull","Larus glaucescens","L14126271","74th and Linden","2025-06-14 20:11",47.6827464,-122.3473718,TRUE,FALSE,TRUE,"S250438191",1
"430","glwgul","Glaucous-winged Gull","Larus glaucescens","L591433","Stinson Beach","2025-06-14 20:03",37.8963357,-122.6392436,TRUE,FALSE,FALSE,"S250441745",2
"431","glwgul","Glaucous-winged Gull","Larus glaucescens","L274606","Twin Rivers East","2025-06-14 20:00",48.1604666,-123.9367179,TRUE,FALSE,TRUE,"S250624465",2
"432","glwgul","Glaucous-winged Gull","Larus glaucescens","L47641864","Best Western","2025-06-14 19:33",61.577493,-149.483431,TRUE,FALSE,TRUE,"S250436370",1
"433","glwgul","Glaucous-winged Gull","Larus glaucescens","L25993218","Maritime Memorial Park","2025-06-14 19:25",46.18997,-123.849482,TRUE,FALSE,FALSE,"S250437080",NA
"434","glwgul","Glaucous-winged Gull","Larus glaucescens","L1158826","Chance A La Mer SP","2025-06-14 18:47",47.0127422,-124.1698837,TRUE,FALSE,FALSE,"S250424180",4
"435","glwgul","Glaucous-winged Gull","Larus glaucescens","L3110397","Anchor River SRA--Mawalli Rock Day Use Area","2025-06-14 18:39",59.7709987,-151.8374276,TRUE,FALSE,FALSE,"S250447415",NA
"436","glwgul","Glaucous-winged Gull","Larus glaucescens","L2308087","Scriber Lake Park","2025-06-14 18:27",47.8199867,-122.3064137,TRUE,FALSE,FALSE,"S250422328",1
"437","glwgul","Glaucous-winged Gull","Larus glaucescens","L47713602","Shelikof Strait (57.2301,-155.3087)","2025-06-14 18:25",57.230111,-155.308675,TRUE,FALSE,TRUE,"S250759198",3
"438","glwgul","Glaucous-winged Gull","Larus glaucescens","L590833","La Push","2025-06-14 18:21",47.9082232,-124.6395031,TRUE,FALSE,FALSE,"S250433775",6
"439","glwgul","Glaucous-winged Gull","Larus glaucescens","L678891","Guadalupe River Trail--north San Jose","2025-06-14 17:21",37.4011703,-121.944927,TRUE,FALSE,FALSE,"S250422561",1
"440","glwgul","Glaucous-winged Gull","Larus glaucescens","L47642428","Auto selected 57.13696, -154.85101","2025-06-14 17:06",57.136963,-154.851012,TRUE,FALSE,TRUE,"S250436839",12
"441","glwgul","Glaucous-winged Gull","Larus glaucescens","L1128812","Homer--Alaska Islands & Oceans Visitor Center & Trails","2025-06-14 16:46",59.641132,-151.5389299,TRUE,FALSE,FALSE,"S250441137",1
"442","glwgul","Glaucous-winged Gull","Larus glaucescens","L47641201","Nome-Council Rd, Nome US-AK 64.47736, -165.21457","2025-06-14 16:23",64.47736,-165.214566,TRUE,FALSE,TRUE,"S250431532",2
"443","glwgul","Glaucous-winged Gull","Larus glaucescens","L8151616","Kodiak Is.--Near Island","2025-06-14 16:14",57.7810021,-152.4018664,TRUE,FALSE,FALSE,"S250412816",6
"444","glwgul","Glaucous-winged Gull","Larus glaucescens","L47630006","Puget Sound, Oak Harbor US-WA 47.89048, -122.47658","2025-06-14 16:02",47.890484,-122.476584,TRUE,FALSE,TRUE,"S250384345",1
"445","glwgul","Glaucous-winged Gull","Larus glaucescens","L47627553","1720 Ediz Hook Road, Port Angeles, Washington, US (48.136, -123.463)","2025-06-14 15:34",48.1362198,-123.4634559,TRUE,FALSE,TRUE,"S250373467",3
"446","glwgul","Glaucous-winged Gull","Larus glaucescens","L47737388","Elson Lagoon US-AK (71.3821,-156.4430)","2025-06-14 15:26",71.382134,-156.443039,TRUE,FALSE,TRUE,"S250858945",1
"447","glwgul","Glaucous-winged Gull","Larus glaucescens","L523265","Ship Creek--Ship Creek Mouth & Small Boat Launch Rd.","2025-06-14 15:21",61.2250765,-149.9045473,TRUE,FALSE,FALSE,"S250407719",2
"448","glwgul","Glaucous-winged Gull","Larus glaucescens","L47633809","Kodiak Island -Southern end to 22.5","2025-06-14 15:03",56.934537,-154.549256,TRUE,FALSE,TRUE,"S250401148",1
"449","glwgul","Glaucous-winged Gull","Larus glaucescens","L1364956","Kachemak Bay--Halibut Cove","2025-06-14 15:03",59.5936678,-151.2371063,TRUE,FALSE,FALSE,"S250430836",18
"450","glwgul","Glaucous-winged Gull","Larus glaucescens","L47638609","Lopez Island Round Trip","2025-06-14 15:03",48.5574693,-122.891015,TRUE,FALSE,TRUE,"S250421957",NA
"451","glwgul","Glaucous-winged Gull","Larus glaucescens","L1609301","Marine Park, Everett","2025-06-14 15:01",48.0037205,-122.2223678,TRUE,FALSE,FALSE,"S250364756",150
"452","glwgul","Glaucous-winged Gull","Larus glaucescens","L199273","Semiahmoo Spit","2025-06-14 14:51",48.9800492,-122.7883112,TRUE,FALSE,FALSE,"S250379011",22
"453","glwgul","Glaucous-winged Gull","Larus glaucescens","L791486","Fauntleroy Ferry Terminal","2025-06-14 14:43",47.5232362,-122.3943123,TRUE,FALSE,FALSE,"S250454291",2
"454","glwgul","Glaucous-winged Gull","Larus glaucescens","L767320","Anchor Point","2025-06-14 14:30",59.7790573,-151.8633485,TRUE,FALSE,FALSE,"S250434755",8
"455","glwgul","Glaucous-winged Gull","Larus glaucescens","L5272363","Thea Foss Waterway Public Esplanade, Tacoma","2025-06-14 14:26",47.2449525,-122.4327009,TRUE,FALSE,FALSE,"S250371660",2
"456","glwgul","Glaucous-winged Gull","Larus glaucescens","L2151809","Kenai--Bridge Access Road Viewing Platform","2025-06-14 14:15",60.534657,-151.2117863,TRUE,FALSE,FALSE,"S250369383",2
"457","glwgul","Glaucous-winged Gull","Larus glaucescens","L1668666","Rosario Strait (San Juan Co. side)","2025-06-14 14:10",48.5260634,-122.7700353,TRUE,FALSE,FALSE,"S250359765",NA
"458","glwgul","Glaucous-winged Gull","Larus glaucescens","L47635175","N Bridget Cove","2025-06-14 14:06",58.635653,-134.942778,TRUE,FALSE,TRUE,"S250406951",4
"459","glwgul","Glaucous-winged Gull","Larus glaucescens","L47621835","Bandon Bayfront","2025-06-14 14:01",43.119863,-124.411773,TRUE,FALSE,TRUE,"S250350579",3
"460","glwgul","Glaucous-winged Gull","Larus glaucescens","L1035815","Redondo Pier","2025-06-14 13:48",47.3484625,-122.3254466,TRUE,FALSE,FALSE,"S250347459",2
"461","glwgul","Glaucous-winged Gull","Larus glaucescens","L15174323","Moss Bay Neighborhood","2025-06-14 13:48",47.6745539,-122.2066021,TRUE,FALSE,TRUE,"S250344503",70
"462","glwgul","Glaucous-winged Gull","Larus glaucescens","L1633817","Glacier Bay NP--Glacier Bay","2025-06-14 13:35",58.6950873,-136.1813779,TRUE,FALSE,FALSE,"S250365981",2
"463","glwgul","Glaucous-winged Gull","Larus glaucescens","L487464","Juanita Beach Park","2025-06-14 13:34",47.7040147,-122.2153902,TRUE,FALSE,FALSE,"S250347865",1
"464","glwgul","Glaucous-winged Gull","Larus glaucescens","L447385","Ecola SP","2025-06-14 13:29",45.9183632,-123.9774513,TRUE,FALSE,FALSE,"S250356594",1
"465","glwgul","Glaucous-winged Gull","Larus glaucescens","L338560","Mori Pt.","2025-06-14 13:26",37.6204026,-122.4934964,TRUE,FALSE,FALSE,"S250359398",1
"466","glwgul","Glaucous-winged Gull","Larus glaucescens","L506396","Eagle Harbor","2025-06-14 13:23",47.620744,-122.5150681,TRUE,FALSE,FALSE,"S250336679",6
"467","glwgul","Glaucous-winged Gull","Larus glaucescens","L47623903","612 Inlet Street, Kenai, Alaska, US (60.552, -151.268)","2025-06-14 13:04",60.5516377,-151.2684556,TRUE,FALSE,TRUE,"S250358922",4
"468","glwgul","Glaucous-winged Gull","Larus glaucescens","L17518900","San Juan Island--Cattle Point Lighthouse","2025-06-14 13:02",48.45063,-122.963337,TRUE,FALSE,FALSE,"S250337722",2
"469","glwgul","Glaucous-winged Gull","Larus glaucescens","L47642397","Auto selected 56.83803, -154.15190","2025-06-14 12:55",56.838033,-154.151896,TRUE,FALSE,TRUE,"S250436695",3
"470","glwgul","Glaucous-winged Gull","Larus glaucescens","L3741710","Kenai Fjords NP--Northwestern Glacier outflow","2025-06-14 12:34",59.8443406,-150.0673199,TRUE,FALSE,FALSE,"S250457655",12
"471","glwgul","Glaucous-winged Gull","Larus glaucescens","L633128","Half Moon Bay SB--Francis Beach","2025-06-14 12:26",37.4688976,-122.4458456,TRUE,FALSE,FALSE,"S250345932",1
"472","glwgul","Glaucous-winged Gull","Larus glaucescens","L7987846","Vancouver Waterfront Park","2025-06-14 12:22",45.623655,-122.681192,TRUE,FALSE,FALSE,"S250321339",4
"473","glwgul","Glaucous-winged Gull","Larus glaucescens","L14499926","Semiahmoo","2025-06-14 12:19",48.9870033,-122.7784729,TRUE,FALSE,TRUE,"S250342280",4
"474","glwgul","Glaucous-winged Gull","Larus glaucescens","L47631450","Dyea Rd, Skagway US-AK 59.48002, -135.34730","2025-06-14 12:16",59.480016,-135.347298,TRUE,FALSE,TRUE,"S250390485",15
"475","glwgul","Glaucous-winged Gull","Larus glaucescens","L47639912","Mendenhall Glacier hike","2025-06-14 12:16",58.417777,-134.589816,TRUE,FALSE,TRUE,"S250426667",1
"476","glwgul","Glaucous-winged Gull","Larus glaucescens","L820014","Attu Island--Navy Town","2025-06-14 12:15",52.8410393,173.1757736,TRUE,FALSE,FALSE,"S250419068",30
"477","glwgul","Glaucous-winged Gull","Larus glaucescens","L47730193","Auto selected 57.74076, -133.61796","2025-06-14 12:15",57.740756,-133.617958,TRUE,FALSE,TRUE,"S250825977",10
"478","glwgul","Glaucous-winged Gull","Larus glaucescens","L1415176","Southworth - Vashon Island Ferry","2025-06-14 12:06",47.5144259,-122.4848333,TRUE,FALSE,FALSE,"S250314016",1
"479","glwgul","Glaucous-winged Gull","Larus glaucescens","L9377619","12th St NE, Everett","2025-06-14 12:04",48.0077981,-122.1706841,TRUE,FALSE,FALSE,"S250328352",2
"480","glwgul","Glaucous-winged Gull","Larus glaucescens","L30675857","Auto selected 48.29633, -122.72624","2025-06-14 11:55",48.296332,-122.726244,TRUE,FALSE,TRUE,"S250313326",2
"481","glwgul","Glaucous-winged Gull","Larus glaucescens","L4754125","Haines--Haines Birdwatching Trail","2025-06-14 11:37",59.2331567,-135.4552341,TRUE,FALSE,FALSE,"S250438153",1
"482","glwgul","Glaucous-winged Gull","Larus glaucescens","L1120073","Izembek NWR","2025-06-14 11:26",55.2920928,-162.6824341,TRUE,FALSE,FALSE,"S251582077",12
"483","glwgul","Glaucous-winged Gull","Larus glaucescens","L295008","South View Park","2025-06-14 11:14",48.0069047,-122.2144161,TRUE,FALSE,FALSE,"S250297803",3
"484","glwgul","Glaucous-winged Gull","Larus glaucescens","L2429404","Harbor View Park","2025-06-14 11:12",45.5782586,-122.7419293,TRUE,FALSE,FALSE,"S250333463",2
"485","glwgul","Glaucous-winged Gull","Larus glaucescens","L3860799","Elliott Bay","2025-06-14 11:03",47.6028644,-122.3652935,TRUE,FALSE,FALSE,"S250342766",5
"486","glwgul","Glaucous-winged Gull","Larus glaucescens","L800184","Log Boom Park (Tracy Owen Station)","2025-06-14 10:49",47.7573005,-122.2639918,TRUE,FALSE,FALSE,"S250360819",2
"487","glwgul","Glaucous-winged Gull","Larus glaucescens","L904267","Prince William Sound--Sheep Pt. (Sheep Bay)","2025-06-14 10:49",60.6163758,-146.0064983,TRUE,FALSE,FALSE,"S250363474",151
"488","glwgul","Glaucous-winged Gull","Larus glaucescens","L150417","Steigerwald Lake NWR","2025-06-14 10:46",45.5676572,-122.3147392,TRUE,FALSE,FALSE,"S250358470",1
"489","glwgul","Glaucous-winged Gull","Larus glaucescens","L26199122","Lewis and Clark National Historical Park, campground loop C -WA 46.29419, -124.07216","2025-06-14 10:34",46.294194,-124.072161,TRUE,FALSE,TRUE,"S250330319",2
"490","glwgul","Glaucous-winged Gull","Larus glaucescens","L1128506","Homer--Crittenden Dr.","2025-06-14 10:26",59.6403702,-151.555506,TRUE,FALSE,FALSE,"S250325962",2
"491","glwgul","Glaucous-winged Gull","Larus glaucescens","L509262","Point Wilson","2025-06-14 10:24",48.1442626,-122.7539778,TRUE,FALSE,FALSE,"S250287198",3
"492","glwgul","Glaucous-winged Gull","Larus glaucescens","L4033311","Belltown Cottage Park","2025-06-14 10:19",47.6139634,-122.3510349,TRUE,FALSE,FALSE,"S250276547",10
"493","glwgul","Glaucous-winged Gull","Larus glaucescens","L4475353","Dupont--Sequalitchew Creek Trail","2025-06-14 10:18",47.1063129,-122.6469523,TRUE,FALSE,FALSE,"S250315911",7
"494","glwgul","Glaucous-winged Gull","Larus glaucescens","L47614924","Deadman Bay - Kodiak","2025-06-14 10:03",56.962004,-154.019356,TRUE,FALSE,TRUE,"S250323894",2
"495","glwgul","Glaucous-winged Gull","Larus glaucescens","L743272","Millicoma Marsh","2025-06-14 09:51",43.3682768,-124.1908908,TRUE,FALSE,FALSE,"S250281219",1
"496","glwgul","Glaucous-winged Gull","Larus glaucescens","L743257","Strawberry Hill","2025-06-14 09:35",44.2540677,-124.1119158,TRUE,FALSE,FALSE,"S250346346",4
"497","glwgul","Glaucous-winged Gull","Larus glaucescens","L13117342","Skagway--Yakutania Point","2025-06-14 09:30",59.4520932,-135.3368955,TRUE,FALSE,FALSE,"S250442000",3
"498","glwgul","Glaucous-winged Gull","Larus glaucescens","L40358702","stakeout Orchard Oriole, Bellingham (2025)","2025-06-14 09:26",48.724011,-122.504924,TRUE,FALSE,FALSE,"S250252118",5
"499","glwgul","Glaucous-winged Gull","Larus glaucescens","L2265481","Brotherhood Bridge Trail","2025-06-14 09:15",58.3711175,-134.6019495,TRUE,FALSE,FALSE,"S250356757",1
"500","glwgul","Glaucous-winged Gull","Larus glaucescens","L1915521","East Bremerton--Lions Park","2025-06-14 09:14",47.5837629,-122.6409817,TRUE,FALSE,FALSE,"S250296692",25
"501","glwgul","Glaucous-winged Gull","Larus glaucescens","L207883","Mendenhall Lake-Campgrnd & Trails","2025-06-14 09:12",58.4182743,-134.5903301,TRUE,FALSE,FALSE,"S250301457",1
"502","glwgul","Glaucous-winged Gull","Larus glaucescens","L4821923","Saginaw Channel--Pt Retreat to Strauss Rock","2025-06-14 09:11",58.3929223,-134.8874588,TRUE,FALSE,FALSE,"S250310148",1
"503","glwgul","Glaucous-winged Gull","Larus glaucescens","L2532189","Drayton Harbor--Peace Portal Dr","2025-06-14 09:04",48.9864639,-122.7482808,TRUE,FALSE,FALSE,"S250240651",10
"504","glwgul","Glaucous-winged Gull","Larus glaucescens","L1865028","Fouts Park","2025-06-14 09:00",48.758807,-122.4845791,TRUE,FALSE,TRUE,"S250636259",2
"505","glwgul","Glaucous-winged Gull","Larus glaucescens","L660797","Stone Lagoon--north","2025-06-14 09:00",41.249687,-124.095948,TRUE,FALSE,FALSE,"S251566709",1
"506","glwgul","Glaucous-winged Gull","Larus glaucescens","L1105273","Homer Spit--Boat Harbor","2025-06-14 08:56",59.6047001,-151.425848,TRUE,FALSE,FALSE,"S250433967",22
"507","glwgul","Glaucous-winged Gull","Larus glaucescens","L37091295","Lewis and Clark National Historical Park, Ilwaco US-WA 46.27856, -124.05298","2025-06-14 08:52",46.278558,-124.052983,TRUE,FALSE,TRUE,"S250253763",2
"508","glwgul","Glaucous-winged Gull","Larus glaucescens","L2135861","Homer Spit--Fishing Hole","2025-06-14 08:34",59.6100413,-151.4387226,TRUE,FALSE,FALSE,"S250433987",25
"509","glwgul","Glaucous-winged Gull","Larus glaucescens","L1225066","Ventura Harbor--detached breakwater","2025-06-14 08:30",34.2484548,-119.2731571,TRUE,FALSE,FALSE,"S250403044",1
"510","glwgul","Glaucous-winged Gull","Larus glaucescens","L15372417","Alaska Maritime NWR--Beehive Island","2025-06-14 08:30",59.6179385,-149.6131325,TRUE,FALSE,FALSE,"S250457338",21
"511","glwgul","Glaucous-winged Gull","Larus glaucescens","L292857","Kah Tai Lagoon","2025-06-14 08:30",48.1114603,-122.7781165,TRUE,FALSE,FALSE,"S251127757",2
"512","glwgul","Glaucous-winged Gull","Larus glaucescens","L261146","St. Paul Island","2025-06-14 08:22",57.17012,-170.296751,TRUE,FALSE,FALSE,"S250524677",110
"513","glwgul","Glaucous-winged Gull","Larus glaucescens","L1542324","Valdez--City Dock & Ferry Terminal","2025-06-14 08:18",61.1243397,-146.3630078,TRUE,FALSE,FALSE,"S250710878",30
"514","glwgul","Glaucous-winged Gull","Larus glaucescens","L8186713","Seward--Boulder Campground","2025-06-14 08:07",60.1130481,-149.4394887,TRUE,FALSE,FALSE,"S250271960",20
"515","glwgul","Glaucous-winged Gull","Larus glaucescens","L27076588","Home-yard and retention pond","2025-06-14 08:00",48.774688,-122.521362,TRUE,FALSE,TRUE,"S250761183",2
"516","glwgul","Glaucous-winged Gull","Larus glaucescens","L47889664","18GOA2025","2025-06-14 08:00",57.0718,-155.9669,TRUE,FALSE,TRUE,"S251570112",NA
"517","glwgul","Glaucous-winged Gull","Larus glaucescens","L14819899","Homer--Lighthouse Village","2025-06-14 07:53",59.6374736,-151.5015069,TRUE,FALSE,FALSE,"S250240971",1
"518","glwgul","Glaucous-winged Gull","Larus glaucescens","L47642416","Auto selected 56.76244, -154.28565","2025-06-14 07:48",56.76244,-154.28565,TRUE,FALSE,TRUE,"S250436783",6
"519","glwgul","Glaucous-winged Gull","Larus glaucescens","L40138399","Magnuson Waterfront St 4","2025-06-14 07:43",47.6768,-122.2496,TRUE,FALSE,TRUE,"S250857423",1
"520","glwgul","Glaucous-winged Gull","Larus glaucescens","L28387189","Friday Harbor--Town","2025-06-14 07:32",48.5333939,-123.0174755,TRUE,FALSE,FALSE,"S250420439",6
"521","glwgul","Glaucous-winged Gull","Larus glaucescens","L47397988","18260 SR-3, Allyn US-WA (47.3802,-122.8304)","2025-06-14 07:30",47.380181,-122.830412,TRUE,FALSE,TRUE,"S250201721",9
"522","glwgul","Glaucous-winged Gull","Larus glaucescens","L9427244","Chevy Chase Cabins 3710 South Discovery Road, Port Townsend, Washington, US (48.053, -122.844)","2025-06-14 06:48",48.0529193,-122.8441471,TRUE,FALSE,TRUE,"S250180921",1
"523","glwgul","Glaucous-winged Gull","Larus glaucescens","L22153701","Bellingham Boardwalk","2025-06-14 06:43",48.7303793,-122.5038135,TRUE,FALSE,FALSE,"S250192584",4
"524","glwgul","Glaucous-winged Gull","Larus glaucescens","L1045188","Skagway--Yakutania Point trail","2025-06-14 05:56",59.4528845,-135.3356838,TRUE,FALSE,FALSE,"S250212644",2
"525","glwgul","Glaucous-winged Gull","Larus glaucescens","L781318","Gustavus--Forelands","2025-06-14 05:00",58.4121436,-135.724411,TRUE,FALSE,FALSE,"S250337618",40
"526","glwgul","Glaucous-winged Gull","Larus glaucescens","L5578408","Kenai Fjords NP--Exit Glacier Nature Center","2025-06-13 20:37",60.1883826,-149.6311375,TRUE,FALSE,FALSE,"S250073834",1
"527","glwgul","Glaucous-winged Gull","Larus glaucescens","L47551548","Sand Dollar Beach Area","2025-06-13 20:14",55.3421004,-160.4431901,TRUE,FALSE,TRUE,"S250060255",5
"528","glwgul","Glaucous-winged Gull","Larus glaucescens","L30305415","Auto selected 56.28320, -154.56357","2025-06-13 19:46",56.283201,-154.563571,TRUE,FALSE,TRUE,"S250060458",4
"529","glwgul","Glaucous-winged Gull","Larus glaucescens","L857123","Siuslaw River--Rhododendron Dr.","2025-06-13 19:23",43.9886309,-124.1194153,TRUE,FALSE,FALSE,"S250795766",3
"530","glwgul","Glaucous-winged Gull","Larus glaucescens","L30316695","Auto selected 56.37569, -154.22257","2025-06-13 18:33",56.375689,-154.222574,TRUE,FALSE,TRUE,"S250045887",5
"531","glwgul","Glaucous-winged Gull","Larus glaucescens","L4944874","Olympic NP--Second Beach","2025-06-13 18:04",47.8903918,-124.627018,TRUE,FALSE,FALSE,"S250046760",7
"532","glwgul","Glaucous-winged Gull","Larus glaucescens","L235280","Larrabee State Park","2025-06-13 17:52",48.6515,-122.4933833,TRUE,FALSE,FALSE,"S250029861",1
"533","glwgul","Glaucous-winged Gull","Larus glaucescens","L47557890","North Pacific Ocean US (56.3847,-153.9289)","2025-06-13 17:33",56.384656,-153.928852,TRUE,FALSE,TRUE,"S250089893",5
"534","glwgul","Glaucous-winged Gull","Larus glaucescens","L1845809","Thea's Park","2025-06-13 17:15",47.2612557,-122.439378,TRUE,FALSE,FALSE,"S250688460",4
"535","glwgul","Glaucous-winged Gull","Larus glaucescens","L3374604","Sekiu","2025-06-13 16:58",48.2643466,-124.300223,TRUE,FALSE,FALSE,"S250372461",NA
"536","glwgul","Glaucous-winged Gull","Larus glaucescens","L464529","Cape Nome","2025-06-13 16:38",64.4353696,-165.0103838,TRUE,FALSE,FALSE,"S250033702",1
"537","glwgul","Glaucous-winged Gull","Larus glaucescens","L2433869","Alsea Bay--Boat Docks","2025-06-13 16:30",44.4348773,-124.0608452,TRUE,FALSE,FALSE,"S250013270",8
"538","glwgul","Glaucous-winged Gull","Larus glaucescens","L5154795","Clinton Ferry Terminal","2025-06-13 16:01",47.975396,-122.3494577,TRUE,FALSE,FALSE,"S250000381",15
"539","glwgul","Glaucous-winged Gull","Larus glaucescens","L47557826","Auto selected 56.67910, -153.63891","2025-06-13 16:00",56.679099,-153.63891,TRUE,FALSE,TRUE,"S250089619",29
"540","glwgul","Glaucous-winged Gull","Larus glaucescens","L596958","Campbell Cove and Hole in the Head - ONLY","2025-06-13 15:50",38.3053873,-123.0577433,TRUE,FALSE,FALSE,"S250025229",1
"541","glwgul","Glaucous-winged Gull","Larus glaucescens","L32953849","Lowell Point Wastewater Treatment Plant","2025-06-13 15:40",60.072466,-149.444503,TRUE,FALSE,FALSE,"S250007549",2
"542","glwgul","Glaucous-winged Gull","Larus glaucescens","L29907558","Duwamish Hill Preserve","2025-06-13 15:34",47.501253,-122.286541,TRUE,FALSE,FALSE,"S250010922",1
"543","glwgul","Glaucous-winged Gull","Larus glaucescens","L878727","Yachats SP","2025-06-13 15:33",44.3104337,-124.1074687,TRUE,FALSE,FALSE,"S249993661",9
"544","glwgul","Glaucous-winged Gull","Larus glaucescens","L4930859","Sitka Sedge State Natural Area","2025-06-13 14:59",45.2641693,-123.9605749,TRUE,FALSE,FALSE,"S250143218",1
"545","glwgul","Glaucous-winged Gull","Larus glaucescens","L740289","Olympic NP--Beach 2","2025-06-13 14:38",47.5912886,-124.3673372,TRUE,FALSE,FALSE,"S249994738",1
"546","glwgul","Glaucous-winged Gull","Larus glaucescens","L266759","Elwha River mouth","2025-06-13 14:22",48.1463653,-123.5648155,TRUE,FALSE,FALSE,"S250826662",127
"547","glwgul","Glaucous-winged Gull","Larus glaucescens","L655604","Santa Barbara Harbor--general","2025-06-13 14:20",34.4078515,-119.6898863,TRUE,FALSE,FALSE,"S250033121",1
"548","glwgul","Glaucous-winged Gull","Larus glaucescens","L20643239","Edmonds Marina","2025-06-13 14:18",47.8079405,-122.3924276,TRUE,FALSE,FALSE,"S250029204",1
"549","glwgul","Glaucous-winged Gull","Larus glaucescens","L1270860","Sharpe Park & Montgomery-Duban Headlands","2025-06-13 14:15",48.4325037,-122.6693916,TRUE,FALSE,FALSE,"S249990700",4
"550","glwgul","Glaucous-winged Gull","Larus glaucescens","L14884128","US-101, Sequim US-WA 48.07335, -123.12914","2025-06-13 14:08",48.073354,-123.129137,TRUE,FALSE,TRUE,"S249968616",1
"551","glwgul","Glaucous-winged Gull","Larus glaucescens","L14435762","720 W Washington St, Sequim US-WA 48.08000, -123.11924","2025-06-13 14:03",48.080004,-123.119237,TRUE,FALSE,TRUE,"S249967754",1
"552","glwgul","Glaucous-winged Gull","Larus glaucescens","L31133174","NUWC Division Keyport (restricted)","2025-06-13 14:00",47.6957254,-122.6242018,TRUE,FALSE,TRUE,"S250053844",5
"553","glwgul","Glaucous-winged Gull","Larus glaucescens","L47887059","Agattu Island US-AK (52.4394,173.4770)","2025-06-13 14:00",52.43944,173.477002,TRUE,FALSE,TRUE,"S251558132",8
"554","glwgul","Glaucous-winged Gull","Larus glaucescens","L343249","Stanwood Water Treatment Plant","2025-06-13 13:41",48.2377017,-122.3611822,TRUE,FALSE,FALSE,"S249978546",1
"555","glwgul","Glaucous-winged Gull","Larus glaucescens","L47552394","Auto selected 59.60961, -151.38583","2025-06-13 13:25",59.609614,-151.385833,TRUE,FALSE,TRUE,"S250064842",2
"556","glwgul","Glaucous-winged Gull","Larus glaucescens","L2155797","Homer Spit--Boat Harbor entrance","2025-06-13 13:16",59.6038316,-151.415205,TRUE,FALSE,FALSE,"S250064755",21
"557","glwgul","Glaucous-winged Gull","Larus glaucescens","L30318124","Auto selected 57.04869, -153.49309","2025-06-13 12:56",57.048689,-153.493092,TRUE,FALSE,TRUE,"S250089752",3
"558","glwgul","Glaucous-winged Gull","Larus glaucescens","L889837","Humboldt pelagic--Humboldt Bay portion only","2025-06-13 12:55",40.7585725,-124.2123591,TRUE,FALSE,FALSE,"S249969124",4
"559","glwgul","Glaucous-winged Gull","Larus glaucescens","L633652","Cap Santé Park","2025-06-13 12:54",48.5134773,-122.6010704,TRUE,FALSE,FALSE,"S249950764",NA
"560","glwgul","Glaucous-winged Gull","Larus glaucescens","L47525205","Auto selected 48.19961, -122.75003","2025-06-13 12:50",48.199606,-122.750035,TRUE,FALSE,TRUE,"S249947332",5
"561","glwgul","Glaucous-winged Gull","Larus glaucescens","L5755318","US-Washington-Seabeck-15376 Seabeck Highway Northwest - 47.641x-122.829","2025-06-13 12:33",47.6413531,-122.8291731,TRUE,FALSE,TRUE,"S249952778",33
"562","glwgul","Glaucous-winged Gull","Larus glaucescens","L47528138","Dimond Center Dr, Anchorage US-AK (61.1447,-149.8716)","2025-06-13 12:31",61.144684,-149.871573,TRUE,FALSE,TRUE,"S249959320",1
"563","glwgul","Glaucous-winged Gull","Larus glaucescens","L4967446","Double Bluff County Park","2025-06-13 12:24",47.9797949,-122.5154761,TRUE,FALSE,FALSE,"S249973049",9
"564","glwgul","Glaucous-winged Gull","Larus glaucescens","L24749296","Jefferson Beach Estates neighborhood","2025-06-13 11:54",47.747074,-122.479038,TRUE,FALSE,TRUE,"S249961467",2
"565","glwgul","Glaucous-winged Gull","Larus glaucescens","L47523980","Admiralty Inlet, Port Townsend US-WA 48.09802, -122.67082","2025-06-13 11:27",48.098024,-122.670817,TRUE,FALSE,TRUE,"S249941974",100
"566","glwgul","Glaucous-winged Gull","Larus glaucescens","L1967972","Allyn Waterfront Park","2025-06-13 10:51",47.3845417,-122.8267729,TRUE,FALSE,FALSE,"S249912180",1
"567","glwgul","Glaucous-winged Gull","Larus glaucescens","L329541","Half Moon Bay SB--Venice Beach and Pilarcitos/Frenchman's Creek Mouth","2025-06-13 10:48",37.4770523,-122.4492789,TRUE,FALSE,FALSE,"S249926709",1
"568","glwgul","Glaucous-winged Gull","Larus glaucescens","L47540229","Auto selected 59.63293, -149.60000","2025-06-13 10:24",59.632933,-149.600002,TRUE,FALSE,TRUE,"S250009186",100
"569","glwgul","Glaucous-winged Gull","Larus glaucescens","L869260","Arness Roadside Park, Kingston","2025-06-13 10:17",47.7944183,-122.5063992,TRUE,FALSE,FALSE,"S249899900",1
