"","speciesCode","comName","sciName","locId","locName","obsDt","howMany","lat","lng","obsValid","obsReviewed","locationPrivate","subId"
"1","bktspa","Black-throated Sparrow","Amphispiza bilineata","L47075556","81525, Mack US-CO 39.30668, -109.00282","2025-06-07 16:53",1,39.306684,-109.002815,TRUE,FALSE,TRUE,"S247883016"
"2","bktspa","Black-throated Sparrow","Amphispiza bilineata","L10235391","1188 YardBirds, Green Valley US-AZ (31.8562,-110.9608)","2025-06-07 14:17",1,31.8561598,-110.9606013,TRUE,FALSE,TRUE,"S247874631"
"3","bktspa","Black-throated Sparrow","Amphispiza bilineata","L47061049","Arc Site Trl Part 2, Carlsbad US-NM 32.18752, -104.42136","2025-06-07 14:03",1,32.187521,-104.421362,TRUE,FALSE,TRUE,"S247823085"
"4","bktspa","Black-throated Sparrow","Amphispiza bilineata","L47059830","Zion Ranch","2025-06-07 13:44",1,37.226916,-113.114965,TRUE,FALSE,TRUE,"S247818535"
"5","bktspa","Black-throated Sparrow","Amphispiza bilineata","L284044","Lost Dutchman SP","2025-06-07 13:33",1,33.459,-111.482,TRUE,FALSE,FALSE,"S247836380"
"6","bktspa","Black-throated Sparrow","Amphispiza bilineata","L1047293","Bangs Canyon RA--Little Park Trailhead","2025-06-07 13:00",2,39.0182028,-108.6096063,TRUE,FALSE,FALSE,"S247799651"
"7","bktspa","Black-throated Sparrow","Amphispiza bilineata","L357591","Saguaro Lake--Butcher Jones Beach","2025-06-07 11:59",2,33.5758784,-111.5154147,TRUE,FALSE,FALSE,"S247811345"
"8","bktspa","Black-throated Sparrow","Amphispiza bilineata","L47057452","Mount Charleston, Nevada, US (36.274, -115.52)","2025-06-07 11:47",1,36.2744281,-115.5197851,TRUE,FALSE,TRUE,"S247809337"
"9","bktspa","Black-throated Sparrow","Amphispiza bilineata","L9101671","South Llano River SP--Juniper blind","2025-06-07 11:37",1,30.4451176,-99.7978554,TRUE,FALSE,FALSE,"S247761110"
"10","bktspa","Black-throated Sparrow","Amphispiza bilineata","L1841236","El Paso Museum of Archaeology Nature Trails","2025-06-07 10:40",1,31.9034838,-106.4480838,TRUE,FALSE,FALSE,"S247746261"
"11","bktspa","Black-throated Sparrow","Amphispiza bilineata","L11550372","Notch Peak Trailhead","2025-06-07 10:30",3,39.128056,-113.364028,TRUE,FALSE,FALSE,"S247876047"
"12","bktspa","Black-throated Sparrow","Amphispiza bilineata","L263942","Christmas Mountains Oasis (access by permission only)","2025-06-07 10:30",1,29.4917768,-103.4670389,TRUE,FALSE,FALSE,"S247738088"
"13","bktspa","Black-throated Sparrow","Amphispiza bilineata","L18341698","Jouflas CG","2025-06-07 10:16",3,39.1759757,-109.0222181,TRUE,FALSE,FALSE,"S247734294"
"14","bktspa","Black-throated Sparrow","Amphispiza bilineata","L47048369","Horse collar trail Bridge View Drive, Lake Powell, Utah, US (37.612, -110.015)","2025-06-07 10:15",2,37.6118701,-110.0153134,TRUE,FALSE,TRUE,"S247774718"
"15","bktspa","Black-throated Sparrow","Amphispiza bilineata","L15924870","Fort Leaton State Historic Site, Presidio US-TX 29.54277, -104.32680","2025-06-07 10:11",3,29.542772,-104.326805,TRUE,FALSE,TRUE,"S247802491"
"16","bktspa","Black-throated Sparrow","Amphispiza bilineata","L1085254","Hickison Petroglyph Recreation Area","2025-06-07 10:00",1,39.4493503,-116.7517519,TRUE,FALSE,FALSE,"S247887162"
"17","bktspa","Black-throated Sparrow","Amphispiza bilineata","L47050076","Panum Crater Rim Trail, Lee Vining US-CA 37.92569, -119.04894","2025-06-07 09:53",2,37.925686,-119.048944,TRUE,FALSE,TRUE,"S247780997"
"18","bktspa","Black-throated Sparrow","Amphispiza bilineata","L47050101","Arches NP--Skyline Arch","2025-06-07 09:47",3,38.772077,-109.590831,TRUE,FALSE,TRUE,"S247781091"
"19","bktspa","Black-throated Sparrow","Amphispiza bilineata","L39407676","Tanque Verde Ranch (please check in @ reception office)","2025-06-07 09:46",4,32.2420804,-110.6842503,TRUE,FALSE,FALSE,"S247771300"
"20","bktspa","Black-throated Sparrow","Amphispiza bilineata","L525250","Snow Canyon SP","2025-06-07 09:44",2,37.2122847,-113.6412048,TRUE,FALSE,FALSE,"S247743937"
"21","bktspa","Black-throated Sparrow","Amphispiza bilineata","L5606455","San Angelo SP--South Unit--Bird Blind area","2025-06-07 09:40",1,31.4669145,-100.5013617,TRUE,FALSE,FALSE,"S247725852"
"22","bktspa","Black-throated Sparrow","Amphispiza bilineata","L342632","Fish Slough","2025-06-07 09:36",3,37.5170667,-118.4006222,TRUE,FALSE,FALSE,"S247790028"
"23","bktspa","Black-throated Sparrow","Amphispiza bilineata","L47031928","Arches NP--Salt Valley Overlook","2025-06-07 09:20",1,38.74035,-109.571212,TRUE,FALSE,TRUE,"S247710395"
"24","bktspa","Black-throated Sparrow","Amphispiza bilineata","L46991181","Desert Lakes park","2025-06-07 09:15",1,35.0028166,-117.6932609,TRUE,FALSE,TRUE,"S247867971"
"25","bktspa","Black-throated Sparrow","Amphispiza bilineata","L43095469","Horsethief Canyon SWA--East (Blind 1 to eastern boundary)","2025-06-07 09:06",2,39.1545604,-108.7684625,TRUE,FALSE,FALSE,"S247754811"
"26","bktspa","Black-throated Sparrow","Amphispiza bilineata","L503119","Enchanted Rock SNA (Llano Co.)","2025-06-07 08:58",9,30.5048635,-98.817687,TRUE,FALSE,FALSE,"S247811498"
"27","bktspa","Black-throated Sparrow","Amphispiza bilineata","L47055391","BBS 40","2025-06-07 08:57",1,37.364892,-114.546731,TRUE,FALSE,TRUE,"S247801666"
"28","bktspa","Black-throated Sparrow","Amphispiza bilineata","L47059524","RM-469 bridge","2025-06-07 08:50",1,28.446912,-99.000176,TRUE,FALSE,TRUE,"S247817432"
"29","bktspa","Black-throated Sparrow","Amphispiza bilineata","L334691","Petroglyph NM--Rinconada Canyon","2025-06-07 08:47",2,35.126971,-106.7246083,TRUE,FALSE,FALSE,"S247723520"
"30","bktspa","Black-throated Sparrow","Amphispiza bilineata","L20329824","Oro Valley Home (private)","2025-06-07 08:43",1,32.4330004,-110.9912966,TRUE,FALSE,TRUE,"S247857430"
"31","bktspa","Black-throated Sparrow","Amphispiza bilineata","L689527","Sabino Dam and downstream riparian","2025-06-07 08:37",2,32.3131068,-110.8113941,TRUE,FALSE,FALSE,"S247750602"
"32","bktspa","Black-throated Sparrow","Amphispiza bilineata","L47055301","BBS 36","2025-06-07 08:31",1,37.391901,-114.559088,TRUE,FALSE,TRUE,"S247801326"
"33","bktspa","Black-throated Sparrow","Amphispiza bilineata","L11830913","Mono Lake Tufa State Natural Reserve--Panum Crater","2025-06-07 08:30",1,37.925269,-119.049638,TRUE,FALSE,FALSE,"S247708850"
"34","bktspa","Black-throated Sparrow","Amphispiza bilineata","L281121","Red Rock WMA","2025-06-07 08:30",4,32.6906271,-108.73745,TRUE,FALSE,FALSE,"S247858894"
"35","bktspa","Black-throated Sparrow","Amphispiza bilineata","L1115897","Canoa Ranch Conservation Park","2025-06-07 08:30",1,31.7948045,-111.0156226,TRUE,FALSE,FALSE,"S247747850"
"36","bktspa","Black-throated Sparrow","Amphispiza bilineata","L13526336","Home  back porch, Tonto Basin, AZ (33.8606,-111.2939)","2025-06-07 08:30",2,33.860554,-111.293872,TRUE,FALSE,TRUE,"S247741378"
"37","bktspa","Black-throated Sparrow","Amphispiza bilineata","L281844","Montosa Canyon--km 1 (culvert area)","2025-06-07 08:27",2,31.6714585,-110.941082,TRUE,FALSE,FALSE,"S247801075"
"38","bktspa","Black-throated Sparrow","Amphispiza bilineata","L47061585","11 Pines Rd, Foresthill US-CA 38.95750, -120.48723","2025-06-07 08:26",4,38.9575,-120.48723,TRUE,TRUE,TRUE,"S247825036"
"39","bktspa","Black-throated Sparrow","Amphispiza bilineata","L22117588","Hammil willows","2025-06-07 08:24",3,37.6160883,-118.4006263,TRUE,FALSE,FALSE,"S247790182"
"40","bktspa","Black-throated Sparrow","Amphispiza bilineata","L19524370","1867 S Deer Park Cir, Grand Junction US-CO 39.10401, -108.70336","2025-06-07 08:23",1,39.104008,-108.703362,TRUE,FALSE,TRUE,"S247694147"
"41","bktspa","Black-throated Sparrow","Amphispiza bilineata","L860522","Organ Mountains-Desert Peaks NM--Soledad Canyon Day Use Area","2025-06-07 08:10",6,32.305044,-106.5930891,TRUE,FALSE,FALSE,"S247832350"
"42","bktspa","Black-throated Sparrow","Amphispiza bilineata","L27373176","Allen-Mathis Home, Hereford, Arizona, US (31.424, -110.126)","2025-06-07 08:07",2,31.4240896,-110.1256971,TRUE,FALSE,TRUE,"S247711758"
"43","bktspa","Black-throated Sparrow","Amphispiza bilineata","L27405275","Circle K, MISSION & 36th St.","2025-06-07 08:05",1,32.1916999,-110.9994596,TRUE,FALSE,TRUE,"S247698994"
"44","bktspa","Black-throated Sparrow","Amphispiza bilineata","L47029984","Red Rock Canyon Road, Blue Diamond, Nevada, US (36.062, -115.431)","2025-06-07 08:01",1,36.0622773,-115.4307121,TRUE,FALSE,TRUE,"S247702870"
"45","bktspa","Black-throated Sparrow","Amphispiza bilineata","L420195","Big Morongo Canyon Preserve & Covington Park","2025-06-07 08:00",2,34.0497222,-116.5702639,TRUE,FALSE,FALSE,"S247771704"
"46","bktspa","Black-throated Sparrow","Amphispiza bilineata","L1542608","Arches NP--Balanced Rock","2025-06-07 07:58",1,38.7016981,-109.566196,TRUE,FALSE,FALSE,"S247666370"
"47","bktspa","Black-throated Sparrow","Amphispiza bilineata","L1735043","Saguaro NP--East--Cactus Forest Dr Loop","2025-06-07 07:58",8,32.191219,-110.7076505,TRUE,FALSE,FALSE,"S247774720"
"48","bktspa","Black-throated Sparrow","Amphispiza bilineata","L14905305","Oliver Lee Memorial SP--Dog Canyon Trail","2025-06-07 07:56",2,32.7481534,-105.9133505,TRUE,FALSE,FALSE,"S247732168"
"49","bktspa","Black-throated Sparrow","Amphispiza bilineata","L16238788","La Paloma","2025-06-07 07:53",1,27.8639052,-98.4210248,TRUE,FALSE,TRUE,"S247693543"
"50","bktspa","Black-throated Sparrow","Amphispiza bilineata","L2464547","Deer Rd (private)","2025-06-07 07:50",2,31.9214289,-109.1242146,TRUE,FALSE,TRUE,"S247714698"
"51","bktspa","Black-throated Sparrow","Amphispiza bilineata","L1386538","Lake Mountains--Soldiers Pass Rd.","2025-06-07 07:49",4,40.1978113,-111.9699798,TRUE,FALSE,FALSE,"S247783875"
"52","bktspa","Black-throated Sparrow","Amphispiza bilineata","L18254983","RBMS Trails","2025-06-07 07:48",2,26.442663,-98.9269912,TRUE,FALSE,FALSE,"S247714940"
"53","bktspa","Black-throated Sparrow","Amphispiza bilineata","L128879","Arizona-Sonora Desert Museum (please do not report captive birds)","2025-06-07 07:47",1,32.2437113,-111.168125,TRUE,FALSE,FALSE,"S247871191"
"54","bktspa","Black-throated Sparrow","Amphispiza bilineata","L2883481","The Ice House","2025-06-07 07:45",1,31.4920438,-110.9900558,TRUE,FALSE,TRUE,"S247708559"
"55","bktspa","Black-throated Sparrow","Amphispiza bilineata","L47019819","Arches NP--Phallus Pillar","2025-06-07 07:43",4,38.685617,-109.581789,TRUE,FALSE,TRUE,"S247659183"
"56","bktspa","Black-throated Sparrow","Amphispiza bilineata","L387263","Scottsdale Community College","2025-06-07 07:41",3,33.5120588,-111.8850231,TRUE,FALSE,FALSE,"S247828299"
"57","bktspa","Black-throated Sparrow","Amphispiza bilineata","L47055149","BBS 29","2025-06-07 07:40",1,37.437602,-114.567145,TRUE,FALSE,TRUE,"S247800728"
"58","bktspa","Black-throated Sparrow","Amphispiza bilineata","L3642537","Portal--Jasper/Moisan feeders (opened 2015)","2025-06-07 07:35",2,31.9144645,-109.1443118,TRUE,FALSE,FALSE,"S247681258"
"59","bktspa","Black-throated Sparrow","Amphispiza bilineata","L6330471","Two Guns Walnut","2025-06-07 07:32",4,35.1157201,-111.0959709,TRUE,FALSE,TRUE,"S247689085"
"60","bktspa","Black-throated Sparrow","Amphispiza bilineata","L47026070","S Madera Canyon Rd, Green Valley US-AZ 31.75363, -110.88779","2025-06-07 07:29",1,31.753629,-110.887795,TRUE,FALSE,TRUE,"S247686798"
"61","bktspa","Black-throated Sparrow","Amphispiza bilineata","L47055091","BBS 27","2025-06-07 07:28",1,37.451597,-114.572417,TRUE,FALSE,TRUE,"S247800516"
"62","bktspa","Black-throated Sparrow","Amphispiza bilineata","L47055063","BBS 26","2025-06-07 07:23",1,37.459085,-114.573366,TRUE,FALSE,TRUE,"S247800402"
"63","bktspa","Black-throated Sparrow","Amphispiza bilineata","L11095967","Caja del Rio IBA South BLM","2025-06-07 07:21",8,35.5948117,-106.1572627,TRUE,FALSE,FALSE,"S247709659"
"64","bktspa","Black-throated Sparrow","Amphispiza bilineata","L128938","Catalina SP","2025-06-07 07:20",2,32.4244027,-110.9123905,TRUE,FALSE,FALSE,"S247729583"
"65","bktspa","Black-throated Sparrow","Amphispiza bilineata","L21728254","Pistol Hill","2025-06-07 07:15",5,32.0650642,-110.6547667,TRUE,FALSE,TRUE,"S247699959"
"66","bktspa","Black-throated Sparrow","Amphispiza bilineata","L1076656","Babbitt Tank","2025-06-07 07:14",1,35.1236996,-111.1861897,TRUE,FALSE,FALSE,"S247675202"
"67","bktspa","Black-throated Sparrow","Amphispiza bilineata","L1567217","Manzano Open Space","2025-06-07 07:14",2,35.0488556,-106.4770623,TRUE,FALSE,FALSE,"S247685764"
"68","bktspa","Black-throated Sparrow","Amphispiza bilineata","L47061568","11 Pines Rd, Foresthill US-CA","2025-06-07 07:14",2,38.941743,-120.516891,TRUE,TRUE,TRUE,"S247824977"
"69","bktspa","Black-throated Sparrow","Amphispiza bilineata","L3593326","La Sal Del Rey--TX186 Access","2025-06-07 07:09",1,26.5237672,-98.0783056,TRUE,FALSE,FALSE,"S247724615"
"70","bktspa","Black-throated Sparrow","Amphispiza bilineata","L15247130","Casa de Coverdill (Private Residence)","2025-06-07 07:08",1,32.2755781,-110.8335759,TRUE,FALSE,TRUE,"S247727282"
"71","bktspa","Black-throated Sparrow","Amphispiza bilineata","L43601134","Montosa Canyon","2025-06-07 07:08",1,31.6744943,-110.9361897,TRUE,FALSE,TRUE,"S247769100"
"72","bktspa","Black-throated Sparrow","Amphispiza bilineata","L5044127","Green Valley yard","2025-06-07 07:07",1,31.8196182,-111.0124657,TRUE,FALSE,TRUE,"S247706485"
"73","bktspa","Black-throated Sparrow","Amphispiza bilineata","L2593129","Lower Rio Grande Valley NWR--Yturria Tract","2025-06-07 07:05",9,26.2680954,-98.5357557,TRUE,FALSE,FALSE,"S247663851"
"74","bktspa","Black-throated Sparrow","Amphispiza bilineata","L29117391","Arizona National Golf Club, Tucson US-AZ","2025-06-07 07:04",2,32.301393,-110.777901,TRUE,FALSE,TRUE,"S247724468"
"75","bktspa","Black-throated Sparrow","Amphispiza bilineata","L47017728","1760 Colorado 340, Fruita, Colorado, US (39.12, -108.732)","2025-06-07 07:04",4,39.1203254,-108.7318974,TRUE,FALSE,TRUE,"S247649506"
"76","bktspa","Black-throated Sparrow","Amphispiza bilineata","L581981","29 Palms Inn","2025-06-07 07:03",1,34.1298704,-116.0494637,TRUE,FALSE,FALSE,"S247687155"
"77","bktspa","Black-throated Sparrow","Amphispiza bilineata","L43140504","McKelligon Canyon, El Paso US-TX 31.83770, -106.48282","2025-06-07 07:00",1,31.837702,-106.482822,TRUE,FALSE,TRUE,"S247662317"
"78","bktspa","Black-throated Sparrow","Amphispiza bilineata","L1657051","Colorado NM--Devil's Kitchen Trail","2025-06-07 07:00",5,39.031774,-108.630829,TRUE,FALSE,FALSE,"S247779450"
"79","bktspa","Black-throated Sparrow","Amphispiza bilineata","L46911319","Serenity (private residence)","2025-06-07 06:56",1,31.842021,-109.074743,TRUE,FALSE,TRUE,"S247664550"
"80","bktspa","Black-throated Sparrow","Amphispiza bilineata","L169112","Hassayampa River Preserve","2025-06-07 06:54",4,33.9333419,-112.6946297,TRUE,FALSE,FALSE,"S247755932"
"81","bktspa","Black-throated Sparrow","Amphispiza bilineata","L4409542","Escalante Canyon Road--Hwy 50 to RR tracks","2025-06-07 06:53",2,38.7696772,-108.2449436,TRUE,FALSE,FALSE,"S247855001"
"82","bktspa","Black-throated Sparrow","Amphispiza bilineata","L1235633","Colorado NM--West Entrance Area","2025-06-07 06:52",3,39.1178084,-108.7207031,TRUE,FALSE,FALSE,"S247688803"
"83","bktspa","Black-throated Sparrow","Amphispiza bilineata","L47019781","Fields-Denio ephemeral pool","2025-06-07 06:47",3,42.1041,-118.576587,TRUE,FALSE,TRUE,"S247659032"
"84","bktspa","Black-throated Sparrow","Amphispiza bilineata","L47054779","BBS 19","2025-06-07 06:39",1,37.503616,-114.579433,TRUE,FALSE,TRUE,"S247799392"
"85","bktspa","Black-throated Sparrow","Amphispiza bilineata","L6718077","3 Canyons Ranch (west of Deer Ridge Trail)","2025-06-07 06:37",10,31.4089416,-110.2331257,TRUE,FALSE,TRUE,"S247731097"
"86","bktspa","Black-throated Sparrow","Amphispiza bilineata","L47039089","road near camp creek","2025-06-07 06:30",1,33.914,-111.818,TRUE,FALSE,TRUE,"S247736765"
"87","bktspa","Black-throated Sparrow","Amphispiza bilineata","L46988824","Lost Dutchmam SP Campground  Apache Junction, Arizona, US (33.456, -111.482)","2025-06-07 06:30",3,33.4564564,-111.481606,TRUE,FALSE,TRUE,"S247710748"
"88","bktspa","Black-throated Sparrow","Amphispiza bilineata","L286268","Sevilleta NWR","2025-06-07 06:25",2,34.3918165,-106.8736926,TRUE,FALSE,FALSE,"S247800305"
"89","bktspa","Black-throated Sparrow","Amphispiza bilineata","L1034257","Rillito River--Swan Rd to Columbus Blvd","2025-06-07 06:25",1,32.2723779,-110.8963541,TRUE,FALSE,TRUE,"S247661203"
"90","bktspa","Black-throated Sparrow","Amphispiza bilineata","L29872180","93514, Bishop US-CA 37.33095, -118.41879","2025-06-07 06:22",7,37.330955,-118.418791,TRUE,FALSE,TRUE,"S247666298"
"91","bktspa","Black-throated Sparrow","Amphispiza bilineata","L875490","Hillsboro (town)","2025-06-07 06:11",3,32.9207363,-107.5675249,TRUE,FALSE,FALSE,"S247702197"
"92","bktspa","Black-throated Sparrow","Amphispiza bilineata","L47025020","Mica View Access Rd, Tucson US-AZ 32.20531, -110.72963","2025-06-07 06:11",1,32.205308,-110.729626,TRUE,FALSE,TRUE,"S247682191"
"93","bktspa","Black-throated Sparrow","Amphispiza bilineata","L33094279","Humboldt-Toiyabe National Forest, Verdi US-NV 39.48567, -119.96846","2025-06-07 06:10",3,39.485669,-119.968455,TRUE,FALSE,TRUE,"S247769770"
"94","bktspa","Black-throated Sparrow","Amphispiza bilineata","L16465694","Placita Salud","2025-06-07 06:07",5,32.3103179,-110.8849909,TRUE,FALSE,TRUE,"S247692199"
"95","bktspa","Black-throated Sparrow","Amphispiza bilineata","L44891255","Rock Canyon - Sunrise","2025-06-07 05:57",3,32.3013936,-110.8473048,TRUE,FALSE,TRUE,"S247636080"
"96","bktspa","Black-throated Sparrow","Amphispiza bilineata","L128958","San Pedro RNCA--Escapule Wash","2025-06-07 05:54",2,31.6100006,-110.1669998,TRUE,FALSE,FALSE,"S247702720"
"97","bktspa","Black-throated Sparrow","Amphispiza bilineata","L21119825","Stephen’s 9461 E Ramsey Rd, Sierra Vista US-AZ 31.46771, -110.15274","2025-06-07 05:49",3,31.467714,-110.152735,TRUE,FALSE,TRUE,"S247628735"
"98","bktspa","Black-throated Sparrow","Amphispiza bilineata","L774996","Rillito River Park--Columbus Weed Patch","2025-06-07 05:46",1,32.2732364,-110.9032059,TRUE,FALSE,FALSE,"S247645461"
"99","bktspa","Black-throated Sparrow","Amphispiza bilineata","L9968763","Double B Ranchito","2025-06-07 05:43",1,31.40989,-110.22613,TRUE,FALSE,TRUE,"S247681157"
"100","bktspa","Black-throated Sparrow","Amphispiza bilineata","L267156","Christopher Columbus Park (soon to be Danny Lopez Park)","2025-06-07 05:40",1,32.2856814,-111.0346556,TRUE,TRUE,FALSE,"S247727673"
"101","bktspa","Black-throated Sparrow","Amphispiza bilineata","L47017542","8453 South X9 Ranch Road, Vail, Arizona, US (32.091, -110.653)","2025-06-07 05:39",1,32.0908078,-110.6525076,TRUE,FALSE,TRUE,"S247648794"
"102","bktspa","Black-throated Sparrow","Amphispiza bilineata","L350281","El Rio Open Space Preserve","2025-06-07 05:37",1,32.392141,-111.1384898,TRUE,FALSE,FALSE,"S247694803"
"103","bktspa","Black-throated Sparrow","Amphispiza bilineata","L47054340","BBS 8","2025-06-07 05:31",1,37.568558,-114.550138,TRUE,FALSE,TRUE,"S247797739"
"104","bktspa","Black-throated Sparrow","Amphispiza bilineata","L47041648","Jacumba National Cooperative Land and Wildlife Management Area, Jacumba US-CA 32.62510, -116.14256","2025-06-07 05:30",4,32.625101,-116.14256,TRUE,FALSE,TRUE,"S247748870"
"105","bktspa","Black-throated Sparrow","Amphispiza bilineata","L31379998","Great Basin NP Employee Housing-restricted Area","2025-06-07 05:25",1,39.0168528,-114.1245645,TRUE,FALSE,TRUE,"S247616975"
"106","bktspa","Black-throated Sparrow","Amphispiza bilineata","L18374697","Neighborhood","2025-06-07 05:19",1,32.299102,-110.835621,TRUE,FALSE,TRUE,"S247657074"
"107","bktspa","Black-throated Sparrow","Amphispiza bilineata","L211809","Madera Canyon--Proctor Rd.","2025-06-07 05:18",1,31.739938,-110.886147,TRUE,FALSE,FALSE,"S247754766"
"108","bktspa","Black-throated Sparrow","Amphispiza bilineata","L281052","Elephant Butte Lake SP--South Monticello Point","2025-06-07 05:16",3,33.2971201,-107.1783553,TRUE,FALSE,FALSE,"S247597999"
"109","bktspa","Black-throated Sparrow","Amphispiza bilineata","L291549","Rabbit Valley","2025-06-07 05:14",3,39.187059,-109.019087,TRUE,FALSE,FALSE,"S247882936"
"110","bktspa","Black-throated Sparrow","Amphispiza bilineata","L6094784","Smoke Creek Ranch Rd.","2025-06-07 04:44",6,40.4855224,-120.1871789,TRUE,FALSE,FALSE,"S247628466"
"111","bktspa","Black-throated Sparrow","Amphispiza bilineata","L46987000","84775, Torrey US-UT 38.30273, -111.44442","2025-06-06 20:24",2,38.302734,-111.444419,TRUE,FALSE,TRUE,"S247507086"
"112","bktspa","Black-throated Sparrow","Amphispiza bilineata","L46988412","Scott’s Oriole Spot Off 4 Road","2025-06-06 20:05",7,39.306644,-109.002786,TRUE,FALSE,TRUE,"S247513128"
"113","bktspa","Black-throated Sparrow","Amphispiza bilineata","L46991342","Nightjar Survey, Night Two","2025-06-06 19:35",1,34.856834,-111.914336,TRUE,FALSE,TRUE,"S247525766"
"114","bktspa","Black-throated Sparrow","Amphispiza bilineata","L340405","Box Canyon","2025-06-06 19:34",2,31.7974086,-110.7868486,TRUE,FALSE,FALSE,"S247730571"
"115","bktspa","Black-throated Sparrow","Amphispiza bilineata","L7945206","South Llano River SP--Lora’s Bird Blind","2025-06-06 19:23",1,30.4394455,-99.8107186,TRUE,FALSE,FALSE,"S247488255"
"116","bktspa","Black-throated Sparrow","Amphispiza bilineata","L46986984","8636 North Avenue Del Sol, Paradise Valley, Arizona, US (33.564, -111.965)","2025-06-06 19:01",2,33.563959,-111.9646995,TRUE,FALSE,TRUE,"S247507027"
"117","bktspa","Black-throated Sparrow","Amphispiza bilineata","L46989798","E Box Canyon Rd, Sahuarita US-AZ 31.79918, -110.79760","2025-06-06 18:39",1,31.799175,-110.797599,TRUE,FALSE,TRUE,"S247519075"
"118","bktspa","Black-throated Sparrow","Amphispiza bilineata","L2236250","Lee Vining Creek Trail","2025-06-06 18:33",1,37.9578482,-119.1170668,TRUE,FALSE,FALSE,"S247513344"
"119","bktspa","Black-throated Sparrow","Amphispiza bilineata","L47055517","ninemile bay","2025-06-06 18:28",1,40.05382,-119.680941,TRUE,FALSE,TRUE,"S247802148"
"120","bktspa","Black-throated Sparrow","Amphispiza bilineata","L46988401","2401 S Rock House Rd, San Simon US-AZ 31.91166, -109.14332","2025-06-06 18:05",2,31.911661,-109.143321,TRUE,FALSE,TRUE,"S247513083"
"121","bktspa","Black-throated Sparrow","Amphispiza bilineata","L732337","Malheur NWR--Field Station","2025-06-06 18:00",1,43.2438272,-118.894558,TRUE,FALSE,FALSE,"S247514748"
"122","bktspa","Black-throated Sparrow","Amphispiza bilineata","L25165425","Basin ORV Area","2025-06-06 17:40",2,35.0972801,-116.2657299,TRUE,FALSE,TRUE,"S247528494"
"123","bktspa","Black-throated Sparrow","Amphispiza bilineata","L10015824","(38.6223,-109.3450)","2025-06-06 17:30",1,38.622301,-109.34498,TRUE,FALSE,TRUE,"S247482791"
"124","bktspa","Black-throated Sparrow","Amphispiza bilineata","L994658","Portal--Bob Rodrigues yard (Dave Jasper's old yard)","2025-06-06 17:19",5,31.921224,-109.1282621,TRUE,FALSE,FALSE,"S247487729"
"125","bktspa","Black-throated Sparrow","Amphispiza bilineata","L46987701","89406, Fallon US-NV (39.6221,-117.7703)","2025-06-06 16:41",13,39.622093,-117.770323,TRUE,FALSE,TRUE,"S247509875"
"126","bktspa","Black-throated Sparrow","Amphispiza bilineata","L46983158","Seven Oaks Drive, Hereford, Arizona, US (31.407, -110.233)","2025-06-06 16:23",1,31.407458,-110.2333238,TRUE,FALSE,TRUE,"S247490496"
"127","bktspa","Black-throated Sparrow","Amphispiza bilineata","L36448622","Wyasket Bottom, Ouray NWR","2025-06-06 14:31",2,40.13917,-109.614298,TRUE,FALSE,TRUE,"S247531619"
"128","bktspa","Black-throated Sparrow","Amphispiza bilineata","L47012723","84532, Moab US-UT (38.5673,-109.4443)","2025-06-06 13:33",1,38.567291,-109.444295,TRUE,FALSE,TRUE,"S247624604"
"129","bktspa","Black-throated Sparrow","Amphispiza bilineata","L46967048","Unnamed Road","2025-06-06 13:28",2,39.1894826,-109.0316475,TRUE,FALSE,TRUE,"S247415122"
"130","bktspa","Black-throated Sparrow","Amphispiza bilineata","L128982","Guadalupe Mts. NP--Pine Springs (incl. Visitor Ctr)","2025-06-06 13:22",1,31.896,-104.822,TRUE,FALSE,FALSE,"S247500566"
"131","bktspa","Black-throated Sparrow","Amphispiza bilineata","L2954201","Las Cienegas NCA--Cottonwood Tanks","2025-06-06 12:34",2,31.761537,-110.6195044,TRUE,FALSE,FALSE,"S247521553"
"132","bktspa","Black-throated Sparrow","Amphispiza bilineata","L46952351","FM-2092 (30.897, -99.664)","2025-06-06 12:05",1,30.8974864,-99.6643456,TRUE,FALSE,TRUE,"S247351207"
"133","bktspa","Black-throated Sparrow","Amphispiza bilineata","L2223969","Post Road, Marathon","2025-06-06 11:54",4,30.1704338,-103.2588243,TRUE,FALSE,FALSE,"S247454146"
"134","bktspa","Black-throated Sparrow","Amphispiza bilineata","L46971845","81525, Mack US-CO 39.30661, -109.00342","2025-06-06 11:22",1,39.30661,-109.00342,TRUE,FALSE,TRUE,"S247437014"
"135","bktspa","Black-throated Sparrow","Amphispiza bilineata","L268758","Cameo & Coal Canyon","2025-06-06 11:12",7,39.1550275,-108.3274215,TRUE,FALSE,FALSE,"S247419263"
"136","bktspa","Black-throated Sparrow","Amphispiza bilineata","L25650663","Dinosaur NM--Visitor Center","2025-06-06 11:10",1,40.4382326,-109.307524,TRUE,FALSE,FALSE,"S247484426"
"137","bktspa","Black-throated Sparrow","Amphispiza bilineata","L46972848","SR-18, Veyo","2025-06-06 11:06",3,37.320288,-113.687508,TRUE,FALSE,TRUE,"S247441447"
"138","bktspa","Black-throated Sparrow","Amphispiza bilineata","L1104695","Scissors Crossing area","2025-06-06 11:00",1,33.1005809,-116.4806421,TRUE,FALSE,FALSE,"S247478489"
"139","bktspa","Black-throated Sparrow","Amphispiza bilineata","L46990999","SBD_Granite Pass","2025-06-06 10:49",2,34.811386,-115.610495,TRUE,FALSE,TRUE,"S247524266"
"140","bktspa","Black-throated Sparrow","Amphispiza bilineata","L18321935","Knowles Overlook CG","2025-06-06 10:47",1,39.135508,-109.028663,TRUE,FALSE,FALSE,"S247414139"
"141","bktspa","Black-throated Sparrow","Amphispiza bilineata","L10345895","New Mexico Center for  Archaeology","2025-06-06 10:42",1,35.6543459,-106.0666844,TRUE,FALSE,FALSE,"S247350995"
"142","bktspa","Black-throated Sparrow","Amphispiza bilineata","L684614","Organ Pipe Cactus NM--Estes Canyon","2025-06-06 10:41",4,32.0193201,-112.7109718,TRUE,FALSE,FALSE,"S247520095"
"143","bktspa","Black-throated Sparrow","Amphispiza bilineata","L2390709","Grand Canyon NP--Bright Angel Trail","2025-06-06 10:31",4,36.072743,-112.1299918,TRUE,FALSE,FALSE,"S247480633"
"144","bktspa","Black-throated Sparrow","Amphispiza bilineata","L46966762","Rabbit Valley Road","2025-06-06 10:19",1,39.1800994,-109.0167585,TRUE,FALSE,TRUE,"S247413806"
"145","bktspa","Black-throated Sparrow","Amphispiza bilineata","L46972790","SR-18, Saint George","2025-06-06 10:13",2,37.215009,-113.632311,TRUE,FALSE,TRUE,"S247441195"
"146","bktspa","Black-throated Sparrow","Amphispiza bilineata","L46989359","CR-447, Gerlach US-NV 40.85911, -119.57417","2025-06-06 10:10",3,40.859107,-119.574174,TRUE,FALSE,TRUE,"S247517159"
"147","bktspa","Black-throated Sparrow","Amphispiza bilineata","L1040130","West Box Canyon Rd--desert scrub/mesquite grasslands","2025-06-06 10:07",3,31.7916584,-110.8193064,TRUE,FALSE,FALSE,"S247516630"
"148","bktspa","Black-throated Sparrow","Amphispiza bilineata","L31519415","Baker Lake Rd, Washington US-UT 37.37681, -113.64166","2025-06-06 10:04",2,37.376812,-113.641655,TRUE,FALSE,TRUE,"S247352308"
"149","bktspa","Black-throated Sparrow","Amphispiza bilineata","L594855","Wupatki NM","2025-06-06 09:59",1,35.5201722,-111.3712607,TRUE,FALSE,FALSE,"S247409094"
"150","bktspa","Black-throated Sparrow","Amphispiza bilineata","L3493183","Jackson Flat Reservoir","2025-06-06 09:51",2,37.0155192,-112.5183892,TRUE,FALSE,FALSE,"S247364772"
"151","bktspa","Black-throated Sparrow","Amphispiza bilineata","L6175589","Market House","2025-06-06 09:49",2,31.603425,-111.046801,TRUE,FALSE,TRUE,"S247781687"
"152","bktspa","Black-throated Sparrow","Amphispiza bilineata","L2418689","Salinas Pueblo Missions NM--Abo Ruins","2025-06-06 09:45",2,34.4497413,-106.376667,TRUE,FALSE,FALSE,"S247522675"
"153","bktspa","Black-throated Sparrow","Amphispiza bilineata","L46966463","Kokopelli Trail","2025-06-06 09:40",3,39.243912,-108.9479379,TRUE,FALSE,TRUE,"S247412652"
"154","bktspa","Black-throated Sparrow","Amphispiza bilineata","L46949668","Madera Canyon Rd--Old Helibase Pulloff","2025-06-06 09:11",2,31.7537531,-110.8874567,TRUE,FALSE,TRUE,"S247340430"
"155","bktspa","Black-throated Sparrow","Amphispiza bilineata","L26661294","Amado Montosa Rd, Amado, AZ (31.708, -111.058)","2025-06-06 09:08",2,31.7078354,-111.0578446,TRUE,FALSE,TRUE,"S247516160"
"156","bktspa","Black-throated Sparrow","Amphispiza bilineata","L20332140","Plumas National Forest, Oroville US-CA (39.8046,-121.4831)","2025-06-06 09:05",4,39.804604,-121.483118,TRUE,TRUE,TRUE,"S247376810"
"157","bktspa","Black-throated Sparrow","Amphispiza bilineata","L1024241","Rio Grande del Norte NM--Orilla Verde Recreation Area","2025-06-06 08:57",1,36.298525,-105.7739639,TRUE,FALSE,FALSE,"S247427593"
"158","bktspa","Black-throated Sparrow","Amphispiza bilineata","L5750423","Rio Mesa Station (restricted access)","2025-06-06 08:40",2,38.7992853,-109.2046978,TRUE,FALSE,FALSE,"S247442552"
"159","bktspa","Black-throated Sparrow","Amphispiza bilineata","L2172197","Peppersauce Canyon--upstream from the CG","2025-06-06 08:35",3,32.53856,-110.72488,TRUE,FALSE,TRUE,"S247405304"
"160","bktspa","Black-throated Sparrow","Amphispiza bilineata","L33345916","85614, Green Valley US-AZ 31.76278, -110.88992","2025-06-06 08:33",3,31.762781,-110.889924,TRUE,FALSE,TRUE,"S247446927"
"161","bktspa","Black-throated Sparrow","Amphispiza bilineata","L128950","Davis Mountains  SP (FWTX 23)","2025-06-06 08:30",1,30.5962706,-103.9347249,TRUE,FALSE,FALSE,"S247313377"
"162","bktspa","Black-throated Sparrow","Amphispiza bilineata","L4468543","LRGV NWR--La Puerta Tract","2025-06-06 08:12",3,26.3444892,-98.7320763,TRUE,FALSE,FALSE,"S247328797"
"163","bktspa","Black-throated Sparrow","Amphispiza bilineata","L15219692","SNL 20","2025-06-06 08:11",2,35.017472,-106.424223,TRUE,FALSE,TRUE,"S247336033"
"164","bktspa","Black-throated Sparrow","Amphispiza bilineata","L189761","Organ Mountains-Desert Peaks NM--Dripping Springs NA","2025-06-06 08:10",3,32.32773,-106.59024,TRUE,FALSE,FALSE,"S247505472"
"165","bktspa","Black-throated Sparrow","Amphispiza bilineata","L1911920","Indian Canyons--Palm Canyon","2025-06-06 08:10",10,33.7379378,-116.5386343,TRUE,FALSE,FALSE,"S247376665"
"166","bktspa","Black-throated Sparrow","Amphispiza bilineata","L39251787","Karen's House SIV","2025-06-06 08:07",2,31.8024001,-111.0215793,TRUE,FALSE,TRUE,"S247329453"
"167","bktspa","Black-throated Sparrow","Amphispiza bilineata","L46968270","Two Guns Winslow","2025-06-06 08:05",4,35.115909,-111.095867,TRUE,FALSE,TRUE,"S247420587"
"168","bktspa","Black-throated Sparrow","Amphispiza bilineata","L15219688","SNL 19","2025-06-06 08:05",1,35.011554,-106.426177,TRUE,FALSE,TRUE,"S247335863"
"169","bktspa","Black-throated Sparrow","Amphispiza bilineata","L6830237","Sunrise Pointe neighborhood","2025-06-06 08:01",2,31.83646,-110.997762,TRUE,FALSE,TRUE,"S247334556"
"170","bktspa","Black-throated Sparrow","Amphispiza bilineata","L269512","Cameron Seep","2025-06-06 08:00",3,35.8753596,-111.4072412,TRUE,FALSE,FALSE,"S247317251"
"171","bktspa","Black-throated Sparrow","Amphispiza bilineata","L15219666","SNL 18","2025-06-06 07:59",2,35.006948,-106.432186,TRUE,FALSE,TRUE,"S247285894"
"172","bktspa","Black-throated Sparrow","Amphispiza bilineata","L15219661","SNL 17","2025-06-06 07:52",1,35.003016,-106.439991,TRUE,FALSE,TRUE,"S247282852"
"173","bktspa","Black-throated Sparrow","Amphispiza bilineata","L280811","The Living Desert Zoo and Gardens","2025-06-06 07:38",1,33.7003681,-116.3735819,TRUE,FALSE,FALSE,"S247344522"
"174","bktspa","Black-throated Sparrow","Amphispiza bilineata","L3824198","US-CA-Kern--Weldon--Kelso Valley--Bird Springs neighborhood","2025-06-06 07:34",2,35.560495,-118.220604,TRUE,FALSE,TRUE,"S247354044"
"175","bktspa","Black-throated Sparrow","Amphispiza bilineata","L15213243","SNL 14","2025-06-06 07:34",2,35.001155,-106.464529,TRUE,FALSE,TRUE,"S247335357"
"176","bktspa","Black-throated Sparrow","Amphispiza bilineata","L46970814","1772–1798 E Shura Ranch Rd, Cisco US-UT 38.80223, -109.27430","2025-06-06 07:33",2,38.802233,-109.274297,TRUE,FALSE,TRUE,"S247432383"
"177","bktspa","Black-throated Sparrow","Amphispiza bilineata","L15213210","SNL 13","2025-06-06 07:30",1,35.00644,-106.466781,TRUE,FALSE,TRUE,"S247335180"
"178","bktspa","Black-throated Sparrow","Amphispiza bilineata","L15213201","SNL 12","2025-06-06 07:24",3,35.012987,-106.467948,TRUE,FALSE,TRUE,"S247335031"
"179","bktspa","Black-throated Sparrow","Amphispiza bilineata","L279921","Peppersauce Canyon","2025-06-06 07:20",3,32.5379839,-110.716606,TRUE,FALSE,FALSE,"S247415858"
"180","bktspa","Black-throated Sparrow","Amphispiza bilineata","L46980178","Sunrise Pass Rd, Minden US-NV","2025-06-06 07:20",1,39.042828,-119.616427,TRUE,FALSE,TRUE,"S247476559"
"181","bktspa","Black-throated Sparrow","Amphispiza bilineata","L12738793","Bunker Rd. Tank","2025-06-06 07:20",2,34.607767,-106.844286,TRUE,FALSE,FALSE,"S247352148"
"182","bktspa","Black-throated Sparrow","Amphispiza bilineata","L152924","Sand Hollow Reservoir & SP","2025-06-06 07:15",2,37.1206326,-113.3835411,TRUE,FALSE,FALSE,"S247417833"
"183","bktspa","Black-throated Sparrow","Amphispiza bilineata","L614015","Malheur NWR--Buena Vista Ponds","2025-06-06 07:15",1,43.0672732,-118.8632083,TRUE,FALSE,FALSE,"S247419430"
"184","bktspa","Black-throated Sparrow","Amphispiza bilineata","L46942571","Heli Pad Area.  (31.754, -110.887)","2025-06-06 07:14",2,31.753626,-110.8874485,TRUE,FALSE,TRUE,"S247312375"
"185","bktspa","Black-throated Sparrow","Amphispiza bilineata","L11652841","Six Mile Canyon--upper","2025-06-06 07:13",2,39.3063087,-119.6323459,TRUE,FALSE,FALSE,"S247489558"
"186","bktspa","Black-throated Sparrow","Amphispiza bilineata","L684335","Organ Pipe Cactus NM--Alamo Canyon","2025-06-06 07:12",4,32.0664673,-112.7164087,TRUE,FALSE,FALSE,"S247496132"
"187","bktspa","Black-throated Sparrow","Amphispiza bilineata","L15211093","SNL 8","2025-06-06 07:02",2,35.03662,-106.475927,TRUE,FALSE,TRUE,"S247264583"
"188","bktspa","Black-throated Sparrow","Amphispiza bilineata","L46977268","US-95 S, Indian Springs US-NV 36.57669, -115.65592","2025-06-06 07:00",1,36.5765241,-115.6557289,TRUE,FALSE,TRUE,"S247449186"
"189","bktspa","Black-throated Sparrow","Amphispiza bilineata","L15210995","SNL 7","2025-06-06 06:57",1,35.04013,-106.481145,TRUE,FALSE,TRUE,"S247262699"
"190","bktspa","Black-throated Sparrow","Amphispiza bilineata","L46969400","Beatty, Nevada, US (36.909, -116.634)","2025-06-06 06:52",14,36.90863,-116.6339467,TRUE,FALSE,TRUE,"S247425644"
"191","bktspa","Black-throated Sparrow","Amphispiza bilineata","L890931","American Flag Spring","2025-06-06 06:50",1,32.54868,-110.70815,TRUE,FALSE,FALSE,"S247290695"
"192","bktspa","Black-throated Sparrow","Amphispiza bilineata","L4714439","Huffaker Hills Trails","2025-06-06 06:28",1,39.4666797,-119.7536172,TRUE,FALSE,FALSE,"S247509654"
"193","bktspa","Black-throated Sparrow","Amphispiza bilineata","L33148760","BLM, Piñon, NM (32.494, -105.443)","2025-06-06 06:28",14,32.4942739,-105.4425734,TRUE,FALSE,TRUE,"S247399930"
"194","bktspa","Black-throated Sparrow","Amphispiza bilineata","L7361149","Cedar Mountains--Hastings Pass Rd.","2025-06-06 06:25",2,40.71005,-112.928323,TRUE,FALSE,FALSE,"S247348640"
"195","bktspa","Black-throated Sparrow","Amphispiza bilineata","L3460838","I70--Thompson Springs View Area","2025-06-06 06:23",1,39.1890173,-109.1166475,TRUE,FALSE,FALSE,"S247249431"
"196","bktspa","Black-throated Sparrow","Amphispiza bilineata","L45050970","McKelligon Canyon Road","2025-06-06 06:20",8,31.8387928,-106.4830207,TRUE,FALSE,TRUE,"S247396501"
"197","bktspa","Black-throated Sparrow","Amphispiza bilineata","L46934087","Unnamed Road, Mack, Colorado, US (39.173, -109.02) Rabbit Valley","2025-06-06 06:15",5,39.1729779,-109.0195286,TRUE,FALSE,TRUE,"S247273570"
"198","bktspa","Black-throated Sparrow","Amphispiza bilineata","L46973897","E Box Canyon Rd, Sonoita US-AZ 31.78829, -110.86953","2025-06-06 06:15",3,31.788286,-110.869527,TRUE,FALSE,TRUE,"S247446196"
"199","bktspa","Black-throated Sparrow","Amphispiza bilineata","L749795","Grasslands between Proctor Rd and Florida Wash","2025-06-06 06:12",3,31.769332,-110.8873272,TRUE,FALSE,FALSE,"S247279899"
"200","bktspa","Black-throated Sparrow","Amphispiza bilineata","L15760981","89005, Boulder City US-NV 35.95355, -114.81378","2025-06-06 06:05",2,35.953546,-114.813776,TRUE,FALSE,TRUE,"S247265740"
"201","bktspa","Black-throated Sparrow","Amphispiza bilineata","L12831020","Backyard","2025-06-06 06:02",2,32.1975166,-111.0045938,TRUE,FALSE,TRUE,"S247279910"
"202","bktspa","Black-throated Sparrow","Amphispiza bilineata","L21061812","Paradise subdivision N","2025-06-06 06:00",2,37.4843891,-118.6063574,TRUE,FALSE,TRUE,"S247472354"
"203","bktspa","Black-throated Sparrow","Amphispiza bilineata","L17512069","Canoa Hills Trails Park","2025-06-06 05:55",1,31.8215076,-111.0156773,TRUE,FALSE,FALSE,"S247280662"
"204","bktspa","Black-throated Sparrow","Amphispiza bilineata","L42718840","White House Canyon Rd, Sonoita US-AZ 31.79168, -110.87979","2025-06-06 05:53",3,31.791679,-110.879789,TRUE,FALSE,TRUE,"S247445784"
"205","bktspa","Black-throated Sparrow","Amphispiza bilineata","L109497","Butterbredt Spring","2025-06-06 05:48",2,35.3817725,-118.113327,TRUE,FALSE,FALSE,"S247331098"
"206","bktspa","Black-throated Sparrow","Amphispiza bilineata","L45832337","85614, Green Valley US-AZ 31.76278, -110.89001","2025-06-06 05:44",3,31.762777,-110.890012,TRUE,FALSE,TRUE,"S247266473"
"207","bktspa","Black-throated Sparrow","Amphispiza bilineata","L43457868","89017, Hiko US-NV 37.43895, -114.94280","2025-06-06 05:23",5,37.438948,-114.942799,TRUE,FALSE,TRUE,"S247249251"
"208","bktspa","Black-throated Sparrow","Amphispiza bilineata","L21899784","Tanque Verde Ranch","2025-06-06 05:15",15,32.242287,-110.685274,TRUE,FALSE,TRUE,"S247298535"
"209","bktspa","Black-throated Sparrow","Amphispiza bilineata","L46973531","Maruba Road wash (35.1570,-115.3210)","2025-06-06 04:59",3,35.156971,-115.321006,TRUE,FALSE,TRUE,"S247444667"
"210","bktspa","Black-throated Sparrow","Amphispiza bilineata","L46914664","Grimes Site","2025-06-05 20:37",1,39.4010391,-118.6473773,TRUE,FALSE,TRUE,"S247176078"
"211","bktspa","Black-throated Sparrow","Amphispiza bilineata","L46915218","The Nightjar Survey","2025-06-05 19:30",3,34.745709,-111.969777,TRUE,FALSE,TRUE,"S247178898"
"212","bktspa","Black-throated Sparrow","Amphispiza bilineata","L9104061","Lower Box Canyon Bridge","2025-06-05 19:21",1,31.7993392,-110.7974232,TRUE,FALSE,TRUE,"S247242559"
"213","bktspa","Black-throated Sparrow","Amphispiza bilineata","L46913987","Box Canyon Road, Sonoita, Arizona, US (31.799, -110.797)","2025-06-05 18:57",3,31.7993675,-110.7974712,TRUE,FALSE,TRUE,"S247172726"
"214","bktspa","Black-throated Sparrow","Amphispiza bilineata","L168656","Desert NWR--Corn Creek (Field Station)","2025-06-05 18:32",2,36.438797,-115.359566,TRUE,FALSE,FALSE,"S247163440"
"215","bktspa","Black-throated Sparrow","Amphispiza bilineata","L562873","Ghost Ranch","2025-06-05 18:30",1,36.3293708,-106.473484,TRUE,FALSE,FALSE,"S247251475"
"216","bktspa","Black-throated Sparrow","Amphispiza bilineata","L46991071","SBD_Mojave National Preserve (35.1488,-115.2606)","2025-06-05 18:30",1,35.148844,-115.260614,TRUE,FALSE,TRUE,"S247524560"
"217","bktspa","Black-throated Sparrow","Amphispiza bilineata","L46928740","US Highway 285, Picnic Area.","2025-06-05 18:13",3,30.4852293,-102.5333983,TRUE,FALSE,TRUE,"S247245302"
"218","bktspa","Black-throated Sparrow","Amphispiza bilineata","L20499982","La Reserve","2025-06-05 17:57",3,32.3993947,-110.9446924,TRUE,FALSE,TRUE,"S247171453"
"219","bktspa","Black-throated Sparrow","Amphispiza bilineata","L278720","Holloman Lakes","2025-06-05 17:55",1,32.807442,-106.1226013,TRUE,FALSE,FALSE,"S247382170"
"220","bktspa","Black-throated Sparrow","Amphispiza bilineata","L46991115","SBD_Mojave National Preserve (35.1689,-115.3015)","2025-06-05 17:35",1,35.168865,-115.301491,TRUE,FALSE,TRUE,"S247524722"
"221","bktspa","Black-throated Sparrow","Amphispiza bilineata","L24760704","Camp spot, Mojave National Preserve, Essex US-CA 34.81394, -115.61753","2025-06-05 16:48",4,34.813942,-115.617531,TRUE,FALSE,TRUE,"S247157519"
"222","bktspa","Black-throated Sparrow","Amphispiza bilineata","L129091","Seminole Canyon SP (HOTE 011)","2025-06-05 16:00",1,29.6935703,-101.3185787,TRUE,FALSE,FALSE,"S247504923"
"223","bktspa","Black-throated Sparrow","Amphispiza bilineata","L46880243","Valley of Fire State Park, Overton US-NV 36.40791, -114.56440","2025-06-05 15:50",2,36.407914,-114.564401,TRUE,FALSE,TRUE,"S247108998"
"224","bktspa","Black-throated Sparrow","Amphispiza bilineata","L7455324","South Llano River SP--Agarita Bird Blind","2025-06-05 15:46",NA,30.4446572,-99.8044295,TRUE,FALSE,FALSE,"S247098749"
"225","bktspa","Black-throated Sparrow","Amphispiza bilineata","L21553595","Castle Valley US-UT 38.64014, -109.38967 - BLRF Feeder Counts   Project FeederWatch","2025-06-05 15:00",1,38.640143,-109.389669,TRUE,FALSE,TRUE,"S247077611"
"226","bktspa","Black-throated Sparrow","Amphispiza bilineata","L46909806","97920, Westfall US-OR (44.0200,-117.7355)","2025-06-05 14:54",1,44.019956,-117.735546,TRUE,FALSE,TRUE,"S247152907"
"227","bktspa","Black-throated Sparrow","Amphispiza bilineata","L46847109","Old Bonanza Hwy, Jensen US-UT (40.0866,-109.2005)","2025-06-05 14:29",1,40.086571,-109.200544,TRUE,FALSE,TRUE,"S247096460"
"228","bktspa","Black-throated Sparrow","Amphispiza bilineata","L7981526","Lake Pleasant—Lower lake below dam (Restricted)","2025-06-05 13:57",3,33.84154,-112.270313,TRUE,FALSE,TRUE,"S247080971"
"229","bktspa","Black-throated Sparrow","Amphispiza bilineata","L1542612","Arches NP--Delicate Arch Trailhead","2025-06-05 13:40",3,38.735172,-109.5195088,TRUE,FALSE,FALSE,"S247153190"
"230","bktspa","Black-throated Sparrow","Amphispiza bilineata","L7474009","Saddle Butte","2025-06-05 13:16",2,43.1459003,-118.9347267,TRUE,FALSE,FALSE,"S247118450"
"231","bktspa","Black-throated Sparrow","Amphispiza bilineata","L7942151","Lee Vining Airport Rd","2025-06-05 12:46",1,37.948482,-119.10482,TRUE,FALSE,TRUE,"S247057455"
"232","bktspa","Black-throated Sparrow","Amphispiza bilineata","L950079","Walker Pass West--Joshua Tree Woodland","2025-06-05 12:37",4,35.7141873,-118.0689901,TRUE,FALSE,FALSE,"S247410027"
"233","bktspa","Black-throated Sparrow","Amphispiza bilineata","L46933789","89440, Virginia City US-NV 39.30009, -119.64189","2025-06-05 12:28",2,39.30009,-119.641895,TRUE,FALSE,TRUE,"S247272148"
"234","bktspa","Black-throated Sparrow","Amphispiza bilineata","L46893558","Cactus Forest Trail, Tucson US-AZ 32.19935, -110.72161","2025-06-05 12:18",3,32.199355,-110.721612,TRUE,FALSE,TRUE,"S247067110"
"235","bktspa","Black-throated Sparrow","Amphispiza bilineata","L46886484","Road Construction Waiting Area Highway 139","2025-06-05 11:24",1,40.4619017,-120.5775906,TRUE,FALSE,TRUE,"S247033951"
"236","bktspa","Black-throated Sparrow","Amphispiza bilineata","L46889178","Buena Vista Overlook Trail, Diamond, Oregon, US (43.063, -118.868)","2025-06-05 11:13",1,43.0634995,-118.8675803,TRUE,FALSE,TRUE,"S247046476"
"237","bktspa","Black-throated Sparrow","Amphispiza bilineata","L357634","Cibola NF--Embudito Canyon","2025-06-05 11:13",2,35.1357734,-106.4816809,TRUE,FALSE,FALSE,"S247055024"
"238","bktspa","Black-throated Sparrow","Amphispiza bilineata","L493066","Tollhouse Spring","2025-06-05 11:07",1,37.2433971,-118.193568,TRUE,FALSE,FALSE,"S247061397"
"239","bktspa","Black-throated Sparrow","Amphispiza bilineata","L46883449","Utah, US (39.194, -113.724)","2025-06-05 10:38",4,39.1937836,-113.7239155,TRUE,FALSE,TRUE,"S247020238"
"240","bktspa","Black-throated Sparrow","Amphispiza bilineata","L46906728","93541, Lee Vining US-CA (38.0689,-119.1145)","2025-06-05 10:30",2,38.068866,-119.114525,TRUE,FALSE,TRUE,"S247133859"
"241","bktspa","Black-throated Sparrow","Amphispiza bilineata","L46839546","86514, Teec Nos Pos US-AZ 36.87843, -109.29176","2025-06-05 10:02",1,36.878426,-109.291759,TRUE,FALSE,TRUE,"S247110708"
"242","bktspa","Black-throated Sparrow","Amphispiza bilineata","L11571275","Catlow Valley Rd.--Above Fields Low Trees--42.28558, -118.69064","2025-06-05 09:55",1,42.28558,-118.690639,TRUE,FALSE,TRUE,"S247007022"
"243","bktspa","Black-throated Sparrow","Amphispiza bilineata","L13901775","Canoa Ranch Golf Resort, Green Valley US-AZ 31.79455, -111.02206","2025-06-05 09:37",2,31.794555,-111.022062,TRUE,FALSE,TRUE,"S247004246"
"244","bktspa","Black-throated Sparrow","Amphispiza bilineata","L46876427","Petrified Dunes Trail, Saint George US-UT 37.21470, -113.64513","2025-06-05 09:35",1,37.214703,-113.645131,TRUE,FALSE,TRUE,"S246990385"
"245","bktspa","Black-throated Sparrow","Amphispiza bilineata","L17083186","Jornada Experimental Range Research Center (restricted access)","2025-06-05 09:30",2,32.6169074,-106.7413793,TRUE,FALSE,FALSE,"S247090423"
"246","bktspa","Black-throated Sparrow","Amphispiza bilineata","L32641920","CR 1.6","2025-06-05 09:20",2,39.3061553,-109.0041348,TRUE,FALSE,TRUE,"S247068920"
"247","bktspa","Black-throated Sparrow","Amphispiza bilineata","L20024534","Pollack Bench Trailhead to Flume 1","2025-06-05 09:11",2,39.155765,-108.778488,TRUE,FALSE,TRUE,"S247040766"
"248","bktspa","Black-throated Sparrow","Amphispiza bilineata","L12383921","Indio Mountains Research Station--Corral Tank (restricted access)","2025-06-05 09:09",1,30.785882,-104.985257,TRUE,FALSE,TRUE,"S246975414"
"249","bktspa","Black-throated Sparrow","Amphispiza bilineata","L46888236","Lumpkin Rd Fire Station Area","2025-06-05 09:06",1,39.59341,-121.248856,TRUE,TRUE,TRUE,"S247042226"
"250","bktspa","Black-throated Sparrow","Amphispiza bilineata","L18015839","Franklin Mountains SP--W. Cottonwood Spring/Mundy’s Gap Trail","2025-06-05 08:46",3,31.914801,-106.500758,TRUE,FALSE,FALSE,"S246994262"
"251","bktspa","Black-throated Sparrow","Amphispiza bilineata","L30651759","Two Guns AZ","2025-06-05 08:42",1,35.11503,-111.093373,TRUE,FALSE,TRUE,"S246995865"
"252","bktspa","Black-throated Sparrow","Amphispiza bilineata","L46902653","County Highway 201, De Beque US-CO 39.36773, -108.98256","2025-06-05 08:38",5,39.367729,-108.982565,TRUE,FALSE,TRUE,"S247111534"
"253","bktspa","Black-throated Sparrow","Amphispiza bilineata","L4132512","Sunrise Pointe and The Legends walk","2025-06-05 08:26",6,31.836946,-110.995505,TRUE,FALSE,TRUE,"S246999501"
"254","bktspa","Black-throated Sparrow","Amphispiza bilineata","L1010763","364 Leah Lane","2025-06-05 08:15",2,32.7586056,-109.0881014,TRUE,FALSE,TRUE,"S247034132"
"255","bktspa","Black-throated Sparrow","Amphispiza bilineata","L46867693","South Palomar Lane","2025-06-05 08:08",1,37.0200875,-112.4361826,TRUE,FALSE,TRUE,"S246949616"
"256","bktspa","Black-throated Sparrow","Amphispiza bilineata","L2267149","Oolite Trail","2025-06-05 08:05",3,42.8370846,-116.1220338,TRUE,FALSE,FALSE,"S247144947"
"257","bktspa","Black-throated Sparrow","Amphispiza bilineata","L128993","Hueco Tanks SP & Historic Site (FWTX 5)","2025-06-05 08:04",2,31.9214283,-106.0467612,TRUE,FALSE,FALSE,"S246972388"
"258","bktspa","Black-throated Sparrow","Amphispiza bilineata","L281279","Bill Evans Lake","2025-06-05 08:04",1,32.8667947,-108.5737061,TRUE,FALSE,FALSE,"S247104344"
"259","bktspa","Black-throated Sparrow","Amphispiza bilineata","L129077","San Bernardino NWR","2025-06-05 08:00",4,31.3558004,-109.261533,TRUE,FALSE,FALSE,"S247083814"
"260","bktspa","Black-throated Sparrow","Amphispiza bilineata","L305948","Milton Reimers Ranch Park","2025-06-05 08:00",3,30.3641504,-98.1237811,TRUE,FALSE,FALSE,"S247276900"
"261","bktspa","Black-throated Sparrow","Amphispiza bilineata","L46866423","Utah, US (41.105, -112.885)","2025-06-05 07:54",3,41.1051047,-112.8852649,TRUE,FALSE,TRUE,"S246942829"
"262","bktspa","Black-throated Sparrow","Amphispiza bilineata","L23558258","273 camino Panama","2025-06-05 07:53",3,31.489506,-110.991979,TRUE,FALSE,TRUE,"S246979136"
"263","bktspa","Black-throated Sparrow","Amphispiza bilineata","L352958","Fish Springs NWR","2025-06-05 07:34",3,39.865343,-113.3936175,TRUE,FALSE,FALSE,"S247062290"
"264","bktspa","Black-throated Sparrow","Amphispiza bilineata","L40709828","3851 S Calle del Escudo, Green Valley US-AZ 31.81429, -111.01816","2025-06-05 07:32",2,31.814293,-111.018156,TRUE,FALSE,TRUE,"S246956452"
"265","bktspa","Black-throated Sparrow","Amphispiza bilineata","L1859446","Copper Trailhead","2025-06-05 07:30",5,35.0787886,-106.484151,TRUE,FALSE,FALSE,"S246984985"
"266","bktspa","Black-throated Sparrow","Amphispiza bilineata","L46900588","11 pines rd placer side","2025-06-05 07:18",1,38.940989,-120.511866,TRUE,TRUE,TRUE,"S247101066"
"267","bktspa","Black-throated Sparrow","Amphispiza bilineata","L5731040","Alabama Hills--Mobius Arch Trail","2025-06-05 07:11",1,36.6133919,-118.1259441,TRUE,FALSE,FALSE,"S246948868"
"268","bktspa","Black-throated Sparrow","Amphispiza bilineata","L481533","Horsethief Canyon SWA","2025-06-05 06:58",1,39.1668029,-108.7984657,TRUE,FALSE,FALSE,"S246973213"
"269","bktspa","Black-throated Sparrow","Amphispiza bilineata","L46904355","US-95 S, Indian Springs US-NV 36.57669, -115.65592","2025-06-05 06:51",1,36.576685,-115.655916,TRUE,FALSE,TRUE,"S247120923"
"270","bktspa","Black-throated Sparrow","Amphispiza bilineata","L9326333","Saguaro NP--East--Loma Verde Trailhead","2025-06-05 06:45",2,32.2033393,-110.7099992,TRUE,FALSE,FALSE,"S247286644"
"271","bktspa","Black-throated Sparrow","Amphispiza bilineata","L743251","Cottonwood Creek","2025-06-05 06:35",5,42.1590771,-118.6171961,TRUE,FALSE,FALSE,"S246945594"
"272","bktspa","Black-throated Sparrow","Amphispiza bilineata","L8409896","Sloan Canyon NCA--Petroglyph Canyon","2025-06-05 06:35",16,35.9016593,-115.1247733,TRUE,FALSE,FALSE,"S247034619"
"273","bktspa","Black-throated Sparrow","Amphispiza bilineata","L2266960","Dinosaur NM--Green River CG","2025-06-05 06:29",1,40.4214275,-109.2435676,TRUE,FALSE,FALSE,"S247096668"
"274","bktspa","Black-throated Sparrow","Amphispiza bilineata","L46896354","Box Canyon Road, Sonoita, Arizona, US (31.799, -110.797) Canyon up and downstream from the bridge.","2025-06-05 06:26",1,31.7990746,-110.797203,TRUE,FALSE,TRUE,"S247079974"
"275","bktspa","Black-throated Sparrow","Amphispiza bilineata","L34990250","Beavers Knoll loop","2025-06-05 06:22",4,29.1936096,-99.7463196,TRUE,FALSE,TRUE,"S246916955"
"276","bktspa","Black-throated Sparrow","Amphispiza bilineata","L40641825","Chihuahuan Desert IBA -- South","2025-06-05 06:20",10,32.3437347,-108.9863531,TRUE,FALSE,TRUE,"S247047711"
"277","bktspa","Black-throated Sparrow","Amphispiza bilineata","L4116125","Cibola NF--Piedra Lisa Trail","2025-06-05 06:16",2,35.2780674,-106.4794493,TRUE,FALSE,FALSE,"S246964332"
"278","bktspa","Black-throated Sparrow","Amphispiza bilineata","L2434157","Red Rock Canyon NCA--White Rock Spring","2025-06-05 06:12",3,36.1738179,-115.47978,TRUE,FALSE,FALSE,"S246999021"
"279","bktspa","Black-throated Sparrow","Amphispiza bilineata","L19917899","Millville Trail","2025-06-05 05:56",1,31.6324592,-110.1727706,TRUE,FALSE,TRUE,"S246949286"
"280","bktspa","Black-throated Sparrow","Amphispiza bilineata","L42633809","4315 N Camino del Obispo, Tucson US-AZ (32.2857,-110.9300)#2","2025-06-05 05:55",2,32.285672,-110.930024,TRUE,FALSE,TRUE,"S246939768"
"281","bktspa","Black-throated Sparrow","Amphispiza bilineata","L46842122","Cottonwood Creek--Low Campsite--42.16432, -118.60675","2025-06-05 05:45",1,42.164321,-118.60675,TRUE,FALSE,TRUE,"S246947143"
"282","bktspa","Black-throated Sparrow","Amphispiza bilineata","L444756","Afton Canyon","2025-06-05 05:43",2,35.0371473,-116.3848901,TRUE,FALSE,FALSE,"S246994663"
"283","bktspa","Black-throated Sparrow","Amphispiza bilineata","L3937207","SNLA (no access)","2025-06-05 05:35",10,35.0127248,-106.4665244,TRUE,FALSE,TRUE,"S247113092"
"284","bktspa","Black-throated Sparrow","Amphispiza bilineata","L21646834","AZLegendsSuperiorTrail","2025-06-05 05:35",2,33.277437,-111.139952,TRUE,FALSE,TRUE,"S247026987"
"285","bktspa","Black-throated Sparrow","Amphispiza bilineata","L17061827","AZ home","2025-06-05 05:33",2,31.8025519,-111.0179129,TRUE,FALSE,TRUE,"S247087204"
"286","bktspa","Black-throated Sparrow","Amphispiza bilineata","L3948152","Horseshoe Lake Recreation Area--Mesquite CG area","2025-06-05 05:20",2,33.9646652,-111.7163658,TRUE,FALSE,FALSE,"S247050620"
"287","bktspa","Black-throated Sparrow","Amphispiza bilineata","L16346374","Las Cienegas NCA--Cieneguita Primitive Campground","2025-06-05 04:59",2,31.7648989,-110.6314552,TRUE,FALSE,FALSE,"S246923633"
"288","bktspa","Black-throated Sparrow","Amphispiza bilineata","L46905656","89447, Yerington US-NV (39.0631,-119.3000)","2025-06-05 04:45",6,39.063087,-119.300006,TRUE,FALSE,TRUE,"S247128013"
"289","bktspa","Black-throated Sparrow","Amphispiza bilineata","L3531642","California Gulch/Warsaw Canyon confluence","2025-06-05 04:11",2,31.4030216,-111.2421539,TRUE,FALSE,FALSE,"S247014127"
"290","bktspa","Black-throated Sparrow","Amphispiza bilineata","L11600727","Wendover Veiwpoint","2025-06-04 20:36",1,40.7369723,-114.0968777,TRUE,FALSE,FALSE,"S246834306"
"291","bktspa","Black-throated Sparrow","Amphispiza bilineata","L46843934","51–57 SR-78, Clifton US-AZ (33.0005,-109.1704)","2025-06-04 19:16",2,33.000533,-109.170399,TRUE,FALSE,TRUE,"S246823436"
"292","bktspa","Black-throated Sparrow","Amphispiza bilineata","L32258596","Sabino Vista yard nr Crestwood / Larrea, Tucson","2025-06-04 19:07",1,32.27733,-110.815652,TRUE,FALSE,TRUE,"S246830064"
"293","bktspa","Black-throated Sparrow","Amphispiza bilineata","L46905396","89447, Yerington US-NV 39.06999, -119.29794","2025-06-04 18:58",1,39.069988,-119.297935,TRUE,FALSE,TRUE,"S247126528"
"294","bktspa","Black-throated Sparrow","Amphispiza bilineata","L46843190","US-191, Safford US-AZ 32.84364, -109.41723","2025-06-04 18:55",1,32.843638,-109.417227,TRUE,FALSE,TRUE,"S246820156"
"295","bktspa","Black-throated Sparrow","Amphispiza bilineata","L46846511","Box Canyon SW of bridge","2025-06-04 18:30",3,31.798014,-110.8095248,TRUE,FALSE,TRUE,"S246836506"
"296","bktspa","Black-throated Sparrow","Amphispiza bilineata","L7946982","Organ Mountains-Desert Peaks NM--Dripping Springs NA Arroyo Trail","2025-06-04 17:49",6,32.3340403,-106.5952176,TRUE,FALSE,FALSE,"S246831007"
"297","bktspa","Black-throated Sparrow","Amphispiza bilineata","L46842459","Nichols Wash, Egnar","2025-06-04 17:47",2,38.031092,-108.8365953,TRUE,FALSE,TRUE,"S246816654"
"298","bktspa","Black-throated Sparrow","Amphispiza bilineata","L46833740","Seminole Canyon State Park","2025-06-04 17:36",2,29.695744,-101.32302,TRUE,FALSE,TRUE,"S246769446"
"299","bktspa","Black-throated Sparrow","Amphispiza bilineata","L2612628","Wupatki NM - west","2025-06-04 17:30",1,35.5818784,-111.4921761,TRUE,FALSE,TRUE,"S247433261"
"300","bktspa","Black-throated Sparrow","Amphispiza bilineata","L603593","Portal--Cathedral Rock Rd at Creek Rd","2025-06-04 14:27",1,31.9104255,-109.1488092,TRUE,FALSE,FALSE,"S246762687"
"301","bktspa","Black-throated Sparrow","Amphispiza bilineata","L11336201","Perjue Canyon","2025-06-04 14:21",1,42.7313017,-116.2882476,TRUE,FALSE,FALSE,"S246787289"
"302","bktspa","Black-throated Sparrow","Amphispiza bilineata","L7134685","Guindani Canyon","2025-06-04 13:26",10,31.8417065,-110.3665028,TRUE,FALSE,FALSE,"S246810526"
"303","bktspa","Black-throated Sparrow","Amphispiza bilineata","L40946835","BLM Ravendale","2025-06-04 13:24",1,40.731929,-120.315508,TRUE,FALSE,TRUE,"S247178961"
"304","bktspa","Black-throated Sparrow","Amphispiza bilineata","L46816753","Secret","2025-06-04 12:57",1,28.203457,-99.891259,TRUE,FALSE,TRUE,"S246701560"
"305","bktspa","Black-throated Sparrow","Amphispiza bilineata","L9391017","2446 South Starview Place, San Simon, Arizona, US (31.913, -109.129)","2025-06-04 12:42",2,31.9129978,-109.1292065,TRUE,FALSE,TRUE,"S246796937"
"306","bktspa","Black-throated Sparrow","Amphispiza bilineata","L2456780","Hwy. 205 (Fields-Denio Rd.)--South of Fields to Oregon border","2025-06-04 12:30",1,42.1074859,-118.5848808,TRUE,FALSE,FALSE,"S247827630"
"307","bktspa","Black-throated Sparrow","Amphispiza bilineata","L9595900","Anza-Borrego Desert SP--Sentenac Canyon","2025-06-04 12:13",3,33.1058807,-116.4509777,TRUE,FALSE,FALSE,"S246794540"
"308","bktspa","Black-throated Sparrow","Amphispiza bilineata","L46816372","Ely Highway, Milford, Utah, US (38.425, -113.115)","2025-06-04 11:49",5,38.4245646,-113.1149625,TRUE,FALSE,TRUE,"S246691640"
"309","bktspa","Black-throated Sparrow","Amphispiza bilineata","L3529047","Horseshoe Bend","2025-06-04 11:33",1,36.8766533,-111.5029941,TRUE,FALSE,FALSE,"S246713831"
"310","bktspa","Black-throated Sparrow","Amphispiza bilineata","L5742404","Sky Island Grill & Grocery","2025-06-04 11:26",1,31.870334,-109.043274,TRUE,FALSE,FALSE,"S246781320"
"311","bktspa","Black-throated Sparrow","Amphispiza bilineata","L27252001","8775 Technology Way, Reno US-NV 39.45322, -119.75500","2025-06-04 11:16",1,39.45322,-119.754998,TRUE,FALSE,TRUE,"S246708255"
"312","bktspa","Black-throated Sparrow","Amphispiza bilineata","L128932","Carlsbad Caverns NP","2025-06-04 10:47",5,32.1501007,-104.5372009,TRUE,FALSE,FALSE,"S246771985"
"313","bktspa","Black-throated Sparrow","Amphispiza bilineata","L295907","Petrified Forest NP","2025-06-04 10:45",1,35.0640148,-109.7847412,TRUE,FALSE,FALSE,"S246825612"
"314","bktspa","Black-throated Sparrow","Amphispiza bilineata","L24516627","Personal","2025-06-04 10:45",1,32.1083663,-110.8524137,TRUE,FALSE,TRUE,"S246769371"
"315","bktspa","Black-throated Sparrow","Amphispiza bilineata","L46483573","8775 Allen Rd, Christoval US-TX 31.16694, -100.58897","2025-06-04 10:38",3,31.166943,-100.58897,TRUE,FALSE,TRUE,"S246679806"
"316","bktspa","Black-throated Sparrow","Amphispiza bilineata","L46810929","Mud Springs E-Bike Trail, Cortez US-CO (37.3024,-108.6647)","2025-06-04 10:23",1,37.302397,-108.66466,TRUE,FALSE,TRUE,"S246667822"
"317","bktspa","Black-throated Sparrow","Amphispiza bilineata","L46843484","Rock Cabin Spring","2025-06-04 10:22",1,43.2805711,-116.5754359,TRUE,FALSE,TRUE,"S246821356"
"318","bktspa","Black-throated Sparrow","Amphispiza bilineata","L266875","Willcox--Lake Cochise and Twin Lakes Golf Course","2025-06-04 10:20",2,32.2298515,-109.8243175,TRUE,FALSE,FALSE,"S246718642"
"319","bktspa","Black-throated Sparrow","Amphispiza bilineata","L39946074","Buckhorn Bend yard list","2025-06-04 10:13",1,35.307389,-114.048155,TRUE,FALSE,TRUE,"S246685220"
"320","bktspa","Black-throated Sparrow","Amphispiza bilineata","L46819123","Papago Park​, Phoenix US-AZ 33.45289, -111.94308","2025-06-04 10:04",5,33.452886,-111.943079,TRUE,FALSE,TRUE,"S246703014"
"321","bktspa","Black-throated Sparrow","Amphispiza bilineata","L939113","Piute Mtns.--Saddle Springs Rd. (27S02)","2025-06-04 09:59",4,35.5448831,-118.4704342,TRUE,FALSE,FALSE,"S246727645"
"322","bktspa","Black-throated Sparrow","Amphispiza bilineata","L46822053","84714, Beryl US-UT 37.99090, -113.93652","2025-06-04 09:32",2,37.9909,-113.93652,TRUE,FALSE,TRUE,"S246715291"
"323","bktspa","Black-throated Sparrow","Amphispiza bilineata","L356197","Kearny Lake","2025-06-04 09:31",2,33.052106,-110.89822,TRUE,FALSE,FALSE,"S247435373"
"324","bktspa","Black-throated Sparrow","Amphispiza bilineata","L2590456","3650 CR 437 Cherokee, TX","2025-06-04 09:25",2,30.9623766,-98.6788054,TRUE,FALSE,TRUE,"S246638996"
"325","bktspa","Black-throated Sparrow","Amphispiza bilineata","L4500299","Honey Lake--Wendel Rd","2025-06-04 09:20",3,40.3222947,-120.1893568,TRUE,FALSE,FALSE,"S246718311"
"326","bktspa","Black-throated Sparrow","Amphispiza bilineata","L18495857","Turkey Barn Lane","2025-06-04 09:10",2,30.887998,-99.625703,TRUE,FALSE,TRUE,"S246680342"
"327","bktspa","Black-throated Sparrow","Amphispiza bilineata","L43331455","End of Buffalo Canyon Rd","2025-06-04 08:58",2,40.485397,-118.233608,TRUE,FALSE,TRUE,"S246669053"
"328","bktspa","Black-throated Sparrow","Amphispiza bilineata","L2456697","Hwy. 205--Wright's Point","2025-06-04 08:36",3,43.4430451,-118.9985687,TRUE,FALSE,FALSE,"S246751235"
"329","bktspa","Black-throated Sparrow","Amphispiza bilineata","L46820836","Montgomery Pass","2025-06-04 08:21",3,37.971445,-118.330475,TRUE,FALSE,TRUE,"S246710082"
"330","bktspa","Black-throated Sparrow","Amphispiza bilineata","L7460160","Rabbit Valley--north of I-70","2025-06-04 08:20",3,39.195131,-109.024143,TRUE,FALSE,TRUE,"S246666948"
"331","bktspa","Black-throated Sparrow","Amphispiza bilineata","L18216732","Route from Home to Canal (38.290877; -111.429870)","2025-06-04 08:15",1,38.2908251,-111.43017,TRUE,FALSE,TRUE,"S246677028"
"332","bktspa","Black-throated Sparrow","Amphispiza bilineata","L35409430","- near Willow City","2025-06-04 08:15",2,30.390815,-98.626999,TRUE,FALSE,TRUE,"S246841173"
"333","bktspa","Black-throated Sparrow","Amphispiza bilineata","L299012","Oracle State Park","2025-06-04 08:07",5,32.6083177,-110.7335132,TRUE,FALSE,FALSE,"S246764982"
"334","bktspa","Black-throated Sparrow","Amphispiza bilineata","L25212963","Bear Creek Rd","2025-06-04 07:48",5,39.538069,-110.523406,TRUE,FALSE,TRUE,"S246623264"
"335","bktspa","Black-throated Sparrow","Amphispiza bilineata","L21287455","Queen Creek — Perlite Rd.","2025-06-04 07:43",3,33.277437,-111.139952,TRUE,FALSE,TRUE,"S247435299"
"336","bktspa","Black-throated Sparrow","Amphispiza bilineata","L2704087","Granite Gap","2025-06-04 07:43",2,32.0955147,-108.9699447,TRUE,FALSE,FALSE,"S246637225"
"337","bktspa","Black-throated Sparrow","Amphispiza bilineata","L15213981","Gila NF--San Francisco Hot Springs Trail","2025-06-04 07:39",6,33.2280319,-108.8670899,TRUE,FALSE,FALSE,"S247105352"
"338","bktspa","Black-throated Sparrow","Amphispiza bilineata","L8543652","Adero Canyon Trailhead","2025-06-04 07:31",4,33.6212308,-111.777091,TRUE,FALSE,FALSE,"S246655389"
"339","bktspa","Black-throated Sparrow","Amphispiza bilineata","L11677409","Black Swift Search Spot, west of Big Pine","2025-06-04 07:29",3,37.145968,-118.317606,TRUE,FALSE,FALSE,"S246756731"
"340","bktspa","Black-throated Sparrow","Amphispiza bilineata","L19461540","Malheur Field Station","2025-06-04 07:27",2,43.2432425,-118.8939931,TRUE,FALSE,TRUE,"S246644536"
"341","bktspa","Black-throated Sparrow","Amphispiza bilineata","L15793449","Mariposa","2025-06-04 07:20",1,35.3602587,-106.683974,TRUE,FALSE,TRUE,"S246912954"
"342","bktspa","Black-throated Sparrow","Amphispiza bilineata","L46959221","Grand Staircase-Escalante National Monument, Kanab US-UT 37.53104, -112.11057","2025-06-04 07:13",6,37.531037,-112.110572,TRUE,FALSE,TRUE,"S247379311"
"343","bktspa","Black-throated Sparrow","Amphispiza bilineata","L26988647","Rochester Canyon","2025-06-04 07:11",1,40.3094243,-118.2245197,TRUE,FALSE,FALSE,"S246647059"
"344","bktspa","Black-throated Sparrow","Amphispiza bilineata","L14673720","Wash behind Cochise College","2025-06-04 07:10",2,31.5691809,-110.2430132,TRUE,FALSE,TRUE,"S246640471"
"345","bktspa","Black-throated Sparrow","Amphispiza bilineata","L32708102","BLM, Piñon, NM (32.49, -105.485)","2025-06-04 07:01",18,32.489734,-105.4851675,TRUE,FALSE,TRUE,"S247398974"
"346","bktspa","Black-throated Sparrow","Amphispiza bilineata","L128870","Agua Caliente Park","2025-06-04 06:51",1,32.2806015,-110.7303009,TRUE,FALSE,FALSE,"S246833262"
"347","bktspa","Black-throated Sparrow","Amphispiza bilineata","L46820347","US-95 S, Indian Springs US-NV 36.57630, -115.65547","2025-06-04 06:49",2,36.576303,-115.655474,TRUE,FALSE,TRUE,"S246708076"
"348","bktspa","Black-throated Sparrow","Amphispiza bilineata","L21351112","215-247 N. Cody Loop, Oracle Az","2025-06-04 06:45",1,32.6024655,-110.7586688,TRUE,FALSE,TRUE,"S246831313"
"349","bktspa","Black-throated Sparrow","Amphispiza bilineata","L45533547","Peavine Mt East","2025-06-04 06:14",7,39.5554414,-119.8469186,TRUE,FALSE,TRUE,"S246645322"
"350","bktspa","Black-throated Sparrow","Amphispiza bilineata","L40471880","Chihuahuan Desert IBA -- North","2025-06-04 06:11",9,32.4303094,-108.9887344,TRUE,FALSE,TRUE,"S246797152"
"351","bktspa","Black-throated Sparrow","Amphispiza bilineata","L129072","Sabino Canyon Recreation Area","2025-06-04 06:04",6,32.3300526,-110.7944301,TRUE,FALSE,FALSE,"S246750941"
"352","bktspa","Black-throated Sparrow","Amphispiza bilineata","L1481762","Mountain Springs Rd. (IMP Co.)","2025-06-04 06:03",3,32.6776051,-116.0986482,TRUE,TRUE,FALSE,"S246603988"
"353","bktspa","Black-throated Sparrow","Amphispiza bilineata","L1586823","Saguaro NP--East--Lower Chiminea Canyon","2025-06-04 05:58",2,32.1534807,-110.6086395,TRUE,FALSE,FALSE,"S246616788"
"354","bktspa","Black-throated Sparrow","Amphispiza bilineata","L12036882","SBR Nature Trial","2025-06-04 05:49",6,32.5808875,-110.9233211,TRUE,FALSE,TRUE,"S246636147"
"355","bktspa","Black-throated Sparrow","Amphispiza bilineata","L21728627","Mountain Creek Ranch East","2025-06-04 05:48",2,32.0736092,-110.6572808,TRUE,FALSE,TRUE,"S246599102"
"356","bktspa","Black-throated Sparrow","Amphispiza bilineata","L41690324","4305 N Camino del Obispo, Tucson US-AZ 32.28569, -110.93008","2025-06-04 05:47",1,32.285685,-110.930081,TRUE,FALSE,TRUE,"S246596636"
"357","bktspa","Black-throated Sparrow","Amphispiza bilineata","L46818160","Egnar BLM","2025-06-04 05:32",4,38.031639,-108.868936,TRUE,FALSE,TRUE,"S246699114"
"358","bktspa","Black-throated Sparrow","Amphispiza bilineata","L40359306","Del Lago Golf Club, Vail US-AZ 32.05464, -110.69509","2025-06-04 05:32",1,32.054643,-110.695088,TRUE,FALSE,TRUE,"S246926310"
"359","bktspa","Black-throated Sparrow","Amphispiza bilineata","L47017129","SBD_Drum Peak_PJ survey","2025-06-04 05:28",11,35.222359,-115.328351,TRUE,FALSE,TRUE,"S247646905"
"360","bktspa","Black-throated Sparrow","Amphispiza bilineata","L45072749","Whitlow Dam Arizona, US (33.297, -111.258)","2025-06-04 05:15",2,33.2967292,-111.258406,TRUE,FALSE,TRUE,"S246660286"
"361","bktspa","Black-throated Sparrow","Amphispiza bilineata","L274845","Organ Mountains-Desert Peaks NM--Aguirre Spring RA","2025-06-04 05:08",1,32.3697822,-106.5572634,TRUE,FALSE,FALSE,"S246569166"
"362","bktspa","Black-throated Sparrow","Amphispiza bilineata","L46845827","IMBCR BLM SURVEY BM 15","2025-06-04 05:00",11,38.477962,-117.225041,TRUE,FALSE,TRUE,"S246832028"
"363","bktspa","Black-throated Sparrow","Amphispiza bilineata","L11709750","My Paradox Home","2025-06-04 04:54",4,33.636696,-111.759907,TRUE,FALSE,TRUE,"S246578074"
"364","bktspa","Black-throated Sparrow","Amphispiza bilineata","L47016576","Franklin Road camp (35.2133,-115.3245)","2025-06-04 04:54",1,35.21332,-115.324477,TRUE,FALSE,TRUE,"S247645766"
"365","bktspa","Black-throated Sparrow","Amphispiza bilineata","L195968","Joshua Tree NP--Cottonwood Spring","2025-06-03 20:47",1,33.7365145,-115.809819,TRUE,FALSE,FALSE,"S246501163"
"366","bktspa","Black-throated Sparrow","Amphispiza bilineata","L22999979","Pony Express Trail Rd, Rush Valley US-UT 40.18582, -112.37280","2025-06-03 19:07",1,40.185821,-112.372797,TRUE,FALSE,TRUE,"S246493327"
"367","bktspa","Black-throated Sparrow","Amphispiza bilineata","L47016791","New York Mountain Rd (35.20465, -115.34228)","2025-06-03 18:53",4,35.204654,-115.342276,TRUE,FALSE,TRUE,"S247645274"
"368","bktspa","Black-throated Sparrow","Amphispiza bilineata","L20489313","Buck Ridge Place/House","2025-06-03 18:53",1,32.3980658,-110.9402406,TRUE,FALSE,TRUE,"S246496095"
"369","bktspa","Black-throated Sparrow","Amphispiza bilineata","L46777396","Oreana Cut Off Rd at Poison Creek","2025-06-03 18:45",2,42.807283,-116.237322,TRUE,FALSE,TRUE,"S246498647"
"370","bktspa","Black-throated Sparrow","Amphispiza bilineata","L3602679","Crystalaire Country Club (private property)","2025-06-03 18:23",2,34.4711394,-117.8460073,TRUE,FALSE,FALSE,"S246487204"
"371","bktspa","Black-throated Sparrow","Amphispiza bilineata","L891127","Carson River Park/Silver Saddle Ranch","2025-06-03 18:05",1,39.1363102,-119.7069132,TRUE,FALSE,TRUE,"S246818769"
"372","bktspa","Black-throated Sparrow","Amphispiza bilineata","L38858235","Anklam House","2025-06-03 17:45",2,32.229569,-111.049063,TRUE,FALSE,TRUE,"S246491645"
"373","bktspa","Black-throated Sparrow","Amphispiza bilineata","L1404585","Arches NP--Windows Trail","2025-06-03 17:19",2,38.6876374,-109.5376193,TRUE,FALSE,FALSE,"S246498422"
"374","bktspa","Black-throated Sparrow","Amphispiza bilineata","L25290933","Carrizo Gorge Road S of I-8","2025-06-03 17:12",8,32.6291679,-116.1626073,TRUE,FALSE,TRUE,"S246514810"
"375","bktspa","Black-throated Sparrow","Amphispiza bilineata","L46771035","East White House Canyon Road, Sahuarita, Arizona, US (31.791, -110.879)","2025-06-03 17:05",2,31.7914322,-110.8793399,TRUE,FALSE,TRUE,"S246466461"
"376","bktspa","Black-throated Sparrow","Amphispiza bilineata","L28614820","PRIVATE RESIDENCE: Marble Falls, TX","2025-06-03 16:30",1,30.482192,-98.294808,TRUE,FALSE,TRUE,"S246492253"
"377","bktspa","Black-throated Sparrow","Amphispiza bilineata","L1542599","Arches NP--Park Avenue","2025-06-03 16:17",1,38.6243384,-109.5994482,TRUE,FALSE,FALSE,"S246432489"
"378","bktspa","Black-throated Sparrow","Amphispiza bilineata","L1757515","Dragoon Mt. Ranch, E Kingbird Trail (private)","2025-06-03 14:00",1,31.9252252,-110.0585951,TRUE,FALSE,TRUE,"S246557316"
"379","bktspa","Black-throated Sparrow","Amphispiza bilineata","L1873547","Camp Creek","2025-06-03 13:34",1,33.9100521,-111.8163773,TRUE,FALSE,FALSE,"S246500797"
"380","bktspa","Black-throated Sparrow","Amphispiza bilineata","L46778331","Sesena Creek","2025-06-03 13:31",5,42.215132,-118.697231,TRUE,FALSE,TRUE,"S246503620"
"381","bktspa","Black-throated Sparrow","Amphispiza bilineata","L17161488","Malheur NWR--Buena Vista Butte Viewpoint","2025-06-03 13:17",1,43.063656,-118.866963,TRUE,FALSE,TRUE,"S246816418"
"382","bktspa","Black-throated Sparrow","Amphispiza bilineata","L1108726","Arches NP--Devil's Garden Trail","2025-06-03 13:01",4,38.7862714,-109.5972919,TRUE,FALSE,FALSE,"S246973422"
"383","bktspa","Black-throated Sparrow","Amphispiza bilineata","L4718095","West of Richfield","2025-06-03 13:00",4,38.779295,-112.113045,TRUE,FALSE,TRUE,"S246477378"
"384","bktspa","Black-throated Sparrow","Amphispiza bilineata","L5522272","Granite Mountains Reserve--Allanson Center","2025-06-03 12:34",6,34.7819544,-115.6536958,TRUE,FALSE,FALSE,"S246391933"
"385","bktspa","Black-throated Sparrow","Amphispiza bilineata","L33942886","Agua Fria NM- Indian Creek (east)","2025-06-03 12:24",1,34.296199,-111.997421,TRUE,FALSE,TRUE,"S246419882"
"386","bktspa","Black-throated Sparrow","Amphispiza bilineata","L35513979","Placita Cresta Loma-Back","2025-06-03 11:46",1,32.3015168,-110.9840233,TRUE,FALSE,TRUE,"S246377317"
"387","bktspa","Black-throated Sparrow","Amphispiza bilineata","L18976002","Davis Mtns SP--Interpretive Center","2025-06-03 11:15",2,30.5956658,-103.9304521,TRUE,FALSE,FALSE,"S246342218"
"388","bktspa","Black-throated Sparrow","Amphispiza bilineata","L3824246","Cochise College (Sierra Vista Campus)","2025-06-03 11:10",2,31.5640289,-110.2463329,TRUE,FALSE,FALSE,"S246374181"
"389","bktspa","Black-throated Sparrow","Amphispiza bilineata","L1957708","Weissler Yard, Hereford","2025-06-03 10:51",2,31.40261,-110.23148,TRUE,FALSE,TRUE,"S246355666"
"390","bktspa","Black-throated Sparrow","Amphispiza bilineata","L6068179","Lower Rock Creek","2025-06-03 10:45",2,37.5107471,-118.607626,TRUE,FALSE,FALSE,"S246356740"
"391","bktspa","Black-throated Sparrow","Amphispiza bilineata","L46777897","Cibola National Forest, Albuquerque US-NM","2025-06-03 10:31",2,35.180948,-106.473088,TRUE,FALSE,TRUE,"S246501451"
"392","bktspa","Black-throated Sparrow","Amphispiza bilineata","L37504519","Middle Tanque Verde Recreation Area","2025-06-03 10:18",2,32.2556802,-110.6622986,TRUE,FALSE,FALSE,"S246357559"
"393","bktspa","Black-throated Sparrow","Amphispiza bilineata","L46748814","93526, Independence US-CA Thrasher site 36.79904, -118.17601","2025-06-03 10:16",3,36.799041,-118.176006,TRUE,FALSE,TRUE,"S246357794"
"394","bktspa","Black-throated Sparrow","Amphispiza bilineata","L46753290","Bajada Wash Trail, Tucson US-AZ 32.27760, -111.20041","2025-06-03 10:05",1,32.277605,-111.200413,TRUE,FALSE,TRUE,"S246376257"
"395","bktspa","Black-throated Sparrow","Amphispiza bilineata","L525504","Burr Trail Rd.--Long Canyon & vicinity","2025-06-03 10:00",4,37.9187775,-111.2386312,TRUE,FALSE,FALSE,"S246828279"
"396","bktspa","Black-throated Sparrow","Amphispiza bilineata","L46767406","545 Utah 313, Moab, Utah, US (38.648, -109.724)","2025-06-03 09:53",1,38.6484183,-109.7238394,TRUE,FALSE,TRUE,"S246446527"
"397","bktspa","Black-throated Sparrow","Amphispiza bilineata","L12567825","La Cieneguilla Petroglyphs Trailhead","2025-06-03 09:45",2,35.6090223,-106.120162,TRUE,FALSE,FALSE,"S246383548"
"398","bktspa","Black-throated Sparrow","Amphispiza bilineata","L3778876","Independence--Mazourka Canyon Rd","2025-06-03 09:41",4,36.797432,-118.176214,TRUE,FALSE,TRUE,"S246398574"
"399","bktspa","Black-throated Sparrow","Amphispiza bilineata","L15285377","SNL 50","2025-06-03 09:20",2,34.957303,-106.443185,TRUE,FALSE,TRUE,"S246306418"
"400","bktspa","Black-throated Sparrow","Amphispiza bilineata","L46737692","E. Glenwood Rd Loop","2025-06-03 09:19",1,38.7742633,-112.03374,TRUE,FALSE,TRUE,"S246308310"
"401","bktspa","Black-throated Sparrow","Amphispiza bilineata","L15285373","SNL 49","2025-06-03 09:13",3,34.957547,-106.450394,TRUE,FALSE,TRUE,"S246304251"
"402","bktspa","Black-throated Sparrow","Amphispiza bilineata","L15285352","SNL 48","2025-06-03 09:08",1,34.960456,-106.455757,TRUE,FALSE,TRUE,"S246304432"
"403","bktspa","Black-throated Sparrow","Amphispiza bilineata","L7692624","Arches NP--Delicate Arch Trail","2025-06-03 09:08",6,38.7395571,-109.5121694,TRUE,FALSE,FALSE,"S246362122"
"404","bktspa","Black-throated Sparrow","Amphispiza bilineata","L15283526","SNL 47","2025-06-03 09:01",2,34.96465,-106.45515,TRUE,FALSE,TRUE,"S246304330"
"405","bktspa","Black-throated Sparrow","Amphispiza bilineata","L15283456","SNL 46","2025-06-03 08:56",1,34.966345,-106.456389,TRUE,FALSE,TRUE,"S246298575"
"406","bktspa","Black-throated Sparrow","Amphispiza bilineata","L11910413","Davis Mountains State Park, Fort Davis US-TX 30.59571, -103.93057","2025-06-03 08:54",2,30.595709,-103.930574,TRUE,FALSE,TRUE,"S246342440"
"407","bktspa","Black-throated Sparrow","Amphispiza bilineata","L40131616","Rooney Ranch Shopping Center","2025-06-03 08:54",3,32.403391,-110.953618,TRUE,FALSE,TRUE,"S246348264"
"408","bktspa","Black-throated Sparrow","Amphispiza bilineata","L15283368","SNL 45","2025-06-03 08:51",2,34.971177,-106.460316,TRUE,FALSE,TRUE,"S246295968"
"409","bktspa","Black-throated Sparrow","Amphispiza bilineata","L46744546","maverick helicopter landing area","2025-06-03 08:46",4,35.960328,-113.745239,TRUE,FALSE,TRUE,"S246339055"
"410","bktspa","Black-throated Sparrow","Amphispiza bilineata","L15283314","SNL 44","2025-06-03 08:45",3,34.978202,-106.461908,TRUE,FALSE,TRUE,"S246294258"
"411","bktspa","Black-throated Sparrow","Amphispiza bilineata","L15283250","SNL 43","2025-06-03 08:38",2,34.983904,-106.467251,TRUE,FALSE,TRUE,"S246291592"
"412","bktspa","Black-throated Sparrow","Amphispiza bilineata","L2427011","Chiricahua Mtns.--Whitetail Canyon","2025-06-03 08:36",1,31.9994008,-109.2720124,TRUE,FALSE,TRUE,"S246416123"
"413","bktspa","Black-throated Sparrow","Amphispiza bilineata","L43270974","Kayenta","2025-06-03 08:35",1,37.1834919,-113.7103693,TRUE,FALSE,TRUE,"S246298084"
"414","bktspa","Black-throated Sparrow","Amphispiza bilineata","L4444124","Alpine Cemetery","2025-06-03 08:30",1,30.3575455,-103.6357069,TRUE,FALSE,FALSE,"S246451681"
"415","bktspa","Black-throated Sparrow","Amphispiza bilineata","L15283182","SNL 42","2025-06-03 08:30",2,34.987702,-106.473103,TRUE,FALSE,TRUE,"S246307855"
"416","bktspa","Black-throated Sparrow","Amphispiza bilineata","L2623415","Joshua Drive","2025-06-03 08:30",3,35.5831347,-114.260553,TRUE,FALSE,TRUE,"S246705947"
"417","bktspa","Black-throated Sparrow","Amphispiza bilineata","L15283110","SNL 41","2025-06-03 08:25",1,34.988298,-106.481699,TRUE,FALSE,TRUE,"S246289900"
"418","bktspa","Black-throated Sparrow","Amphispiza bilineata","L15283061","SNL 40","2025-06-03 08:20",2,34.98412,-106.487899,TRUE,FALSE,TRUE,"S246289825"
"419","bktspa","Black-throated Sparrow","Amphispiza bilineata","L4639439","Agua Fria NM--Silver Creek","2025-06-03 08:17",2,34.2474615,-112.057339,TRUE,FALSE,FALSE,"S246344344"
"420","bktspa","Black-throated Sparrow","Amphispiza bilineata","L46737684","S Madera Canyon Rd, Sonoita US-AZ 31.75612, -110.88702","2025-06-03 08:17",1,31.756121,-110.887022,TRUE,FALSE,TRUE,"S246308266"
"421","bktspa","Black-throated Sparrow","Amphispiza bilineata","L15283003","SNL 39","2025-06-03 08:16",1,34.977133,-106.492711,TRUE,FALSE,TRUE,"S246289697"
"422","bktspa","Black-throated Sparrow","Amphispiza bilineata","L3286634","Morning Star Ranch - Winery Springs Cyn.","2025-06-03 08:14",1,31.5651832,-110.937242,TRUE,FALSE,TRUE,"S246329311"
"423","bktspa","Black-throated Sparrow","Amphispiza bilineata","L15282945","SNL 38","2025-06-03 08:11",2,34.973362,-106.499156,TRUE,FALSE,TRUE,"S246281684"
"424","bktspa","Black-throated Sparrow","Amphispiza bilineata","L915760","Diamond Craters","2025-06-03 08:04",1,43.078167,-118.7549114,TRUE,FALSE,FALSE,"S246514606"
"425","bktspa","Black-throated Sparrow","Amphispiza bilineata","L33299867","Carlon Road BTSP Spot","2025-06-03 08:02",1,43.005711,-120.739358,TRUE,FALSE,TRUE,"S246318747"
"426","bktspa","Black-throated Sparrow","Amphispiza bilineata","L46741055","Halloran Summit Rd, CA","2025-06-03 07:59",9,35.400178,-115.790155,TRUE,FALSE,TRUE,"S246323470"
"427","bktspa","Black-throated Sparrow","Amphispiza bilineata","L1183306","San Pedro RNCA--Kingfisher Pond","2025-06-03 07:59",2,31.5427632,-110.1337928,TRUE,FALSE,FALSE,"S246353027"
"428","bktspa","Black-throated Sparrow","Amphispiza bilineata","L15282756","SNL 35","2025-06-03 07:51",1,34.966871,-106.516823,TRUE,FALSE,TRUE,"S246274685"
"429","bktspa","Black-throated Sparrow","Amphispiza bilineata","L15290326","6530 N Calle Lottie, Tucson US-AZ 32.32574, -110.95568","2025-06-03 07:45",2,32.325742,-110.955681,TRUE,FALSE,TRUE,"S246367649"
"430","bktspa","Black-throated Sparrow","Amphispiza bilineata","L24317100","Box Canyon--old dam area","2025-06-03 07:43",2,31.798956,-110.777034,TRUE,FALSE,FALSE,"S246352546"
"431","bktspa","Black-throated Sparrow","Amphispiza bilineata","L15282462","SNL 30","2025-06-03 07:26",1,34.971602,-106.560235,TRUE,FALSE,TRUE,"S246264984"
"432","bktspa","Black-throated Sparrow","Amphispiza bilineata","L15282379","SNL 29","2025-06-03 07:20",2,34.978377,-106.560396,TRUE,FALSE,TRUE,"S246263036"
"433","bktspa","Black-throated Sparrow","Amphispiza bilineata","L2843851","Willow Springs Road--Willow Springs Tank","2025-06-03 07:20",5,32.6938728,-110.9218526,TRUE,FALSE,FALSE,"S246386996"
"434","bktspa","Black-throated Sparrow","Amphispiza bilineata","L46755860","89410, Gardnerville US-NV 38.90490, -119.58438","2025-06-03 07:18",1,38.904895,-119.584376,TRUE,FALSE,TRUE,"S246390254"
"435","bktspa","Black-throated Sparrow","Amphispiza bilineata","L21910728","Petroglyphs National Monument -Lower Loop","2025-06-03 07:16",14,35.103688,-106.755012,TRUE,FALSE,TRUE,"S246319763"
"436","bktspa","Black-throated Sparrow","Amphispiza bilineata","L46702818","Woodland Trail","2025-06-03 07:15",14,30.727949,-98.370826,TRUE,FALSE,TRUE,"S246260257"
"437","bktspa","Black-throated Sparrow","Amphispiza bilineata","L15282332","SNL 28","2025-06-03 07:14",1,34.985788,-106.560694,TRUE,FALSE,TRUE,"S246260957"
"438","bktspa","Black-throated Sparrow","Amphispiza bilineata","L45885466","11 2nd Mesa Drive, Placitas, New Mexico, US (35.334, -106.492)","2025-06-03 07:10",4,35.3337962,-106.491726,TRUE,FALSE,TRUE,"S246289478"
"439","bktspa","Black-throated Sparrow","Amphispiza bilineata","L15282283","SNL 27","2025-06-03 07:09",2,34.992526,-106.560629,TRUE,FALSE,TRUE,"S246258919"
"440","bktspa","Black-throated Sparrow","Amphispiza bilineata","L4205088","Kayenta","2025-06-03 07:02",3,37.1825612,-113.7071121,TRUE,FALSE,FALSE,"S246308562"
"441","bktspa","Black-throated Sparrow","Amphispiza bilineata","L128965","Florida Wash at Madera Canyon Rd","2025-06-03 07:01",1,31.7835694,-110.8863696,TRUE,FALSE,FALSE,"S246324999"
"442","bktspa","Black-throated Sparrow","Amphispiza bilineata","L35513933","Placita Cresta Loma- Front","2025-06-03 07:00",1,32.3016224,-110.9837563,TRUE,FALSE,TRUE,"S246287452"
"443","bktspa","Black-throated Sparrow","Amphispiza bilineata","L29223905","Sonoran Reserve Apartments (no public access)","2025-06-03 07:00",1,32.221578,-111.025705,TRUE,FALSE,TRUE,"S246761442"
"444","bktspa","Black-throated Sparrow","Amphispiza bilineata","L39931175","Buckhorn bend","2025-06-03 07:00",6,35.30762,-114.047564,TRUE,FALSE,TRUE,"S246295681"
"445","bktspa","Black-throated Sparrow","Amphispiza bilineata","L32982923","Nighthawk Native Nursery, Tucson, Arizona, US (32.203, -111.209)","2025-06-03 06:57",2,32.2028633,-111.208825,TRUE,FALSE,TRUE,"S246289654"
"446","bktspa","Black-throated Sparrow","Amphispiza bilineata","L35253415","My yard Green Valley","2025-06-03 06:52",1,31.870396,-111.009451,TRUE,FALSE,TRUE,"S246292023"
"447","bktspa","Black-throated Sparrow","Amphispiza bilineata","L5859985","Canyonlands NP--Mesa Arch Trail","2025-06-03 06:52",3,38.388624,-109.8651921,TRUE,FALSE,FALSE,"S246268664"
"448","bktspa","Black-throated Sparrow","Amphispiza bilineata","L2513062","Coker Property","2025-06-03 06:50",2,32.023586,-110.629059,TRUE,FALSE,TRUE,"S246295392"
"449","bktspa","Black-throated Sparrow","Amphispiza bilineata","L46733549","County 2nd Street North, Roll, Arizona, US (32.732, -113.732)","2025-06-03 06:48",1,32.7317485,-113.7319444,TRUE,FALSE,TRUE,"S246288459"
"450","bktspa","Black-throated Sparrow","Amphispiza bilineata","L24920396","BBS route","2025-06-03 06:47",1,31.9141464,-109.1514507,TRUE,FALSE,TRUE,"S246673608"
"451","bktspa","Black-throated Sparrow","Amphispiza bilineata","L24919929","Paradise Road, San Simon, Arizona, US (31.916, -109.155)","2025-06-03 06:39",2,31.9157001,-109.1545683,TRUE,FALSE,TRUE,"S246671079"
"452","bktspa","Black-throated Sparrow","Amphispiza bilineata","L24919955","Paradise Road, San Simon, Arizona, US (31.928, -109.17)","2025-06-03 06:32",1,31.9276309,-109.1698505,TRUE,FALSE,TRUE,"S246667876"
"453","bktspa","Black-throated Sparrow","Amphispiza bilineata","L25604337","Private Residence 1500 Greystone Ranch Rd, Burnet US-TX 30.66089, -98.15604","2025-06-03 06:30",2,30.660891,-98.156039,TRUE,FALSE,TRUE,"S246493621"
"454","bktspa","Black-throated Sparrow","Amphispiza bilineata","L46759052","Cortez BLM","2025-06-03 06:28",7,37.302325,-108.671812,TRUE,FALSE,TRUE,"S246405063"
"455","bktspa","Black-throated Sparrow","Amphispiza bilineata","L24919945","Paradise Road, San Simon, Arizona, US (31.921, -109.161)","2025-06-03 06:25",2,31.9209997,-109.1614946,TRUE,FALSE,TRUE,"S246669544"
"456","bktspa","Black-throated Sparrow","Amphispiza bilineata","L25128304","BBS route","2025-06-03 06:18",1,31.9302648,-109.1747545,TRUE,FALSE,TRUE,"S246665085"
"457","bktspa","Black-throated Sparrow","Amphispiza bilineata","L24920334","BBS route","2025-06-03 06:10",1,31.9333624,-109.1815257,TRUE,FALSE,TRUE,"S246662141"
"458","bktspa","Black-throated Sparrow","Amphispiza bilineata","L1100233","Agua Caliente County Park","2025-06-03 06:10",4,32.9503072,-116.3034582,TRUE,FALSE,FALSE,"S246281755"
"459","bktspa","Black-throated Sparrow","Amphispiza bilineata","L29575648","McGregor, Timberon, NM (32.548, -105.65)","2025-06-03 06:08",11,32.5481135,-105.650129,TRUE,FALSE,TRUE,"S246438163"
"460","bktspa","Black-throated Sparrow","Amphispiza bilineata","L24919975","Paradise Road, San Simon, Arizona, US (31.932, -109.19)","2025-06-03 06:03",1,31.9316503,-109.1902741,TRUE,FALSE,TRUE,"S246659535"
"461","bktspa","Black-throated Sparrow","Amphispiza bilineata","L504745","Pony Express Rd -- Lookout  Pass ","2025-06-03 06:02",1,40.1151676,-112.5657463,TRUE,FALSE,FALSE,"S246315282"
"462","bktspa","Black-throated Sparrow","Amphispiza bilineata","L720448","Vekol Valley (Maricopa Co.)","2025-06-03 06:00",1,32.6980441,-112.2232819,TRUE,FALSE,FALSE,"S246434992"
"463","bktspa","Black-throated Sparrow","Amphispiza bilineata","L1744163","South Mountain Park--Pima Canyon Trail","2025-06-03 05:53",12,33.3628854,-111.9855282,TRUE,FALSE,FALSE,"S246328176"
"464","bktspa","Black-throated Sparrow","Amphispiza bilineata","L11510059","Spot Road Farm","2025-06-03 05:48",2,32.7969853,-113.352323,TRUE,FALSE,FALSE,"S246336567"
"465","bktspa","Black-throated Sparrow","Amphispiza bilineata","L46710129","Fields-Denio Rd.--42.22674, -118.64734","2025-06-03 05:47",2,42.226737,-118.647339,TRUE,FALSE,TRUE,"S246251604"
"466","bktspa","Black-throated Sparrow","Amphispiza bilineata","L729118","Santa Cruz River--Sunset Rd. to Camino del Cerro","2025-06-03 05:40",6,32.2993125,-111.0430877,TRUE,TRUE,FALSE,"S246380357"
"467","bktspa","Black-throated Sparrow","Amphispiza bilineata","L880694","Bosque del Apache NWR--Canyon Trail","2025-06-03 05:38",9,33.788662,-106.9051749,TRUE,FALSE,FALSE,"S246288069"
"468","bktspa","Black-throated Sparrow","Amphispiza bilineata","L1908708","Ventana Canyon Trail--lowlands section","2025-06-03 05:29",2,32.3379646,-110.8554411,TRUE,FALSE,TRUE,"S246275592"
"469","bktspa","Black-throated Sparrow","Amphispiza bilineata","L18461951","Neighborhood","2025-06-03 05:12",2,32.299075,-110.833703,TRUE,FALSE,TRUE,"S246288192"
"470","bktspa","Black-throated Sparrow","Amphispiza bilineata","L45072752","Whitlow Dam Arizona, US (33.297, -111.258)","2025-06-03 05:11",1,33.2967292,-111.258406,TRUE,FALSE,TRUE,"S246362308"
"471","bktspa","Black-throated Sparrow","Amphispiza bilineata","L11566162","Fields Dirt Rd.--42.22613, -118.66160","2025-06-03 05:10",2,42.226131,-118.661596,TRUE,FALSE,TRUE,"S246817980"
"472","bktspa","Black-throated Sparrow","Amphispiza bilineata","L24910830","Paradise Road, San Simon, Arizona, US (31.963, -109.208)","2025-06-03 05:04",2,31.9632107,-109.2082185,TRUE,FALSE,TRUE,"S246633033"
"473","bktspa","Black-throated Sparrow","Amphispiza bilineata","L46757136","SBD_Piute Valley_PJ survey","2025-06-03 05:01",38,35.401797,-115.506368,TRUE,FALSE,TRUE,"S246395797"
"474","bktspa","Black-throated Sparrow","Amphispiza bilineata","L740241","Beaver Dam Wash","2025-06-03 05:00",1,36.9029257,-113.9345956,TRUE,FALSE,FALSE,"S242178353"
"475","bktspa","Black-throated Sparrow","Amphispiza bilineata","L46521988","Green Witch--San Simon US-AZ","2025-06-03 04:57",1,31.930829,-109.119505,TRUE,FALSE,TRUE,"S246284679"
"476","bktspa","Black-throated Sparrow","Amphispiza bilineata","L24910782","Paradise Road, San Simon, Arizona, US (31.971, -109.206)","2025-06-03 04:57",2,31.9706618,-109.2059017,TRUE,FALSE,TRUE,"S246630638"
"477","bktspa","Black-throated Sparrow","Amphispiza bilineata","L22340935","Darby Well","2025-06-03 04:50",3,32.3374588,-112.8500443,TRUE,FALSE,FALSE,"S246233115"
"478","bktspa","Black-throated Sparrow","Amphispiza bilineata","L24910765","1353 South Turkey Creek Road, Portal, Arizona, US (31.978, -109.204)","2025-06-03 04:50",2,31.977662,-109.203736,TRUE,FALSE,TRUE,"S246620399"
"479","bktspa","Black-throated Sparrow","Amphispiza bilineata","L24909567","Paradise Road, San Simon, Arizona, US (31.985, -109.201)","2025-06-03 04:43",3,31.9847496,-109.2006188,TRUE,FALSE,TRUE,"S246618510"
"480","bktspa","Black-throated Sparrow","Amphispiza bilineata","L46710611","Gila Wilderness, Glenwood US-NM (33.3511,-108.7223)","2025-06-02 22:18",1,33.351056,-108.722279,TRUE,FALSE,TRUE,"S246167306"
"481","bktspa","Black-throated Sparrow","Amphispiza bilineata","L46807955","Campsite south of Fields","2025-06-02 20:38",1,42.226271,-118.662009,TRUE,FALSE,TRUE,"S246655360"
"482","bktspa","Black-throated Sparrow","Amphispiza bilineata","L46709265","89502, Reno US-NV 39.50864, -119.71232","2025-06-02 20:05",1,39.50864,-119.712325,TRUE,FALSE,TRUE,"S246160795"
"483","bktspa","Black-throated Sparrow","Amphispiza bilineata","L825284","Cibola NF--Strip Mine Trail","2025-06-02 19:53",3,35.3001666,-106.4805543,TRUE,FALSE,FALSE,"S246157049"
"484","bktspa","Black-throated Sparrow","Amphispiza bilineata","L46720562","Bates Well Road, Ajo, Arizona, US (32.3, -112.858)","2025-06-02 19:30",2,32.2999039,-112.8575125,TRUE,FALSE,TRUE,"S246213768"
"485","bktspa","Black-throated Sparrow","Amphispiza bilineata","L553152","Chiriaco Summit","2025-06-02 19:17",3,33.6614962,-115.7210755,TRUE,FALSE,FALSE,"S246154846"
"486","bktspa","Black-throated Sparrow","Amphispiza bilineata","L20791230","North Craycroft wash","2025-06-02 19:12",3,32.316313,-110.876273,TRUE,FALSE,TRUE,"S246160695"
"487","bktspa","Black-throated Sparrow","Amphispiza bilineata","L39231155","4305 N Camino del Obispo, Tucson US-AZ 32.28514, -110.93001","2025-06-02 18:09",3,32.285138,-110.930008,TRUE,FALSE,TRUE,"S246155992"
"488","bktspa","Black-throated Sparrow","Amphispiza bilineata","L46699344","8248–8298 E Box Canyon Rd, Sonoita US-AZ 31.79927, -110.79593","2025-06-02 18:05",3,31.799271,-110.795925,TRUE,FALSE,TRUE,"S246146732"
"489","bktspa","Black-throated Sparrow","Amphispiza bilineata","L21643568","1750 South Loy Street, Cornville, Arizona, US (34.708, -111.914)","2025-06-02 18:04",5,34.7079629,-111.9139894,TRUE,FALSE,TRUE,"S246145667"
"490","bktspa","Black-throated Sparrow","Amphispiza bilineata","L6418298","ABDNHA Botanical Garden","2025-06-02 17:55",2,33.2573343,-116.3768555,TRUE,FALSE,FALSE,"S246144227"
"491","bktspa","Black-throated Sparrow","Amphispiza bilineata","L21143400","Pontatoc Canyon","2025-06-02 17:30",16,32.3399538,-110.9034241,TRUE,FALSE,FALSE,"S246311316"
"492","bktspa","Black-throated Sparrow","Amphispiza bilineata","L30149767","Private Residence","2025-06-02 16:46",1,34.120064,-116.342366,TRUE,FALSE,TRUE,"S246133003"
"493","bktspa","Black-throated Sparrow","Amphispiza bilineata","L22059339","Wolff Yard, 476 E. Corte Pasadera Cobrizo, Green Valley US-AZ","2025-06-02 16:45",2,31.832615,-110.974984,TRUE,FALSE,TRUE,"S246150588"
"494","bktspa","Black-throated Sparrow","Amphispiza bilineata","L12259291","Calle Lottie Tucson","2025-06-02 16:00",1,32.3254475,-110.9561947,TRUE,FALSE,TRUE,"S246121299"
"495","bktspa","Black-throated Sparrow","Amphispiza bilineata","L46710654","Big Pine Rd, Big Pine US-CA 37.20833, -117.99180","2025-06-02 15:40",6,37.208331,-117.991799,TRUE,FALSE,TRUE,"S246167630"
"496","bktspa","Black-throated Sparrow","Amphispiza bilineata","L880965","Joshua Flats","2025-06-02 15:38",7,37.2357099,-117.9809546,TRUE,FALSE,FALSE,"S246167687"
"497","bktspa","Black-throated Sparrow","Amphispiza bilineata","L46695805","Four Corners Monument, UT section","2025-06-02 15:03",1,36.999751,-109.045692,TRUE,FALSE,TRUE,"S246088162"
"498","bktspa","Black-throated Sparrow","Amphispiza bilineata","L11553124","Nambe Badlands","2025-06-02 14:45",1,35.9250609,-105.9626107,TRUE,FALSE,FALSE,"S246076657"
"499","bktspa","Black-throated Sparrow","Amphispiza bilineata","L46693971","E Box Canyon Rd, Sahuarita US-AZ 31.79911, -110.80445","2025-06-02 14:29",2,31.799113,-110.804453,TRUE,FALSE,TRUE,"S246079210"
"500","bktspa","Black-throated Sparrow","Amphispiza bilineata","L46720629","Highway 62, Green Valley, Arizona, US (31.782, -110.851)","2025-06-02 13:58",2,31.7821672,-110.8507803,TRUE,FALSE,TRUE,"S246214232"
"501","bktspa","Black-throated Sparrow","Amphispiza bilineata","L18462321","Hickman Bridge Trail","2025-06-02 13:58",2,38.2902805,-111.2330038,TRUE,FALSE,FALSE,"S246146194"
"502","bktspa","Black-throated Sparrow","Amphispiza bilineata","L46779734","SR-266, Goldfield US-NV 37.45113, -117.51569","2025-06-02 13:53",1,37.451134,-117.515693,TRUE,FALSE,TRUE,"S246511078"
"503","bktspa","Black-throated Sparrow","Amphispiza bilineata","L46707245","Roosevelt Lake Overlook","2025-06-02 13:46",3,33.737861,-111.220709,TRUE,FALSE,TRUE,"S246151141"
"504","bktspa","Black-throated Sparrow","Amphispiza bilineata","L1002471","Warnock Park Picnic Area, Pecos Co.","2025-06-02 13:29",1,30.4823082,-102.9316297,TRUE,FALSE,FALSE,"S246090728"
"505","bktspa","Black-throated Sparrow","Amphispiza bilineata","L29487697","Kanab Dinosaur Tracks Trail","2025-06-02 13:09",3,37.083642,-112.538867,TRUE,FALSE,FALSE,"S246050680"
"506","bktspa","Black-throated Sparrow","Amphispiza bilineata","L46699229","8200–8224 E Box Canyon Rd, Sonoita US-AZ 31.78221, -110.85074","2025-06-02 13:07",1,31.782207,-110.850742,TRUE,FALSE,TRUE,"S246106923"
"507","bktspa","Black-throated Sparrow","Amphispiza bilineata","L432951","Death Valley NP--Panamint Springs Resort","2025-06-02 13:07",1,36.3395694,-117.4684381,TRUE,FALSE,FALSE,"S246683786"
"508","bktspa","Black-throated Sparrow","Amphispiza bilineata","L2040304","FR 618--Walker Creek area","2025-06-02 12:56",1,34.6488316,-111.7203945,TRUE,FALSE,FALSE,"S246088956"
"509","bktspa","Black-throated Sparrow","Amphispiza bilineata","L570840","Lida","2025-06-02 12:34",1,37.4557659,-117.4995625,TRUE,FALSE,FALSE,"S246135115"
"510","bktspa","Black-throated Sparrow","Amphispiza bilineata","L46685809","US-70, Peridot US-AZ 33.35047, -110.64212","2025-06-02 12:32",1,33.35047,-110.642115,TRUE,FALSE,TRUE,"S246039963"
"511","bktspa","Black-throated Sparrow","Amphispiza bilineata","L46687291","84700–84900 Carlon Ln, Silver Lake US-OR 43.00571, -120.75011","2025-06-02 12:28",1,43.005711,-120.750107,TRUE,FALSE,TRUE,"S246046636"
"512","bktspa","Black-throated Sparrow","Amphispiza bilineata","L4441650","Skamokawa Fernhill Cemetery","2025-06-02 12:19",1,46.2890333,-123.4562874,TRUE,TRUE,FALSE,"S246073799"
"513","bktspa","Black-throated Sparrow","Amphispiza bilineata","L15688668","Sabino Canyon Rec Area--Bear Canyon Trail, Visitor Center to IBA boundary","2025-06-02 12:12",3,32.3092868,-110.817647,TRUE,FALSE,TRUE,"S246038868"
"514","bktspa","Black-throated Sparrow","Amphispiza bilineata","L2350425","Meteor Crater Visitor Center","2025-06-02 12:02",1,35.0327304,-111.0217219,TRUE,FALSE,FALSE,"S246040103"
"515","bktspa","Black-throated Sparrow","Amphispiza bilineata","L516628","Devils River SNA— Del Norte Unit (HOTW 015)","2025-06-02 11:50",1,29.9406182,-100.9710073,TRUE,FALSE,FALSE,"S245986892"
"516","bktspa","Black-throated Sparrow","Amphispiza bilineata","L46682171","16000–16540 US-70, Fort Thomas US-AZ 33.04967, -109.98906","2025-06-02 11:43",1,33.049665,-109.989059,TRUE,FALSE,TRUE,"S246023651"
"517","bktspa","Black-throated Sparrow","Amphispiza bilineata","L46681859","7101–7211 S Country Club Rd, Tucson US-AZ 32.12226, -110.92600","2025-06-02 11:41",1,32.122255,-110.926004,TRUE,FALSE,TRUE,"S246022142"
"518","bktspa","Black-throated Sparrow","Amphispiza bilineata","L795536","Karlo Rd. Watchable Wildlife Area","2025-06-02 11:30",6,40.5846343,-120.2563047,TRUE,FALSE,FALSE,"S246168373"
"519","bktspa","Black-throated Sparrow","Amphispiza bilineata","L451746","Pipe Spring National Monument","2025-06-02 11:23",5,36.8625921,-112.7396393,TRUE,FALSE,FALSE,"S246041240"
"520","bktspa","Black-throated Sparrow","Amphispiza bilineata","L46680037","Fields-Denio Rd.--Only Wet Year Seasonal Pond--42.10155, -118.58092","2025-06-02 11:09",1,42.101555,-118.580919,TRUE,FALSE,TRUE,"S246014319"
"521","bktspa","Black-throated Sparrow","Amphispiza bilineata","L152046","Lordsburg Sewage Ponds","2025-06-02 11:03",1,32.3592192,-108.6999428,TRUE,FALSE,FALSE,"S246034495"
"522","bktspa","Black-throated Sparrow","Amphispiza bilineata","L6278128","Gold Butte NM--Whitney Pocket","2025-06-02 11:00",2,36.5234141,-114.1401279,TRUE,FALSE,FALSE,"S246070999"
"523","bktspa","Black-throated Sparrow","Amphispiza bilineata","L46677987","1220 U.S. 89A, Fredonia, Arizona, US (36.963, -112.526)","2025-06-02 10:55",1,36.9628495,-112.5261317,TRUE,FALSE,TRUE,"S246005219"
"524","bktspa","Black-throated Sparrow","Amphispiza bilineata","L46711660","Butler Wash Dinosaur Tracksite","2025-06-02 10:54",1,37.53442,-109.616934,TRUE,FALSE,TRUE,"S246172513"
"525","bktspa","Black-throated Sparrow","Amphispiza bilineata","L46694413","South Highway 191, Monticello, Utah, US (38.366, -109.438)","2025-06-02 10:51",1,38.3660346,-109.4377264,TRUE,FALSE,TRUE,"S246081323"
"526","bktspa","Black-throated Sparrow","Amphispiza bilineata","L11538791","South Fork (Right Hand) Mill Creek near Highland","2025-06-02 10:24",1,38.550395,-109.482723,TRUE,FALSE,TRUE,"S246362964"
"527","bktspa","Black-throated Sparrow","Amphispiza bilineata","L46690509","Portal/Paradise Rd Jct (31.915, -109.151)","2025-06-02 10:23",1,31.9146945,-109.1511814,TRUE,FALSE,TRUE,"S246061703"
"528","bktspa","Black-throated Sparrow","Amphispiza bilineata","L2006286","Las Cienegas NCA--Maternity Well","2025-06-02 10:20",3,31.7617997,-110.665475,TRUE,FALSE,FALSE,"S246004387"
"529","bktspa","Black-throated Sparrow","Amphispiza bilineata","L2397901","UNLV Campus","2025-06-02 10:18",1,36.1058195,-115.1393366,TRUE,FALSE,FALSE,"S246312958"
"530","bktspa","Black-throated Sparrow","Amphispiza bilineata","L46657373","Live oak loop 35.17536, -106.48872","2025-06-02 10:00",1,35.175363,-106.488721,TRUE,FALSE,TRUE,"S246066057"
"531","bktspa","Black-throated Sparrow","Amphispiza bilineata","L4592161","Hwy 95 -- Butler Wash","2025-06-02 09:49",1,37.5248392,-109.6304226,TRUE,FALSE,FALSE,"S246172425"
"532","bktspa","Black-throated Sparrow","Amphispiza bilineata","L5044100","Mayo Clinic Nature Trail","2025-06-02 09:45",4,33.5848212,-111.7919934,TRUE,FALSE,FALSE,"S246057147"
"533","bktspa","Black-throated Sparrow","Amphispiza bilineata","L3480110","Sycamore Canyon Neighborhood Park","2025-06-02 09:35",1,31.9413104,-110.7991818,TRUE,FALSE,FALSE,"S246006052"
"534","bktspa","Black-throated Sparrow","Amphispiza bilineata","L46699230","1–767 N Noland Rd, San Simon US-AZ 32.01328, -109.18751","2025-06-02 09:31",1,32.013279,-109.187509,TRUE,FALSE,TRUE,"S246106925"
"535","bktspa","Black-throated Sparrow","Amphispiza bilineata","L423246","Red Hills Rd.","2025-06-02 09:26",3,37.8573801,-120.4529536,TRUE,TRUE,FALSE,"S246172547"
"536","bktspa","Black-throated Sparrow","Amphispiza bilineata","L46703769","White Mountain Rd, Bishop US-CA 37.29265, -118.16769","2025-06-02 09:22",1,37.292653,-118.167685,TRUE,FALSE,TRUE,"S246132413"
"537","bktspa","Black-throated Sparrow","Amphispiza bilineata","L502613","Westgard Pass","2025-06-02 09:21",1,37.2805483,-118.1518692,TRUE,FALSE,FALSE,"S246166117"
"538","bktspa","Black-throated Sparrow","Amphispiza bilineata","L28284467","K10 Trail, Fruita US-CO 39.13350, -108.75609","2025-06-02 09:15",4,39.133505,-108.756088,TRUE,FALSE,TRUE,"S246755736"
"539","bktspa","Black-throated Sparrow","Amphispiza bilineata","L13819923","84532, Moab US-UT 38.56341, -109.45901","2025-06-02 09:05",4,38.563414,-109.45901,TRUE,FALSE,TRUE,"S246039267"
"540","bktspa","Black-throated Sparrow","Amphispiza bilineata","L28396489","1803 Abeja Court, Rio Rico, Arizona, US-Personal Residence","2025-06-02 09:01",3,31.5730655,-110.9998211,TRUE,FALSE,TRUE,"S246104402"
"541","bktspa","Black-throated Sparrow","Amphispiza bilineata","L46755019","89043, Pioche US-NV 38.21251, -114.98238","2025-06-02 09:00",2,38.212514,-114.982377,TRUE,FALSE,TRUE,"S246386328"
"542","bktspa","Black-throated Sparrow","Amphispiza bilineata","L5948468","Moon Valley Park","2025-06-02 09:00",1,33.6273485,-112.0809075,TRUE,FALSE,FALSE,"S246029520"
"543","bktspa","Black-throated Sparrow","Amphispiza bilineata","L270969","Catalina Regional Park--pond","2025-06-02 08:55",2,32.4635648,-110.9018976,TRUE,FALSE,FALSE,"S246073887"
"544","bktspa","Black-throated Sparrow","Amphispiza bilineata","L5614633","Colorado National Monument - Wedding Canyon Trail","2025-06-02 08:49",3,39.108485,-108.7039232,TRUE,FALSE,TRUE,"S245965559"
"545","bktspa","Black-throated Sparrow","Amphispiza bilineata","L7690570","Elephant Butte Lake SP--Isolated Lake","2025-06-02 08:45",1,33.3250767,-107.1891232,TRUE,FALSE,FALSE,"S246135993"
"546","bktspa","Black-throated Sparrow","Amphispiza bilineata","L46667485","Mount Lemmon Highway, Tucson, Arizona, US (32.311, -110.725)","2025-06-02 08:32",1,32.3111083,-110.724755,TRUE,FALSE,TRUE,"S245956215"
