"","speciesCode","comName","sciName","locId","locName","obsDt","howMany","lat","lng","obsValid","obsReviewed","locationPrivate","subId"
"1","larbun","Lark Bunting","Calamospiza melanocorys","L24476436","38001–39519 County Road 153, Agate US-CO 39.43527, -103.95489","2025-05-19 17:17",1,39.435272,-103.954893,TRUE,FALSE,TRUE,"S240394286"
"2","larbun","Lark Bunting","Calamospiza melanocorys","L3812976","Larimer CR 5 from CR 82 to 92 (bird from road)","2025-05-19 17:06",1,40.885908,-104.9812424,TRUE,FALSE,FALSE,"S240392385"
"3","larbun","Lark Bunting","Calamospiza melanocorys","L10045239","Keystone Rd, Sheridan US-WY (44.8317,-107.0942)","2025-05-19 16:23",1,44.831663,-107.094222,TRUE,FALSE,TRUE,"S240399623"
"4","larbun","Lark Bunting","Calamospiza melanocorys","L45494193","440 Hochmuth Rd, Roundup US-MT 46.54721, -108.65447","2025-05-19 16:22",10,46.547208,-108.654469,TRUE,FALSE,TRUE,"S240381623"
"5","larbun","Lark Bunting","Calamospiza melanocorys","L45492143","399 Grazing District Rd, Roundup US-MT 46.57604, -108.69572","2025-05-19 15:58",60,46.576041,-108.695724,TRUE,FALSE,TRUE,"S240371503"
"6","larbun","Lark Bunting","Calamospiza melanocorys","L45490761","US-40, Kit Carson US-CO 38.82423, -102.99331","2025-05-19 15:37",2,38.824227,-102.993305,TRUE,FALSE,TRUE,"S240363363"
"7","larbun","Lark Bunting","Calamospiza melanocorys","L45489124","7902 Road 8, Sidney, Nebraska, US (41.048, -103.299)","2025-05-19 15:02",5,41.0475049,-103.2988536,TRUE,FALSE,TRUE,"S240353772"
"8","larbun","Lark Bunting","Calamospiza melanocorys","L45488555","4200–4398 US-85, Yoder US-WY 41.86608, -104.26658","2025-05-19 14:57",1,41.866083,-104.266581,TRUE,FALSE,TRUE,"S240350846"
"9","larbun","Lark Bunting","Calamospiza melanocorys","L479505","Pine Bluffs--exit 1","2025-05-19 14:49",2,41.1768451,-104.039669,TRUE,FALSE,FALSE,"S240361251"
"10","larbun","Lark Bunting","Calamospiza melanocorys","L338150","Two Buttes Reservoir","2025-05-19 14:27",1,37.6302111,-102.5594,TRUE,FALSE,FALSE,"S240370658"
"11","larbun","Lark Bunting","Calamospiza melanocorys","L338774","Neegronda Reservoir","2025-05-19 14:25",12,38.3034071,-102.7543708,TRUE,FALSE,FALSE,"S240342996"
"12","larbun","Lark Bunting","Calamospiza melanocorys","L754760","Pawnee NG--Pawnee Buttes and area","2025-05-19 14:14",2,40.8016295,-104.0129113,TRUE,FALSE,FALSE,"S240339942"
"13","larbun","Lark Bunting","Calamospiza melanocorys","L45486153","“Parting of the Ways” Rest Area","2025-05-19 13:58",1,42.285775,-109.056642,TRUE,FALSE,TRUE,"S240339298"
"14","larbun","Lark Bunting","Calamospiza melanocorys","L934951","Pawnee NG Bird Tour--Stops 1-4 and Murphy's Pasture","2025-05-19 13:33",28,40.6827563,-104.3537387,TRUE,FALSE,FALSE,"S240337717"
"15","larbun","Lark Bunting","Calamospiza melanocorys","L45478661","31720 County Road 22, Rocky Ford, Colorado, US (38.094, -103.674)","2025-05-19 12:41",45,38.09435,-103.6740667,TRUE,FALSE,TRUE,"S240304408"
"16","larbun","Lark Bunting","Calamospiza melanocorys","L44020340","18860–19708 S Peyton Hwy, Colorado Springs US-CO 38.55850, -104.46006","2025-05-19 12:27",1,38.558504,-104.460059,TRUE,FALSE,TRUE,"S240302512"
"17","larbun","Lark Bunting","Calamospiza melanocorys","L45478394","Ben Altamirano Sports Complex, Silver City US-NM (32.7920,-108.2461)","2025-05-19 12:27",10,32.791988,-108.246079,TRUE,FALSE,TRUE,"S240303294"
"18","larbun","Lark Bunting","Calamospiza melanocorys","L45476793","CR-R43 1/2, Hyattville US-WY 44.18908, -107.69756","2025-05-19 12:03",25,44.189083,-107.697557,TRUE,FALSE,TRUE,"S240296045"
"19","larbun","Lark Bunting","Calamospiza melanocorys","L6806746","Rocky Mountain Arsenal NWR-- East Auto Tour","2025-05-19 11:41",1,39.8179101,-104.8280454,TRUE,FALSE,FALSE,"S240293447"
"20","larbun","Lark Bunting","Calamospiza melanocorys","L131615","Lake Henry","2025-05-19 11:21",8,38.2636986,-103.7109985,TRUE,FALSE,FALSE,"S240275045"
"21","larbun","Lark Bunting","Calamospiza melanocorys","L45468404","18618 County Road J, Ordway, Colorado, US (38.243, -103.737)","2025-05-19 10:47",3,38.2431217,-103.7367783,TRUE,FALSE,TRUE,"S240256954"
"22","larbun","Lark Bunting","Calamospiza melanocorys","L339927","Ramah SWA","2025-05-19 10:30",2,39.0963701,-104.2107566,TRUE,FALSE,FALSE,"S240302164"
"23","larbun","Lark Bunting","Calamospiza melanocorys","L45466318","U.S. Highway 412, Grenville, New Mexico,","2025-05-19 10:25",3,36.3387213,-103.5099192,TRUE,FALSE,TRUE,"S240247439"
"24","larbun","Lark Bunting","Calamospiza melanocorys","L45465160","3800–3832 County Road 24 S, Kimball US-NE (41.1631,-103.6821)","2025-05-19 10:13",2,41.163118,-103.682123,TRUE,FALSE,TRUE,"S240241967"
"25","larbun","Lark Bunting","Calamospiza melanocorys","L45464665","3798 County Road 28 S, Kimball US-NE 41.19235, -103.68771","2025-05-19 10:07",2,41.192353,-103.687709,TRUE,FALSE,TRUE,"S240239550"
"26","larbun","Lark Bunting","Calamospiza melanocorys","L2953779","Independence Rock State Historic Site","2025-05-19 09:55",30,42.4944094,-107.1327281,TRUE,FALSE,FALSE,"S240250878"
"27","larbun","Lark Bunting","Calamospiza melanocorys","L285733","Chico Basin Ranch--headquarters area (Pueblo Co) (mandatory registration required at www.aikenaudubon.com)","2025-05-19 08:38",2,38.5070217,-104.4403696,TRUE,FALSE,FALSE,"S240323599"
"28","larbun","Lark Bunting","Calamospiza melanocorys","L45482478","21076–22596 S Peyton Hwy, Colorado Springs US-CO 38.52508, -104.44101","2025-05-19 08:35",4,38.525075,-104.441011,TRUE,FALSE,TRUE,"S240321713"
"29","larbun","Lark Bunting","Calamospiza melanocorys","L36886641","80928, Colorado Springs US-CO 38.53600, -104.45209","2025-05-19 08:29",1,38.535996,-104.452094,TRUE,FALSE,TRUE,"S240321807"
"30","larbun","Lark Bunting","Calamospiza melanocorys","L45452343","I-25, Glenrock US-WY (42.8223,-105.7831)","2025-05-19 08:12",200,42.822331,-105.783061,TRUE,FALSE,TRUE,"S240184615"
"31","larbun","Lark Bunting","Calamospiza melanocorys","L5854862","DeHaven Ranch","2025-05-19 08:01",3,36.0523778,-103.8284414,TRUE,FALSE,TRUE,"S240340148"
"32","larbun","Lark Bunting","Calamospiza melanocorys","L45448699","16345 Lower Spring Creek Rd, Hermosa US-SD 43.78036, -102.79372","2025-05-19 07:43",8,43.780361,-102.793718,TRUE,FALSE,TRUE,"S240169681"
"33","larbun","Lark Bunting","Calamospiza melanocorys","L339981","Chico Basin Ranch--wooded areas (El Paso Co) (mandatory registration required at www.aikenaudubon.com)","2025-05-19 07:11",3,38.5411028,-104.4675811,TRUE,FALSE,FALSE,"S240237604"
"34","larbun","Lark Bunting","Calamospiza melanocorys","L167924","Rocky Mountain Arsenal NWR","2025-05-19 06:48",1,39.8209707,-104.8680639,TRUE,FALSE,FALSE,"S240259673"
"35","larbun","Lark Bunting","Calamospiza melanocorys","L45443894","US-385, Burlington US-CO 39.39252, -102.25945","2025-05-19 06:44",6,39.392524,-102.259448,TRUE,FALSE,TRUE,"S240143159"
"36","larbun","Lark Bunting","Calamospiza melanocorys","L299782","Burlington Lake (Goldeneye Reservoir)","2025-05-19 06:40",7,43.019333,-106.7073727,TRUE,FALSE,FALSE,"S240335665"
"37","larbun","Lark Bunting","Calamospiza melanocorys","L128969","Fort Peña Colorado Pk (The Post)(FWTX 28)","2025-05-19 06:40",3,30.152997,-103.2874735,TRUE,FALSE,FALSE,"S240322906"
"38","larbun","Lark Bunting","Calamospiza melanocorys","L285720","Chico Basin Ranch (El Paso Co) (mandatory registration required at www.aikenaudubon.com)","2025-05-19 06:37",7,38.5471585,-104.4583511,TRUE,FALSE,FALSE,"S240303993"
"39","larbun","Lark Bunting","Calamospiza melanocorys","L15586650","Cheyenne River Buffalo Ranch","2025-05-19 06:35",4,43.765101,-102.779383,TRUE,FALSE,TRUE,"S240159129"
"40","larbun","Lark Bunting","Calamospiza melanocorys","L45441542","US-18, Lusk US-WY (43.3180,-104.1116)","2025-05-19 06:08",3,43.318035,-104.111624,TRUE,FALSE,TRUE,"S240128980"
"41","larbun","Lark Bunting","Calamospiza melanocorys","L784758","McManamen Park","2025-05-18 17:54",4,44.3013701,-105.4975891,TRUE,FALSE,FALSE,"S240334689"
"42","larbun","Lark Bunting","Calamospiza melanocorys","L269284","Callao","2025-05-18 17:46",1,39.8960909,-113.7119007,TRUE,TRUE,FALSE,"S240023301"
"43","larbun","Lark Bunting","Calamospiza melanocorys","L45415508","WY-387, Midwest US-WY 43.45472, -106.21271","2025-05-18 17:31",2,43.454719,-106.212709,TRUE,FALSE,TRUE,"S239992857"
"44","larbun","Lark Bunting","Calamospiza melanocorys","L45413125","Maria’s House!","2025-05-18 16:57",1,42.322651,-103.076738,TRUE,FALSE,TRUE,"S239978849"
"45","larbun","Lark Bunting","Calamospiza melanocorys","L2723844","Christensen","2025-05-18 16:02",110,37.9387823,-102.7241421,TRUE,FALSE,TRUE,"S240028097"
"46","larbun","Lark Bunting","Calamospiza melanocorys","L45422594","Beaver Creek Rd","2025-05-18 16:00",20,45.78224,-106.15701,TRUE,FALSE,TRUE,"S240033026"
"47","larbun","Lark Bunting","Calamospiza melanocorys","L45403480","Bridges to Buttes Byway, Merriman, Nebraska, US (42.817, -101.905)","2025-05-18 14:56",7,42.81733,-101.9047607,TRUE,FALSE,TRUE,"S239930346"
"48","larbun","Lark Bunting","Calamospiza melanocorys","L11323869","Tucker Gulch","2025-05-18 14:42",1,39.7664534,-105.2264027,TRUE,FALSE,FALSE,"S239960075"
"49","larbun","Lark Bunting","Calamospiza melanocorys","L37458720","Stone Hill Dr, Custer US-SD 43.76248, -103.58081","2025-05-18 13:27",1,43.762484,-103.580805,TRUE,FALSE,TRUE,"S239893893"
"50","larbun","Lark Bunting","Calamospiza melanocorys","L271803","Stalker Lake SWA","2025-05-18 13:23",1,40.0853843,-102.2761784,TRUE,FALSE,FALSE,"S239922739"
"51","larbun","Lark Bunting","Calamospiza melanocorys","L5983741","Badlands NP--Sage Creek CG","2025-05-18 13:15",1,43.8942433,-102.4138212,TRUE,FALSE,FALSE,"S239928238"
"52","larbun","Lark Bunting","Calamospiza melanocorys","L241543","Last Chance--Rest Area","2025-05-18 12:55",1,39.7395426,-103.5939717,TRUE,FALSE,FALSE,"S239879614"
"53","larbun","Lark Bunting","Calamospiza melanocorys","L45389293","County Road JJ, Las Animas US-CO 38.10125, -103.10287","2025-05-18 12:41",1,38.101247,-103.102867,TRUE,FALSE,TRUE,"S239865078"
"54","larbun","Lark Bunting","Calamospiza melanocorys","L40072196","Brown's property","2025-05-18 12:14",31,40.6691073,-104.3209699,TRUE,FALSE,TRUE,"S239892700"
"55","larbun","Lark Bunting","Calamospiza melanocorys","L14019845","Isabel Lake","2025-05-18 12:14",1,45.4352654,-101.4174934,TRUE,FALSE,FALSE,"S239863416"
"56","larbun","Lark Bunting","Calamospiza melanocorys","L45402119","12344–12398 CR-10, South Heart US-ND 46.88071, -103.06206","2025-05-18 11:56",3,46.880705,-103.062057,TRUE,FALSE,TRUE,"S239923711"
"57","larbun","Lark Bunting","Calamospiza melanocorys","L3012722","Wahatoya Lake and Daigre Reservoirs","2025-05-18 11:55",1,37.510662,-104.990952,TRUE,FALSE,FALSE,"S239864278"
"58","larbun","Lark Bunting","Calamospiza melanocorys","L948587","Hanover Road","2025-05-18 11:39",5,38.57793,-104.5293,TRUE,FALSE,FALSE,"S240029780"
"59","larbun","Lark Bunting","Calamospiza melanocorys","L4988360","Wind Cave NP--Approach from Wildlife Loop","2025-05-18 11:25",10,43.6429855,-103.4582734,TRUE,FALSE,FALSE,"S240005263"
"60","larbun","Lark Bunting","Calamospiza melanocorys","L5118469","North Platte River Access - Home","2025-05-18 11:14",31,42.8423783,-105.8094764,TRUE,FALSE,TRUE,"S239870568"
"61","larbun","Lark Bunting","Calamospiza melanocorys","L282520","Lagerman Agricultural Preserve--Lagerman Reservoir","2025-05-18 11:09",2,40.1348086,-105.1888925,TRUE,FALSE,FALSE,"S239883277"
"62","larbun","Lark Bunting","Calamospiza melanocorys","L4591489","Hudspeth Co.--I-10 Lasca Road Picnic Area","2025-05-18 11:07",1,31.213352,-105.4932225,TRUE,FALSE,FALSE,"S240023942"
"63","larbun","Lark Bunting","Calamospiza melanocorys","L9645810","Pawnee NG Bird Tour—Stops 9-11 (CR-104)","2025-05-18 11:05",160,40.7396581,-104.4454206,TRUE,FALSE,FALSE,"S239872283"
"64","larbun","Lark Bunting","Calamospiza melanocorys","L45391847","Lc 900, Sonoita US-AZ 31.70553, -110.59058","2025-05-18 10:54",1,31.705529,-110.590577,TRUE,TRUE,TRUE,"S239876706"
"65","larbun","Lark Bunting","Calamospiza melanocorys","L45373276","46th Avenue Southwest, Raleigh, North Dakota, US (46.193, -101.334)","2025-05-18 10:34",10,46.1928829,-101.333844,TRUE,FALSE,TRUE,"S239793451"
"66","larbun","Lark Bunting","Calamospiza melanocorys","L15966873","Rocky Mountain Arsenal NWR--Buckley and Henderson Hill Overlook Trails","2025-05-18 10:27",26,39.8697214,-104.8095814,TRUE,FALSE,FALSE,"S239822895"
"67","larbun","Lark Bunting","Calamospiza melanocorys","L45484376","1000–1074 Hat Creek Rd, Lusk US-WY (42.9042,-104.1850)","2025-05-18 10:15",3,42.904229,-104.185042,TRUE,FALSE,TRUE,"S240330439"
"68","larbun","Lark Bunting","Calamospiza melanocorys","L45474360","County Road 103, Grover US-CO 40.68219, -104.08615","2025-05-18 10:13",30,40.682187,-104.086152,TRUE,FALSE,TRUE,"S240284781"
"69","larbun","Lark Bunting","Calamospiza melanocorys","L1218686","Pactola Reservoir - Stilling Basin","2025-05-18 10:00",2,44.0746371,-103.4857178,TRUE,FALSE,FALSE,"S240404449"
"70","larbun","Lark Bunting","Calamospiza melanocorys","L10167401","Angostura Reservoir","2025-05-18 09:57",2,43.314446,-103.4206818,TRUE,FALSE,FALSE,"S239839537"
"71","larbun","Lark Bunting","Calamospiza melanocorys","L9908894","Castlewood Canyon SP--East Canyon Preservation Area (closed Nov thru May)","2025-05-18 09:40",1,39.3252231,-104.7300053,TRUE,FALSE,FALSE,"S239856567"
"72","larbun","Lark Bunting","Calamospiza melanocorys","L128907","Big Bend NP--Rio Grande Village (FWTX 44)","2025-05-18 09:37",2,29.1809226,-102.9557133,TRUE,FALSE,FALSE,"S239936386"
"73","larbun","Lark Bunting","Calamospiza melanocorys","L285734","Chico Basin Ranch--Rose Pond area (Pueblo Co) (mandatory registration required at www.aikenaudubon.com)","2025-05-18 09:35",5,38.4969,-104.43792,TRUE,FALSE,FALSE,"S239833348"
"74","larbun","Lark Bunting","Calamospiza melanocorys","L45365774","81007, Pueblo US-CO 38.37249, -104.72728","2025-05-18 09:35",3,38.372491,-104.727277,TRUE,FALSE,TRUE,"S239759055"
"75","larbun","Lark Bunting","Calamospiza melanocorys","L4145817","Sand Creek Rd--Laramie to Hutton Lake NWR","2025-05-18 09:33",16,41.2228264,-105.6361413,TRUE,FALSE,FALSE,"S239830989"
"76","larbun","Lark Bunting","Calamospiza melanocorys","L9644406","Pawnee NG Bird Tour—Stops 5-8","2025-05-18 09:14",55,40.683148,-104.410754,TRUE,FALSE,FALSE,"S239809799"
"77","larbun","Lark Bunting","Calamospiza melanocorys","L45401716","10501–11055 N Yoder Rd, Calhan US-CO 38.99837, -104.22060","2025-05-18 09:08",7,38.998374,-104.220596,TRUE,FALSE,TRUE,"S239921627"
"78","larbun","Lark Bunting","Calamospiza melanocorys","L45362368","County Road 802, La Junta US-CO 37.79792, -103.50742","2025-05-18 08:51",4,37.797916,-103.507419,TRUE,FALSE,TRUE,"S239744147"
"79","larbun","Lark Bunting","Calamospiza melanocorys","L45421063","Burnett  Rd","2025-05-18 08:40",15,47.07654,-109.0551,TRUE,FALSE,TRUE,"S240025322"
"80","larbun","Lark Bunting","Calamospiza melanocorys","L45401687","31801–32055 Funk Rd, Calhan US-CO 38.99784, -104.23836","2025-05-18 08:39",7,38.997843,-104.238363,TRUE,FALSE,TRUE,"S239921489"
"81","larbun","Lark Bunting","Calamospiza melanocorys","L45357273","3830 County Road 203, Cheyenne, Wyoming, US (41.058, -104.578)","2025-05-18 08:38",30,41.0579147,-104.5777443,TRUE,FALSE,TRUE,"S239719684"
"82","larbun","Lark Bunting","Calamospiza melanocorys","L37019408","Rosebud Creek Valley--CR 314","2025-05-18 08:32",2,45.4954046,-107.0034929,TRUE,FALSE,TRUE,"S240127100"
"83","larbun","Lark Bunting","Calamospiza melanocorys","L11074701","Private Ranch","2025-05-18 08:31",4,31.184213,-100.734324,TRUE,FALSE,TRUE,"S239825834"
"84","larbun","Lark Bunting","Calamospiza melanocorys","L37281667","Big Horn Co--Birney Road","2025-05-18 08:25",13,45.184982,-106.8713623,TRUE,FALSE,TRUE,"S240126932"
"85","larbun","Lark Bunting","Calamospiza melanocorys","L4848970","Funk Road, El Paso County","2025-05-18 08:02",1,38.9980858,-104.2530527,TRUE,FALSE,TRUE,"S239921079"
"86","larbun","Lark Bunting","Calamospiza melanocorys","L4318610","Bowdoin NWR--second 5 mi. Auto Tour Route","2025-05-18 07:59",1,48.4081921,-107.6499653,TRUE,FALSE,FALSE,"S239754657"
"87","larbun","Lark Bunting","Calamospiza melanocorys","L45421486","58643, Marmarth US-ND 46.18541, -103.99186","2025-05-18 07:43",46,46.185408,-103.99186,TRUE,FALSE,TRUE,"S240026235"
"88","larbun","Lark Bunting","Calamospiza melanocorys","L44431061","Two Bridges Open Space","2025-05-18 07:39",1,39.4135,-104.724902,TRUE,FALSE,TRUE,"S239750836"
"89","larbun","Lark Bunting","Calamospiza melanocorys","L1436413","Rt 325 Yucca-Sandsage Grasslands","2025-05-18 07:30",35,36.7335431,-102.714468,TRUE,FALSE,FALSE,"S239981640"
"90","larbun","Lark Bunting","Calamospiza melanocorys","L45359662","82072, Laramie US-WY (41.3340,-105.5717)","2025-05-18 07:25",1,41.333951,-105.571726,TRUE,FALSE,TRUE,"S239731311"
"91","larbun","Lark Bunting","Calamospiza melanocorys","L45353161","44034–44998 County Road 81, Briggsdale US-CO 40.64229, -104.29630","2025-05-18 07:23",20,40.642293,-104.2963,TRUE,FALSE,TRUE,"S239698894"
"92","larbun","Lark Bunting","Calamospiza melanocorys","L1051067","Brett Gray Ranch (restricted access)","2025-05-18 07:17",71,38.7303867,-103.8993707,TRUE,FALSE,FALSE,"S239891872"
"93","larbun","Lark Bunting","Calamospiza melanocorys","L5148291","Hanna Ranch (Private)","2025-05-18 07:15",6,38.5935024,-104.6548588,TRUE,FALSE,TRUE,"S239938338"
"94","larbun","Lark Bunting","Calamospiza melanocorys","L45347157","196–498 Lee St, Briggsdale US-CO 40.63242, -104.32117","2025-05-18 06:58",8,40.632422,-104.32117,TRUE,FALSE,TRUE,"S239668425"
"95","larbun","Lark Bunting","Calamospiza melanocorys","L45421694","Old Pueblo Rd, Fountain US-CO 38.60068, -104.67008","2025-05-18 06:50",4,38.600681,-104.670083,TRUE,FALSE,TRUE,"S240027292"
"96","larbun","Lark Bunting","Calamospiza melanocorys","L2912506","Venetucci Farm (restricted access)","2025-05-18 06:33",2,38.74959,-104.74901,TRUE,FALSE,FALSE,"S239861012"
"97","larbun","Lark Bunting","Calamospiza melanocorys","L131333","Pawnee NG--Crow Valley CG","2025-05-18 06:30",65,40.6438845,-104.3404627,TRUE,FALSE,FALSE,"S239745602"
"98","larbun","Lark Bunting","Calamospiza melanocorys","L45395485","Wind Cave National Park off Hwy 385","2025-05-18 06:26",2,43.527279,-103.491729,TRUE,FALSE,TRUE,"S239893031"
"99","larbun","Lark Bunting","Calamospiza melanocorys","L15159669","Hat Creek Breaks -- S Bar Rd","2025-05-18 06:22",8,42.872651,-104.131616,TRUE,FALSE,TRUE,"S240329454"
"100","larbun","Lark Bunting","Calamospiza melanocorys","L4318590","Bowdoin NWR--first 5 mi. Auto Tour Route","2025-05-18 06:10",5,48.3915524,-107.7287149,TRUE,FALSE,FALSE,"S239691905"
"101","larbun","Lark Bunting","Calamospiza melanocorys","L272183","Wyoming Hereford Ranch","2025-05-18 05:54",1,41.1267713,-104.6983874,TRUE,FALSE,FALSE,"S239675614"
"102","larbun","Lark Bunting","Calamospiza melanocorys","L818454","White Rocks Trail area","2025-05-18 05:29",3,40.049464,-105.1451039,TRUE,FALSE,FALSE,"S239662544"
"103","larbun","Lark Bunting","Calamospiza melanocorys","L45376295","Perico Creek, Kiowa National Grassland, New Mexico, US (36.351, -103.073)","2025-05-18 05:27",NA,36.3512644,-103.0731566,TRUE,FALSE,TRUE,"S239807280"
"104","larbun","Lark Bunting","Calamospiza melanocorys","L24716834","1443 Curtis Lake Lane, Fort Collins","2025-05-18 05:01",2,40.6773449,-105.1287488,TRUE,FALSE,TRUE,"S239757645"
"105","larbun","Lark Bunting","Calamospiza melanocorys","L45484216","Pine Bluffs","2025-05-17 20:18",NA,41.180087,-104.066422,TRUE,FALSE,TRUE,"S240329647"
"106","larbun","Lark Bunting","Calamospiza melanocorys","L1306367","Blue Dog Lake","2025-05-17 19:57",1,45.3525675,-97.301917,TRUE,FALSE,FALSE,"S239473691"
"107","larbun","Lark Bunting","Calamospiza melanocorys","L385426","Baker","2025-05-17 19:05",30,37.9975831,-102.6687384,TRUE,FALSE,TRUE,"S240376374"
"108","larbun","Lark Bunting","Calamospiza melanocorys","L45305513","Dakota, Oakley US-KS 38.74330, -100.85489","2025-05-17 19:00",1,38.743296,-100.854893,TRUE,FALSE,TRUE,"S239456198"
"109","larbun","Lark Bunting","Calamospiza melanocorys","L2137120","Kingfisher Point & Nix Farm Natural Area","2025-05-17 18:23",1,40.5744463,-105.0416671,TRUE,FALSE,FALSE,"S239483932"
"110","larbun","Lark Bunting","Calamospiza melanocorys","L45305372","3043–3099 Benton Ave, Salix US-IA 42.26644, -96.30922","2025-05-17 18:08",1,42.266444,-96.309222,TRUE,TRUE,TRUE,"S239455589"
"111","larbun","Lark Bunting","Calamospiza melanocorys","L45299708","12345 102 Road, Ensign, Kansas, US (37.571, -100.18)","2025-05-17 17:37",15,37.5706583,-100.1800103,TRUE,FALSE,TRUE,"S239426370"
"112","larbun","Lark Bunting","Calamospiza melanocorys","L7506647","Thunder Basin NG--Dunham Road","2025-05-17 17:25",2,43.871043,-104.453527,TRUE,FALSE,FALSE,"S239521966"
"113","larbun","Lark Bunting","Calamospiza melanocorys","L45297044","D D Road, Montezuma, Kansas, US (37.577, -100.429)","2025-05-17 17:03",1,37.5767057,-100.4286295,TRUE,FALSE,TRUE,"S239413348"
"114","larbun","Lark Bunting","Calamospiza melanocorys","L14994418","Lusk (town and sewage ponds)","2025-05-17 17:03",7,42.7600438,-104.4520008,TRUE,FALSE,FALSE,"S240045784"
"115","larbun","Lark Bunting","Calamospiza melanocorys","L23485512","Penny Lane","2025-05-17 16:59",1,39.197346,-104.886349,TRUE,FALSE,TRUE,"S239813405"
"116","larbun","Lark Bunting","Calamospiza melanocorys","L12491295","Cimarron - Miller's","2025-05-17 16:46",40,36.6547205,-102.6427768,TRUE,FALSE,TRUE,"S239409085"
"117","larbun","Lark Bunting","Calamospiza melanocorys","L461178","Melody Tempel Grove","2025-05-17 16:41",1,38.2489321,-102.761178,TRUE,FALSE,FALSE,"S239436202"
"118","larbun","Lark Bunting","Calamospiza melanocorys","L24551863","Palm And MacGillivray's Warbler.","2025-05-17 16:31",55,36.6478387,-102.6793177,TRUE,FALSE,TRUE,"S239409355"
"119","larbun","Lark Bunting","Calamospiza melanocorys","L45288658","Benton Avenue, Salix, Iowa, US (42.266, -96.309)","2025-05-17 15:13",1,42.2659432,-96.3091507,TRUE,TRUE,TRUE,"S239375265"
"120","larbun","Lark Bunting","Calamospiza melanocorys","L45288991","Benton Avenue, Salix, Iowa, US (42.266, -96.309)","2025-05-17 15:12",1,42.2656971,-96.3090613,TRUE,TRUE,TRUE,"S239376721"
"121","larbun","Lark Bunting","Calamospiza melanocorys","L263942","Christmas Mountains Oasis","2025-05-17 15:12",2,29.4917768,-103.4670389,TRUE,FALSE,FALSE,"S239496592"
"122","larbun","Lark Bunting","Calamospiza melanocorys","L45294245","45000–45098 County Road 141, New Raymer US-CO 40.91917, -103.74724","2025-05-17 15:12",1,40.919171,-103.747236,TRUE,FALSE,TRUE,"S239400889"
"123","larbun","Lark Bunting","Calamospiza melanocorys","L713438","Ford","2025-05-17 15:00",16,37.9843841,-102.503922,TRUE,FALSE,TRUE,"S239434072"
"124","larbun","Lark Bunting","Calamospiza melanocorys","L45291827","VO Highway 24, Matheson, Colorado, US (39.209, -103.83)","2025-05-17 14:40",3,39.2087429,-103.8297301,TRUE,FALSE,TRUE,"S239389967"
"125","larbun","Lark Bunting","Calamospiza melanocorys","L140450","Lower Latham Reservoir area","2025-05-17 14:34",35,40.3345066,-104.6397114,TRUE,FALSE,FALSE,"S239865381"
"126","larbun","Lark Bunting","Calamospiza melanocorys","L140457","Two Buttes SWA (as a whole)","2025-05-17 14:19",6,37.6358986,-102.5381012,TRUE,FALSE,FALSE,"S239788562"
"127","larbun","Lark Bunting","Calamospiza melanocorys","L3453357","Farmer RD between Bar 10 & S Ellicot Hwy 1 mile","2025-05-17 14:12",3,38.7221307,-104.3962955,TRUE,FALSE,TRUE,"S239461091"
"128","larbun","Lark Bunting","Calamospiza melanocorys","L4458053","Bar 10 RD between Squirrel Creek RD and Farmer Rd 2.0 miles","2025-05-17 13:48",10,38.7135554,-104.4036984,TRUE,FALSE,TRUE,"S239459189"
"129","larbun","Lark Bunting","Calamospiza melanocorys","L18319679","Squirrel Creek Rd between Peyton Hwy and Bar 10 Rd","2025-05-17 13:37",5,38.693953,-104.434667,TRUE,FALSE,TRUE,"S239458719"
"130","larbun","Lark Bunting","Calamospiza melanocorys","L45287905","2347 Wyoming 59, Douglas, Wyoming, US (43.063, -105.265)","2025-05-17 13:31",8,43.0629288,-105.2650101,TRUE,FALSE,TRUE,"S239371867"
"131","larbun","Lark Bunting","Calamospiza melanocorys","L45283945","Nebraska 88, Lyman, Nebraska, US (41.64, -103.947)","2025-05-17 13:25",1,41.6399862,-103.9465954,TRUE,FALSE,TRUE,"S239354254"
"132","larbun","Lark Bunting","Calamospiza melanocorys","L9034845","Rocky Mountain Arsenal NWR--Wildlife Drive","2025-05-17 13:23",80,39.8537552,-104.8238524,TRUE,FALSE,FALSE,"S239495414"
"133","larbun","Lark Bunting","Calamospiza melanocorys","L281893","Galisteo","2025-05-17 13:15",2,35.3948964,-105.9435315,TRUE,FALSE,FALSE,"S240006019"
"134","larbun","Lark Bunting","Calamospiza melanocorys","L2161824","Springer/Bump Sullivan Wildlife Habitat Management Area--Bump-Sullivan Reservoir","2025-05-17 13:08",9,41.863169,-104.3146706,TRUE,FALSE,FALSE,"S240046881"
"135","larbun","Lark Bunting","Calamospiza melanocorys","L3868061","Pawnee NG--Norma's Grove","2025-05-17 13:07",18,40.7108818,-104.5177782,TRUE,FALSE,FALSE,"S239368352"
"136","larbun","Lark Bunting","Calamospiza melanocorys","L483865","Running Deer & Cottonwood Hollow Natural Areas","2025-05-17 12:50",2,40.5656971,-105.017178,TRUE,FALSE,FALSE,"S239401143"
"137","larbun","Lark Bunting","Calamospiza melanocorys","L45280642","South Peyton Highway, Colorado Springs, Colorado, US (38.549, -104.458)","2025-05-17 12:49",1,38.549115,-104.4584971,TRUE,FALSE,TRUE,"S239340115"
"138","larbun","Lark Bunting","Calamospiza melanocorys","L45279616","S Mohawk Rd & Parallel Rd","2025-05-17 12:45",1,37.8248787,-97.9913425,TRUE,FALSE,TRUE,"S239337261"
"139","larbun","Lark Bunting","Calamospiza melanocorys","L3014539","Gantts Fort Ave. and Platteville Blvd.","2025-05-17 12:35",12,38.3689658,-104.7176805,TRUE,FALSE,TRUE,"S239361301"
"140","larbun","Lark Bunting","Calamospiza melanocorys","L45280934","County Road 69, Briggsdale US-CO 40.74046, -104.40907","2025-05-17 12:26",11,40.740461,-104.409068,TRUE,FALSE,TRUE,"S239341367"
"141","larbun","Lark Bunting","Calamospiza melanocorys","L45271946","3043–3099 Benton Ave, Salix US-IA 42.26526, -96.30922","2025-05-17 12:25",1,42.265264,-96.309223,TRUE,TRUE,TRUE,"S239303806"
"142","larbun","Lark Bunting","Calamospiza melanocorys","L684445","Crown Hill Regional Park","2025-05-17 12:18",2,39.7587378,-105.1023388,TRUE,FALSE,FALSE,"S239355042"
"143","larbun","Lark Bunting","Calamospiza melanocorys","L45276290","SH-10, Fowler US-CO 37.93103, -103.93705","2025-05-17 12:15",1,37.93103,-103.937053,TRUE,FALSE,TRUE,"S239321712"
"144","larbun","Lark Bunting","Calamospiza melanocorys","L45274663","Road B, Lamar US-CO 37.65380, -102.55122","2025-05-17 12:01",2,37.653795,-102.551224,TRUE,FALSE,TRUE,"S239315141"
"145","larbun","Lark Bunting","Calamospiza melanocorys","L45305336","Sweetwater Park","2025-05-17 12:00",1,39.5537119,-104.8883191,TRUE,FALSE,TRUE,"S239466367"
"146","larbun","Lark Bunting","Calamospiza melanocorys","L45274385","Road B, Lamar US-CO 37.65595, -102.54842","2025-05-17 11:58",2,37.655946,-102.548422,TRUE,FALSE,TRUE,"S239313914"
"147","larbun","Lark Bunting","Calamospiza melanocorys","L45394368","County Road 105 south of CO 14","2025-05-17 11:58",80,40.582453,-104.069449,TRUE,FALSE,TRUE,"S239887861"
"148","larbun","Lark Bunting","Calamospiza melanocorys","L45302882","County Road 108, Nunn","2025-05-17 11:58",10,40.7686026,-104.7141643,TRUE,FALSE,TRUE,"S239442240"
"149","larbun","Lark Bunting","Calamospiza melanocorys","L2204924","Pawnee NG--Weld CR 45 from CR 114 to 122","2025-05-17 11:35",30,40.857191,-104.639481,TRUE,FALSE,FALSE,"S239329600"
"150","larbun","Lark Bunting","Calamospiza melanocorys","L45264816","Benton Avenue, Salix, Iowa, US (42.265, -96.309)","2025-05-17 11:34",1,42.2648592,-96.3091345,TRUE,TRUE,TRUE,"S239273925"
"151","larbun","Lark Bunting","Calamospiza melanocorys","L45302866","County Road 110, Nunn","2025-05-17 11:30",10,40.7828276,-104.6453214,TRUE,FALSE,TRUE,"S239442166"
"152","larbun","Lark Bunting","Calamospiza melanocorys","L11442812","La Grange (town)","2025-05-17 11:23",3,41.6411923,-104.1651546,TRUE,FALSE,FALSE,"S240044156"
"153","larbun","Lark Bunting","Calamospiza melanocorys","L3738227","Buffalo Bill SP--North Shore Campground","2025-05-17 11:08",1,44.500852,-109.234314,TRUE,FALSE,FALSE,"S239302945"
"154","larbun","Lark Bunting","Calamospiza melanocorys","L45265431","U.S. Highway 385, Marathon, Texas, US (29.851, -103.241)","2025-05-17 11:07",1,29.8511127,-103.2413369,TRUE,FALSE,TRUE,"S239276669"
"155","larbun","Lark Bunting","Calamospiza melanocorys","L45386107","County Road 79, Briggsdale, Colorado, US (40.624, -104.316)","2025-05-17 11:04",9,40.6236917,-104.3156879,TRUE,FALSE,TRUE,"S239851221"
"156","larbun","Lark Bunting","Calamospiza melanocorys","L45385915","44393 County Road 81, Briggsdale, Colorado, US (40.645, -104.296)","2025-05-17 10:40",30,40.645496,-104.2964447,TRUE,FALSE,TRUE,"S239850427"
"157","larbun","Lark Bunting","Calamospiza melanocorys","L45257060","US-56, Felt US-OK 36.52532, -102.99065","2025-05-17 10:36",25,36.52532,-102.990651,TRUE,FALSE,TRUE,"S239240011"
"158","larbun","Lark Bunting","Calamospiza melanocorys","L45264709","44034–44998 County Road 81, Briggsdale US-CO 40.64393, -104.29631","2025-05-17 10:32",20,40.643926,-104.296315,TRUE,FALSE,TRUE,"S239273427"
"159","larbun","Lark Bunting","Calamospiza melanocorys","L272998","Boyd Lake","2025-05-17 10:32",30,40.4341128,-105.0338644,TRUE,FALSE,FALSE,"S239310845"
"160","larbun","Lark Bunting","Calamospiza melanocorys","L45395739","Cty Road 49 and Cty Rd 90","2025-05-17 10:28",3,40.638051,-104.601459,TRUE,FALSE,TRUE,"S239894046"
"161","larbun","Lark Bunting","Calamospiza melanocorys","L45302831","County Road 57, Ault","2025-05-17 10:27",10,40.6991928,-104.5246586,TRUE,FALSE,TRUE,"S239441936"
"162","larbun","Lark Bunting","Calamospiza melanocorys","L45424973","Bartlett Ranch (Private - No Public Access)","2025-05-17 10:17",80,41.707705,-104.41576,TRUE,FALSE,TRUE,"S240044129"
"163","larbun","Lark Bunting","Calamospiza melanocorys","L45261505","E 64th Ave, Denver US-CO 39.81653, -104.87159","2025-05-17 10:10",9,39.816527,-104.871594,TRUE,FALSE,TRUE,"S239259240"
"164","larbun","Lark Bunting","Calamospiza melanocorys","L31577870","Hillsdale state land","2025-05-17 10:01",25,41.249232,-104.484107,TRUE,FALSE,TRUE,"S239283918"
"165","larbun","Lark Bunting","Calamospiza melanocorys","L297765","Buffalo Lake NWR (PHP 039)","2025-05-17 09:52",6,34.9101471,-102.1138,TRUE,FALSE,FALSE,"S239307449"
"166","larbun","Lark Bunting","Calamospiza melanocorys","L45262813","44034–44998 County Road 81, Briggsdale US-CO 40.64142, -104.29594","2025-05-17 09:49",2,40.64142,-104.295937,TRUE,FALSE,TRUE,"S239264922"
"167","larbun","Lark Bunting","Calamospiza melanocorys","L45258487","1919 U.S. 20, Greybull, Wyoming, US (44.505, -108.215)","2025-05-17 09:49",1,44.5048154,-108.2149769,TRUE,FALSE,TRUE,"S239246301"
"168","larbun","Lark Bunting","Calamospiza melanocorys","L267335","Upper Queens/Neeskah Reservoir","2025-05-17 09:44",20,38.2951911,-102.6510143,TRUE,FALSE,FALSE,"S239266434"
"169","larbun","Lark Bunting","Calamospiza melanocorys","L42891654","58623, Bowman US-ND 46.05748, -103.51481","2025-05-17 09:36",1,46.057484,-103.514805,TRUE,FALSE,TRUE,"S239428865"
"170","larbun","Lark Bunting","Calamospiza melanocorys","L45396468","Cty Rd 114 and Cty Rd 49","2025-05-17 09:36",8,40.811285,-104.600974,TRUE,FALSE,TRUE,"S239889177"
"171","larbun","Lark Bunting","Calamospiza melanocorys","L45261050","21391–21999 SH-14, Ault US-CO 40.58111, -104.64434","2025-05-17 09:19",120,40.581108,-104.64434,TRUE,FALSE,TRUE,"S239257378"
"172","larbun","Lark Bunting","Calamospiza melanocorys","L30507979","County Road 138, Crook, Colorado, US (40.891, -102.691)","2025-05-17 09:19",2,40.8907993,-102.6905189,TRUE,FALSE,TRUE,"S239251615"
"173","larbun","Lark Bunting","Calamospiza melanocorys","L45255023","274 County Road 147, Carpenter US-WY 41.04176, -104.38949","2025-05-17 09:17",25,41.041758,-104.389493,TRUE,FALSE,TRUE,"S239230868"
"174","larbun","Lark Bunting","Calamospiza melanocorys","L15260324","Corral Bluffs (Limited Access)","2025-05-17 09:16",30,38.8497903,-104.5966738,TRUE,FALSE,FALSE,"S239317051"
"175","larbun","Lark Bunting","Calamospiza melanocorys","L687936","Chico Basin Ranch ,Pueblo Cty","2025-05-17 09:15",5,38.5079452,-104.4404125,TRUE,FALSE,TRUE,"S239969894"
"176","larbun","Lark Bunting","Calamospiza melanocorys","L1901783","Clement Park and Johnson Reservoir","2025-05-17 09:08",3,39.6063312,-105.0828203,TRUE,FALSE,FALSE,"S239268622"
"177","larbun","Lark Bunting","Calamospiza melanocorys","L45252896","Auto selected 41.03431, -104.46620","2025-05-17 09:06",1,41.034307,-104.466203,TRUE,FALSE,TRUE,"S239220934"
"178","larbun","Lark Bunting","Calamospiza melanocorys","L45253550","50648 County Road 57, Ault, Colorado, US (40.736, -104.524)","2025-05-17 09:04",50,40.7362408,-104.5242015,TRUE,FALSE,TRUE,"S239224054"
"179","larbun","Lark Bunting","Calamospiza melanocorys","L9645812","Pawnee NG Bird Tour—CR-57","2025-05-17 09:00",20,40.7362872,-104.5241871,TRUE,FALSE,FALSE,"S239370890"
"180","larbun","Lark Bunting","Calamospiza melanocorys","L45243686","2965–2999 Benton Ave, Salix US-IA 42.27197, -96.30916","2025-05-17 08:48",1,42.271973,-96.309161,TRUE,TRUE,TRUE,"S239177299"
"181","larbun","Lark Bunting","Calamospiza melanocorys","L45279473","17510 Hanover Road, Colorado Springs, Colorado, US (38.578, -104.501)","2025-05-17 08:43",1,38.5780574,-104.5006812,TRUE,FALSE,TRUE,"S239335208"
"182","larbun","Lark Bunting","Calamospiza melanocorys","L45279438","16669 Hanover Road, Colorado Springs, Colorado, US (38.578, -104.52)","2025-05-17 08:36",6,38.5778992,-104.5202856,TRUE,FALSE,TRUE,"S239335069"
"183","larbun","Lark Bunting","Calamospiza melanocorys","L45394929","County Road 45, Nunn US-CO","2025-05-17 08:35",7,40.764896,-104.639135,TRUE,FALSE,TRUE,"S239890428"
"184","larbun","Lark Bunting","Calamospiza melanocorys","L45253498","50898 County Road 77, Briggsdale, Colorado, US (40.739, -104.335)","2025-05-17 08:31",70,40.7387241,-104.3347234,TRUE,FALSE,TRUE,"S239223808"
"185","larbun","Lark Bunting","Calamospiza melanocorys","L45247928","40998 County Road 100, Briggsdale, Colorado, US (40.712, -104.278)","2025-05-17 08:26",2,40.7119901,-104.277895,TRUE,FALSE,TRUE,"S239197373"
"186","larbun","Lark Bunting","Calamospiza melanocorys","L2351134","Marston Reservoir Complex--Marston Reservoir West End","2025-05-17 08:20",1,39.6319295,-105.0789671,TRUE,FALSE,FALSE,"S239202247"
"187","larbun","Lark Bunting","Calamospiza melanocorys","L45256288","43953–43975 County Road 105, Briggsdale US-CO 40.63095, -104.06842","2025-05-17 08:16",30,40.630953,-104.068423,TRUE,FALSE,TRUE,"S239236621"
"188","larbun","Lark Bunting","Calamospiza melanocorys","L2135892","Westerly Creek Park","2025-05-17 08:12",4,39.7559995,-104.8790717,TRUE,FALSE,FALSE,"S239200326"
"189","larbun","Lark Bunting","Calamospiza melanocorys","L45247251","County Road 390, Grover, Colorado, US (40.706, -104.08)","2025-05-17 08:11",52,40.7061836,-104.0799954,TRUE,FALSE,TRUE,"S239193420"
"190","larbun","Lark Bunting","Calamospiza melanocorys","L45247291","46039 County Road 103, Briggsdale, Colorado, US (40.681, -104.086)","2025-05-17 08:04",10,40.6810827,-104.0862211,TRUE,FALSE,TRUE,"S239193578"
"191","larbun","Lark Bunting","Calamospiza melanocorys","L1033382","Red Rocks Park--Trading Post","2025-05-17 07:47",2,39.6638339,-105.2032059,TRUE,FALSE,FALSE,"S239210175"
"192","larbun","Lark Bunting","Calamospiza melanocorys","L1096693","Greyrock Commons","2025-05-17 07:39",1,40.6005291,-105.1180887,TRUE,FALSE,TRUE,"S239232553"
"193","larbun","Lark Bunting","Calamospiza melanocorys","L45242303","County Road 105, Briggsdale, Colorado, US (40.631, -104.068)","2025-05-17 07:35",60,40.6305871,-104.0684237,TRUE,FALSE,TRUE,"S239169026"
"194","larbun","Lark Bunting","Calamospiza melanocorys","L1063329","Badlands NP--Sage Creek Rim Rd.","2025-05-17 07:33",3,43.9051204,-102.3092473,TRUE,FALSE,FALSE,"S239225730"
"195","larbun","Lark Bunting","Calamospiza melanocorys","L3513027","Robert A Easton Regional Park","2025-05-17 07:30",1,39.6054567,-105.1411128,TRUE,FALSE,FALSE,"S239172935"
"196","larbun","Lark Bunting","Calamospiza melanocorys","L24665607","S Ashby Rd, Ashby US-NE 41.87225, -101.95355","2025-05-17 07:29",5,41.872251,-101.953552,TRUE,FALSE,TRUE,"S239499502"
"197","larbun","Lark Bunting","Calamospiza melanocorys","L11527416","Encino (town)","2025-05-17 07:20",2,34.6517615,-105.4615675,TRUE,FALSE,FALSE,"S239282328"
"198","larbun","Lark Bunting","Calamospiza melanocorys","L26457466","Wild Horse Ranch Open Space (limited public access)","2025-05-17 07:19",17,38.817555,-104.6009225,TRUE,FALSE,FALSE,"S239225760"
"199","larbun","Lark Bunting","Calamospiza melanocorys","L285737","Chico Basin Ranch (Pueblo Co) (mandatory registration required at www.aikenaudubon.com)","2025-05-17 07:19",2,38.48682,-104.43801,TRUE,FALSE,FALSE,"S239584797"
"200","larbun","Lark Bunting","Calamospiza melanocorys","L24863433","Horse Creek Ranch--El Paso Co. (no public access)","2025-05-17 07:14",20,38.9545071,-104.0599312,TRUE,FALSE,FALSE,"S239415569"
"201","larbun","Lark Bunting","Calamospiza melanocorys","L7202207","Westerly Creek--MLK Jr Blvd to Sand Creek","2025-05-17 07:02",5,39.7614012,-104.8781662,TRUE,FALSE,FALSE,"S239179265"
"202","larbun","Lark Bunting","Calamospiza melanocorys","L328702","Edora Park","2025-05-17 07:00",1,40.5641553,-105.0492096,TRUE,FALSE,FALSE,"S239187436"
"203","larbun","Lark Bunting","Calamospiza melanocorys","L14957235","17701–18543 Hanover Rd, Colorado Springs US-CO 38.57803, -104.49487","2025-05-17 06:58",3,38.578027,-104.494867,TRUE,FALSE,TRUE,"S239970475"
"204","larbun","Lark Bunting","Calamospiza melanocorys","L45237982","62258 Colorado 14, Raymer, Colorado, US (40.601, -103.865)","2025-05-17 06:57",3,40.6007619,-103.865195,TRUE,FALSE,TRUE,"S239146453"
"205","larbun","Lark Bunting","Calamospiza melanocorys","L13050588","Poudre River Trail—11th to 25th","2025-05-17 06:55",7,40.444495,-104.710829,TRUE,FALSE,FALSE,"S239185584"
"206","larbun","Lark Bunting","Calamospiza melanocorys","L3512931","Van Gordon St. Yard","2025-05-17 06:50",1,39.5999017,-105.135684,TRUE,FALSE,TRUE,"S239332895"
"207","larbun","Lark Bunting","Calamospiza melanocorys","L45236405","Sinclair station","2025-05-17 06:50",20,38.838183,-104.389558,TRUE,FALSE,TRUE,"S239137961"
"208","larbun","Lark Bunting","Calamospiza melanocorys","L30904832","Back Ponds, Lincoln Middle School","2025-05-17 06:48",5,40.6025842,-105.103392,TRUE,FALSE,TRUE,"S239181801"
"209","larbun","Lark Bunting","Calamospiza melanocorys","L4441692","Peaks Rd - yard","2025-05-17 06:38",1,42.6970204,-108.7050605,TRUE,FALSE,TRUE,"S239192996"
"210","larbun","Lark Bunting","Calamospiza melanocorys","L45237428","120 S B Rd, Morrill US-NE 42.01676, -104.04780","2025-05-17 06:38",12,42.01676,-104.047801,TRUE,FALSE,TRUE,"S239143646"
"211","larbun","Lark Bunting","Calamospiza melanocorys","L12508244","Wheeler Ranch (restricted access)","2025-05-17 06:37",1,33.4842924,-101.4675726,TRUE,FALSE,TRUE,"S239245855"
"212","larbun","Lark Bunting","Calamospiza melanocorys","L45235346","Kirk Hanna Park","2025-05-17 06:35",7,38.584343,-104.459775,TRUE,FALSE,TRUE,"S239132229"
"213","larbun","Lark Bunting","Calamospiza melanocorys","L45234105","23513 Colorado 71, Snyder, Colorado, US (40.341, -103.598)","2025-05-17 06:24",50,40.3414904,-103.5980133,TRUE,FALSE,TRUE,"S239124888"
"214","larbun","Lark Bunting","Calamospiza melanocorys","L23593872","Squirrel Creek Rd, Colorado Springs US-CO (38.6940,-104.5380)","2025-05-17 06:20",4,38.694007,-104.537999,TRUE,FALSE,TRUE,"S239118362"
"215","larbun","Lark Bunting","Calamospiza melanocorys","L130673","Clear Spring Ranch","2025-05-17 06:19",20,38.6126414,-104.6770847,TRUE,FALSE,FALSE,"S240335432"
"216","larbun","Lark Bunting","Calamospiza melanocorys","L13283152","Rock Island Trail--Elbert Rd to Peyton","2025-05-17 06:15",25,39.0096094,-104.5053043,TRUE,FALSE,FALSE,"S239116542"
"217","larbun","Lark Bunting","Calamospiza melanocorys","L45268325","4300–4394 N-71 S, Kimball US-NE 41.31861, -103.66404","2025-05-17 06:11",1,41.318608,-103.664041,TRUE,FALSE,TRUE,"S239288605"
"218","larbun","Lark Bunting","Calamospiza melanocorys","L2759817","Colorado: Weld County Road 134 East of Weld County Road 111","2025-05-17 06:03",15,40.9620616,-103.9923532,TRUE,FALSE,TRUE,"S239441088"
"219","larbun","Lark Bunting","Calamospiza melanocorys","L511654","Pond west of Stearns Lake","2025-05-17 06:02",10,39.9478946,-105.1100314,TRUE,FALSE,FALSE,"S239248540"
"220","larbun","Lark Bunting","Calamospiza melanocorys","L45232072","County Road 50, Akron, Colorado, US (40.292, -103.443)","2025-05-17 06:01",50,40.2917938,-103.4431404,TRUE,FALSE,TRUE,"S239112609"
"221","larbun","Lark Bunting","Calamospiza melanocorys","L45302662","County Road 125, Grover","2025-05-17 05:48",15,40.9659178,-103.87818,TRUE,FALSE,TRUE,"S239440963"
"222","larbun","Lark Bunting","Calamospiza melanocorys","L45230399","County Road 50, Akron, Colorado, US (40.292, -103.434)","2025-05-17 05:45",5,40.2920039,-103.434005,TRUE,FALSE,TRUE,"S239103104"
"223","larbun","Lark Bunting","Calamospiza melanocorys","L2567576","Buffalo Gap National Grassland","2025-05-17 05:30",2,43.3031159,-103.9758968,TRUE,FALSE,FALSE,"S239325131"
"224","larbun","Lark Bunting","Calamospiza melanocorys","L266967","Great Western Reservoir (closed to public)","2025-05-17 05:29",1,39.8968365,-105.1522923,TRUE,FALSE,FALSE,"S239154208"
"225","larbun","Lark Bunting","Calamospiza melanocorys","L45302623","Intersection of Road 14 and Road 17, Bushnell","2025-05-17 05:29",8,41.0903642,-103.8913476,TRUE,FALSE,TRUE,"S239440805"
"226","larbun","Lark Bunting","Calamospiza melanocorys","L1117299","Black Hollow Reservoir","2025-05-17 05:28",1,40.6103037,-104.8775482,TRUE,FALSE,FALSE,"S239105919"
"227","larbun","Lark Bunting","Calamospiza melanocorys","L19752014","Lone Tree Canyon (private; permission required)","2025-05-17 05:23",1,41.7397083,-104.424144,TRUE,FALSE,FALSE,"S240044111"
"228","larbun","Lark Bunting","Calamospiza melanocorys","L3760476","Woodhouse Recreation and Wildlife Habitat Area","2025-05-17 05:00",10,41.2205023,-105.1891726,TRUE,FALSE,FALSE,"S239167661"
"229","larbun","Lark Bunting","Calamospiza melanocorys","L45207674","Angostura Rd / Hidden Valley Rd Area","2025-05-16 18:57",1,43.353156,-103.382348,TRUE,FALSE,TRUE,"S238993085"
"230","larbun","Lark Bunting","Calamospiza melanocorys","L45208951","Hidden Valley Road pond","2025-05-16 18:44",1,43.361782,-103.374241,TRUE,FALSE,TRUE,"S238999262"
"231","larbun","Lark Bunting","Calamospiza melanocorys","L45203810","8768–8924 Road 181, Oshkosh US-NE 41.68546, -102.39266","2025-05-16 18:26",20,41.685455,-102.392656,TRUE,FALSE,TRUE,"S238974166"
"232","larbun","Lark Bunting","Calamospiza melanocorys","L45202223","4318–4320 Springer Hwy, Grenville US-NM 36.30463, -103.85870","2025-05-16 17:14",1,36.304629,-103.858695,TRUE,FALSE,TRUE,"S238965082"
"233","larbun","Lark Bunting","Calamospiza melanocorys","L45197665","Marathon Baseball Fields","2025-05-16 17:14",1,30.2045349,-103.2485951,TRUE,FALSE,TRUE,"S238938993"
"234","larbun","Lark Bunting","Calamospiza melanocorys","L45288215","TX CR-125, outside Maddin Prairie","2025-05-16 17:04",8,32.317615,-100.802698,TRUE,FALSE,TRUE,"S239373155"
"235","larbun","Lark Bunting","Calamospiza melanocorys","L9321365","Barranca Mesa","2025-05-16 16:25",1,35.898863,-106.278281,TRUE,TRUE,TRUE,"S238931159"
"236","larbun","Lark Bunting","Calamospiza melanocorys","L45206492","Road 17, Bushnell","2025-05-16 16:11",10,41.0837332,-103.8926955,TRUE,FALSE,TRUE,"S238987368"
"237","larbun","Lark Bunting","Calamospiza melanocorys","L1360585","Yard Birds, Curry County NM","2025-05-16 16:00",2,34.3070021,-103.3196354,TRUE,FALSE,TRUE,"S239931403"
"238","larbun","Lark Bunting","Calamospiza melanocorys","L2759834","Nebraska: State Line Road","2025-05-16 15:54",20,41.0023535,-103.9727872,TRUE,FALSE,TRUE,"S238987341"
"239","larbun","Lark Bunting","Calamospiza melanocorys","L45206482","County Road 115, Grover","2025-05-16 15:39",35,40.9604808,-103.9722878,TRUE,FALSE,TRUE,"S238987319"
"240","larbun","Lark Bunting","Calamospiza melanocorys","L45078080","Prairie Dog Town At Quinn Rd","2025-05-16 15:26",10,43.8118692,-102.1571619,TRUE,FALSE,TRUE,"S238916423"
"241","larbun","Lark Bunting","Calamospiza melanocorys","L33193612","Lark study-restricted access","2025-05-16 14:42",20,46.3169556,-105.8718375,TRUE,FALSE,TRUE,"S238914602"
"242","larbun","Lark Bunting","Calamospiza melanocorys","L45206470","County Road 122, Grover","2025-05-16 14:31",2,40.8709894,-104.1740681,TRUE,FALSE,TRUE,"S238987253"
"243","larbun","Lark Bunting","Calamospiza melanocorys","L45185007","23rd Road, Winnebago, Nebraska, US","2025-05-16 14:31",1,42.2654115,-96.5896901,TRUE,TRUE,TRUE,"S238872596"
"244","larbun","Lark Bunting","Calamospiza melanocorys","L33957865","59301, Miles City US-MT 46.32010, -105.84883","2025-05-16 14:14",21,46.320101,-105.848832,TRUE,FALSE,TRUE,"S238892324"
"245","larbun","Lark Bunting","Calamospiza melanocorys","L45210296","I-70 E, Stratton US-CO 39.29315, -102.65915","2025-05-16 14:11",1,39.293151,-102.659145,TRUE,FALSE,TRUE,"S239005597"
"246","larbun","Lark Bunting","Calamospiza melanocorys","L45210317","I-70 E, Arriba US-CO 39.28419, -103.23691","2025-05-16 13:49",1,39.284191,-103.236912,TRUE,FALSE,TRUE,"S239005659"
"247","larbun","Lark Bunting","Calamospiza melanocorys","L45206464","County Road 89, Briggsdale","2025-05-16 13:43",25,40.7787057,-104.2204236,TRUE,FALSE,TRUE,"S238987199"
"248","larbun","Lark Bunting","Calamospiza melanocorys","L45210321","I-70 E, Genoa US-CO 39.27684, -103.46904","2025-05-16 13:40",2,39.276836,-103.469038,TRUE,FALSE,TRUE,"S239005674"
"249","larbun","Lark Bunting","Calamospiza melanocorys","L1818121","Rocky Mountain Arsenal NWR--Lake Ladora","2025-05-16 13:30",1,39.8170715,-104.8569235,TRUE,FALSE,FALSE,"S238872674"
"250","larbun","Lark Bunting","Calamospiza melanocorys","L45206457","County Road 81 and 92, Briggsdale","2025-05-16 13:01",5,40.6435336,-104.2963475,TRUE,FALSE,TRUE,"S238987177"
"251","larbun","Lark Bunting","Calamospiza melanocorys","L1175561","Red Rock Canyon Open Space","2025-05-16 12:58",6,38.8473432,-104.8811263,TRUE,FALSE,FALSE,"S238869436"
"252","larbun","Lark Bunting","Calamospiza melanocorys","L45314751","Loop Rd, Colorado Springs US-CO","2025-05-16 12:28",1,38.563509,-104.497981,TRUE,FALSE,TRUE,"S239502254"
"253","larbun","Lark Bunting","Calamospiza melanocorys","L27373176","Allen-Mathis Home, Hereford, Arizona, US (31.424, -110.126)","2025-05-16 12:14",2,31.4240896,-110.1256971,TRUE,FALSE,TRUE,"S238890150"
"254","larbun","Lark Bunting","Calamospiza melanocorys","L45314745","17501–18373 Degroot Rd, Colorado Springs US-CO (38.5705,-104.4980)","2025-05-16 12:13",1,38.57055,-104.498022,TRUE,FALSE,TRUE,"S239502238"
"255","larbun","Lark Bunting","Calamospiza melanocorys","L21604757","McDonald WPA","2025-05-16 12:00",1,46.7337787,-96.3619312,TRUE,TRUE,FALSE,"S238976444"
"256","larbun","Lark Bunting","Calamospiza melanocorys","L45255583","17400–17408 SD-44, Caputa US-SD 43.83695, -102.59082","2025-05-16 11:54",4,43.83695,-102.590823,TRUE,FALSE,TRUE,"S239233421"
"257","larbun","Lark Bunting","Calamospiza melanocorys","L45255756","16885–16953 SD-44, Caputa US-SD 43.90123, -102.66240","2025-05-16 11:49",1,43.901235,-102.662399,TRUE,FALSE,TRUE,"S239234167"
"258","larbun","Lark Bunting","Calamospiza melanocorys","L4596837","Cimarron - Margaret Apperson Farmhouse","2025-05-16 10:40",4,36.7038655,-102.7872081,TRUE,FALSE,TRUE,"S239457925"
"259","larbun","Lark Bunting","Calamospiza melanocorys","L45304730","Cimarron - RD 19 - Rd 23","2025-05-16 09:30",21,36.6755585,-102.6795717,TRUE,FALSE,TRUE,"S239456520"
"260","larbun","Lark Bunting","Calamospiza melanocorys","L45173851","Tampa’s BBS 35-45","2025-05-16 09:11",6,37.789782,-103.764203,TRUE,FALSE,TRUE,"S238821105"
"261","larbun","Lark Bunting","Calamospiza melanocorys","L780233","Independence Creek Preserve (limited access by permission-TNC)","2025-05-16 09:11",1,30.46857,-101.799521,TRUE,FALSE,FALSE,"S238803638"
"262","larbun","Lark Bunting","Calamospiza melanocorys","L45199990","Heartland Expy, Woodrow US-CO 39.89692, -103.59246","2025-05-16 08:47",1,39.896916,-103.592457,TRUE,FALSE,TRUE,"S238952244"
"263","larbun","Lark Bunting","Calamospiza melanocorys","L45173986","Tampas.","2025-05-16 08:44",1,37.821532,-103.777286,TRUE,FALSE,TRUE,"S238821717"
"264","larbun","Lark Bunting","Calamospiza melanocorys","L18291470","Kane Ranch Open Space","2025-05-16 07:39",6,38.69139,-104.5987606,TRUE,FALSE,FALSE,"S238813596"
"265","larbun","Lark Bunting","Calamospiza melanocorys","L35811697","Girvin BBS 16","2025-05-16 07:38",6,31.1248189,-102.4960924,TRUE,TRUE,TRUE,"S240208772"
"266","larbun","Lark Bunting","Calamospiza melanocorys","L45147087","Timpani BBS 11-20","2025-05-16 07:36",79,37.879905,-103.876522,TRUE,FALSE,TRUE,"S238621299"
"267","larbun","Lark Bunting","Calamospiza melanocorys","L23058388","Brett Gray Ranch--HQ Area (permission required)","2025-05-16 07:26",1,38.7277662,-103.8940531,TRUE,FALSE,FALSE,"S239495221"
"268","larbun","Lark Bunting","Calamospiza melanocorys","L23058356","Brett Gray Ranch--North Woods (restricted access)","2025-05-16 07:21",5,38.7405522,-103.9009235,TRUE,FALSE,FALSE,"S238973770"
"269","larbun","Lark Bunting","Calamospiza melanocorys","L882592","McAlister Park, Lubbock","2025-05-16 07:19",3,33.5422531,-101.9487476,TRUE,FALSE,FALSE,"S238578945"
"270","larbun","Lark Bunting","Calamospiza melanocorys","L45146051","6375 County Road 92, Carr US-CO 40.91372, -104.96082","2025-05-16 07:16",10,40.913723,-104.960823,TRUE,FALSE,TRUE,"S238615451"
"271","larbun","Lark Bunting","Calamospiza melanocorys","L45142422","Rumors BBS 1-10","2025-05-16 06:51",70,37.950977,-103.876457,TRUE,FALSE,TRUE,"S238594397"
"272","larbun","Lark Bunting","Calamospiza melanocorys","L45110046","3176 East Gano Road, Garden City, Kansas, US (38.192, -100.835)","2025-05-16 06:48",3,38.1924383,-100.8348485,TRUE,FALSE,TRUE,"S238548431"
"273","larbun","Lark Bunting","Calamospiza melanocorys","L14501497","CR 20G pond","2025-05-15 19:30",3,38.937377,-103.486047,TRUE,FALSE,TRUE,"S238456273"
"274","larbun","Lark Bunting","Calamospiza melanocorys","L42651515","230850 E County Road 36, Waynoka US-OK 36.49222, -98.89048","2025-05-15 18:53",8,36.492216,-98.890477,TRUE,FALSE,TRUE,"S238429303"
"275","larbun","Lark Bunting","Calamospiza melanocorys","L45088425","County Road 118, Limon US-CO 39.28542, -103.86222","2025-05-15 17:56",145,39.285418,-103.862218,TRUE,FALSE,TRUE,"S238426578"
"276","larbun","Lark Bunting","Calamospiza melanocorys","L45083729","Kansas 96, Tribune, Kansas, US (38.466, -102)","2025-05-15 16:49",3,38.4655591,-101.9999084,TRUE,FALSE,TRUE,"S238398046"
"277","larbun","Lark Bunting","Calamospiza melanocorys","L128929","Buenos Aires NWR (please consider using more specific locations)","2025-05-15 16:33",1,31.6618004,-111.4347992,TRUE,TRUE,FALSE,"S238587853"
"278","larbun","Lark Bunting","Calamospiza melanocorys","L45093827","County Road 153, Agate US-CO 39.30251, -103.96440","2025-05-15 16:32",2,39.302505,-103.9644,TRUE,FALSE,TRUE,"S238456349"
"279","larbun","Lark Bunting","Calamospiza melanocorys","L128946","Cochise College (Douglas Campus)","2025-05-15 16:30",4,31.366,-109.69,TRUE,FALSE,FALSE,"S239376584"
"280","larbun","Lark Bunting","Calamospiza melanocorys","L45093837","County Road 153, Agate US-CO 39.29414, -103.96556","2025-05-15 16:29",2,39.294143,-103.96556,TRUE,FALSE,TRUE,"S238456378"
"281","larbun","Lark Bunting","Calamospiza melanocorys","L45081330","21363 County Road 40, Eads, Colorado, US (38.568, -102.786)","2025-05-15 15:52",1,38.5683078,-102.7861605,TRUE,FALSE,TRUE,"S238383678"
"282","larbun","Lark Bunting","Calamospiza melanocorys","L45176212","John Martin Reservoir State Park, Hasty US-CO (38.0816,-102.9513)","2025-05-15 15:31",3,38.081601,-102.95132,TRUE,FALSE,TRUE,"S238831902"
"283","larbun","Lark Bunting","Calamospiza melanocorys","L45079378","Highway 287, Kit Carson, Colorado, US (38.824, -102.993)","2025-05-15 15:29",2,38.8239172,-102.9925309,TRUE,FALSE,TRUE,"S238372350"
"284","larbun","Lark Bunting","Calamospiza melanocorys","L266875","Willcox--Lake Cochise and Twin Lakes Golf Course","2025-05-15 15:22",6,32.2298515,-109.8243175,TRUE,FALSE,FALSE,"S238464076"
"285","larbun","Lark Bunting","Calamospiza melanocorys","L45078155","Colorado 94, Hugo, Colorado, US (38.85, -103.351)","2025-05-15 15:10",2,38.8498306,-103.3511007,TRUE,FALSE,TRUE,"S238365740"
"286","larbun","Lark Bunting","Calamospiza melanocorys","L45201598","K-51, Richfield US-KS (37.1411,-102.0199)","2025-05-15 15:04",4,37.141121,-102.019883,TRUE,FALSE,TRUE,"S238961273"
"287","larbun","Lark Bunting","Calamospiza melanocorys","L948633","Punkin Center (crossroads; housing area)","2025-05-15 14:55",1,38.8519847,-103.7004608,TRUE,FALSE,FALSE,"S238461122"
"288","larbun","Lark Bunting","Calamospiza melanocorys","L28069033","SBR Home to Robson Circle East (restricted access)","2025-05-15 14:53",2,32.593747,-110.906961,TRUE,FALSE,TRUE,"S238456720"
"289","larbun","Lark Bunting","Calamospiza melanocorys","L45094630","4507 Colorado 94, Rush, Colorado, US (38.84, -103.989)","2025-05-15 14:39",4,38.8397711,-103.9888771,TRUE,FALSE,TRUE,"S238461082"
"290","larbun","Lark Bunting","Calamospiza melanocorys","L22204478","EW140 Rd County Line to Keyes","2025-05-15 13:45",10,36.8065687,-102.1813256,TRUE,FALSE,TRUE,"S238338679"
"291","larbun","Lark Bunting","Calamospiza melanocorys","L45070412","470th Ave, Stuart US-NE (42.5118,-99.0896)","2025-05-15 13:38",2,42.511821,-99.089605,TRUE,FALSE,TRUE,"S238323867"
"292","larbun","Lark Bunting","Calamospiza melanocorys","L45078026","Upper Bigfoot Road","2025-05-15 13:25",5,43.8019408,-102.0591258,TRUE,FALSE,TRUE,"S238365040"
"293","larbun","Lark Bunting","Calamospiza melanocorys","L45070121","Auto selected 42.44025, -99.08808","2025-05-15 13:22",1,42.440249,-99.088079,TRUE,FALSE,TRUE,"S238322189"
"294","larbun","Lark Bunting","Calamospiza melanocorys","L10512605","CR EW N from State 95 to mile 0","2025-05-15 13:20",15,36.7632576,-101.9719512,TRUE,FALSE,TRUE,"S238318903"
"295","larbun","Lark Bunting","Calamospiza melanocorys","L45070736","12815 N Yoder Rd, Calhan US-CO (39.0212,-104.2204)","2025-05-15 12:56",1,39.021174,-104.220372,TRUE,FALSE,TRUE,"S238325558"
"296","larbun","Lark Bunting","Calamospiza melanocorys","L5098119","Little Jerusalem Badlands SP","2025-05-15 12:23",1,38.8041409,-100.9401244,TRUE,FALSE,FALSE,"S238305628"
"297","larbun","Lark Bunting","Calamospiza melanocorys","L45063387","SD-34, Fort Thompson US-SD 44.13944, -99.43883","2025-05-15 12:21",1,44.139443,-99.438827,TRUE,FALSE,TRUE,"S238287608"
"298","larbun","Lark Bunting","Calamospiza melanocorys","L129095","Sierra Vista EOP","2025-05-15 11:50",1,31.5627101,-110.2027562,TRUE,FALSE,FALSE,"S238338967"
"299","larbun","Lark Bunting","Calamospiza melanocorys","L7420639","Mitchek Ranch (private, view from road; also stakeout Golden-crowned Warbler, 2018)","2025-05-15 11:38",5,39.0129192,-102.9955977,TRUE,FALSE,FALSE,"S238326678"
"300","larbun","Lark Bunting","Calamospiza melanocorys","L45064016","E County Road 82, Wellington US-CO 40.84160, -105.06179","2025-05-15 11:31",9,40.8416,-105.061786,TRUE,FALSE,TRUE,"S238290532"
"301","larbun","Lark Bunting","Calamospiza melanocorys","L1052368","Big Bend NP--Daniels Ranch Rd.","2025-05-15 11:15",2,29.1839794,-102.9645274,TRUE,FALSE,FALSE,"S238216905"
"302","larbun","Lark Bunting","Calamospiza melanocorys","L804734","Otero Co. Rd.  FF.5 area","2025-05-15 11:00",1,38.064176,-103.7339938,TRUE,FALSE,FALSE,"S238285347"
"303","larbun","Lark Bunting","Calamospiza melanocorys","L45044034","1625–1699 S Herren Rd, Hutchinson US-KS 38.03061, -98.05043","2025-05-15 10:56",1,38.030614,-98.050434,TRUE,FALSE,TRUE,"S238191321"
"304","larbun","Lark Bunting","Calamospiza melanocorys","L45087774","Forest Service Road 6003, Richfield US-KS (37.0989,-101.9519)","2025-05-15 10:31",16,37.09888,-101.95188,TRUE,FALSE,TRUE,"S238422372"
"305","larbun","Lark Bunting","Calamospiza melanocorys","L45072037","Dobbs Run Ranch","2025-05-15 10:00",1,29.6101629,-100.4515182,TRUE,FALSE,TRUE,"S238580106"
"306","larbun","Lark Bunting","Calamospiza melanocorys","L45064686","County Road E, La Junta US-CO 37.70171, -103.41808","2025-05-15 09:54",1,37.701713,-103.418077,TRUE,FALSE,TRUE,"S238293965"
"307","larbun","Lark Bunting","Calamospiza melanocorys","L360452","Big Bend NP--Panther Junction","2025-05-15 09:46",1,29.3281624,-103.2064569,TRUE,FALSE,FALSE,"S238460679"
"308","larbun","Lark Bunting","Calamospiza melanocorys","L45064593","38301–39689 County Road 177.9, Kim US-CO 37.56845, -103.50686","2025-05-15 09:23",1,37.568449,-103.506858,TRUE,FALSE,TRUE,"S238293508"
"309","larbun","Lark Bunting","Calamospiza melanocorys","L45040419","Pawnee Grasslands","2025-05-15 09:11",1,40.6831589,-104.3459167,TRUE,FALSE,TRUE,"S238173666"
"310","larbun","Lark Bunting","Calamospiza melanocorys","L45041745","34090–34398 Funk Rd, Calhan US-CO 38.99844, -104.19105","2025-05-15 09:05",3,38.998444,-104.191052,TRUE,FALSE,TRUE,"S238179712"
"311","larbun","Lark Bunting","Calamospiza melanocorys","L2180223","Dell City area (FM1437, etc.)","2025-05-15 09:00",2,31.9462589,-105.1922008,TRUE,FALSE,FALSE,"S238816801"
"312","larbun","Lark Bunting","Calamospiza melanocorys","L45038058","Auto selected 38.19752, -103.23473","2025-05-15 08:36",2,38.19752,-103.234732,TRUE,FALSE,TRUE,"S238159975"
"313","larbun","Lark Bunting","Calamospiza melanocorys","L45176108","Hugo (not precise location)","2025-05-15 08:36",225,39.136729,-103.471725,TRUE,FALSE,TRUE,"S238831404"
"314","larbun","Lark Bunting","Calamospiza melanocorys","L7690570","Elephant Butte Lake SP--Isolated Lake","2025-05-15 08:00",2,33.3250767,-107.1891232,TRUE,FALSE,FALSE,"S238427701"
"315","larbun","Lark Bunting","Calamospiza melanocorys","L510925","Chico Basin Ranch--Bell Grove (El Paso Co) (mandatory registration required at www.aikenaudubon.com)","2025-05-15 07:19",7,38.5356787,-104.4588983,TRUE,FALSE,FALSE,"S238331127"
"316","larbun","Lark Bunting","Calamospiza melanocorys","L128898","Big Bend NP--Dugout Wells","2025-05-15 07:05",1,29.2712002,-103.1352997,TRUE,FALSE,FALSE,"S238390766"
"317","larbun","Lark Bunting","Calamospiza melanocorys","L2286295","Cimarron NG--Western Crossing","2025-05-15 06:40",5,37.0745744,-102.0096338,TRUE,FALSE,FALSE,"S238417210"
"318","larbun","Lark Bunting","Calamospiza melanocorys","L6471374","Quivira NWR--Big Salt Marsh--Wildlife Drive","2025-05-15 06:36",1,38.1856615,-98.5338718,TRUE,FALSE,FALSE,"S238351902"
"319","larbun","Lark Bunting","Calamospiza melanocorys","L27265962","10365 East Tierra Del Sol Drive, Hereford, Arizona, US (31.424, -110.126)","2025-05-15 06:36",4,31.4242209,-110.1257117,TRUE,FALSE,TRUE,"S238152662"
"320","larbun","Lark Bunting","Calamospiza melanocorys","L2068029","Reshaw Park","2025-05-15 06:23",6,42.8711207,-106.2709236,TRUE,FALSE,FALSE,"S238143044"
"321","larbun","Lark Bunting","Calamospiza melanocorys","L2905118","Hildebrand Ranch Park","2025-05-15 06:16",1,39.5523352,-105.1101387,TRUE,FALSE,FALSE,"S238147532"
"322","larbun","Lark Bunting","Calamospiza melanocorys","L128938","Catalina SP","2025-05-15 06:15",2,32.4244027,-110.9123905,TRUE,FALSE,FALSE,"S238832452"
"323","larbun","Lark Bunting","Calamospiza melanocorys","L30873824","WY-487, Medicine Bow US-WY (42.1901,-106.2609)","2025-05-14 17:03",4,42.190103,-106.260882,TRUE,FALSE,TRUE,"S240322932"
"324","larbun","Lark Bunting","Calamospiza melanocorys","L20323174","Kiowa - CR 19 south of Long Lake","2025-05-14 16:41",22,38.315009,-103.171448,TRUE,FALSE,TRUE,"S238009591"
"325","larbun","Lark Bunting","Calamospiza melanocorys","L44999152","504–540 Little Beaver Rd, Baker US-MT 46.11074, -104.14132","2025-05-14 15:50",2,46.110739,-104.141321,TRUE,FALSE,TRUE,"S237925150"
"326","larbun","Lark Bunting","Calamospiza melanocorys","L18696918","Kiowa CR C east of CR 17","2025-05-14 15:08",32,38.295174,-103.152024,TRUE,FALSE,TRUE,"S238009186"
"327","larbun","Lark Bunting","Calamospiza melanocorys","L7749795","Kiowa - CR E (CR 27 to CR 31)","2025-05-14 14:55",28,38.324504,-103.015202,TRUE,FALSE,TRUE,"S238009063"
"328","larbun","Lark Bunting","Calamospiza melanocorys","L44998689","Little Beaver Trap","2025-05-14 14:54",1,46.098343,-104.118451,TRUE,FALSE,TRUE,"S237922430"
"329","larbun","Lark Bunting","Calamospiza melanocorys","L44995975","Little Beaver Rd. — Oil Fields","2025-05-14 14:48",1,46.087072,-104.064904,TRUE,FALSE,TRUE,"S237906910"
"330","larbun","Lark Bunting","Calamospiza melanocorys","L8142035","Kiowa - CR 31","2025-05-14 14:43",120,38.30023,-102.95028,TRUE,FALSE,TRUE,"S238008907"
"331","larbun","Lark Bunting","Calamospiza melanocorys","L7319716","Road WW / Kiowa Road A (from Kiowa 31 to Kiowa 35)","2025-05-14 14:25",60,38.2661521,-102.9030561,TRUE,FALSE,TRUE,"S238008800"
"332","larbun","Lark Bunting","Calamospiza melanocorys","L45013110","County Road 30, Las Animas US-CO (38.2660,-102.8519)","2025-05-14 14:11",24,38.265985,-102.851851,TRUE,FALSE,TRUE,"S238008673"
"333","larbun","Lark Bunting","Calamospiza melanocorys","L45013080","Kiowa CR 38 and vicinity","2025-05-14 14:06",30,38.274106,-102.80979,TRUE,FALSE,TRUE,"S238008509"
"334","larbun","Lark Bunting","Calamospiza melanocorys","L44993928","3963–5999 County Road SS, Wiley US-CO 38.20150, -102.68710","2025-05-14 14:05",5,38.201505,-102.687097,TRUE,FALSE,TRUE,"S237894949"
"335","larbun","Lark Bunting","Calamospiza melanocorys","L44771455","20213 County Road 5, Carr US-CO 40.91352, -104.96814","2025-05-14 14:00",1,40.913521,-104.968142,TRUE,FALSE,TRUE,"S237972072"
"336","larbun","Lark Bunting","Calamospiza melanocorys","L45013046","Kiowa - CR A from CR 35 to CR 40","2025-05-14 13:52",70,38.26741,-102.779589,TRUE,FALSE,TRUE,"S238008356"
"337","larbun","Lark Bunting","Calamospiza melanocorys","L44991843","9827–9949 158th Ave SW, Bowman US-ND 45.98828, -103.66008","2025-05-14 13:41",85,45.988284,-103.660083,TRUE,FALSE,TRUE,"S237883907"
"338","larbun","Lark Bunting","Calamospiza melanocorys","L17345174","Vistoso Trails Nature Preserve","2025-05-14 12:46",1,32.4544094,-110.9822788,TRUE,FALSE,FALSE,"S237930867"
"339","larbun","Lark Bunting","Calamospiza melanocorys","L7381680","Bent - CR WW (Hwy 287 to Bent CR 35)","2025-05-14 12:26",23,38.2665564,-102.749269,TRUE,FALSE,TRUE,"S238007984"
"340","larbun","Lark Bunting","Calamospiza melanocorys","L44987491","SH-10 near Apishapa River, Fowler US-CO","2025-05-14 12:18",8,37.905146,-104.01902,TRUE,FALSE,TRUE,"S237862259"
"341","larbun","Lark Bunting","Calamospiza melanocorys","L44985522","Pete’s Creek Trap","2025-05-14 12:02",1,45.863291,-103.412795,TRUE,FALSE,TRUE,"S237852424"
"342","larbun","Lark Bunting","Calamospiza melanocorys","L454404","San Angelo SP--South Unit (HOTW 109)","2025-05-14 11:34",25,31.4677918,-100.5033213,TRUE,FALSE,FALSE,"S237860344"
"343","larbun","Lark Bunting","Calamospiza melanocorys","L44983267","Small grove at (40.8169,-103.8610)","2025-05-14 11:28",1,40.816873,-103.861046,TRUE,FALSE,TRUE,"S237840907"
"344","larbun","Lark Bunting","Calamospiza melanocorys","L45012746","Lake Cochise Wildlife Viewing Area","2025-05-14 11:25",1,32.2329779,-109.8247004,TRUE,FALSE,TRUE,"S238006551"
"345","larbun","Lark Bunting","Calamospiza melanocorys","L18851674","Geographical Center of the United States","2025-05-14 11:11",12,44.967695,-103.77277,TRUE,FALSE,FALSE,"S237831356"
"346","larbun","Lark Bunting","Calamospiza melanocorys","L44982214","Road 343, Paxton, Nebraska, US (40.942, -101.44)","2025-05-14 11:06",1,40.9415199,-101.4399404,TRUE,FALSE,TRUE,"S237835528"
"347","larbun","Lark Bunting","Calamospiza melanocorys","L9675620","Coffee Flats Rd pond","2025-05-14 10:56",30,43.1838836,-104.0197876,TRUE,FALSE,FALSE,"S237888350"
"348","larbun","Lark Bunting","Calamospiza melanocorys","L31087975","Mud Buttes, Rhame, North Dakota, US (46.027, -103.767)","2025-05-14 10:44",1,46.026535,-103.766846,TRUE,FALSE,TRUE,"S237824447"
"349","larbun","Lark Bunting","Calamospiza melanocorys","L44988505","166th Avenue Southwest, Rhame, North Dakota, US (46.001, -103.826)","2025-05-14 10:27",14,46.0006752,-103.826165,TRUE,FALSE,TRUE,"S237867407"
"350","larbun","Lark Bunting","Calamospiza melanocorys","L41198215","Fort Pierre National Grassland, Fort Pierre US-SD 44.21130, -100.20547","2025-05-14 10:17",2,44.211301,-100.205467,TRUE,FALSE,TRUE,"S238868871"
"351","larbun","Lark Bunting","Calamospiza melanocorys","L44974627","County Road B 5/10, Lamar US-CO 37.66557, -102.56605","2025-05-14 09:55",5,37.665572,-102.566054,TRUE,FALSE,TRUE,"S237795988"
"352","larbun","Lark Bunting","Calamospiza melanocorys","L44974069","11848–12098 Dillon Rd, Buffalo US-SD (45.3000,-103.5601)","2025-05-14 09:38",6,45.300011,-103.56006,TRUE,FALSE,TRUE,"S237792924"
"353","larbun","Lark Bunting","Calamospiza melanocorys","L341233","Cimarron NG--Middle Spring","2025-05-14 09:34",3,37.1131817,-101.9270178,TRUE,FALSE,FALSE,"S237974711"
"354","larbun","Lark Bunting","Calamospiza melanocorys","L45003738","Hwy 136","2025-05-14 09:24",1,36.8046298,-101.4923231,TRUE,FALSE,TRUE,"S237952254"
"355","larbun","Lark Bunting","Calamospiza melanocorys","L44970602","39249–39983 County Road 69, Briggsdale US-CO 40.66782, -104.41088","2025-05-14 08:53",8,40.667823,-104.410884,TRUE,FALSE,TRUE,"S237773851"
"356","larbun","Lark Bunting","Calamospiza melanocorys","L4523008","Lincoln CR 3F--CR 41 to Hwy 43","2025-05-14 08:45",30,39.2589079,-103.2855177,TRUE,FALSE,FALSE,"S237880991"
"357","larbun","Lark Bunting","Calamospiza melanocorys","L739433","JB Rd.","2025-05-14 08:36",83,45.4153,-103.425,TRUE,TRUE,FALSE,"S237806203"
"358","larbun","Lark Bunting","Calamospiza melanocorys","L13958940","7-11 Rd east","2025-05-14 07:56",15,43.5240991,-103.3625364,TRUE,FALSE,TRUE,"S237757089"
"359","larbun","Lark Bunting","Calamospiza melanocorys","L1743750","Jackson Lake SP--Marina area","2025-05-14 07:50",19,40.3931037,-104.09091,TRUE,FALSE,FALSE,"S237805031"
"360","larbun","Lark Bunting","Calamospiza melanocorys","L45001364","County Road 18, Campo, Colorado, US (37.105, -102.76)","2025-05-14 07:39",12,37.1046012,-102.7600576,TRUE,FALSE,TRUE,"S237937639"
"361","larbun","Lark Bunting","Calamospiza melanocorys","L44963468","SH-51A, Watonga US-OK 35.89572, -98.41955","2025-05-14 07:35",2,35.89572,-98.419553,TRUE,FALSE,TRUE,"S237733001"
"362","larbun","Lark Bunting","Calamospiza melanocorys","L44967869","Moreau River Loop","2025-05-14 07:34",260,45.333035,-103.538635,TRUE,TRUE,TRUE,"S237758651"
"363","larbun","Lark Bunting","Calamospiza melanocorys","L3686979","BJ Bishop Wetlands (Presidio)","2025-05-14 07:26",2,29.541114,-104.317778,TRUE,FALSE,FALSE,"S237741059"
"364","larbun","Lark Bunting","Calamospiza melanocorys","L44963465","Crow Buttes Mercantile","2025-05-14 07:18",15,45.232786,-103.549934,TRUE,FALSE,TRUE,"S237732924"
"365","larbun","Lark Bunting","Calamospiza melanocorys","L45001275","63 and 2P","2025-05-14 06:54",5,39.1278329,-103.2675607,TRUE,FALSE,TRUE,"S237940882"
"366","larbun","Lark Bunting","Calamospiza melanocorys","L9033788","De Groot Road, Colorado Springs, Colorado, US (38.567, -104.498)","2025-05-14 06:48",1,38.5670331,-104.4981449,TRUE,FALSE,TRUE,"S237725000"
"367","larbun","Lark Bunting","Calamospiza melanocorys","L44960834","Erk Rd x 79","2025-05-14 06:32",50,44.955853,-103.424321,TRUE,FALSE,TRUE,"S237716154"
"368","larbun","Lark Bunting","Calamospiza melanocorys","L44977084","Rita Blanca unit near TX border","2025-05-14 06:12",24,36.5164585,-102.7718702,TRUE,FALSE,TRUE,"S237809588"
"369","larbun","Lark Bunting","Calamospiza melanocorys","L4013142","Double Tree Ranch","2025-05-14 06:00",6,42.6279596,-103.3992004,TRUE,FALSE,TRUE,"S240329820"
"370","larbun","Lark Bunting","Calamospiza melanocorys","L1183463","Lek 45N (BLM reservations required)","2025-05-14 05:16",2,33.4729766,-103.7959099,TRUE,FALSE,FALSE,"S237706729"
"371","larbun","Lark Bunting","Calamospiza melanocorys","L18935418","Oil Field Road, Sunny Slope, US (46.189, -104.044)","2025-05-14 05:15",2,46.1886298,-104.0439968,TRUE,FALSE,TRUE,"S237826540"
"372","larbun","Lark Bunting","Calamospiza melanocorys","L7799929","Bent - CR JJ (CR 18 to CR 24)","2025-05-13 19:44",12,38.099575,-103.048446,TRUE,FALSE,TRUE,"S237607645"
"373","larbun","Lark Bunting","Calamospiza melanocorys","L45091897","Lincoln Rd Lark Buntings","2025-05-13 19:24",2,46.764852,-100.467273,TRUE,FALSE,TRUE,"S238447039"
"374","larbun","Lark Bunting","Calamospiza melanocorys","L31865028","Private Property In Bill, WY","2025-05-13 19:00",40,43.2318688,-105.2589429,TRUE,FALSE,TRUE,"S237591163"
"375","larbun","Lark Bunting","Calamospiza melanocorys","L44937666","6031–6999 County Road J, Joes US-CO 39.67023, -102.65010","2025-05-13 18:56",1,39.670233,-102.650104,TRUE,FALSE,TRUE,"S237580225"
"376","larbun","Lark Bunting","Calamospiza melanocorys","L44936801","Jackson co. Lark Bunting","2025-05-13 18:41",1,43.90772,-102.052837,TRUE,FALSE,TRUE,"S237575045"
"377","larbun","Lark Bunting","Calamospiza melanocorys","L9645819","Pawnee NG Bird Tour--Stops 12-13 (CR-61)","2025-05-13 17:25",25,40.6664292,-104.4865896,TRUE,FALSE,FALSE,"S237878662"
"378","larbun","Lark Bunting","Calamospiza melanocorys","L9645816","Pawnee NG Bird Tour--CR-96","2025-05-13 17:14",2,40.682221,-104.5055931,TRUE,FALSE,FALSE,"S237878789"
"379","larbun","Lark Bunting","Calamospiza melanocorys","L721945","Hayden Green Mountain Park","2025-05-13 17:03",1,39.697,-105.173,TRUE,FALSE,FALSE,"S237604263"
"380","larbun","Lark Bunting","Calamospiza melanocorys","L3031272","Hamilton SFL","2025-05-13 16:13",1,38.0297378,-101.8201947,TRUE,FALSE,FALSE,"S237599670"
"381","larbun","Lark Bunting","Calamospiza melanocorys","L44942249","36888 C R 58, Crook, Colorado, US (40.85, -102.863)","2025-05-13 15:43",5,40.8501068,-102.8632901,TRUE,FALSE,TRUE,"S237606743"
"382","larbun","Lark Bunting","Calamospiza melanocorys","L44921322","349–387 County Road Q-1, Roy US-NM 35.86928, -104.17336","2025-05-13 13:37",15,35.869281,-104.173357,TRUE,FALSE,TRUE,"S237468971"
"383","larbun","Lark Bunting","Calamospiza melanocorys","L418936","Wyoming Hereford Ranch--Reservoir #2 (private; permission required)","2025-05-13 12:48",1,41.1265323,-104.6422219,TRUE,FALSE,FALSE,"S237455230"
"384","larbun","Lark Bunting","Calamospiza melanocorys","L44932683","Private - Weld County, Severance, Colorado,","2025-05-13 12:40",3,40.6088213,-104.8382633,TRUE,FALSE,TRUE,"S237538627"
"385","larbun","Lark Bunting","Calamospiza melanocorys","L7428374","Nelson Reservoir (south Phillips Co.)","2025-05-13 11:59",2,48.0612278,-107.8910891,TRUE,FALSE,FALSE,"S237447928"
"386","larbun","Lark Bunting","Calamospiza melanocorys","L896643","Baca CR-VV at CR-27","2025-05-13 11:49",34,37.6146981,-102.5839578,TRUE,FALSE,FALSE,"S237507977"
"387","larbun","Lark Bunting","Calamospiza melanocorys","L44653962","58620, Amidon US-ND (46.4746,-103.4097)","2025-05-13 11:44",21,46.474566,-103.409688,TRUE,FALSE,TRUE,"S237474868"
"388","larbun","Lark Bunting","Calamospiza melanocorys","L2442148","Rocky Mountain Arsenal NWR--Lower Derby Lake","2025-05-13 11:37",1,39.8146676,-104.8424435,TRUE,FALSE,FALSE,"S237466805"
"389","larbun","Lark Bunting","Calamospiza melanocorys","L44907636","80644, Kersey US-CO 40.27356, -104.50540","2025-05-13 10:37",45,40.273557,-104.505404,TRUE,FALSE,TRUE,"S237395592"
"390","larbun","Lark Bunting","Calamospiza melanocorys","L1041788","Hawk Springs Reservoir","2025-05-13 10:29",30,41.7097333,-104.1844654,TRUE,FALSE,FALSE,"S237431677"
"391","larbun","Lark Bunting","Calamospiza melanocorys","L44902385","Ranch Road 222, Throckmorton, Texas, US (33.251, -99.356)","2025-05-13 10:22",1,33.2509502,-99.3557637,TRUE,TRUE,TRUE,"S237367930"
"392","larbun","Lark Bunting","Calamospiza melanocorys","L43846583","Ben's","2025-05-13 09:04",5,45.992434,-102.5387652,TRUE,FALSE,TRUE,"S237399803"
"393","larbun","Lark Bunting","Calamospiza melanocorys","L306539","Lake Rita Blanca (PHP 049)","2025-05-13 08:52",14,36.035184,-102.500875,TRUE,FALSE,FALSE,"S237338976"
"394","larbun","Lark Bunting","Calamospiza melanocorys","L44897848","700–798 Third Ave SE, Hettinger US-ND 45.97036, -102.51778","2025-05-13 08:32",1,45.970359,-102.517778,TRUE,FALSE,TRUE,"S237341782"
"395","larbun","Lark Bunting","Calamospiza melanocorys","L45003524","Kimball County Backroads","2025-05-13 08:20",10,41.0327739,-103.734098,TRUE,FALSE,TRUE,"S237951646"
"396","larbun","Lark Bunting","Calamospiza melanocorys","L7381710","Prowers - CR 12 (CR B.5 to Baca line)","2025-05-13 08:08",33,37.6496456,-102.5399065,TRUE,FALSE,TRUE,"S237505897"
"397","larbun","Lark Bunting","Calamospiza melanocorys","L44894500","1645-1005 Farm to Market Road 176, Eden, Texas, US (31.214, -99.929)","2025-05-13 07:45",1,31.2140519,-99.9288143,TRUE,FALSE,TRUE,"S237319874"
"398","larbun","Lark Bunting","Calamospiza melanocorys","L7245662","Prowers - CR B.5","2025-05-13 07:30",14,37.6654101,-102.5794744,TRUE,FALSE,TRUE,"S237505680"
"399","larbun","Lark Bunting","Calamospiza melanocorys","L338783","Prospect Reservoir (Weld Co.)","2025-05-13 07:21",12,40.0164585,-104.5127364,TRUE,FALSE,FALSE,"S237330869"
"400","larbun","Lark Bunting","Calamospiza melanocorys","L913756","Soldiers Memorial Co. Park","2025-05-13 07:10",4,39.1896243,-101.7603493,TRUE,FALSE,FALSE,"S237301838"
"401","larbun","Lark Bunting","Calamospiza melanocorys","L12617392","Pecos Co.—RR2037 ag fields & pecan groves","2025-05-13 07:07",2,30.8512472,-103.0037615,TRUE,FALSE,FALSE,"S237311314"
"402","larbun","Lark Bunting","Calamospiza melanocorys","L268207","Melrose Woods","2025-05-13 06:58",4,34.4343548,-103.7991207,TRUE,FALSE,FALSE,"S237375660"
"403","larbun","Lark Bunting","Calamospiza melanocorys","L948592","Hanover Fire Station area","2025-05-13 06:49",3,38.57695,-104.46048,TRUE,FALSE,FALSE,"S237507349"
"404","larbun","Lark Bunting","Calamospiza melanocorys","L17157345","Douglas Cemetery","2025-05-13 06:48",25,42.7562566,-105.3756546,TRUE,FALSE,FALSE,"S237307634"
"405","larbun","Lark Bunting","Calamospiza melanocorys","L1739225","KS 27 Park","2025-05-13 06:43",1,37.9687955,-101.7576338,TRUE,FALSE,FALSE,"S237329944"
"406","larbun","Lark Bunting","Calamospiza melanocorys","L44890424","Loop Road, Colorado Springs, Colorado, US (38.564, -104.48)","2025-05-13 06:40",2,38.5636183,-104.479794,TRUE,FALSE,TRUE,"S237292206"
"407","larbun","Lark Bunting","Calamospiza melanocorys","L44830942","Sun Prairie Buffalo Camp","2025-05-13 06:13",1,47.763665,-107.774344,TRUE,FALSE,TRUE,"S237349051"
"408","larbun","Lark Bunting","Calamospiza melanocorys","L44887253","9254 53rd Street Southwest, Lefor, North Dakota, US (46.645, -102.401)","2025-05-13 05:56",2,46.6445484,-102.4013126,TRUE,FALSE,TRUE,"S237268255"
"409","larbun","Lark Bunting","Calamospiza melanocorys","L444918","Two Buttes SWA--below dam","2025-05-13 05:51",7,37.6359,-102.5318813,TRUE,FALSE,FALSE,"S237463638"
"410","larbun","Lark Bunting","Calamospiza melanocorys","L479513","Oliver Reservoir SRA","2025-05-13 05:20",2,41.2285718,-103.8267231,TRUE,FALSE,FALSE,"S237367738"
"411","larbun","Lark Bunting","Calamospiza melanocorys","L44894054","Briggsdale, Colorado, US (40.77, -104.363)","2025-05-13 05:17",60,40.7704553,-104.3631199,TRUE,FALSE,TRUE,"S237317257"
"412","larbun","Lark Bunting","Calamospiza melanocorys","L44935060","Pawnee National Grassland, CR 120","2025-05-13 05:08",26,40.863311,-104.472043,TRUE,FALSE,TRUE,"S237562897"
"413","larbun","Lark Bunting","Calamospiza melanocorys","L42194845","1114 County Road 370, Oakley US-KS 38.85413, -100.97649","2025-05-12 19:23",7,38.854133,-100.976485,TRUE,FALSE,TRUE,"S237233963"
"414","larbun","Lark Bunting","Calamospiza melanocorys","L44865036","Jakes Reservoir","2025-05-12 17:15",12,47.50121,-108.61152,TRUE,FALSE,TRUE,"S237139414"
"415","larbun","Lark Bunting","Calamospiza melanocorys","L13977576","Limestone Butte Reservoir","2025-05-12 17:04",2,43.160592,-103.165509,TRUE,FALSE,FALSE,"S237200209"
"416","larbun","Lark Bunting","Calamospiza melanocorys","L44857898","Old Highway 85, Wagon Mound, New Mexico, US (36.141, -104.68)","2025-05-12 16:35",50,36.1405303,-104.6798097,TRUE,FALSE,TRUE,"S237091594"
"417","larbun","Lark Bunting","Calamospiza melanocorys","L44856155","N-2, Harrison US-NE 43.00008, -103.62170","2025-05-12 16:08",14,43.000077,-103.621704,TRUE,FALSE,TRUE,"S237080371"
"418","larbun","Lark Bunting","Calamospiza melanocorys","L44855681","N-2, Harrison US-NE 42.96824, -103.53823","2025-05-12 15:59",20,42.96824,-103.538229,TRUE,FALSE,TRUE,"S237077273"
"419","larbun","Lark Bunting","Calamospiza melanocorys","L44855152","7401–7699 Emond Rd, Malta US-MT 47.94182, -107.98555","2025-05-12 15:36",2,47.941823,-107.985548,TRUE,FALSE,TRUE,"S237074148"
"420","larbun","Lark Bunting","Calamospiza melanocorys","L44863334","Nebraska 71, Alliance, Nebraska, US (42.19, -103.66","2025-05-12 15:22",35,42.1900285,-103.6626571,TRUE,FALSE,TRUE,"S237127155"
"421","larbun","Lark Bunting","Calamospiza melanocorys","L44852845","8235–8251 Dodge Rd, Hemingford US-NE 42.32299, -103.33017","2025-05-12 15:13",1,42.322991,-103.330174,TRUE,FALSE,TRUE,"S237060726"
"422","larbun","Lark Bunting","Calamospiza melanocorys","L44865479","White River Rd, Kadoka US-SD 43.77782, -101.70570","2025-05-12 15:08",1,43.777817,-101.705697,TRUE,FALSE,TRUE,"S237191053"
"423","larbun","Lark Bunting","Calamospiza melanocorys","L44851800","9442–9486 N-71, Hemingford US-NE 42.27947, -103.63638","2025-05-12 14:57",3,42.279472,-103.636383,TRUE,FALSE,TRUE,"S237054823"
"424","larbun","Lark Bunting","Calamospiza melanocorys","L44851466","8360–8596 N-71, Hemingford US-NE 42.19438, -103.65962","2025-05-12 14:51",14,42.194378,-103.65962,TRUE,FALSE,TRUE,"S237052739"
"425","larbun","Lark Bunting","Calamospiza melanocorys","L44851002","7804–7860 N-71, Scottsbluff US-NE 42.08997, -103.67822","2025-05-12 14:44",1,42.089966,-103.678217,TRUE,FALSE,TRUE,"S237050061"
"426","larbun","Lark Bunting","Calamospiza melanocorys","L44851601","14248 County Road 5, Flagler, Colorado, US (39.246, -103.062)","2025-05-12 14:35",1,39.2463818,-103.0619021,TRUE,FALSE,TRUE,"S237053603"
"427","larbun","Lark Bunting","Calamospiza melanocorys","L44851917","Nebraska National Forest, Kadoka US-SD 43.72822, -101.72005","2025-05-12 14:21",18,43.728217,-101.720053,TRUE,FALSE,TRUE,"S237055536"
"428","larbun","Lark Bunting","Calamospiza melanocorys","L44848301","Wyoming 151, La Grange, Wyoming, US (41.637, -104.122)","2025-05-12 14:00",2,41.6371319,-104.1222176,TRUE,FALSE,TRUE,"S237034719"
"429","larbun","Lark Bunting","Calamospiza melanocorys","L44848590","Stegall Rd","2025-05-12 13:54",1,41.640698,-103.947641,TRUE,FALSE,TRUE,"S237036532"
"430","larbun","Lark Bunting","Calamospiza melanocorys","L44847805","1101–1159 N-88, Harrisburg US-NE 41.63984, -103.97803","2025-05-12 13:52",6,41.639841,-103.978027,TRUE,FALSE,TRUE,"S237032206"
"431","larbun","Lark Bunting","Calamospiza melanocorys","L44847656","N-88, Harrisburg US-NE 41.63936, -104.02101","2025-05-12 13:50",3,41.639361,-104.02101,TRUE,FALSE,TRUE,"S237031363"
"432","larbun","Lark Bunting","Calamospiza melanocorys","L44338583","Button Mesa Road Playa","2025-05-12 13:35",10,33.4406163,-103.6526912,TRUE,FALSE,TRUE,"S237037700"
"433","larbun","Lark Bunting","Calamospiza melanocorys","L44849926","I-90 E, Gillette US-WY 44.21536, -106.01432","2025-05-12 13:33",15,44.215359,-106.014319,TRUE,FALSE,TRUE,"S237044127"
"434","larbun","Lark Bunting","Calamospiza melanocorys","L44845514","2769–2799 Torrington Rd, Cheyenne US-WY 41.40835, -104.44269","2025-05-12 13:20",1,41.408346,-104.442694,TRUE,FALSE,TRUE,"S237019407"
"435","larbun","Lark Bunting","Calamospiza melanocorys","L44846919","1283 Shep's Canyon Rd, Hot Springs US-SD 43.33195, -103.49712","2025-05-12 13:18",1,43.331945,-103.497119,TRUE,FALSE,TRUE,"S237027482"
"436","larbun","Lark Bunting","Calamospiza melanocorys","L44845284","36111–36127 Regina Rd, Malta US-MT 47.86810, -107.84830","2025-05-12 13:15",20,47.868098,-107.848299,TRUE,FALSE,TRUE,"S237018113"
"437","larbun","Lark Bunting","Calamospiza melanocorys","L41476320","12574 Sheps Canyon Road, Hot Springs, South Dakota, US (43.347, -103.545)","2025-05-12 13:03",1,43.347005,-103.5448708,TRUE,FALSE,TRUE,"S237047885"
"438","larbun","Lark Bunting","Calamospiza melanocorys","L44857163","SD-71, Edgemont US-SD 43.14014, -103.66224","2025-05-12 13:02",1,43.140139,-103.66224,TRUE,FALSE,TRUE,"S237086646"
"439","larbun","Lark Bunting","Calamospiza melanocorys","L44844084","703 County Road 7, Clovis, New Mexico, US (34.361, -103.144)","2025-05-12 13:01",1,34.3611584,-103.1441809,TRUE,FALSE,TRUE,"S237011684"
"440","larbun","Lark Bunting","Calamospiza melanocorys","L44857214","Hat Creek Rd, Harrison US-NE 42.99404, -103.64175","2025-05-12 12:50",53,42.994038,-103.641748,TRUE,FALSE,TRUE,"S237086924"
"441","larbun","Lark Bunting","Calamospiza melanocorys","L24625522","33 Ranch - North (private access)","2025-05-12 12:18",3,43.6599006,-101.1571004,TRUE,FALSE,TRUE,"S237081787"
"442","larbun","Lark Bunting","Calamospiza melanocorys","L128897","Big Bend NP--Cottonwood Campground (FWTX 40)","2025-05-12 12:03",1,29.1366997,-103.5220032,TRUE,FALSE,FALSE,"S237051938"
"443","larbun","Lark Bunting","Calamospiza melanocorys","L4119511","Fly Creek Rd. between I-90 and Old 87","2025-05-12 11:51",4,45.7557194,-107.9460822,TRUE,TRUE,FALSE,"S236989074"
"444","larbun","Lark Bunting","Calamospiza melanocorys","L131616","Lake Meredith","2025-05-12 11:47",5,38.2125578,-103.6908531,TRUE,FALSE,FALSE,"S237163718"
"445","larbun","Lark Bunting","Calamospiza melanocorys","L44476233","59538, Malta US-MT 47.86916, -108.22778","2025-05-12 11:41",2,47.869156,-108.227777,TRUE,FALSE,TRUE,"S236978268"
"446","larbun","Lark Bunting","Calamospiza melanocorys","L23976476","Crowley - CR G west of Lane 21","2025-05-12 11:29",2,38.214442,-103.697893,TRUE,FALSE,TRUE,"S237163492"
"447","larbun","Lark Bunting","Calamospiza melanocorys","L785641","Toadstool Geologic Park","2025-05-12 11:21",2,42.85706,-103.5848093,TRUE,FALSE,FALSE,"S237087599"
"448","larbun","Lark Bunting","Calamospiza melanocorys","L44837197","1001–1199 Toadstool Rd, Crawford US-NE 42.84729, -103.53674","2025-05-12 11:18",6,42.847291,-103.536742,TRUE,FALSE,TRUE,"S236974835"
"449","larbun","Lark Bunting","Calamospiza melanocorys","L44841903","State Land #1","2025-05-12 11:15",2,45.617315,-105.488865,TRUE,FALSE,TRUE,"S236999126"
"450","larbun","Lark Bunting","Calamospiza melanocorys","L304168","Rawhide Energy Station/Hamilton Reservoir","2025-05-12 11:14",1,40.852235,-105.0259988,TRUE,FALSE,FALSE,"S236986238"
"451","larbun","Lark Bunting","Calamospiza melanocorys","L44840552","Bear Creek Rd, Scenic US-SD (43.8227,-102.5391)","2025-05-12 11:10",25,43.822675,-102.539068,TRUE,FALSE,TRUE,"S236992194"
"452","larbun","Lark Bunting","Calamospiza melanocorys","L44840384","CR-C590, Scenic US-SD (43.8459,-102.4971)","2025-05-12 11:05",40,43.845944,-102.497051,TRUE,FALSE,TRUE,"S236991383"
"453","larbun","Lark Bunting","Calamospiza melanocorys","L44828106","Highway 9, Vinson, Oklahoma, US (34.901, -99.809)","2025-05-12 11:00",3,34.9006504,-99.8091394,TRUE,FALSE,TRUE,"S236926180"
"454","larbun","Lark Bunting","Calamospiza melanocorys","L44832356","7347-7869 U.S. 54, Vaughn, New Mexico, US (34.648, -105.128)","2025-05-12 10:46",6,34.6479791,-105.1278976,TRUE,FALSE,TRUE,"S236949310"
"455","larbun","Lark Bunting","Calamospiza melanocorys","L44832589","Dwight D. Eisenhower Highway, Genoa, Colorado, US (39.279, -103.408)","2025-05-12 10:46",3,39.2791581,-103.4081306,TRUE,FALSE,TRUE,"S236950571"
"456","larbun","Lark Bunting","Calamospiza melanocorys","L44831940","Petrolia Bench Road, Winnett, Montana, US (46.978, -108.209)","2025-05-12 10:42",3,46.9777424,-108.2085599,TRUE,FALSE,TRUE,"S236947002"
"457","larbun","Lark Bunting","Calamospiza melanocorys","L45198069","RO Ponds","2025-05-12 10:30",1,31.682671,-106.169887,TRUE,FALSE,TRUE,"S238965668"
"458","larbun","Lark Bunting","Calamospiza melanocorys","L44870316","Bird Tour CR 96, Briggsdale US-CO 40.68358, -104.33659","2025-05-12 10:14",91,40.683577,-104.336592,TRUE,FALSE,TRUE,"S237169546"
"459","larbun","Lark Bunting","Calamospiza melanocorys","L44830499","County Road 77, Briggsdale US-CO 40.68682, -104.33483","2025-05-12 10:05",2,40.686819,-104.334829,TRUE,FALSE,TRUE,"S236938693"
"460","larbun","Lark Bunting","Calamospiza melanocorys","L44894035","295th Trl, south of Hay Springs, NE","2025-05-12 10:00",30,42.3716219,-102.6810698,TRUE,FALSE,TRUE,"S237322273"
"461","larbun","Lark Bunting","Calamospiza melanocorys","L1154234","Gage Gardens (FWTX 27), Marathon","2025-05-12 09:59",2,30.2044271,-103.2430744,TRUE,FALSE,FALSE,"S236936858"
"462","larbun","Lark Bunting","Calamospiza melanocorys","L44860156","Middle Fork Road, Buffalo","2025-05-12 09:50",15,44.126622,-106.5845091,TRUE,FALSE,TRUE,"S237105536"
"463","larbun","Lark Bunting","Calamospiza melanocorys","L804046","Chatfield SP--Horse Stable Area","2025-05-12 09:22",3,39.5291438,-105.0901186,TRUE,FALSE,FALSE,"S236926600"
"464","larbun","Lark Bunting","Calamospiza melanocorys","L44824605","Conata Basin Rd, Scenic US-SD 43.76512, -102.19862","2025-05-12 09:22",60,43.76512,-102.198621,TRUE,TRUE,TRUE,"S236907484"
"465","larbun","Lark Bunting","Calamospiza melanocorys","L1306558","Lubbock Co.--Boles Rd./CR2800","2025-05-12 09:14",2,33.5559996,-101.7664164,TRUE,FALSE,FALSE,"S239969562"
"466","larbun","Lark Bunting","Calamospiza melanocorys","L44823624","5001–5999 County Road 8, Joes US-CO 39.68507, -102.69886","2025-05-12 09:10",10,39.685067,-102.69886,TRUE,FALSE,TRUE,"S236902142"
"467","larbun","Lark Bunting","Calamospiza melanocorys","L44832137","CR 105 between Highway 14 and CR86","2025-05-12 09:05",50,40.620712,-104.068755,TRUE,FALSE,TRUE,"S236948133"
"468","larbun","Lark Bunting","Calamospiza melanocorys","L44820891","33808 East 120th Avenue, Hudson, Colorado, US (39.913, -104.59)","2025-05-12 08:38",1,39.9134208,-104.5897977,TRUE,FALSE,TRUE,"S236886948"
"469","larbun","Lark Bunting","Calamospiza melanocorys","L34312622","SW Pond, Private Property","2025-05-12 08:12",1,35.009111,-101.187287,TRUE,FALSE,TRUE,"S236857477"
"470","larbun","Lark Bunting","Calamospiza melanocorys","L2204933","Picket Wire Canyon--Otero County","2025-05-12 08:11",27,37.6488537,-103.5617537,TRUE,FALSE,FALSE,"S237055874"
"471","larbun","Lark Bunting","Calamospiza melanocorys","L44821514","43953–43975 County Road 105, Briggsdale US-CO 40.62924, -104.06851","2025-05-12 07:57",11,40.62924,-104.068508,TRUE,FALSE,TRUE,"S236960319"
"472","larbun","Lark Bunting","Calamospiza melanocorys","L44849701","County Road 103, Grover US-CO 40.68138, -104.08609","2025-05-12 07:30",4,40.681383,-104.086093,TRUE,FALSE,TRUE,"S237042870"
"473","larbun","Lark Bunting","Calamospiza melanocorys","L44847035","19711–21031 S Peyton Hwy, Colorado Springs US-CO 38.54690, -104.45617","2025-05-12 07:20",1,38.546896,-104.456166,TRUE,FALSE,TRUE,"S237028056"
"474","larbun","Lark Bunting","Calamospiza melanocorys","L17584364","Home","2025-05-12 07:18",1,48.5127217,-97.3844865,TRUE,TRUE,TRUE,"S237048786"
"475","larbun","Lark Bunting","Calamospiza melanocorys","L10842991","Sheep Canyon, Mickelson Trail","2025-05-12 07:04",3,43.3299147,-103.7467835,TRUE,FALSE,FALSE,"S237042311"
"476","larbun","Lark Bunting","Calamospiza melanocorys","L9887884","Chico Basin Ranch (Pueblo Co)","2025-05-12 06:59",2,38.514429,-104.436518,TRUE,FALSE,TRUE,"S237086633"
"477","larbun","Lark Bunting","Calamospiza melanocorys","L14472256","18000 Hanover Road, Colorado Springs, Colorado, US (38.579, -104.495)","2025-05-12 06:45",5,38.5786018,-104.4951199,TRUE,FALSE,TRUE,"S236833105"
"478","larbun","Lark Bunting","Calamospiza melanocorys","L42848774","656 5th Avenue Northwest, Hettinger, North Dakota, US (46.061, -102.758)","2025-05-12 06:34",1,46.0609219,-102.7581852,TRUE,FALSE,TRUE,"S237042537"
"479","larbun","Lark Bunting","Calamospiza melanocorys","L26297156","Cielo Azul","2025-05-12 06:30",9,30.372775,-103.739375,TRUE,FALSE,TRUE,"S236904532"
"480","larbun","Lark Bunting","Calamospiza melanocorys","L3058450","Peyton Hwy from Hwy 94 south","2025-05-12 06:15",4,38.7797198,-104.4598961,TRUE,FALSE,TRUE,"S237076243"
"481","larbun","Lark Bunting","Calamospiza melanocorys","L7226053","WY, My Yard, Laramie","2025-05-12 06:12",1,41.3266114,-105.5804814,TRUE,FALSE,TRUE,"S236827236"
"482","larbun","Lark Bunting","Calamospiza melanocorys","L44857568","Nebraska NF - Saddle and Boots Trail","2025-05-12 06:08",1,42.716935,-103.566618,TRUE,FALSE,TRUE,"S237089265"
"483","larbun","Lark Bunting","Calamospiza melanocorys","L44813602","North Rapid City Backroad","2025-05-12 06:00",2,44.139375,-103.181046,TRUE,FALSE,TRUE,"S236840428"
"484","larbun","Lark Bunting","Calamospiza melanocorys","L44834840","Pawnee National Grassland, CR 96","2025-05-12 06:00",98,40.693128,-104.395686,TRUE,FALSE,TRUE,"S236963125"
"485","larbun","Lark Bunting","Calamospiza melanocorys","L128986","San Pedro RNCA--Hereford Bridge","2025-05-12 05:58",1,31.4384285,-110.1076526,TRUE,FALSE,FALSE,"S237054128"
"486","larbun","Lark Bunting","Calamospiza melanocorys","L331980","Ft. Pierre NG (Lyman Co.)","2025-05-12 05:50",2,44.1679295,-100.3215695,TRUE,FALSE,FALSE,"S236838929"
"487","larbun","Lark Bunting","Calamospiza melanocorys","L44851674","Ledoux Rd area (state land, no access)","2025-05-12 05:37",85,33.5865499,-103.5268802,TRUE,TRUE,TRUE,"S237055477"
"488","larbun","Lark Bunting","Calamospiza melanocorys","L44829454","County Road 96, Briggsdale US-CO 40.68360, -104.34491","2025-05-12 05:24",62,40.683605,-104.34491,TRUE,FALSE,TRUE,"S236933157"
"489","larbun","Lark Bunting","Calamospiza melanocorys","L2802418","Hanover Road","2025-05-12",2,38.5854783,-104.6416855,TRUE,FALSE,TRUE,"S237037923"
"490","larbun","Lark Bunting","Calamospiza melanocorys","L44790122","County Road BB, Sugar City US-CO 38.47944, -103.66911","2025-05-11 19:04",17,38.479443,-103.669109,TRUE,FALSE,TRUE,"S236704441"
"491","larbun","Lark Bunting","Calamospiza melanocorys","L44785027","24468 County Road, Blanca, Colorado, US (37.351, -105.551)","2025-05-11 18:24",1,37.3509263,-105.550955,TRUE,FALSE,TRUE,"S236674332"
"492","larbun","Lark Bunting","Calamospiza melanocorys","L44789335","6192–6898 N-29, Harrison US-NE 42.61923, -103.89313","2025-05-11 18:13",48,42.61923,-103.89313,TRUE,FALSE,TRUE,"S236700156"
"493","larbun","Lark Bunting","Calamospiza melanocorys","L44789351","4818–4918 N-29, Harrison US-NE 42.46626, -103.79440","2025-05-11 18:01",7,42.466257,-103.794399,TRUE,FALSE,TRUE,"S236700199"
"494","larbun","Lark Bunting","Calamospiza melanocorys","L44791320","Dry Fork Rd, Dodson US-MT 47.79209, -108.32152","2025-05-11 17:57",125,47.792094,-108.321517,TRUE,FALSE,TRUE,"S236711116"
"495","larbun","Lark Bunting","Calamospiza melanocorys","L2590456","3650 CR 437 Cherokee, TX","2025-05-11 17:29",1,30.9623766,-98.6788054,TRUE,FALSE,TRUE,"S236702091"
"496","larbun","Lark Bunting","Calamospiza melanocorys","L44869801","13000–14190 County Road 25, La Junta US-CO 37.82415, -103.62011","2025-05-11 17:23",21,37.824149,-103.620113,TRUE,FALSE,TRUE,"S237166866"
"497","larbun","Lark Bunting","Calamospiza melanocorys","L44780074","30704–30822 County Road 25, Rocky Ford US-CO 38.12580, -103.61911","2025-05-11 17:13",23,38.125796,-103.619113,TRUE,FALSE,TRUE,"S236643826"
"498","larbun","Lark Bunting","Calamospiza melanocorys","L44792141","Unnamed Road, Leoti, Kansas, US (38.322, -101.226)","2025-05-11 16:58",5,38.3223184,-101.2259143,TRUE,FALSE,TRUE,"S236715113"
"499","larbun","Lark Bunting","Calamospiza melanocorys","L319397","Bear Butte Lake","2025-05-11 16:45",8,44.4563502,-103.4452331,TRUE,FALSE,FALSE,"S236692984"
"500","larbun","Lark Bunting","Calamospiza melanocorys","L44781064","13401–13499 Wildlife Loop, Buffalo Gap US-SD 43.65003, -103.36124","2025-05-11 16:15",25,43.650029,-103.361237,TRUE,FALSE,TRUE,"S236649673"
"501","larbun","Lark Bunting","Calamospiza melanocorys","L25813633","1270–1398 139th Ave NW, Arnegard US-ND (47.6026,-103.5022)","2025-05-11 15:48",1,47.602553,-103.502213,TRUE,FALSE,TRUE,"S236572507"
"502","larbun","Lark Bunting","Calamospiza melanocorys","L44787577","Campbell Road, Union County","2025-05-11 15:44",72,36.6431026,-103.1812146,TRUE,FALSE,TRUE,"S236689904"
"503","larbun","Lark Bunting","Calamospiza melanocorys","L39203990","Alamos Road, Clayton","2025-05-11 15:27",44,36.6058684,-103.2529493,TRUE,FALSE,TRUE,"S236599753"
"504","larbun","Lark Bunting","Calamospiza melanocorys","L44773584","Button Mesa Road Playa","2025-05-11 15:25",6,33.440748,-103.6525929,TRUE,FALSE,TRUE,"S236608468"
"505","larbun","Lark Bunting","Calamospiza melanocorys","L44769504","Button Mesa Road, Tatum, New Mexico, US (33.388, -103.662)","2025-05-11 15:18",4,33.3882337,-103.6624619,TRUE,FALSE,TRUE,"S236587724"
"506","larbun","Lark Bunting","Calamospiza melanocorys","L3133579","Byers (town)","2025-05-11 15:02",10,39.7108843,-104.2235184,TRUE,FALSE,FALSE,"S236580746"
"507","larbun","Lark Bunting","Calamospiza melanocorys","L44788143","Weld County Backroad Incidentals west of national grassland","2025-05-11 15:00",5,40.6405806,-104.7354188,TRUE,FALSE,TRUE,"S236694004"
"508","larbun","Lark Bunting","Calamospiza melanocorys","L44767196","Tower Road, Roswell, New Mexico, US (33.378, -103.776)","2025-05-11 14:56",1,33.3775842,-103.775776,TRUE,FALSE,TRUE,"S236576579"
"509","larbun","Lark Bunting","Calamospiza melanocorys","L44778489","121–133 E Powderville Rd, Broadus US-MT 45.52793, -105.29204","2025-05-11 14:55",5,45.527934,-105.29204,TRUE,FALSE,TRUE,"S236634506"
"510","larbun","Lark Bunting","Calamospiza melanocorys","L44792237","County Road K, Leoti, Kansas, US (38.554, -101.314)","2025-05-11 14:53",1,38.5543685,-101.3144619,TRUE,FALSE,TRUE,"S236715587"
"511","larbun","Lark Bunting","Calamospiza melanocorys","L44769023","195–199 Case Rd, Mills US-NM 36.10255, -104.28329","2025-05-11 14:48",45,36.102547,-104.283287,TRUE,FALSE,TRUE,"S236585620"
"512","larbun","Lark Bunting","Calamospiza melanocorys","L44782643","N-29, Mitchell US-NE 42.00818, -103.81435","2025-05-11 14:38",23,42.008178,-103.814349,TRUE,FALSE,TRUE,"S236659525"
"513","larbun","Lark Bunting","Calamospiza melanocorys","L765457","Las Cienegas NCA--South Entrance (Santa Cruz Co.)","2025-05-11 14:29",3,31.7141517,-110.5902417,TRUE,FALSE,FALSE,"S236655453"
"514","larbun","Lark Bunting","Calamospiza melanocorys","L209645","Box Butte Reservoir SRA","2025-05-11 13:45",10,42.460898,-103.0954563,TRUE,FALSE,FALSE,"S236610718"
"515","larbun","Lark Bunting","Calamospiza melanocorys","L31765139","Hwy 161 Sheridan County","2025-05-11 13:35",1,44.6498893,-106.5892415,TRUE,FALSE,TRUE,"S236689349"
"516","larbun","Lark Bunting","Calamospiza melanocorys","L3603371","ELB - CR 118 3.8 (from I-70)","2025-05-11 13:34",85,39.2854862,-103.8622463,TRUE,FALSE,TRUE,"S236603239"
"517","larbun","Lark Bunting","Calamospiza melanocorys","L44792222","County Road 19, Marienthal, Kansas, US (38.569, -101.239)","2025-05-11 13:19",5,38.5692811,-101.2385268,TRUE,FALSE,TRUE,"S236715480"
"518","larbun","Lark Bunting","Calamospiza melanocorys","L152905","Waldrop Park Rest Area","2025-05-11 13:11",6,33.417636,-103.814605,TRUE,FALSE,FALSE,"S236525660"
"519","larbun","Lark Bunting","Calamospiza melanocorys","L5262715","Wildlife Way Pond","2025-05-11 13:03",5,35.6701103,-106.0745001,TRUE,FALSE,FALSE,"S236612212"
"520","larbun","Lark Bunting","Calamospiza melanocorys","L5069936","Higbee Valley Road (Otero CR 804)","2025-05-11 13:01",4,37.7606101,-103.4667331,TRUE,FALSE,FALSE,"S236579435"
"521","larbun","Lark Bunting","Calamospiza melanocorys","L5000244","West Rim Road","2025-05-11 13:00",4,36.403945,-105.7445669,TRUE,TRUE,TRUE,"S236701186"
"522","larbun","Lark Bunting","Calamospiza melanocorys","L2863656","Mosquero (town)","2025-05-11 12:59",3,35.7752621,-103.9576967,TRUE,FALSE,FALSE,"S236535930"
"523","larbun","Lark Bunting","Calamospiza melanocorys","L1380876","Gray Co.--FR2477","2025-05-11 12:44",14,35.2560977,-100.9344411,TRUE,FALSE,FALSE,"S236618329"
"524","larbun","Lark Bunting","Calamospiza melanocorys","L44749510","W Comanche Rd, Broadview US-MT 45.98758, -108.78623","2025-05-11 12:39",1,45.987583,-108.786226,TRUE,FALSE,TRUE,"S236494739"
"525","larbun","Lark Bunting","Calamospiza melanocorys","L44746438","103755–104979 County Road 52, Kim US-CO 37.36610, -103.26960","2025-05-11 12:13",11,37.366096,-103.269602,TRUE,FALSE,TRUE,"S236480210"
"526","larbun","Lark Bunting","Calamospiza melanocorys","L44747063","109449–109999 County Road 52, Kim US-CO 37.36609, -103.13746","2025-05-11 11:56",3,37.366092,-103.137457,TRUE,FALSE,TRUE,"S236483015"
"527","larbun","Lark Bunting","Calamospiza melanocorys","L1818538","Becton Cemetery Playa","2025-05-11 11:20",16,33.78594,-101.62963,TRUE,FALSE,FALSE,"S236676774"
"528","larbun","Lark Bunting","Calamospiza melanocorys","L44748527","County Road 104, Ault US-CO 40.73961, -104.50932","2025-05-11 11:05",7,40.739607,-104.509322,TRUE,FALSE,TRUE,"S236489839"
"529","larbun","Lark Bunting","Calamospiza melanocorys","L19962569","STFL-2022, Comanche National Grassland","2025-05-11 11:02",4,37.250381,-102.872126,TRUE,FALSE,TRUE,"S236481283"
"530","larbun","Lark Bunting","Calamospiza melanocorys","L7204808","Anton (town)","2025-05-11 11:01",6,39.7411184,-103.2173681,TRUE,FALSE,TRUE,"S236426832"
"531","larbun","Lark Bunting","Calamospiza melanocorys","L44733564","County Road 9, Wild Horse US-CO 38.98956, -102.99570","2025-05-11 10:52",6,38.989556,-102.995703,TRUE,FALSE,TRUE,"S236420612"
"532","larbun","Lark Bunting","Calamospiza melanocorys","L4688372","Murphy Reservoir","2025-05-11 10:29",15,40.6978928,-104.3528652,TRUE,FALSE,FALSE,"S236456457"
"533","larbun","Lark Bunting","Calamospiza melanocorys","L44727315","4874–4882 Ranch Rd, Dodson US-MT 47.95285, -108.26201","2025-05-11 10:16",1,47.952847,-108.262005,TRUE,FALSE,TRUE,"S236389767"
"534","larbun","Lark Bunting","Calamospiza melanocorys","L32780214","Playas along CR 5400 west of FM 2528","2025-05-11 10:15",7,33.7663129,-101.947943,TRUE,FALSE,TRUE,"S236674211"
"535","larbun","Lark Bunting","Calamospiza melanocorys","L44734304","Pershing Cutoff selected 45.76103, -104.44803","2025-05-11 10:12",3,45.761027,-104.448032,TRUE,FALSE,TRUE,"S236424207"
"536","larbun","Lark Bunting","Calamospiza melanocorys","L2894724","Sand Canyon","2025-05-11 10:05",2,37.0144864,-102.8454833,TRUE,FALSE,FALSE,"S236714118"
"537","larbun","Lark Bunting","Calamospiza melanocorys","L9555785","Szasz Ranch","2025-05-11 10:00",NA,40.6365093,-104.5829067,TRUE,FALSE,TRUE,"S237525813"
"538","larbun","Lark Bunting","Calamospiza melanocorys","L44937562","19601–19699 US-40, Kit Carson US-CO 38.76384, -102.82186","2025-05-11 09:52",1,38.763836,-102.821855,TRUE,FALSE,TRUE,"S237579553"
"539","larbun","Lark Bunting","Calamospiza melanocorys","L44748308","County Road 69, Briggsdale US-CO 40.72352, -104.40932","2025-05-11 09:29",1,40.723524,-104.409323,TRUE,FALSE,TRUE,"S236488738"
"540","larbun","Lark Bunting","Calamospiza melanocorys","L39878958","Harding Road, Buffalo, South Dakota, US (45.355, -103.825)","2025-05-11 09:26",20,45.3550074,-103.8249343,TRUE,FALSE,TRUE,"S236776325"
"541","larbun","Lark Bunting","Calamospiza melanocorys","L44734943","69145, Kimball US-NE (41.0765,-103.6686)","2025-05-11 09:18",23,41.076485,-103.668553,TRUE,FALSE,TRUE,"S236427141"
"542","larbun","Lark Bunting","Calamospiza melanocorys","L36613018","Oral area","2025-05-11 09:12",10,43.4051067,-103.2676781,TRUE,FALSE,TRUE,"S236382958"
"543","larbun","Lark Bunting","Calamospiza melanocorys","L44785490","Little Missouri National Grassland - 140th Avenue SW, North Dakota, US","2025-05-11 09:11",1,46.5514185,-103.2799746,TRUE,FALSE,TRUE,"S236677177"
"544","larbun","Lark Bunting","Calamospiza melanocorys","L44744968","35671–35999 County Road 177.9, Branson US-CO 37.51190, -103.53545","2025-05-11 09:09",5,37.511901,-103.535453,TRUE,FALSE,TRUE,"S236474025"
"545","larbun","Lark Bunting","Calamospiza melanocorys","L44720025","Currier Rd, Calhan US-CO 39.00235, -104.23920","2025-05-11 09:08",2,39.002354,-104.239205,TRUE,FALSE,TRUE,"S236352973"
