"","speciesCode","comName","sciName","locId","locName","obsDt","howMany","lat","lng","obsValid","obsReviewed","locationPrivate","subId"
"1","bohwax","Bohemian Waxwing","Bombycilla garrulus","L9052595","TAPS road b/w Love Rd/Steele Creek","2025-06-02 10:25",2,64.8833013,-147.4984955,TRUE,FALSE,TRUE,"S246042820"
"2","bohwax","Bohemian Waxwing","Bombycilla garrulus","L929964","Beluga--South Bog","2025-06-02 09:49",2,61.1223093,-151.1026955,TRUE,FALSE,FALSE,"S246099202"
"3","bohwax","Bohemian Waxwing","Bombycilla garrulus","L12024297","Creamer's Field Migration Station","2025-06-02 06:35",3,64.8672274,-147.7463818,TRUE,FALSE,FALSE,"S246061919"
"4","bohwax","Bohemian Waxwing","Bombycilla garrulus","L5993100","Mt. McKinley Princess Wilderness Lodge","2025-06-01 15:59",1,62.5584721,-150.2295613,TRUE,FALSE,FALSE,"S245736299"
"5","bohwax","Bohemian Waxwing","Bombycilla garrulus","L524998","West UAF Trails & Smith Lake","2025-06-01 14:15",6,64.8643458,-147.8634453,TRUE,FALSE,FALSE,"S245748567"
"6","bohwax","Bohemian Waxwing","Bombycilla garrulus","L2898849","Nome-Council Rd.--Bear River","2025-06-01 14:09",1,64.8645225,-163.6929846,TRUE,FALSE,FALSE,"S245774299"
"7","bohwax","Bohemian Waxwing","Bombycilla garrulus","L24627673","Muskrat Ponds in Creamer's Refuge Fairbanks US-AK 64.87890, -147.76656","2025-06-01 13:17",2,64.878895,-147.76656,TRUE,FALSE,TRUE,"S245737436"
"8","bohwax","Bohemian Waxwing","Bombycilla garrulus","L46622894","99790, Fairbanks US-AK 65.29216, -148.14798","2025-06-01 12:45",4,65.292165,-148.147979,TRUE,FALSE,TRUE,"S245727406"
"9","bohwax","Bohemian Waxwing","Bombycilla garrulus","L46607272","Great Northwest peat (formerly) via College Rd","2025-06-01 07:51",1,64.862189,-147.788161,TRUE,FALSE,TRUE,"S245653280"
"10","bohwax","Bohemian Waxwing","Bombycilla garrulus","L44566920","Hill Road Lake, Fairbanks US-AK (64.8228,-147.7938)","2025-06-01 07:22",4,64.822836,-147.793823,TRUE,FALSE,TRUE,"S245520502"
"11","bohwax","Bohemian Waxwing","Bombycilla garrulus","L2376984","Homer--Beluga Lake (east end & overlook)","2025-06-01 07:05",1,59.6446348,-151.4919913,TRUE,FALSE,FALSE,"S245521470"
"12","bohwax","Bohemian Waxwing","Bombycilla garrulus","L30941857","Vista Gold Neighborhood","2025-06-01 05:53",2,64.9536325,-147.8487843,TRUE,FALSE,TRUE,"S245455751"
"13","bohwax","Bohemian Waxwing","Bombycilla garrulus","L128537","Creamer's Field MWR","2025-05-31 09:49",1,64.86305,-147.7381727,TRUE,FALSE,FALSE,"S245118932"
"14","bohwax","Bohemian Waxwing","Bombycilla garrulus","L24949646","Beluga—Airstrip Bog","2025-05-31 07:15",2,61.175547,-151.063077,TRUE,FALSE,TRUE,"S245164750"
"15","bohwax","Bohemian Waxwing","Bombycilla garrulus","L19931792","Cripple Creek Campground","2025-05-30 12:15",2,65.2759712,-146.6492888,TRUE,FALSE,TRUE,"S244783642"
"16","bohwax","Bohemian Waxwing","Bombycilla garrulus","L4479046","Creamer's Field MWR--Seasonal Wetland Trail","2025-05-30 07:07",2,64.866383,-147.7409676,TRUE,FALSE,FALSE,"S244609059"
"17","bohwax","Bohemian Waxwing","Bombycilla garrulus","L23701581","Aspen Heights","2025-05-29 17:23",3,64.914722,-147.702661,TRUE,FALSE,TRUE,"S244388727"
"18","bohwax","Bohemian Waxwing","Bombycilla garrulus","L27123867","Sheep Creek Cabin","2025-05-29 17:00",5,64.8659134,-147.9097187,TRUE,FALSE,TRUE,"S244440461"
"19","bohwax","Bohemian Waxwing","Bombycilla garrulus","L46304371","2245 N Glenn Hwy, Eureka Roadhouse US-AK 61.93817, -147.17046","2025-05-28 21:25",4,61.938166,-147.170457,TRUE,FALSE,TRUE,"S244259085"
"20","bohwax","Bohemian Waxwing","Bombycilla garrulus","L46255189","Mineral Lake","2025-05-28 13:35",2,62.943828,-143.3774848,TRUE,FALSE,TRUE,"S244029123"
"21","bohwax","Bohemian Waxwing","Bombycilla garrulus","L11737874","Ft. Wainwright--Monterey Lake (Restricted Access)","2025-05-27 18:07",5,64.8203393,-147.6212122,TRUE,FALSE,FALSE,"S243684072"
"22","bohwax","Bohemian Waxwing","Bombycilla garrulus","L7942543","Pike’s Waterfront Lodge","2025-05-27 14:24",4,64.8312638,-147.848462,TRUE,FALSE,FALSE,"S243631988"
"23","bohwax","Bohemian Waxwing","Bombycilla garrulus","L11005216","Creamer's Field MWR--Boreal Forest Trail","2025-05-26 20:20",2,64.8666675,-147.7306822,TRUE,FALSE,FALSE,"S243351371"
"24","bohwax","Bohemian Waxwing","Bombycilla garrulus","L417103","Denebola Rd","2025-05-26 12:08",8,63.8810104,-149.1551246,TRUE,FALSE,TRUE,"S243183025"
"25","bohwax","Bohemian Waxwing","Bombycilla garrulus","L32583473","Swan Lake, Sterling US-AK 60.68095, -150.54994","2025-05-26 09:35",2,60.680946,-150.549938,TRUE,FALSE,TRUE,"S244579469"
"26","bohwax","Bohemian Waxwing","Bombycilla garrulus","L5851064","Fort Wainwright (restricted access)","2025-05-26 09:18",5,64.84121,-147.6100537,TRUE,FALSE,FALSE,"S243101292"
"27","bohwax","Bohemian Waxwing","Bombycilla garrulus","L44780105","Flat Mountain","2025-05-26 08:29",10,64.886506,-146.801793,TRUE,FALSE,TRUE,"S243064016"
"28","bohwax","Bohemian Waxwing","Bombycilla garrulus","L12051711","Pipeline Access Rd","2025-05-26 07:56",5,64.855629,-147.445747,TRUE,FALSE,TRUE,"S243247058"
"29","bohwax","Bohemian Waxwing","Bombycilla garrulus","L2229542","Copper Center","2025-05-26 00:15",1,62.007915,-145.3408813,TRUE,FALSE,TRUE,"S244036005"
"30","bohwax","Bohemian Waxwing","Bombycilla garrulus","L131039","Fairbanks International Airport--ponds","2025-05-25 12:59",1,64.8213599,-147.8650492,TRUE,FALSE,FALSE,"S242691706"
"31","bohwax","Bohemian Waxwing","Bombycilla garrulus","L45968206","George Parks Hwy, Healy US-AK 63.69535, -148.86495","2025-05-25 10:15",6,63.695346,-148.864947,TRUE,FALSE,TRUE,"S242622792"
"32","bohwax","Bohemian Waxwing","Bombycilla garrulus","L27777126","Neighborhood Trails","2025-05-24 20:30",5,64.8692873,-147.9161464,TRUE,FALSE,TRUE,"S244065876"
"33","bohwax","Bohemian Waxwing","Bombycilla garrulus","L961319","Beluga--North Bog","2025-05-24 10:15",9,61.2094437,-151.0248041,TRUE,FALSE,FALSE,"S242178822"
"34","bohwax","Bohemian Waxwing","Bombycilla garrulus","L46117508","Caribou Bluff","2025-05-24 08:32",1,65.4721479,-147.5721093,TRUE,FALSE,TRUE,"S243343332"
"35","bohwax","Bohemian Waxwing","Bombycilla garrulus","L2855307","Kenai NWR - Kenai River Float Trip (Lower Skilak Lake to Bing's Landing)","2025-05-24 06:25",2,60.4769333,-150.5967236,TRUE,FALSE,TRUE,"S242261409"
