"","speciesCode","comName","sciName","locId","locName","obsDt","howMany","lat","lng","obsValid","obsReviewed","locationPrivate","subId"
"1","herwar","Hermit Warbler","Setophaga occidentalis","L48401690","Ben Irving Resv pulloff","2025-06-24 14:44",1,43.049307,-123.587491,TRUE,FALSE,TRUE,"S253826416"
"2","herwar","Hermit Warbler","Setophaga occidentalis","L48399139","Half Mile Pond @ Wage Rd, Jewell","2025-06-24 14:41",1,45.9296473,-123.4906662,TRUE,FALSE,TRUE,"S253814718"
"3","herwar","Hermit Warbler","Setophaga occidentalis","L8217807","Nestucca Bay NWR--Pacific View Trail and Deck","2025-06-24 14:28",1,45.1649502,-123.9539274,TRUE,FALSE,FALSE,"S253821251"
"4","herwar","Hermit Warbler","Setophaga occidentalis","L48400891","Mineral Road, Mineral, California, US (40.406, -121.619)","2025-06-24 14:24",2,40.4058283,-121.6194987,TRUE,FALSE,TRUE,"S253822685"
"5","herwar","Hermit Warbler","Setophaga occidentalis","L1359087","Lake Siskiyou","2025-06-24 12:40",1,41.2767048,-122.3394166,TRUE,FALSE,FALSE,"S253805224"
"6","herwar","Hermit Warbler","Setophaga occidentalis","L1365847","Marys Peak--campground","2025-06-24 12:31",1,44.5102015,-123.5607491,TRUE,FALSE,FALSE,"S253776224"
"7","herwar","Hermit Warbler","Setophaga occidentalis","L199765","Carmen Reservoir","2025-06-24 12:16",1,44.338564,-121.9988581,TRUE,FALSE,FALSE,"S253811784"
"8","herwar","Hermit Warbler","Setophaga occidentalis","L48385441","Marys Peak Road, Philomath, Oregon, US (44.473, -123.528)","2025-06-24 11:59",2,44.4726633,-123.5282898,TRUE,FALSE,TRUE,"S253768774"
"9","herwar","Hermit Warbler","Setophaga occidentalis","L2790030","Redwood Park (HUM Co.)","2025-06-24 11:25",1,40.869662,-124.0731132,TRUE,FALSE,FALSE,"S253775803"
"10","herwar","Hermit Warbler","Setophaga occidentalis","L48400280","Willamette National Forest, Sisters US-OR 44.34067, -122.00108","2025-06-24 10:30",1,44.340668,-122.001076,TRUE,FALSE,TRUE,"S253819764"
"11","herwar","Hermit Warbler","Setophaga occidentalis","L48380906","Timothy Lake Dam Area","2025-06-24 10:22",1,45.113332,-121.805324,TRUE,FALSE,TRUE,"S253750494"
"12","herwar","Hermit Warbler","Setophaga occidentalis","L2220221","Lassen Volcanic NP--Manzanita Creek Trail","2025-06-24 10:10",1,40.5299799,-121.5451813,TRUE,FALSE,FALSE,"S253805993"
"13","herwar","Hermit Warbler","Setophaga occidentalis","L48381460","Army Road Southwest, Olympia US-WA 47.01030, -123.13312","2025-06-24 09:58",3,47.010299,-123.133123,TRUE,FALSE,TRUE,"S253752587"
"14","herwar","Hermit Warbler","Setophaga occidentalis","L1138949","Peavy Arboretum","2025-06-24 09:43",5,44.6567715,-123.2347155,TRUE,FALSE,FALSE,"S253798526"
"15","herwar","Hermit Warbler","Setophaga occidentalis","L48376095","4290 Oregon Skyline Rd, Maupin US-OR (45.1435,-121.6993)","2025-06-24 09:12",1,45.143536,-121.699341,TRUE,FALSE,TRUE,"S253732339"
"16","herwar","Hermit Warbler","Setophaga occidentalis","L48275004","Lakeside--Benson Ridge Rd","2025-06-24 09:02",13,43.5809864,-124.1053676,TRUE,FALSE,TRUE,"S253796929"
"17","herwar","Hermit Warbler","Setophaga occidentalis","L48402047","National Forest Development Road 3010, Philomath, Oregon, US (44.511, -123.55)","2025-06-24 08:48",1,44.5105865,-123.5503377,TRUE,FALSE,TRUE,"S253828155"
"18","herwar","Hermit Warbler","Setophaga occidentalis","L447385","Ecola SP","2025-06-24 08:45",2,45.9183632,-123.9774513,TRUE,FALSE,FALSE,"S253761876"
"19","herwar","Hermit Warbler","Setophaga occidentalis","L48374734","4290 Oregon Skyline Rd, Maupin US-OR (45.1480,-121.6910)","2025-06-24 08:44",1,45.148011,-121.690962,TRUE,FALSE,TRUE,"S253727080"
"20","herwar","Hermit Warbler","Setophaga occidentalis","L33141645","BBR -- MPNR24","2025-06-24 08:30",2,44.5108116,-123.5503929,TRUE,FALSE,TRUE,"S253720120"
"21","herwar","Hermit Warbler","Setophaga occidentalis","L33141612","BBR -- MPNR22","2025-06-24 08:16",2,44.513718,-123.5545515,TRUE,FALSE,TRUE,"S253719985"
"22","herwar","Hermit Warbler","Setophaga occidentalis","L33141578","BBR -- MPNR21","2025-06-24 08:09",2,44.516077,-123.5543278,TRUE,FALSE,TRUE,"S253719933"
"23","herwar","Hermit Warbler","Setophaga occidentalis","L48372916","CBow (restricted access) breeding survey 6","2025-06-24 08:08",1,44.1544424,-122.9996451,TRUE,FALSE,TRUE,"S253719490"
"24","herwar","Hermit Warbler","Setophaga occidentalis","L48394842","Morristown Ghost Town","2025-06-24 08:07",1,39.653894,-120.906919,TRUE,FALSE,TRUE,"S253801222"
"25","herwar","Hermit Warbler","Setophaga occidentalis","L19806079","Gopherbroke Ranch","2025-06-24 08:01",1,40.564139,-124.095719,TRUE,FALSE,TRUE,"S253725069"
"26","herwar","Hermit Warbler","Setophaga occidentalis","L33141567","BBR -- MPNR20","2025-06-24 07:54",3,44.518055,-123.5540044,TRUE,FALSE,TRUE,"S253719690"
"27","herwar","Hermit Warbler","Setophaga occidentalis","L33141551","BBR -- MPNR19","2025-06-24 07:46",2,44.5188402,-123.5543889,TRUE,FALSE,TRUE,"S253719613"
"28","herwar","Hermit Warbler","Setophaga occidentalis","L33141531","BBR -- MPNR18","2025-06-24 07:38",2,44.5202201,-123.5543523,TRUE,FALSE,TRUE,"S253719540"
"29","herwar","Hermit Warbler","Setophaga occidentalis","L33141512","BBR -- MPNR17","2025-06-24 07:31",1,44.5196509,-123.5527498,TRUE,FALSE,TRUE,"S253719477"
"30","herwar","Hermit Warbler","Setophaga occidentalis","L33141493","BBR -- MPNR16","2025-06-24 07:23",2,44.519838,-123.5520077,TRUE,FALSE,TRUE,"S253719293"
"31","herwar","Hermit Warbler","Setophaga occidentalis","L33141471","BBR -- MPNR15","2025-06-24 07:16",4,44.5216695,-123.5527177,TRUE,FALSE,TRUE,"S253719214"
"32","herwar","Hermit Warbler","Setophaga occidentalis","L33141453","BBR -- MPNR14","2025-06-24 07:07",4,44.5227782,-123.5557012,TRUE,FALSE,TRUE,"S253718984"
"33","herwar","Hermit Warbler","Setophaga occidentalis","L48369161","CBow (restricted access) breeding survey 4","2025-06-24 06:59",2,44.1439591,-122.9879551,TRUE,FALSE,TRUE,"S253702494"
"34","herwar","Hermit Warbler","Setophaga occidentalis","L33141438","BBR -- MPNR13","2025-06-24 06:59",5,44.5222055,-123.5524519,TRUE,FALSE,TRUE,"S253718916"
"35","herwar","Hermit Warbler","Setophaga occidentalis","L33141425","BBR -- MPNR12","2025-06-24 06:50",1,44.5207805,-123.5498992,TRUE,FALSE,TRUE,"S253718828"
"36","herwar","Hermit Warbler","Setophaga occidentalis","L33141406","BBR -- MPNR11","2025-06-24 06:42",2,44.5204491,-123.54885,TRUE,FALSE,TRUE,"S253718746"
"37","herwar","Hermit Warbler","Setophaga occidentalis","L48396110","Camp Tacoma to Foster Bar","2025-06-24 06:37",1,42.662556,-123.991882,TRUE,FALSE,TRUE,"S253803941"
"38","herwar","Hermit Warbler","Setophaga occidentalis","L33141391","BBR -- MPNR10","2025-06-24 06:34",3,44.5229026,-123.5501748,TRUE,FALSE,TRUE,"S253718674"
"39","herwar","Hermit Warbler","Setophaga occidentalis","L48366552","CBow (restricted access) breeding survey 3","2025-06-24 06:30",3,44.151804,-122.9899943,TRUE,FALSE,TRUE,"S253690063"
"40","herwar","Hermit Warbler","Setophaga occidentalis","L36038946","Willamette National Forest, McKenzie Bridge US-OR 44.18697, -122.09484","2025-06-24 06:28",3,44.186973,-122.094838,TRUE,FALSE,TRUE,"S253819545"
"41","herwar","Hermit Warbler","Setophaga occidentalis","L33141366","BBR -- MPNR9","2025-06-24 06:26",4,44.524175,-123.5518191,TRUE,FALSE,TRUE,"S253718594"
"42","herwar","Hermit Warbler","Setophaga occidentalis","L33141353","BBR -- MPNR8","2025-06-24 06:19",3,44.5231522,-123.54898,TRUE,FALSE,TRUE,"S253718529"
"43","herwar","Hermit Warbler","Setophaga occidentalis","L33141334","BBR -- MPNR7","2025-06-24 06:10",3,44.5245255,-123.5509264,TRUE,FALSE,TRUE,"S253718272"
"44","herwar","Hermit Warbler","Setophaga occidentalis","L33141314","BBR -- MPNR6","2025-06-24 06:00",2,44.5255282,-123.5518485,TRUE,FALSE,TRUE,"S253718150"
"45","herwar","Hermit Warbler","Setophaga occidentalis","L48364879","CBow (restricted access) breeding survey 2","2025-06-24 05:57",5,44.1594955,-122.9941673,TRUE,FALSE,TRUE,"S253681234"
"46","herwar","Hermit Warbler","Setophaga occidentalis","L13244591","Sunny Brae Community Forest","2025-06-24 05:53",1,40.8603626,-124.0549354,TRUE,FALSE,FALSE,"S253699393"
"47","herwar","Hermit Warbler","Setophaga occidentalis","L33141298","BBR -- MPNR5","2025-06-24 05:51",3,44.5253407,-123.5499442,TRUE,FALSE,TRUE,"S253718051"
"48","herwar","Hermit Warbler","Setophaga occidentalis","L956588","OSU McDonald-Dunn Forest--Lewisburg Saddle","2025-06-24 05:47",1,44.6368874,-123.2959235,TRUE,FALSE,FALSE,"S253707299"
"49","herwar","Hermit Warbler","Setophaga occidentalis","L33141274","BBR -- MPNR4","2025-06-24 05:44",2,44.5259111,-123.5489138,TRUE,FALSE,TRUE,"S253717981"
"50","herwar","Hermit Warbler","Setophaga occidentalis","L33141252","BBR -- MPNR3","2025-06-24 05:37",2,44.5277921,-123.5473973,TRUE,FALSE,TRUE,"S253717905"
"51","herwar","Hermit Warbler","Setophaga occidentalis","L33141226","BBR -- MPNR2","2025-06-24 05:30",2,44.5295051,-123.5474846,TRUE,FALSE,TRUE,"S253717766"
"52","herwar","Hermit Warbler","Setophaga occidentalis","L33141202","BBR -- MPNR1","2025-06-24 05:22",2,44.530989,-123.5447014,TRUE,FALSE,TRUE,"S253717414"
"53","herwar","Hermit Warbler","Setophaga occidentalis","L48399484","LV15","2025-06-24 05:07",1,40.430823,-121.536195,TRUE,FALSE,TRUE,"S253816208"
"54","herwar","Hermit Warbler","Setophaga occidentalis","L48346564","Jenness Park Rd, Long Barn US-CA (38.1453,-120.0594)","2025-06-23 18:57",1,38.145347,-120.059404,TRUE,FALSE,TRUE,"S253590633"
"55","herwar","Hermit Warbler","Setophaga occidentalis","L9245547","Friends of Wildwoods Open Space","2025-06-23 17:38",1,44.983717,-123.997843,TRUE,FALSE,FALSE,"S253578236"
"56","herwar","Hermit Warbler","Setophaga occidentalis","L11907526","8347–8349 S Fork Mountain Rd, Mad River US-CA 40.51240, -123.50291","2025-06-23 17:20",3,40.512398,-123.502905,TRUE,FALSE,TRUE,"S253757653"
"57","herwar","Hermit Warbler","Setophaga occidentalis","L48341690","Crown Camp 46.01634, -123.87079","2025-06-23 16:06",3,46.016336,-123.87079,TRUE,FALSE,TRUE,"S253569180"
"58","herwar","Hermit Warbler","Setophaga occidentalis","L486310","Sly Park Rec Area","2025-06-23 14:56",NA,38.7210101,-120.5626774,TRUE,FALSE,FALSE,"S253548154"
"59","herwar","Hermit Warbler","Setophaga occidentalis","L3710235","Ft Yamhill State Heritage Area","2025-06-23 14:03",1,45.0707929,-123.5696054,TRUE,FALSE,FALSE,"S253529219"
"60","herwar","Hermit Warbler","Setophaga occidentalis","L4484073","US-OR-Ashland-Cascade-Siskiyou National Monument - 42.0367x-122.5713","2025-06-23 13:09",3,42.036737,-122.571329,TRUE,FALSE,TRUE,"S253535750"
"61","herwar","Hermit Warbler","Setophaga occidentalis","L4560793","Clackamas Lake Meadows","2025-06-23 13:03",1,45.0981698,-121.7460573,TRUE,FALSE,FALSE,"S253592762"
"62","herwar","Hermit Warbler","Setophaga occidentalis","L6933719","Sisson Southern Trail","2025-06-23 12:58",2,41.3463589,-122.2871876,TRUE,FALSE,TRUE,"S253527764"
"63","herwar","Hermit Warbler","Setophaga occidentalis","L452011","Lassen Volcanic NP--Manzanita Lake","2025-06-23 12:49",1,40.5316108,-121.5663815,TRUE,FALSE,FALSE,"S253609921"
"64","herwar","Hermit Warbler","Setophaga occidentalis","L48347799","Eagle’s Rest Trail","2025-06-23 12:05",5,43.844817,-122.743922,TRUE,FALSE,TRUE,"S253596893"
"65","herwar","Hermit Warbler","Setophaga occidentalis","L48364591","Washington, Gifford Pinchot NF, Upper Falls Creek trailhead","2025-06-23 11:59",1,45.966615,-121.845854,TRUE,FALSE,TRUE,"S253679670"
"66","herwar","Hermit Warbler","Setophaga occidentalis","L48346885","Mt. Hood National Forest, Estacada US-OR 45.09118, -121.91991","2025-06-23 11:31",2,45.091182,-121.919915,TRUE,FALSE,TRUE,"S253592058"
"67","herwar","Hermit Warbler","Setophaga occidentalis","L550378","Lost Lake (Linn Co.)","2025-06-23 11:29",1,44.4303476,-121.9115925,TRUE,FALSE,FALSE,"S253508833"
"68","herwar","Hermit Warbler","Setophaga occidentalis","L3790819","Northrup Creek Horse Camp","2025-06-23 11:18",1,46.0232655,-123.4548926,TRUE,FALSE,TRUE,"S253517444"
"69","herwar","Hermit Warbler","Setophaga occidentalis","L25339517","Sagehen - Low elevation","2025-06-23 10:35",1,39.445427,-120.235725,TRUE,FALSE,TRUE,"S253573568"
"70","herwar","Hermit Warbler","Setophaga occidentalis","L48344958","Ojalla Park clearcut","2025-06-23 10:35",1,44.765194,-123.91258,TRUE,FALSE,TRUE,"S253583597"
"71","herwar","Hermit Warbler","Setophaga occidentalis","L9488889","Hackleman Old Growth Grove","2025-06-23 10:31",1,44.4010932,-122.0920267,TRUE,FALSE,FALSE,"S253484545"
"72","herwar","Hermit Warbler","Setophaga occidentalis","L7898464","Tombstone Pass Summit Sno-Park","2025-06-23 10:17",1,44.395309,-122.140962,TRUE,FALSE,FALSE,"S253486863"
"73","herwar","Hermit Warbler","Setophaga occidentalis","L34077913","Keno access loop road","2025-06-23 10:00",1,42.250829,-122.387115,TRUE,FALSE,TRUE,"S253581523"
"74","herwar","Hermit Warbler","Setophaga occidentalis","L48340016","Bureau of Land Management Road 33-5-13.2, Wolf Creek US-OR 42.69846, -123.24934","2025-06-23 09:59",1,42.698463,-123.249336,TRUE,FALSE,TRUE,"S253561608"
"75","herwar","Hermit Warbler","Setophaga occidentalis","L48329483","Deadwood Peak area","2025-06-23 09:39",2,39.673036,-120.875799,TRUE,FALSE,TRUE,"S253515376"
"76","herwar","Hermit Warbler","Setophaga occidentalis","L48339984","97497, Wolf Creek US-OR 42.69133, -123.26152","2025-06-23 09:37",2,42.691334,-123.261519,TRUE,FALSE,TRUE,"S253561485"
"77","herwar","Hermit Warbler","Setophaga occidentalis","L48339961","97497, Wolf Creek US-OR 42.69242, -123.26625","2025-06-23 09:27",1,42.692421,-123.26625,TRUE,FALSE,TRUE,"S253561378"
"78","herwar","Hermit Warbler","Setophaga occidentalis","L48362614","42.14470_-122.45341","2025-06-23 09:19",1,42.1447,-122.45341,TRUE,FALSE,TRUE,"S253669514"
"79","herwar","Hermit Warbler","Setophaga occidentalis","L684086","Mendocino NF- Hull Mountain area (MEN)","2025-06-23 09:12",2,39.5231799,-122.9410458,TRUE,FALSE,FALSE,"S253488618"
"80","herwar","Hermit Warbler","Setophaga occidentalis","L48339946","97497, Wolf Creek US-OR 42.69386, -123.26960","2025-06-23 09:11",1,42.693859,-123.269601,TRUE,FALSE,TRUE,"S253561265"
"81","herwar","Hermit Warbler","Setophaga occidentalis","L3921352","Yosemite NP--Sentinel Dome Trail","2025-06-23 09:08",1,37.7175612,-119.5831025,TRUE,FALSE,FALSE,"S253530277"
"82","herwar","Hermit Warbler","Setophaga occidentalis","L1243469","Drift Creek Falls","2025-06-23 09:06",1,44.9334652,-123.8507652,TRUE,FALSE,FALSE,"S253485614"
"83","herwar","Hermit Warbler","Setophaga occidentalis","L24117342","Little Hyatt Lake Rd.","2025-06-23 08:47",5,42.1422248,-122.491167,TRUE,FALSE,TRUE,"S253478482"
"84","herwar","Hermit Warbler","Setophaga occidentalis","L48339796","BLM Road 33-5-10, Wolf Creek US-OR 42.71752, -123.29014","2025-06-23 08:06",1,42.717524,-123.290138,TRUE,FALSE,TRUE,"S253560477"
"85","herwar","Hermit Warbler","Setophaga occidentalis","L349900","Butano State Park","2025-06-23 08:03",1,37.20178,-122.3397235,TRUE,FALSE,FALSE,"S253559774"
"86","herwar","Hermit Warbler","Setophaga occidentalis","L34071228","Moon Prairie Rd BRSP","2025-06-23 07:25",2,42.27896,-122.36798,TRUE,FALSE,TRUE,"S253573504"
"87","herwar","Hermit Warbler","Setophaga occidentalis","L23843986","Fisk Rd","2025-06-23 06:53",2,44.122713,-123.463491,TRUE,FALSE,TRUE,"S253455354"
"88","herwar","Hermit Warbler","Setophaga occidentalis","L1224307","Mt. Rainier NP--White River Campground","2025-06-23 06:32",1,46.9025695,-121.6414404,TRUE,FALSE,FALSE,"S253449473"
"89","herwar","Hermit Warbler","Setophaga occidentalis","L1007412","Silver Fork Rd. at Mormon Emigrant Trail","2025-06-23 05:54",4,38.6577,-120.2468204,TRUE,FALSE,FALSE,"S253526813"
"90","herwar","Hermit Warbler","Setophaga occidentalis","L1671618","Yosemite NP--Curry Village","2025-06-23 05:18",1,37.738849,-119.5711591,TRUE,FALSE,FALSE,"S253397578"
"91","herwar","Hermit Warbler","Setophaga occidentalis","L1003218","Sevenmile Guard Station","2025-06-23 05:10",1,42.7055736,-122.0744153,TRUE,FALSE,FALSE,"S253509535"
"92","herwar","Hermit Warbler","Setophaga occidentalis","L45613915","Lassen National Forest, Mill Creek US-CA 40.34186, -121.48603","2025-06-23 04:37",4,40.341856,-121.486026,TRUE,FALSE,TRUE,"S253531214"
"93","herwar","Hermit Warbler","Setophaga occidentalis","L11812694","Jonesville Snowmobile Park--Colby Meadows","2025-06-22 20:03",1,40.1135548,-121.4791241,TRUE,FALSE,FALSE,"S253316833"
"94","herwar","Hermit Warbler","Setophaga occidentalis","L5946193","Omo Ranch Road","2025-06-22 19:45",1,38.5312809,-120.4424939,TRUE,FALSE,TRUE,"S253563228"
"95","herwar","Hermit Warbler","Setophaga occidentalis","L11881961","Clackamas Lake Campground","2025-06-22 19:39",1,45.09635,-121.7470292,TRUE,FALSE,FALSE,"S253451254"
"96","herwar","Hermit Warbler","Setophaga occidentalis","L742929","Salt Creek Falls","2025-06-22 18:35",1,43.61179,-122.12861,TRUE,FALSE,FALSE,"S253330275"
"97","herwar","Hermit Warbler","Setophaga occidentalis","L48272655","Everitt Memorial Hwy, Mount Shasta US-CA 41.32694, -122.25744","2025-06-22 15:45",3,41.326936,-122.257441,TRUE,FALSE,TRUE,"S253265360"
"98","herwar","Hermit Warbler","Setophaga occidentalis","L48275188","Forest Service Road 36, Kyburz US-CA 38.91766, -120.38429","2025-06-22 15:31",1,38.917658,-120.384294,TRUE,FALSE,TRUE,"S253275928"
"99","herwar","Hermit Warbler","Setophaga occidentalis","L15259268","stakeout Northern Waterthrush, Mule Prairie (2020-2021)","2025-06-22 15:09",1,43.613146,-122.095246,TRUE,FALSE,FALSE,"S253305595"
"100","herwar","Hermit Warbler","Setophaga occidentalis","L41040127","12267 OR-66, Ashland US-OR 42.11729, -122.44998","2025-06-22 14:44",3,42.117293,-122.449983,TRUE,FALSE,TRUE,"S253252725"
"101","herwar","Hermit Warbler","Setophaga occidentalis","L901258","Hwy 20--Emigrant Gap","2025-06-22 14:26",1,39.3059778,-120.6854689,TRUE,FALSE,FALSE,"S253306705"
"102","herwar","Hermit Warbler","Setophaga occidentalis","L45287688","FH7--Chaparral/Conifer Transition Zone (overlook to end of pavement)","2025-06-22 14:04",1,39.6793208,-122.7107154,TRUE,FALSE,FALSE,"S253334668"
"103","herwar","Hermit Warbler","Setophaga occidentalis","L15885596","Willamette National Forest, Blue River US-OR 43.63283, -122.05202","2025-06-22 14:01",1,43.632831,-122.052015,TRUE,FALSE,TRUE,"S253305502"
"104","herwar","Hermit Warbler","Setophaga occidentalis","L1060060","South Slough National Estuarine Research Reserve","2025-06-22 13:48",1,43.2958452,-124.3351665,TRUE,FALSE,FALSE,"S253260124"
"105","herwar","Hermit Warbler","Setophaga occidentalis","L3010596","Cold Springs Rd","2025-06-22 13:30",1,42.464626,-122.1843624,TRUE,FALSE,TRUE,"S253277640"
"106","herwar","Hermit Warbler","Setophaga occidentalis","L9514935","The Knoll Open Space","2025-06-22 13:13",1,45.014613,-124.00388,TRUE,FALSE,FALSE,"S253263197"
"107","herwar","Hermit Warbler","Setophaga occidentalis","L4505807","US-OR-Ashland-97520 - 42.0772x-122.6102","2025-06-22 12:44",9,42.07716,-122.610187,TRUE,FALSE,TRUE,"S253246759"
"108","herwar","Hermit Warbler","Setophaga occidentalis","L24907854","18555 Howard Prairie Dam Rd, Ashland US-OR 42.24984, -122.38624","2025-06-22 12:33",3,42.24984,-122.386242,TRUE,FALSE,TRUE,"S253224860"
"109","herwar","Hermit Warbler","Setophaga occidentalis","L2814358","Jones Creek Day Use Area","2025-06-22 11:44",2,45.5880571,-123.5547781,TRUE,FALSE,FALSE,"S253211339"
"110","herwar","Hermit Warbler","Setophaga occidentalis","L48266588","G O Rd, Crescent City US-CA 41.67726, -123.90244","2025-06-22 11:40",NA,41.677262,-123.902436,TRUE,FALSE,TRUE,"S253238618"
"111","herwar","Hermit Warbler","Setophaga occidentalis","L7807746","Forest Service Rte. 1--quarry and cattle guard lookout","2025-06-22 11:35",1,40.7657068,-123.6943753,TRUE,FALSE,FALSE,"S253320516"
"112","herwar","Hermit Warbler","Setophaga occidentalis","L48257939","Music Rd","2025-06-22 11:28",1,45.780798,-123.424517,TRUE,FALSE,TRUE,"S253202938"
"113","herwar","Hermit Warbler","Setophaga occidentalis","L2316290","McCloud River--Lakin Dam","2025-06-22 11:03",4,41.2328549,-122.0071551,TRUE,FALSE,FALSE,"S253215545"
"114","herwar","Hermit Warbler","Setophaga occidentalis","L989543","Trillium Lake","2025-06-22 10:32",6,45.2737086,-121.7377853,TRUE,FALSE,FALSE,"S253265305"
"115","herwar","Hermit Warbler","Setophaga occidentalis","L7552520","Snow Camp Rd.--Hwy 299 to Bald Mtn Rd.","2025-06-22 10:31",1,40.9059233,-123.8710642,TRUE,FALSE,FALSE,"S253172188"
"116","herwar","Hermit Warbler","Setophaga occidentalis","L973021","Ellis Rd.","2025-06-22 10:15",5,38.5301396,-120.3038549,TRUE,FALSE,FALSE,"S253313621"
"117","herwar","Hermit Warbler","Setophaga occidentalis","L946363","Sequoia NP--Crescent Meadow","2025-06-22 10:10",1,36.5563263,-118.7479591,TRUE,FALSE,FALSE,"S253303666"
"118","herwar","Hermit Warbler","Setophaga occidentalis","L3814510","Forest Service Rte. 1 (Titlow Hill Rd.)--Clear Lake","2025-06-22 10:01",3,40.815485,-123.697095,TRUE,FALSE,FALSE,"S253320616"
"119","herwar","Hermit Warbler","Setophaga occidentalis","L570454","Page Meadows","2025-06-22 09:30",3,39.1511963,-120.187726,TRUE,FALSE,FALSE,"S253294866"
"120","herwar","Hermit Warbler","Setophaga occidentalis","L7849151","casa dei viola_ private property no access","2025-06-22 09:30",2,42.063806,-122.609529,TRUE,FALSE,TRUE,"S253165418"
"121","herwar","Hermit Warbler","Setophaga occidentalis","L2222722","Church Meadow Rd.","2025-06-22 09:30",NA,39.674586,-120.6204972,TRUE,FALSE,FALSE,"S253509027"
"122","herwar","Hermit Warbler","Setophaga occidentalis","L1580248","Forest Service Rte. 1 (Titlow Hill Rd.)--Russ Ranch clearcut","2025-06-22 09:27",1,40.8307718,-123.7051255,TRUE,FALSE,FALSE,"S253320669"
"123","herwar","Hermit Warbler","Setophaga occidentalis","L48271805","Domingo Springs trail","2025-06-22 08:53",2,40.362368,-121.356844,TRUE,FALSE,TRUE,"S253261704"
"124","herwar","Hermit Warbler","Setophaga occidentalis","L19540176","West Silver Lake","2025-06-22 08:52",1,38.645622,-120.127927,TRUE,FALSE,TRUE,"S253163750"
"125","herwar","Hermit Warbler","Setophaga occidentalis","L6039596","Panther Creek Rd.","2025-06-22 08:35",1,38.5392887,-120.3593016,TRUE,FALSE,FALSE,"S253310945"
"126","herwar","Hermit Warbler","Setophaga occidentalis","L48239236","Greig-French-Bell Trail, Scotia US-CA 40.44030, -123.98672","2025-06-22 08:33",1,40.440305,-123.986716,TRUE,FALSE,TRUE,"S253131833"
"127","herwar","Hermit Warbler","Setophaga occidentalis","L26923517","Ed’s Trail","2025-06-22 08:33",6,45.772544,-122.244374,TRUE,FALSE,FALSE,"S253215614"
"128","herwar","Hermit Warbler","Setophaga occidentalis","L48245468","2026 High Meadow Trail, South Lake Tahoe, California, US (38.898, -119.958)","2025-06-22 08:24",1,38.8979132,-119.9576817,TRUE,FALSE,TRUE,"S253155782"
"129","herwar","Hermit Warbler","Setophaga occidentalis","L694062","Horse Mountain--summit","2025-06-22 08:22",1,40.874162,-123.7323403,TRUE,FALSE,FALSE,"S253320706"
"130","herwar","Hermit Warbler","Setophaga occidentalis","L48283533","FR26 (Burney Mountain Lookout Rd)","2025-06-22 08:12",1,40.772119,-121.60064,TRUE,FALSE,TRUE,"S253313129"
"131","herwar","Hermit Warbler","Setophaga occidentalis","L48249056","Pohono Trail, Yosemite National Park US-CA 37.71499, -119.67665","2025-06-22 07:49",1,37.714991,-119.67665,TRUE,FALSE,TRUE,"S253169493"
"132","herwar","Hermit Warbler","Setophaga occidentalis","L7305671","Bald Mountain Rd.","2025-06-22 07:44",3,40.869591,-123.89994,TRUE,FALSE,FALSE,"S253160291"
"133","herwar","Hermit Warbler","Setophaga occidentalis","L10224684","Smith River--Walker Rd. access","2025-06-22 07:24",1,41.819664,-124.106182,TRUE,FALSE,FALSE,"S253740401"
"134","herwar","Hermit Warbler","Setophaga occidentalis","L996128","Yosemite NP--Mariposa Grove","2025-06-22 07:10",1,37.51,-119.603,TRUE,FALSE,FALSE,"S253202987"
"135","herwar","Hermit Warbler","Setophaga occidentalis","L3586737","Capitol Forest--Porter Pass","2025-06-22 06:30",4,47.02254,-123.13335,TRUE,FALSE,FALSE,"S253171070"
"136","herwar","Hermit Warbler","Setophaga occidentalis","L48240186","Forest Service Road 14S11, Three Rivers US-CA 36.71419, -118.85520","2025-06-22 06:03",1,36.71419,-118.855198,TRUE,FALSE,TRUE,"S253135581"
"137","herwar","Hermit Warbler","Setophaga occidentalis","L12068444","Yosemite NP--Washburn Trail to Mariposa Grove","2025-06-22 05:52",1,37.5066089,-119.6273865,TRUE,FALSE,FALSE,"S253201715"
"138","herwar","Hermit Warbler","Setophaga occidentalis","L25327665","SW Scoggins Valley Rd.--above the gate","2025-06-22 05:44",5,45.5101776,-123.2560359,TRUE,FALSE,FALSE,"S253168457"
"139","herwar","Hermit Warbler","Setophaga occidentalis","L589444","Yosemite NP--Hodgdon Meadow","2025-06-22 05:40",1,37.7955424,-119.8623848,TRUE,FALSE,FALSE,"S253291358"
"140","herwar","Hermit Warbler","Setophaga occidentalis","L144858","Riparian Preserve at Gilbert Water Ranch","2025-06-22 05:15",1,33.3614502,-111.7339478,TRUE,TRUE,FALSE,"S253146593"
"141","herwar","Hermit Warbler","Setophaga occidentalis","L48282693","Oregon Section F, Government Camp, Oregon, US (45.229, -121.7)","2025-06-22 05:05",2,45.2291492,-121.6997577,TRUE,FALSE,TRUE,"S253309508"
"142","herwar","Hermit Warbler","Setophaga occidentalis","L1357206","Alder Spring tract (Restricted Access)--old","2025-06-22 05:00",3,44.4932943,-123.4652125,TRUE,FALSE,TRUE,"S253595979"
"143","herwar","Hermit Warbler","Setophaga occidentalis","L12864930","Mirror Lake Trail #664","2025-06-22 01:36",8,45.297778,-121.791667,TRUE,FALSE,FALSE,"S253264397"
"144","herwar","Hermit Warbler","Setophaga occidentalis","L2116187","Mt. Rainier NP--Cougar Rock Campground","2025-06-21 19:27",1,46.7662059,-121.7982101,TRUE,FALSE,FALSE,"S253172554"
"145","herwar","Hermit Warbler","Setophaga occidentalis","L18536468","Yosemite NP--Alder Creek Trailhead at Mosquito Creek","2025-06-21 17:03",1,37.575082,-119.6801299,TRUE,FALSE,FALSE,"S252920190"
"146","herwar","Hermit Warbler","Setophaga occidentalis","L742900","Hills Creek Pond","2025-06-21 15:36",1,43.7133789,-122.4286473,TRUE,FALSE,FALSE,"S252966376"
"147","herwar","Hermit Warbler","Setophaga occidentalis","L742994","Hills Creek Dam & Reservoir","2025-06-21 15:08",1,43.706966,-122.4286537,TRUE,FALSE,FALSE,"S252884393"
"148","herwar","Hermit Warbler","Setophaga occidentalis","L34952639","Redwood NP--Redwood Creek Overlook","2025-06-21 14:58",1,41.2580122,-123.9893882,TRUE,FALSE,FALSE,"S252898106"
"149","herwar","Hermit Warbler","Setophaga occidentalis","L47730105","Oregon Institute of Marine Biology","2025-06-21 14:55",1,43.345622,-124.329284,TRUE,FALSE,TRUE,"S252889694"
"150","herwar","Hermit Warbler","Setophaga occidentalis","L48235942","9384 Yachats River Road No NF-54, Yachats US-OR 44.28308, -123.95400","2025-06-21 14:42",1,44.283076,-123.954,TRUE,FALSE,TRUE,"S253118399"
"151","herwar","Hermit Warbler","Setophaga occidentalis","L48180412","Unnamed Road, Etna, California, US (41.333, -122.932) Duck Lake Trail Swichbacks","2025-06-21 14:13",3,41.3326579,-122.931751,TRUE,FALSE,TRUE,"S252866428"
"152","herwar","Hermit Warbler","Setophaga occidentalis","L34735646","BLM Road FORTY-2E-THIRTY-THREE, Ashland US-OR 42.04480, -122.58249","2025-06-21 13:55",3,42.044799,-122.582486,TRUE,FALSE,TRUE,"S252890365"
"153","herwar","Hermit Warbler","Setophaga occidentalis","L9481140","Lint Slough Trail","2025-06-21 13:30",1,44.4258513,-124.0575924,TRUE,FALSE,FALSE,"S252875538"
"154","herwar","Hermit Warbler","Setophaga occidentalis","L48184926","Jenny Creek Road, Ashland US-OR 42.16356, -122.32663","2025-06-21 13:22",1,42.163563,-122.326631,TRUE,FALSE,TRUE,"S252883687"
"155","herwar","Hermit Warbler","Setophaga occidentalis","L48175955","Duck Trail, Near Fork To Big N LITTLE DUCK LAKES","2025-06-21 13:09",1,41.3147744,-122.9408784,TRUE,FALSE,TRUE,"S252849347"
"156","herwar","Hermit Warbler","Setophaga occidentalis","L2894896","Darlingtonia State Botanical Wayside","2025-06-21 12:53",1,44.0475441,-124.0973262,TRUE,FALSE,FALSE,"S252939327"
"157","herwar","Hermit Warbler","Setophaga occidentalis","L48190465","Great Western Divide Hwy, Porterville US-CA 35.95090, -118.61413","2025-06-21 12:12",1,35.950898,-118.614133,TRUE,FALSE,TRUE,"S252907159"
"158","herwar","Hermit Warbler","Setophaga occidentalis","L953070","Madora Lake","2025-06-21 12:00",1,39.7817204,-120.6717467,TRUE,FALSE,FALSE,"S253551927"
"159","herwar","Hermit Warbler","Setophaga occidentalis","L3241015","Leo T. Cronin Fish Viewing Area","2025-06-21 11:50",1,38.004302,-122.7088737,TRUE,FALSE,FALSE,"S252888859"
"160","herwar","Hermit Warbler","Setophaga occidentalis","L5960940","McCloud River Trail","2025-06-21 11:30",6,41.2305835,-121.9949341,TRUE,FALSE,TRUE,"S252868894"
"161","herwar","Hermit Warbler","Setophaga occidentalis","L2416323","Lacks Creek Management Area","2025-06-21 11:00",15,41.0207075,-123.8064337,TRUE,FALSE,FALSE,"S252910330"
"162","herwar","Hermit Warbler","Setophaga occidentalis","L3030443","Wahtum Lake","2025-06-21 10:51",4,45.580169,-121.7935481,TRUE,FALSE,FALSE,"S252942824"
"163","herwar","Hermit Warbler","Setophaga occidentalis","L895533","El Corte De Madera Creek OSP","2025-06-21 10:00",11,37.3995217,-122.2951456,TRUE,TRUE,FALSE,"S252813778"
"164","herwar","Hermit Warbler","Setophaga occidentalis","L375142","Wild Plum Campground","2025-06-21 09:15",1,39.5637502,-120.58671,TRUE,FALSE,FALSE,"S253548547"
"165","herwar","Hermit Warbler","Setophaga occidentalis","L750599","Sequoia NP--Giant Forest (Museum/Beetle Rock/Big Trees Trail)","2025-06-21 09:10",1,36.5660125,-118.7729788,TRUE,FALSE,FALSE,"S252925556"
"166","herwar","Hermit Warbler","Setophaga occidentalis","L594030","Pinecrest Lake","2025-06-21 09:06",1,38.1932002,-119.9935341,TRUE,FALSE,FALSE,"S252763608"
"167","herwar","Hermit Warbler","Setophaga occidentalis","L12462788","Loch Leven Lakes Trail","2025-06-21 09:06",3,39.309379,-120.516024,TRUE,FALSE,FALSE,"S252916233"
"168","herwar","Hermit Warbler","Setophaga occidentalis","L24121272","Redwood NP--Dolason Prairie Picnic Area","2025-06-21 09:04",4,41.205458,-123.950758,TRUE,FALSE,FALSE,"S253180916"
"169","herwar","Hermit Warbler","Setophaga occidentalis","L6754905","Fish Camp vicinity","2025-06-21 09:03",1,37.4787917,-119.6379375,TRUE,FALSE,FALSE,"S253307412"
"170","herwar","Hermit Warbler","Setophaga occidentalis","L1601147","Salmon Summit National Scenic Trail","2025-06-21 08:44",4,41.2020355,-123.4272766,TRUE,FALSE,FALSE,"S253162846"
"171","herwar","Hermit Warbler","Setophaga occidentalis","L11540159","44.62616_-123.32408","2025-06-21 07:47",1,44.62616,-123.32408,TRUE,FALSE,TRUE,"S252751870"
"172","herwar","Hermit Warbler","Setophaga occidentalis","L15623848","44.62728_-123.32852","2025-06-21 07:32",1,44.62728,-123.32852,TRUE,FALSE,TRUE,"S252728306"
"173","herwar","Hermit Warbler","Setophaga occidentalis","L48244444","FS RD 10N01 - Past McLaughlin Camp (41.211, -123.454)","2025-06-21 07:31",1,41.2110521,-123.4541094,TRUE,FALSE,TRUE,"S253154005"
"174","herwar","Hermit Warbler","Setophaga occidentalis","L389662","Yosemite NP--Crane Flat","2025-06-21 07:31",1,37.755049,-119.7984409,TRUE,FALSE,FALSE,"S252775107"
"175","herwar","Hermit Warbler","Setophaga occidentalis","L26528340","Camp Oski 1 Pine Brook Road, Pinecrest, California, US (38.181, -120.002)","2025-06-21 07:08",1,38.1808838,-120.0016531,TRUE,FALSE,TRUE,"S252722848"
"176","herwar","Hermit Warbler","Setophaga occidentalis","L24983386","Lassen NF-FR 17 (Hwy 36 to Dry Lake)","2025-06-21 07:05",4,40.356292,-121.604385,TRUE,FALSE,FALSE,"S252928533"
"177","herwar","Hermit Warbler","Setophaga occidentalis","L129099","Cave Creek Canyon--South Fork","2025-06-21 06:46",1,31.8688764,-109.1883919,TRUE,TRUE,FALSE,"S253587218"
"178","herwar","Hermit Warbler","Setophaga occidentalis","L1833636","Carman Valley Meadows","2025-06-21 06:24",4,39.6979598,-120.4499817,TRUE,FALSE,FALSE,"S253322675"
"179","herwar","Hermit Warbler","Setophaga occidentalis","L48164808","Spencer Creek Rd, Grants Pass US-OR 42.27695, -123.36674","2025-06-21 06:00",1,42.276953,-123.366739,TRUE,FALSE,TRUE,"S252807503"
"180","herwar","Hermit Warbler","Setophaga occidentalis","L286298","Memorial Park (SM Co.)","2025-06-21 05:51",1,37.2776043,-122.2932816,TRUE,FALSE,FALSE,"S253804766"
"181","herwar","Hermit Warbler","Setophaga occidentalis","L3053337","Kings Canyon NP--Sunset Campground","2025-06-21 05:42",3,36.7377406,-118.9667469,TRUE,FALSE,FALSE,"S252687384"
"182","herwar","Hermit Warbler","Setophaga occidentalis","L1131857","Lassen Volcanic NP--Warner Creek Meadows","2025-06-21 05:05",3,40.4196234,-121.3352895,TRUE,FALSE,FALSE,"S253088441"
"183","herwar","Hermit Warbler","Setophaga occidentalis","L1232973","Little Crater Lake","2025-06-21 02:25",6,45.1482952,-121.7507833,TRUE,FALSE,FALSE,"S253266979"
"184","herwar","Hermit Warbler","Setophaga occidentalis","L33869003","Neahkahnie Mt. Trail","2025-06-20 21:50",1,45.7408647,-123.9351817,TRUE,FALSE,FALSE,"S252558476"
"185","herwar","Hermit Warbler","Setophaga occidentalis","L19632666","Dorena House","2025-06-20 18:28",2,43.691416,-122.758419,TRUE,FALSE,TRUE,"S252536252"
"186","herwar","Hermit Warbler","Setophaga occidentalis","L9541946","Illingsworth Creek Road","2025-06-20 16:53",3,45.5619679,-123.8728087,TRUE,FALSE,TRUE,"S252548027"
"187","herwar","Hermit Warbler","Setophaga occidentalis","L3827018","Gurnsey Creek Campground","2025-06-20 16:46",1,40.3071974,-121.4252973,TRUE,FALSE,FALSE,"S252518246"
"188","herwar","Hermit Warbler","Setophaga occidentalis","L45608956","McGowan Ski Trail, Road 1, Mineral","2025-06-20 15:26",2,40.3676164,-121.5464488,TRUE,FALSE,TRUE,"S252502539"
"189","herwar","Hermit Warbler","Setophaga occidentalis","L48098120","Forest Service Road 22S02, Inyokern US-CA 35.93485, -118.39715","2025-06-20 14:04",1,35.934849,-118.397155,TRUE,FALSE,TRUE,"S252515021"
"190","herwar","Hermit Warbler","Setophaga occidentalis","L48087610","Unnamed Road, Miranda, California, US (40.288, -123.98)","2025-06-20 13:59",1,40.2877589,-123.9801258,TRUE,FALSE,TRUE,"S252471030"
"191","herwar","Hermit Warbler","Setophaga occidentalis","L48105189","FS 161 Trail - Tatoosh Wilderness","2025-06-20 13:40",1,46.7122966,-121.7043638,TRUE,FALSE,TRUE,"S252543900"
"192","herwar","Hermit Warbler","Setophaga occidentalis","L500052","Nestucca Bay NWR","2025-06-20 12:32",1,45.1634665,-123.951399,TRUE,FALSE,FALSE,"S252471651"
"193","herwar","Hermit Warbler","Setophaga occidentalis","L48099017","Crabtree Canyon, Truckee","2025-06-20 12:32",1,39.382485,-120.27149,TRUE,FALSE,TRUE,"S252518808"
"194","herwar","Hermit Warbler","Setophaga occidentalis","L11635776","10 Woodduck Way, Hoodsport, Washington, US (47.412, -123.204)","2025-06-20 12:25",1,47.4115237,-123.2039301,TRUE,FALSE,TRUE,"S253181192"
"195","herwar","Hermit Warbler","Setophaga occidentalis","L10184720","Grouse Vista Trail","2025-06-20 12:08",3,45.7253378,-122.2691845,TRUE,FALSE,FALSE,"S252758677"
"196","herwar","Hermit Warbler","Setophaga occidentalis","L824120","Kyburz Flat area","2025-06-20 11:45",1,39.50414,-120.2400398,TRUE,FALSE,FALSE,"S252472440"
"197","herwar","Hermit Warbler","Setophaga occidentalis","L48105185","Lodgepole-Sherman Tree","2025-06-20 11:30",1,36.5943286,-118.7470476,TRUE,FALSE,TRUE,"S252544645"
"198","herwar","Hermit Warbler","Setophaga occidentalis","L5911058","Lassen Volcanic NP -- Chaos Crags Trail","2025-06-20 10:23",1,40.5358768,-121.543775,TRUE,FALSE,FALSE,"S252829286"
"199","herwar","Hermit Warbler","Setophaga occidentalis","L15781788","Backpacker’s Campground","2025-06-20 09:16",1,37.744155,-119.567013,TRUE,FALSE,FALSE,"S252468298"
"200","herwar","Hermit Warbler","Setophaga occidentalis","L1459367","Viento SP","2025-06-20 09:10",2,45.6985666,-121.6693018,TRUE,FALSE,FALSE,"S252404948"
"201","herwar","Hermit Warbler","Setophaga occidentalis","L391547","Sardine Lake","2025-06-20 09:06",1,39.6171605,-120.6237888,TRUE,FALSE,FALSE,"S252557888"
"202","herwar","Hermit Warbler","Setophaga occidentalis","L48235289","Yuba Pass Road","2025-06-20 08:45",2,39.6075298,-120.4806268,TRUE,FALSE,TRUE,"S253117087"
"203","herwar","Hermit Warbler","Setophaga occidentalis","L898425","Castle Crags SP","2025-06-20 08:23",1,41.1553934,-122.3530197,TRUE,FALSE,FALSE,"S252464710"
"204","herwar","Hermit Warbler","Setophaga occidentalis","L11714491","Lassen NF--PCT Deer-Butt Divide","2025-06-20 08:13",6,40.1933333,-121.4388889,TRUE,FALSE,TRUE,"S252479022"
"205","herwar","Hermit Warbler","Setophaga occidentalis","L48155219","Cherokee Creek vicinity","2025-06-20 07:41",1,39.551301,-120.987356,TRUE,FALSE,TRUE,"S252770386"
"206","herwar","Hermit Warbler","Setophaga occidentalis","L47743663","Loves Falls","2025-06-20 07:36",2,39.5801697,-120.6063222,TRUE,FALSE,FALSE,"S252558127"
"207","herwar","Hermit Warbler","Setophaga occidentalis","L3165697","William M. Tugman SP","2025-06-20 07:35",1,43.5983375,-124.1776299,TRUE,FALSE,FALSE,"S252355542"
"208","herwar","Hermit Warbler","Setophaga occidentalis","L11964912","Humboldt Summit (Plumas)","2025-06-20 07:18",1,40.1523012,-121.4367892,TRUE,FALSE,FALSE,"S252479064"
"209","herwar","Hermit Warbler","Setophaga occidentalis","L4984636","Aspen Creek Trail #48","2025-06-20 06:55",1,34.500341,-112.527726,TRUE,TRUE,FALSE,"S252367650"
"210","herwar","Hermit Warbler","Setophaga occidentalis","L48096926","HJA G-house","2025-06-20 06:46",1,44.213752,-122.254471,TRUE,FALSE,TRUE,"S252924785"
"211","herwar","Hermit Warbler","Setophaga occidentalis","L48242699","FS RD 10N01C, Orleans, California, US (41.217, -123.539)","2025-06-20 06:28",4,41.2169657,-123.5385926,TRUE,FALSE,TRUE,"S253145345"
"212","herwar","Hermit Warbler","Setophaga occidentalis","L48147081","Siuslaw National Forest, Florence US-OR 43.87504, -124.14425","2025-06-20 06:03",2,43.875038,-124.144245,TRUE,FALSE,TRUE,"S252739757"
"213","herwar","Hermit Warbler","Setophaga occidentalis","L14648021","A Line","2025-06-20 04:45",3,44.0184005,-123.417741,TRUE,FALSE,FALSE,"S252541367"
"214","herwar","Hermit Warbler","Setophaga occidentalis","L38230777","Mt Shasta Nordic Center","2025-06-19 17:06",3,41.307853,-122.212954,TRUE,FALSE,TRUE,"S252193895"
"215","herwar","Hermit Warbler","Setophaga occidentalis","L48025936","Section Old Red Bluff Rd, Chester US-CA 40.36149, -121.35701","2025-06-19 16:54",1,40.361487,-121.357009,TRUE,FALSE,TRUE,"S252197472"
"216","herwar","Hermit Warbler","Setophaga occidentalis","L29370041","logsden 9.5","2025-06-19 16:35",1,44.728833,-123.7678208,TRUE,FALSE,TRUE,"S252189007"
"217","herwar","Hermit Warbler","Setophaga occidentalis","L952772","Chapman's Saddle Rd.","2025-06-19 16:27",1,39.6177225,-120.5076599,TRUE,FALSE,FALSE,"S252198114"
"218","herwar","Hermit Warbler","Setophaga occidentalis","L6165162","Top Spur Trailhead & Trail","2025-06-19 16:18",1,45.407694,-121.786073,TRUE,FALSE,FALSE,"S252172997"
"219","herwar","Hermit Warbler","Setophaga occidentalis","L48107926","Panther Creek Falls area","2025-06-19 14:40",1,45.8662088,-121.8257869,TRUE,FALSE,TRUE,"S252555612"
"220","herwar","Hermit Warbler","Setophaga occidentalis","L48187502","Annie Creek","2025-06-19 14:11",1,42.817583,-122.115774,TRUE,FALSE,TRUE,"S252894126"
"221","herwar","Hermit Warbler","Setophaga occidentalis","L48013846","Yuba Inn","2025-06-19 14:03",1,39.56837,-120.626085,TRUE,FALSE,TRUE,"S252141596"
"222","herwar","Hermit Warbler","Setophaga occidentalis","L2182592","Larry Wehmeyer Environmental Education Area","2025-06-19 14:00",1,41.2945672,-122.32557,TRUE,FALSE,FALSE,"S252152883"
"223","herwar","Hermit Warbler","Setophaga occidentalis","L19000704","97520, Ashland US-OR 42.10987, -122.43768","2025-06-19 13:48",4,42.109873,-122.437684,TRUE,FALSE,TRUE,"S252201039"
"224","herwar","Hermit Warbler","Setophaga occidentalis","L48017099","Wagner Butte Trail (lower)","2025-06-19 13:42",14,42.113383,-122.786961,TRUE,FALSE,TRUE,"S252157503"
"225","herwar","Hermit Warbler","Setophaga occidentalis","L447386","Larch Mountain","2025-06-19 13:15",3,45.5295611,-122.088232,TRUE,FALSE,FALSE,"S253766932"
"226","herwar","Hermit Warbler","Setophaga occidentalis","L9329481","Sherrard Point","2025-06-19 12:45",1,45.53289,-122.087717,TRUE,FALSE,FALSE,"S253765972"
"227","herwar","Hermit Warbler","Setophaga occidentalis","L447448","Marys Peak","2025-06-19 12:30",7,44.5101917,-123.5505647,TRUE,FALSE,FALSE,"S253411906"
"228","herwar","Hermit Warbler","Setophaga occidentalis","L2273545","Yosemite NP--Tuolumne Grove","2025-06-19 12:26",1,37.7652868,-119.807024,TRUE,FALSE,FALSE,"S252202395"
"229","herwar","Hermit Warbler","Setophaga occidentalis","L865477","Cape Perpetua (general)","2025-06-19 12:18",2,44.2871173,-124.1080856,TRUE,FALSE,FALSE,"S252120822"
"230","herwar","Hermit Warbler","Setophaga occidentalis","L47942970","Oregon Caves National Monument, Cave Junction US-OR 42.09829, -123.40719","2025-06-19 12:17",2,42.098291,-123.407189,TRUE,FALSE,TRUE,"S252116785"
"231","herwar","Hermit Warbler","Setophaga occidentalis","L48009336","9355 Bewley Creek Rd, Tillamook US-OR 45.38801, -123.85133","2025-06-19 12:05",1,45.388008,-123.851325,TRUE,FALSE,TRUE,"S252123695"
"232","herwar","Hermit Warbler","Setophaga occidentalis","L48012552","Northrop Horse Camp Big Tree Trail","2025-06-19 12:03",1,46.01935,-123.452556,TRUE,FALSE,TRUE,"S252136067"
"233","herwar","Hermit Warbler","Setophaga occidentalis","L48103398","Grassy Knob Road, Sixes, Oregon, US (42.795, -124.457)","2025-06-19 11:52",1,42.7951022,-124.4574367,TRUE,FALSE,TRUE,"S252537065"
"234","herwar","Hermit Warbler","Setophaga occidentalis","L1824886","Wrights Lake--vicinity","2025-06-19 11:46",1,38.8452808,-120.2358606,TRUE,FALSE,FALSE,"S252141311"
"235","herwar","Hermit Warbler","Setophaga occidentalis","L48017117","Indian Beach Trail","2025-06-19 11:37",1,45.9252073,-123.9679822,TRUE,FALSE,TRUE,"S252157538"
"236","herwar","Hermit Warbler","Setophaga occidentalis","L48001537","Foster Mainline, Seaside US-OR 46.02891, -123.47181","2025-06-19 11:32",1,46.028909,-123.471815,TRUE,FALSE,TRUE,"S252093313"
"237","herwar","Hermit Warbler","Setophaga occidentalis","L48302955","Harlan Road (to ""middle"" Parker Creek)","2025-06-19 11:20",2,44.4737437,-123.5992853,TRUE,FALSE,TRUE,"S253409427"
"238","herwar","Hermit Warbler","Setophaga occidentalis","L12891993","Scale Rd. (NOT SCALES RD.)","2025-06-19 11:18",2,39.5822649,-121.0787521,TRUE,FALSE,FALSE,"S252126571"
"239","herwar","Hermit Warbler","Setophaga occidentalis","L36803849","Union Creek Campground Rogue River, Prospect, Oregon, US (42.909, -122.447)","2025-06-19 10:58",3,42.9089862,-122.4465761,TRUE,FALSE,TRUE,"S252112824"
"240","herwar","Hermit Warbler","Setophaga occidentalis","L2248707","Scout Lake","2025-06-19 10:57",4,44.410079,-121.7469692,TRUE,FALSE,FALSE,"S252096136"
"241","herwar","Hermit Warbler","Setophaga occidentalis","L1154448","Bull Run - Rd. 10 Big Talus BBS 31-40","2025-06-19 10:55",1,45.507189,-121.9237804,TRUE,FALSE,TRUE,"S253570279"
"242","herwar","Hermit Warbler","Setophaga occidentalis","L1370382","Dog Mountain Trail","2025-06-19 10:52",10,45.699267,-121.7080265,TRUE,FALSE,FALSE,"S252211993"
"243","herwar","Hermit Warbler","Setophaga occidentalis","L48001071","East Gate Road, Spanaway, Washington, US (47.04, -122.494)","2025-06-19 10:42",1,47.0404723,-122.4942401,TRUE,FALSE,TRUE,"S252091432"
"244","herwar","Hermit Warbler","Setophaga occidentalis","L26009564","Jenny Creek Rd, Ashland US-OR 42.16224, -122.32781","2025-06-19 10:34",2,42.162241,-122.327806,TRUE,FALSE,TRUE,"S252200961"
"245","herwar","Hermit Warbler","Setophaga occidentalis","L808602","Hendy Woods SP","2025-06-19 10:23",1,39.0742439,-123.4661525,TRUE,FALSE,FALSE,"S252113713"
"246","herwar","Hermit Warbler","Setophaga occidentalis","L595412","Bald Hills Rd. (general)","2025-06-19 10:22",1,41.1899929,-123.9324114,TRUE,FALSE,FALSE,"S252137847"
"247","herwar","Hermit Warbler","Setophaga occidentalis","L48097924","BRiv BBS 49","2025-06-19 09:45",2,44.294876,-122.107901,TRUE,FALSE,TRUE,"S252514191"
"248","herwar","Hermit Warbler","Setophaga occidentalis","L48097917","BRiv BBS 48","2025-06-19 09:41",1,44.301354,-122.112107,TRUE,FALSE,TRUE,"S252514165"
"249","herwar","Hermit Warbler","Setophaga occidentalis","L8217785","Nestucca Bay NWR--Two Rivers Trail","2025-06-19 09:36",1,45.168281,-123.952482,TRUE,FALSE,FALSE,"S252092672"
"250","herwar","Hermit Warbler","Setophaga occidentalis","L48097908","BRiv BBS 47","2025-06-19 09:35",1,44.304576,-122.119523,TRUE,FALSE,TRUE,"S252514127"
"251","herwar","Hermit Warbler","Setophaga occidentalis","L48097903","BRiv BBS 46","2025-06-19 09:31",2,44.302691,-122.128483,TRUE,FALSE,TRUE,"S252514101"
"252","herwar","Hermit Warbler","Setophaga occidentalis","L155127","Calaveras Big Trees SP","2025-06-19 09:26",2,38.27745,-120.30706,TRUE,FALSE,FALSE,"S252093741"
"253","herwar","Hermit Warbler","Setophaga occidentalis","L48097888","BRiv BBS 44","2025-06-19 09:22",2,44.301058,-122.145967,TRUE,FALSE,TRUE,"S252514038"
"254","herwar","Hermit Warbler","Setophaga occidentalis","L31485314","Headwaters Trail to Neahkahnie Mt. Trailhead","2025-06-19 09:20",5,45.7265366,-123.9288748,TRUE,FALSE,FALSE,"S252084399"
"255","herwar","Hermit Warbler","Setophaga occidentalis","L48097880","BRiv BBS 43","2025-06-19 09:18",1,44.298038,-122.158816,TRUE,FALSE,TRUE,"S252513994"
"256","herwar","Hermit Warbler","Setophaga occidentalis","L47996421","Jackass Ridge, Weaverville US-CA (40.7786,-122.9418)","2025-06-19 09:15",2,40.778582,-122.941764,TRUE,FALSE,TRUE,"S252072600"
"257","herwar","Hermit Warbler","Setophaga occidentalis","L28800562","Rock Creek Road, Douglas Fir forest","2025-06-19 09:13",1,45.1780858,-123.4348625,TRUE,FALSE,TRUE,"S252048867"
"258","herwar","Hermit Warbler","Setophaga occidentalis","L1134339","Humboldt Botanical Garden","2025-06-19 09:06",1,40.7018866,-124.2002034,TRUE,FALSE,FALSE,"S252099779"
"259","herwar","Hermit Warbler","Setophaga occidentalis","L48097858","BRiv BBS 40","2025-06-19 09:05",2,44.295497,-122.173546,TRUE,FALSE,TRUE,"S252513880"
"260","herwar","Hermit Warbler","Setophaga occidentalis","L946816","Oregon Caves National Monument","2025-06-19 09:02",2,42.0975855,-123.4073639,TRUE,FALSE,FALSE,"S252852573"
"261","herwar","Hermit Warbler","Setophaga occidentalis","L48097854","BRiv BBS 39","2025-06-19 09:01",1,44.292048,-122.180705,TRUE,FALSE,TRUE,"S252513852"
"262","herwar","Hermit Warbler","Setophaga occidentalis","L3435978","JBLM Area 10 (restricted access)","2025-06-19 09:01",1,47.044997,-122.507685,TRUE,FALSE,FALSE,"S252082410"
"263","herwar","Hermit Warbler","Setophaga occidentalis","L47813491","Sherrard Point Trail","2025-06-19 09:00",1,45.530793,-122.089566,TRUE,FALSE,TRUE,"S252152731"
"264","herwar","Hermit Warbler","Setophaga occidentalis","L45837496","Meadow Edge Trail, Philomath US-OR 44.50881, -123.55946","2025-06-19 08:58",4,44.508814,-123.559455,TRUE,FALSE,TRUE,"S252071117"
"265","herwar","Hermit Warbler","Setophaga occidentalis","L48097840","BRiv BBS 38","2025-06-19 08:57",1,44.288507,-122.186677,TRUE,FALSE,TRUE,"S252513811"
"266","herwar","Hermit Warbler","Setophaga occidentalis","L48097810","BRiv BBS 37","2025-06-19 08:52",2,44.280545,-122.193183,TRUE,FALSE,TRUE,"S252513650"
"267","herwar","Hermit Warbler","Setophaga occidentalis","L48097802","BRiv BBS 36","2025-06-19 08:48",1,44.273712,-122.197646,TRUE,FALSE,TRUE,"S252513615"
"268","herwar","Hermit Warbler","Setophaga occidentalis","L48097793","BRiv BBS 35","2025-06-19 08:44",1,44.267366,-122.204213,TRUE,FALSE,TRUE,"S252513583"
"269","herwar","Hermit Warbler","Setophaga occidentalis","L48097783","BRiv BBS 34","2025-06-19 08:40",2,44.261301,-122.21349,TRUE,FALSE,TRUE,"S252513534"
"270","herwar","Hermit Warbler","Setophaga occidentalis","L47987903","Marys Peak Rd, Philomath US-OR 44.50706, -123.56865","2025-06-19 08:33",1,44.507062,-123.568654,TRUE,FALSE,TRUE,"S252039572"
"271","herwar","Hermit Warbler","Setophaga occidentalis","L2980350","Yosemite NP--Lower Yosemite Falls Trail","2025-06-19 08:23",1,37.7494079,-119.596138,TRUE,FALSE,FALSE,"S252202046"
"272","herwar","Hermit Warbler","Setophaga occidentalis","L13157440","Butte Creek--skyway crossing","2025-06-19 08:17",1,40.0789175,-121.5506278,TRUE,FALSE,FALSE,"S252184030"
"273","herwar","Hermit Warbler","Setophaga occidentalis","L25269111","Conners Camp Trailhead","2025-06-19 08:16",1,44.4956023,-123.5429281,TRUE,FALSE,FALSE,"S252030826"
"274","herwar","Hermit Warbler","Setophaga occidentalis","L48302394","South Fork ""Pass""","2025-06-19 08:15",6,44.2925828,-123.4432906,TRUE,FALSE,TRUE,"S253407582"
"275","herwar","Hermit Warbler","Setophaga occidentalis","L28463693","North Myrtletown neighborhood and marshes","2025-06-19 08:11",1,40.795102,-124.130437,TRUE,FALSE,FALSE,"S252046462"
"276","herwar","Hermit Warbler","Setophaga occidentalis","L14885744","98387, Spanaway US-WA 47.04137, -122.49438","2025-06-19 08:09",1,47.041371,-122.494383,TRUE,FALSE,TRUE,"S252035065"
"277","herwar","Hermit Warbler","Setophaga occidentalis","L7900467","Gordon Lakes","2025-06-19 08:06",11,44.358589,-122.2632375,TRUE,FALSE,FALSE,"S252171205"
"278","herwar","Hermit Warbler","Setophaga occidentalis","L47985693","Marys Peak Rd, Philomath US-OR 44.48884, -123.53784","2025-06-19 08:05",2,44.488844,-123.537841,TRUE,FALSE,TRUE,"S252030871"
"279","herwar","Hermit Warbler","Setophaga occidentalis","L4464197","Our Lady of Guadalupe Trappist Abbey trails","2025-06-19 08:05",1,45.2859007,-123.0980515,TRUE,FALSE,FALSE,"S252078923"
"280","herwar","Hermit Warbler","Setophaga occidentalis","L48014488","Forest Service Rd 93 Switchbacks","2025-06-19 07:57",2,39.569788,-120.747247,TRUE,FALSE,TRUE,"S252145054"
"281","herwar","Hermit Warbler","Setophaga occidentalis","L47985773","Marys Peak Rd, Philomath US-OR 44.47539, -123.53753","2025-06-19 07:57",2,44.475392,-123.537527,TRUE,FALSE,TRUE,"S252031189"
"282","herwar","Hermit Warbler","Setophaga occidentalis","L48097689","BRiv BBS 26","2025-06-19 07:54",1,44.223676,-122.268036,TRUE,FALSE,TRUE,"S252513148"
"283","herwar","Hermit Warbler","Setophaga occidentalis","L45867780","Marys Peak Road and NF3000","2025-06-19 07:49",1,44.48182,-123.53551,TRUE,FALSE,TRUE,"S252031233"
"284","herwar","Hermit Warbler","Setophaga occidentalis","L15027253","452-682 Lighthouse Road, Winchester Bay, Oregon, US (43.661, -124.197)","2025-06-19 07:47",2,43.6609257,-124.1974192,TRUE,FALSE,TRUE,"S253123376"
"285","herwar","Hermit Warbler","Setophaga occidentalis","L47983749","Pinecrest","2025-06-19 07:41",NA,38.1907349,-119.9957047,TRUE,FALSE,TRUE,"S252024704"
"286","herwar","Hermit Warbler","Setophaga occidentalis","L48097362","BRiv BBS 23","2025-06-19 07:40",1,44.237513,-122.286945,TRUE,FALSE,TRUE,"S252511623"
"287","herwar","Hermit Warbler","Setophaga occidentalis","L48237086","Salmon Harbor Drive, Winchester Bay, Oregon, US (43.669, -124.194)","2025-06-19 07:31",1,43.6692356,-124.193874,TRUE,FALSE,TRUE,"S253122949"
"288","herwar","Hermit Warbler","Setophaga occidentalis","L48097347","BRiv BBS 21","2025-06-19 07:30",1,44.246,-122.306025,TRUE,FALSE,TRUE,"S252511562"
"289","herwar","Hermit Warbler","Setophaga occidentalis","L279294","Yuba Pass","2025-06-19 07:30",2,39.6169093,-120.4889524,TRUE,FALSE,FALSE,"S252052835"
"290","herwar","Hermit Warbler","Setophaga occidentalis","L47985799","Parking area when first reach Marys Peak road","2025-06-19 07:27",1,44.467444,-123.503982,TRUE,FALSE,TRUE,"S252031311"
"291","herwar","Hermit Warbler","Setophaga occidentalis","L48097338","BRiv BBS 20","2025-06-19 07:22",1,44.240491,-122.300852,TRUE,FALSE,TRUE,"S252511526"
"292","herwar","Hermit Warbler","Setophaga occidentalis","L7367501","Larch Mtn Trailhead","2025-06-19 07:20",15,45.722141,-122.313894,TRUE,FALSE,FALSE,"S252058845"
"293","herwar","Hermit Warbler","Setophaga occidentalis","L2492904","Winchester Bay, Half Moon Bay Pond","2025-06-19 07:17",1,43.6677358,-124.1995651,TRUE,FALSE,TRUE,"S253122598"
"294","herwar","Hermit Warbler","Setophaga occidentalis","L48097310","BRiv BBS 19","2025-06-19 07:16",3,44.241181,-122.307727,TRUE,FALSE,TRUE,"S252511374"
"295","herwar","Hermit Warbler","Setophaga occidentalis","L595393","Yosemite NP--Glacier Pt.","2025-06-19 07:15",1,37.7277555,-119.5751953,TRUE,FALSE,FALSE,"S252137271"
"296","herwar","Hermit Warbler","Setophaga occidentalis","L32326339","BBR--Finley--Mill Hill Loop 14.5","2025-06-19 07:11",1,44.41259,-123.34023,TRUE,FALSE,TRUE,"S252091025"
"297","herwar","Hermit Warbler","Setophaga occidentalis","L48097303","BRiv BBS 18","2025-06-19 07:09",2,44.244254,-122.310227,TRUE,FALSE,TRUE,"S252511334"
"298","herwar","Hermit Warbler","Setophaga occidentalis","L48097294","BRiv BBS 17","2025-06-19 07:04",2,44.246545,-122.316767,TRUE,FALSE,TRUE,"S252511309"
"299","herwar","Hermit Warbler","Setophaga occidentalis","L15272716","BBR--Finley--Mill Hill Loop 14","2025-06-19 07:03",1,44.41108,-123.34022,TRUE,FALSE,TRUE,"S252091024"
"300","herwar","Hermit Warbler","Setophaga occidentalis","L34170324","1790 Salmon Harbor Drive, Reedsport, Oregon, US (43.66, -124.203)","2025-06-19 07:02",1,43.6601872,-124.2033554,TRUE,FALSE,TRUE,"S253122238"
"301","herwar","Hermit Warbler","Setophaga occidentalis","L48097280","BRiv BBS 16","2025-06-19 06:58",2,44.249843,-122.319052,TRUE,FALSE,TRUE,"S252511268"
"302","herwar","Hermit Warbler","Setophaga occidentalis","L48175694","Out’n’About Treehouse Treesort (restricted access)","2025-06-19 06:54",2,42.037201,-123.622998,TRUE,FALSE,FALSE,"S252848470"
"303","herwar","Hermit Warbler","Setophaga occidentalis","L48097273","BRiv BBS 15","2025-06-19 06:52",2,44.253655,-122.318808,TRUE,FALSE,TRUE,"S252511232"
"304","herwar","Hermit Warbler","Setophaga occidentalis","L48097256","BRiv BBS 13","2025-06-19 06:38",1,44.260041,-122.307406,TRUE,FALSE,TRUE,"S252511172"
"305","herwar","Hermit Warbler","Setophaga occidentalis","L48097244","BRiv BBS 12","2025-06-19 06:32",1,44.262559,-122.304248,TRUE,FALSE,TRUE,"S252511126"
"306","herwar","Hermit Warbler","Setophaga occidentalis","L48097189","BRiv BBS 11","2025-06-19 06:24",1,44.256467,-122.300316,TRUE,FALSE,TRUE,"S252510958"
"307","herwar","Hermit Warbler","Setophaga occidentalis","L48097158","BRiv BBS 10","2025-06-19 06:16",2,44.261927,-122.294406,TRUE,FALSE,TRUE,"S252510828"
"308","herwar","Hermit Warbler","Setophaga occidentalis","L48097147","BRiv BBS 9","2025-06-19 06:09",2,44.268851,-122.295243,TRUE,FALSE,TRUE,"S252510783"
"309","herwar","Hermit Warbler","Setophaga occidentalis","L48097091","BRiv BBS 8","2025-06-19 06:02",2,44.269233,-122.285196,TRUE,FALSE,TRUE,"S252510556"
"310","herwar","Hermit Warbler","Setophaga occidentalis","L48097084","BRiv BBS 7","2025-06-19 05:54",1,44.266671,-122.278082,TRUE,FALSE,TRUE,"S252510524"
"311","herwar","Hermit Warbler","Setophaga occidentalis","L48097077","BRiv BBS 6","2025-06-19 05:46",1,44.271761,-122.274164,TRUE,FALSE,TRUE,"S252510488"
"312","herwar","Hermit Warbler","Setophaga occidentalis","L48097070","BRiv BBS 5","2025-06-19 05:39",2,44.275728,-122.276843,TRUE,FALSE,TRUE,"S252510458"
"313","herwar","Hermit Warbler","Setophaga occidentalis","L48097054","BRiv BBS 3","2025-06-19 05:23",1,44.281466,-122.286554,TRUE,FALSE,TRUE,"S252510382"
"314","herwar","Hermit Warbler","Setophaga occidentalis","L47987185","2640 English Ln, Yosemite National Park US-CA 37.55083, -119.64099","2025-06-19 05:18",1,37.550829,-119.640992,TRUE,FALSE,TRUE,"S252036706"
"315","herwar","Hermit Warbler","Setophaga occidentalis","L48097042","BRiv BBS 2","2025-06-19 05:10",1,44.288548,-122.285587,TRUE,FALSE,TRUE,"S252510342"
"316","herwar","Hermit Warbler","Setophaga occidentalis","L46393468","Rocky Point Cabin KBO Banding Station","2025-06-19 04:56",2,42.497066,-122.08017,TRUE,FALSE,TRUE,"S252125565"
"317","herwar","Hermit Warbler","Setophaga occidentalis","L48097032","BRiv BBS 1","2025-06-19 04:54",1,44.295478,-122.288429,TRUE,FALSE,TRUE,"S252510294"
"318","herwar","Hermit Warbler","Setophaga occidentalis","L46737091","Jordan Creek Road","2025-06-19 04:40",4,45.5373391,-123.5649806,TRUE,FALSE,TRUE,"S252029147"
"319","herwar","Hermit Warbler","Setophaga occidentalis","L1565481","Ice House Rd. aspen grove","2025-06-18 19:10",1,38.8079877,-120.3749492,TRUE,FALSE,FALSE,"S251896809"
"320","herwar","Hermit Warbler","Setophaga occidentalis","L1033641","LL Stub Stewart SP","2025-06-18 17:00",1,45.7370393,-123.1900835,TRUE,FALSE,FALSE,"S252048312"
"321","herwar","Hermit Warbler","Setophaga occidentalis","L1580235","Forest Service Rte. 1 (Titlow Hill Rd.)--Cold Spring","2025-06-18 15:21",1,40.834033,-123.7128675,TRUE,FALSE,FALSE,"S251834268"
"322","herwar","Hermit Warbler","Setophaga occidentalis","L763526","Cape Meares SP--Lighthouse","2025-06-18 15:02",1,45.4864324,-123.9774492,TRUE,FALSE,FALSE,"S251871652"
"323","herwar","Hermit Warbler","Setophaga occidentalis","L7649894","Grouse Gap","2025-06-18 14:49",4,42.0789119,-122.7378337,TRUE,FALSE,FALSE,"S251860096"
"324","herwar","Hermit Warbler","Setophaga occidentalis","L47943735","Hume - Huckleberry Meadow","2025-06-18 14:42",1,36.772399,-118.940474,TRUE,FALSE,TRUE,"S251830387"
"325","herwar","Hermit Warbler","Setophaga occidentalis","L11799766","Alpine Dam","2025-06-18 14:31",1,37.9395485,-122.63852,TRUE,FALSE,FALSE,"S252024220"
"326","herwar","Hermit Warbler","Setophaga occidentalis","L815302","Oswald West SP","2025-06-18 13:51",1,45.7623138,-123.9632893,TRUE,FALSE,FALSE,"S251842971"
"327","herwar","Hermit Warbler","Setophaga occidentalis","L47942990","Glen Blair Junction","2025-06-18 13:47",1,39.447602,-123.763231,TRUE,FALSE,TRUE,"S251830098"
"328","herwar","Hermit Warbler","Setophaga occidentalis","L339876","SFSU--Sierra Nevada Field Campus","2025-06-18 13:30",2,39.625218,-120.576131,TRUE,FALSE,FALSE,"S252876359"
"329","herwar","Hermit Warbler","Setophaga occidentalis","L6013561","Eldorado NF--10N14/upper Cody Meadows Rd.","2025-06-18 12:59",8,38.723616,-120.145761,TRUE,FALSE,FALSE,"S251879754"
"330","herwar","Hermit Warbler","Setophaga occidentalis","L2386288","Wildcat Mountain (Clackamas Co.)","2025-06-18 12:56",1,45.300633,-122.0644569,TRUE,FALSE,FALSE,"S251888923"
"331","herwar","Hermit Warbler","Setophaga occidentalis","L7485540","Humboldt Redwoods SP--Gov. William D. Stephens Loop Trail","2025-06-18 12:55",1,40.2429042,-123.8215077,TRUE,FALSE,FALSE,"S251806000"
"332","herwar","Hermit Warbler","Setophaga occidentalis","L4822217","Globe Rock","2025-06-18 12:38",1,37.4876351,-119.4165648,TRUE,FALSE,FALSE,"S252048296"
"333","herwar","Hermit Warbler","Setophaga occidentalis","L32468676","Groundhog Road, Oakridge US-OR 43.58264, -122.31865","2025-06-18 12:08",1,43.582645,-122.318646,TRUE,FALSE,TRUE,"S251897352"
"334","herwar","Hermit Warbler","Setophaga occidentalis","L1180509","Yosemite NP--Yosemite Lodge","2025-06-18 12:05",1,37.7452086,-119.5970178,TRUE,FALSE,FALSE,"S251882524"
"335","herwar","Hermit Warbler","Setophaga occidentalis","L47954056","Bark Shanty Rd, Kyburz US-CA","2025-06-18 11:26",1,38.731576,-120.235879,TRUE,FALSE,TRUE,"S251880556"
"336","herwar","Hermit Warbler","Setophaga occidentalis","L36545442","97149, Neskowin US-OR 45.13533, -123.97013","2025-06-18 11:17",1,45.135334,-123.970126,TRUE,FALSE,TRUE,"S251776903"
"337","herwar","Hermit Warbler","Setophaga occidentalis","L353341","UC Santa Cruz--upper campus","2025-06-18 10:56",2,37.0093455,-122.0655665,TRUE,FALSE,FALSE,"S251770921"
"338","herwar","Hermit Warbler","Setophaga occidentalis","L7686795","Rogue River Gorge Falls","2025-06-18 10:43",1,42.9103918,-122.4416238,TRUE,FALSE,FALSE,"S252894561"
"339","herwar","Hermit Warbler","Setophaga occidentalis","L24472614","6S40, Oakhurst, California, US (37.413, -119.565)","2025-06-18 10:40",3,37.4130119,-119.5654508,TRUE,FALSE,TRUE,"S252048358"
"340","herwar","Hermit Warbler","Setophaga occidentalis","L47955633","Bolema Trail near Firtop","2025-06-18 10:36",1,37.986463,-122.75351,TRUE,FALSE,TRUE,"S251886938"
"341","herwar","Hermit Warbler","Setophaga occidentalis","L2263232","Summit Lake","2025-06-18 10:34",1,45.0323906,-121.789391,TRUE,FALSE,FALSE,"S251812245"
"342","herwar","Hermit Warbler","Setophaga occidentalis","L2718708","Rock Creek Rd","2025-06-18 10:23",4,39.3136149,-120.9300542,TRUE,FALSE,TRUE,"S251846685"
"343","herwar","Hermit Warbler","Setophaga occidentalis","L25875369","Lassen Volcanic NP-Juniper Lake Loop Trail (LAS Co)","2025-06-18 10:21",1,40.455216,-121.298916,TRUE,FALSE,TRUE,"S252216635"
"344","herwar","Hermit Warbler","Setophaga occidentalis","L3297024","McKenzie River Trail--Sahalie Falls to Koosah Falls","2025-06-18 10:12",4,44.3483163,-121.9963201,TRUE,FALSE,FALSE,"S251891033"
"345","herwar","Hermit Warbler","Setophaga occidentalis","L743385","Dorena Reservoir--East Wildlife Area","2025-06-18 09:39",1,43.7542951,-122.8974116,TRUE,FALSE,FALSE,"S251853505"
"346","herwar","Hermit Warbler","Setophaga occidentalis","L5633527","Yosemite NP--El Capitan","2025-06-18 09:30",1,37.72845,-119.636678,TRUE,FALSE,FALSE,"S251901240"
"347","herwar","Hermit Warbler","Setophaga occidentalis","L47953656","Big Hill Lookout Rd, Pollock Pines US-CA 38.83016, -120.37096","2025-06-18 09:26",1,38.830159,-120.370955,TRUE,FALSE,TRUE,"S251878646"
"348","herwar","Hermit Warbler","Setophaga occidentalis","L47953999","Wrights Lake to Ice House Road 38.8378,-120.3373)","2025-06-18 09:02",4,38.837825,-120.33728,TRUE,FALSE,TRUE,"S251880693"
"349","herwar","Hermit Warbler","Setophaga occidentalis","L796451","Headwaters Forest Reserve","2025-06-18 08:57",7,40.6730871,-124.0981293,TRUE,FALSE,FALSE,"S251826236"
"350","herwar","Hermit Warbler","Setophaga occidentalis","L2235218","Yuba Pass vista point","2025-06-18 08:30",1,39.63469,-120.45565,TRUE,FALSE,FALSE,"S251884149"
"351","herwar","Hermit Warbler","Setophaga occidentalis","L47942844","Upper Pig Canyon","2025-06-18 08:23",2,39.590891,-120.727436,TRUE,FALSE,TRUE,"S251826373"
"352","herwar","Hermit Warbler","Setophaga occidentalis","L19407753","BBR--Beazell Woods 21","2025-06-18 07:45",1,44.649,-123.41741,TRUE,FALSE,TRUE,"S251777288"
"353","herwar","Hermit Warbler","Setophaga occidentalis","L19407751","BBR--Beazell Woods 19","2025-06-18 07:31",1,44.647,-123.41322,TRUE,FALSE,TRUE,"S251777286"
"354","herwar","Hermit Warbler","Setophaga occidentalis","L444199","Empire Mines State Historic Park","2025-06-18 07:27",1,39.2040585,-121.0514832,TRUE,FALSE,FALSE,"S251738558"
"355","herwar","Hermit Warbler","Setophaga occidentalis","L19407750","BBR--Beazell Woods 18","2025-06-18 07:25",1,44.64611,-123.41131,TRUE,FALSE,TRUE,"S251777285"
"356","herwar","Hermit Warbler","Setophaga occidentalis","L1092969","Big River Estuary--east of Hwy 1","2025-06-18 07:17",1,39.3025408,-123.7889993,TRUE,FALSE,FALSE,"S251762410"
"357","herwar","Hermit Warbler","Setophaga occidentalis","L301060","Mad River Fish Hatchery","2025-06-18 07:14",2,40.8560022,-123.9906109,TRUE,FALSE,FALSE,"S251724085"
"358","herwar","Hermit Warbler","Setophaga occidentalis","L594031","Ackerson Meadow","2025-06-18 07:12",1,37.835,-119.847,TRUE,FALSE,FALSE,"S251864406"
"359","herwar","Hermit Warbler","Setophaga occidentalis","L19407747","BBR--Beazell Woods 15","2025-06-18 07:00",1,44.64423,-123.41274,TRUE,FALSE,TRUE,"S251777282"
"360","herwar","Hermit Warbler","Setophaga occidentalis","L5840475","Lassen Volcanic NP-Headquarters Area (gov’t property)","2025-06-18 06:50",1,40.347393,-121.61019,TRUE,FALSE,FALSE,"S252215782"
"361","herwar","Hermit Warbler","Setophaga occidentalis","L19407744","BBR--Beazell Woods 13","2025-06-18 06:43",3,44.64531,-123.41732,TRUE,FALSE,TRUE,"S251777279"
"362","herwar","Hermit Warbler","Setophaga occidentalis","L19407743","BBR--Beazell Woods 12","2025-06-18 06:36",2,44.64587,-123.41946,TRUE,FALSE,TRUE,"S251777277"
"363","herwar","Hermit Warbler","Setophaga occidentalis","L19407742","BBR--Beazell Woods 11","2025-06-18 06:27",3,44.64707,-123.42094,TRUE,FALSE,TRUE,"S251777276"
"364","herwar","Hermit Warbler","Setophaga occidentalis","L19407739","BBR--Beazell Woods 9","2025-06-18 06:08",1,44.64635,-123.42316,TRUE,FALSE,TRUE,"S251777274"
"365","herwar","Hermit Warbler","Setophaga occidentalis","L4891395","Stanislaus NF--Clark Fork CG","2025-06-18 05:38",2,38.3976354,-119.801833,TRUE,FALSE,FALSE,"S251791976"
"366","herwar","Hermit Warbler","Setophaga occidentalis","L47886203","96122, Portola US-CA 39.83701, -120.43582","2025-06-18 04:48",2,39.837012,-120.435821,TRUE,FALSE,TRUE,"S251854463"
"367","herwar","Hermit Warbler","Setophaga occidentalis","L5125288","Deverell Rd.","2025-06-17 19:10",1,45.504971,-122.204159,TRUE,FALSE,FALSE,"S251561789"
"368","herwar","Hermit Warbler","Setophaga occidentalis","L15778665","Yosemite Village","2025-06-17 18:08",1,37.7472446,-119.5853341,TRUE,FALSE,FALSE,"S251873562"
"369","herwar","Hermit Warbler","Setophaga occidentalis","L47918971","Castle Lake Rd, Mount Shasta US-CA","2025-06-17 16:41",1,41.255394,-122.35035,TRUE,FALSE,TRUE,"S251723604"
"370","herwar","Hermit Warbler","Setophaga occidentalis","L11983126","Lake Davis--Fair View Fishing Access","2025-06-17 13:56",1,39.9357172,-120.5268997,TRUE,FALSE,FALSE,"S251554797"
"371","herwar","Hermit Warbler","Setophaga occidentalis","L47890037","NW Meadow Lake Rd, Carlton US-OR 45.30241, -123.37828","2025-06-17 13:29",1,45.302414,-123.378275,TRUE,FALSE,TRUE,"S251572037"
"372","herwar","Hermit Warbler","Setophaga occidentalis","L4375947","Alsea Falls Recreational Site","2025-06-17 12:20",3,44.3263656,-123.492465,TRUE,FALSE,FALSE,"S251514848"
"373","herwar","Hermit Warbler","Setophaga occidentalis","L11601834","Hawley Grade Trailhead","2025-06-17 12:13",1,38.796502,-120.019902,TRUE,FALSE,FALSE,"S251481101"
"374","herwar","Hermit Warbler","Setophaga occidentalis","L5983255","McKinley Grove","2025-06-17 12:05",1,37.022121,-119.107998,TRUE,FALSE,FALSE,"S251511013"
"375","herwar","Hermit Warbler","Setophaga occidentalis","L761967","Sequoia NF--Quaking Aspen Meadows & Campground","2025-06-17 11:56",2,36.1216855,-118.544223,TRUE,FALSE,FALSE,"S251489570"
"376","herwar","Hermit Warbler","Setophaga occidentalis","L2278418","Silver Star Mountain (Skamania Co.)","2025-06-17 11:10",3,45.7477773,-122.2390477,TRUE,FALSE,FALSE,"S252086040"
"377","herwar","Hermit Warbler","Setophaga occidentalis","L1210934","Banks-Vernonia State Trail--Buxton Trailhead","2025-06-17 10:55",1,45.6978407,-123.1824446,TRUE,FALSE,FALSE,"S251508444"
"378","herwar","Hermit Warbler","Setophaga occidentalis","L25288911","Stevens Canyon Rd, Packwood US-WA 46.73260, -121.58200","2025-06-17 10:34",2,46.732595,-121.581996,TRUE,FALSE,TRUE,"S251737570"
"379","herwar","Hermit Warbler","Setophaga occidentalis","L3041831","Mt. Rainier NP--Bench Lake","2025-06-17 10:32",1,46.7626782,-121.6977453,TRUE,FALSE,FALSE,"S251541893"
"380","herwar","Hermit Warbler","Setophaga occidentalis","L47883187","Forest Route 09, Calpine, California, US (39.658, -120.524)","2025-06-17 10:30",1,39.6580399,-120.5239211,TRUE,FALSE,TRUE,"S251541034"
"381","herwar","Hermit Warbler","Setophaga occidentalis","L47922245","Toad Lake","2025-06-17 10:26",1,41.2835979,-122.4914699,TRUE,FALSE,TRUE,"S251737569"
"382","herwar","Hermit Warbler","Setophaga occidentalis","L1320923","UC Forestry Camp","2025-06-17 10:25",4,39.9204668,-121.0642076,TRUE,FALSE,FALSE,"S251463674"
"383","herwar","Hermit Warbler","Setophaga occidentalis","L19112658","Jblm Area 10 edge (restricted access)","2025-06-17 10:21",1,47.0406,-122.494487,TRUE,FALSE,TRUE,"S251462220"
"384","herwar","Hermit Warbler","Setophaga occidentalis","L1029404","Trout Creek","2025-06-17 10:11",1,41.426221,-121.9089103,TRUE,FALSE,FALSE,"S251451977"
"385","herwar","Hermit Warbler","Setophaga occidentalis","L1811486","Mule Prairie","2025-06-17 10:06",4,43.6137542,-122.0948317,TRUE,FALSE,TRUE,"S251513173"
"386","herwar","Hermit Warbler","Setophaga occidentalis","L29132372","East Floras LRT","2025-06-17 10:04",1,42.9209077,-124.2782447,TRUE,FALSE,TRUE,"S251544721"
"387","herwar","Hermit Warbler","Setophaga occidentalis","L7741981","Marys Peak Rd.","2025-06-17 09:56",3,44.4861077,-123.5384623,TRUE,FALSE,FALSE,"S251442089"
"388","herwar","Hermit Warbler","Setophaga occidentalis","L47909449","Forest Service Road 5S06, Oakhurst US-CA 37.48829, -119.60593","2025-06-17 09:52",1,37.488286,-119.605931,TRUE,FALSE,TRUE,"S251676451"
"389","herwar","Hermit Warbler","Setophaga occidentalis","L15614097","Humboldt Redwoods SP--Giant Tree Area","2025-06-17 09:51",1,40.3506711,-123.9921626,TRUE,FALSE,FALSE,"S251497333"
"390","herwar","Hermit Warbler","Setophaga occidentalis","L47889652","Six Rivers National Forest, Zenia US-CA (40.2180,-123.4732)","2025-06-17 09:50",4,40.218007,-123.473218,TRUE,FALSE,TRUE,"S251569989"
"391","herwar","Hermit Warbler","Setophaga occidentalis","L6714159","Yosemite NP--Taft Point Trail","2025-06-17 09:48",3,37.7112234,-119.5991421,TRUE,FALSE,FALSE,"S251519764"
"392","herwar","Hermit Warbler","Setophaga occidentalis","L2268054","Fourmile Lake","2025-06-17 09:16",1,42.467032,-122.2440147,TRUE,FALSE,FALSE,"S253133809"
"393","herwar","Hermit Warbler","Setophaga occidentalis","L985990","Arcadia Beach SP","2025-06-17 09:13",2,45.8464246,-123.9601672,TRUE,FALSE,FALSE,"S251468372"
"394","herwar","Hermit Warbler","Setophaga occidentalis","L9689572","Lassen Volcanic NP--Mill Creek Falls Trail","2025-06-17 09:00",1,40.4378352,-121.5329123,TRUE,FALSE,FALSE,"S252215480"
"395","herwar","Hermit Warbler","Setophaga occidentalis","L19845538","BBR--Marys Peak East Ridge1","2025-06-17 09:00",2,44.49565,-123.54332,TRUE,FALSE,TRUE,"S251441430"
"396","herwar","Hermit Warbler","Setophaga occidentalis","L47851400","83281–83289 US-101, Seaside US-OR 45.92972, -123.92729","2025-06-17 08:54",1,45.929721,-123.927287,TRUE,FALSE,TRUE,"S251403129"
"397","herwar","Hermit Warbler","Setophaga occidentalis","L7807631","Hood River Meadow","2025-06-17 08:53",1,45.3234146,-121.6370629,TRUE,FALSE,FALSE,"S251542358"
"398","herwar","Hermit Warbler","Setophaga occidentalis","L19845539","BBR--Marys Peak East Ridge2","2025-06-17 08:52",2,44.49771,-123.54513,TRUE,FALSE,TRUE,"S251441429"
"399","herwar","Hermit Warbler","Setophaga occidentalis","L19845540","BBR--Marys Peak East Ridge3","2025-06-17 08:42",4,44.5002,-123.54294,TRUE,FALSE,TRUE,"S251441428"
"400","herwar","Hermit Warbler","Setophaga occidentalis","L47871996","54893 Chinquapin Drive, Springville, California, US (36.19, -118.624) (Stagg Tree Area)","2025-06-17 08:40",4,36.1902863,-118.62447,TRUE,FALSE,TRUE,"S251489302"
"401","herwar","Hermit Warbler","Setophaga occidentalis","L11655205","Bull Gap Sno Park","2025-06-17 08:29",1,42.070743,-122.695701,TRUE,FALSE,FALSE,"S251522077"
"402","herwar","Hermit Warbler","Setophaga occidentalis","L19845543","BBR--Marys Peak East Ridge5","2025-06-17 08:25",1,44.50577,-123.54274,TRUE,FALSE,TRUE,"S251441349"
"403","herwar","Hermit Warbler","Setophaga occidentalis","L47871861","Upper Hog Canyon","2025-06-17 08:24",2,39.605653,-120.718261,TRUE,FALSE,TRUE,"S251489121"
"404","herwar","Hermit Warbler","Setophaga occidentalis","L19845537","BBR--Marys Peak East Ridge6","2025-06-17 08:18",1,44.50835,-123.54199,TRUE,FALSE,TRUE,"S251441427"
"405","herwar","Hermit Warbler","Setophaga occidentalis","L47926070","Forest Service Road 4611","2025-06-17 08:13",1,42.134317,-123.3411115,TRUE,FALSE,TRUE,"S251753343"
"406","herwar","Hermit Warbler","Setophaga occidentalis","L19845536","BBR--Marys Peak East Ridge7","2025-06-17 08:10",1,44.50832,-123.54263,TRUE,FALSE,TRUE,"S251441426"
"407","herwar","Hermit Warbler","Setophaga occidentalis","L47860805","44.50756_-123.54317","2025-06-17 08:05",1,44.50756,-123.54317,TRUE,FALSE,TRUE,"S251441425"
"408","herwar","Hermit Warbler","Setophaga occidentalis","L19845534","BBR--Marys Peak East Ridge8","2025-06-17 07:58",1,44.50566,-123.54526,TRUE,FALSE,TRUE,"S251441424"
"409","herwar","Hermit Warbler","Setophaga occidentalis","L19845535","BBR--Marys Peak East Ridge9","2025-06-17 07:49",1,44.50816,-123.54398,TRUE,FALSE,TRUE,"S251441423"
"410","herwar","Hermit Warbler","Setophaga occidentalis","L1239423","Larch Mountain","2025-06-17 07:40",30,45.7077377,-122.2665024,TRUE,FALSE,FALSE,"S251508832"
"411","herwar","Hermit Warbler","Setophaga occidentalis","L19656436","BBR--Marys Peak East Ridge10","2025-06-17 07:39",1,44.50943,-123.54623,TRUE,FALSE,TRUE,"S251441422"
"412","herwar","Hermit Warbler","Setophaga occidentalis","L19656434","BBR--Marys Peak East Ridge12","2025-06-17 07:23",2,44.50817,-123.54686,TRUE,FALSE,TRUE,"S251441420"
"413","herwar","Hermit Warbler","Setophaga occidentalis","L6107853","44.70633_-123.31088","2025-06-17 07:12",1,44.70633,-123.31088,TRUE,FALSE,TRUE,"S251374217"
"414","herwar","Hermit Warbler","Setophaga occidentalis","L1308858","Yosemite NP--Bridalveil Falls","2025-06-17 07:10",1,37.7171051,-119.6500719,TRUE,FALSE,FALSE,"S253251343"
"415","herwar","Hermit Warbler","Setophaga occidentalis","L5577752","Scotts Flat Dam Rd.","2025-06-17 07:07",1,39.2720344,-120.9480327,TRUE,FALSE,FALSE,"S251493167"
"416","herwar","Hermit Warbler","Setophaga occidentalis","L47943152","Willow Creek Mountain","2025-06-17 06:51",3,41.8370526,-122.2788726,TRUE,FALSE,TRUE,"S251827125"
"417","herwar","Hermit Warbler","Setophaga occidentalis","L2439998","Desert Breeze Park","2025-06-17 06:48",1,33.312903,-111.9197041,TRUE,TRUE,FALSE,"S251383490"
"418","herwar","Hermit Warbler","Setophaga occidentalis","L2354167","John Muir Trail--Trailhead to Little Yosemite Valley","2025-06-17 06:46",2,37.7249277,-119.545009,TRUE,FALSE,FALSE,"S252642416"
"419","herwar","Hermit Warbler","Setophaga occidentalis","L21499624","6100 North Bank Road, Roseburg, Oregon, US (43.32, -123.254)","2025-06-17 06:31",1,43.3195139,-123.2538023,TRUE,FALSE,TRUE,"S253120415"
"420","herwar","Hermit Warbler","Setophaga occidentalis","L19656435","BBR--Marys Peak East Ridge11","2025-06-17 06:28",1,44.50925,-123.54763,TRUE,FALSE,TRUE,"S251441412"
"421","herwar","Hermit Warbler","Setophaga occidentalis","L509935","Home (Shafer R Road)","2025-06-17 06:10",3,39.3615439,-123.3272302,TRUE,FALSE,TRUE,"S251397859"
"422","herwar","Hermit Warbler","Setophaga occidentalis","L8033247","Yosemite NP--Crane Flat Campground","2025-06-17 06:05",4,37.7480533,-119.8000489,TRUE,FALSE,FALSE,"S251871638"
"423","herwar","Hermit Warbler","Setophaga occidentalis","L47816054","Mill Creek Resort Campground","2025-06-17 05:39",2,40.3233648,-121.5248281,TRUE,FALSE,TRUE,"S251346219"
"424","herwar","Hermit Warbler","Setophaga occidentalis","L46768097","Child's Meadow South","2025-06-17 05:15",4,40.3192449,-121.4696372,TRUE,FALSE,TRUE,"S251565146"
"425","herwar","Hermit Warbler","Setophaga occidentalis","L3046815","Lacey Meadow","2025-06-17 05:15",1,39.47326,-120.42348,TRUE,FALSE,FALSE,"S251812916"
"426","herwar","Hermit Warbler","Setophaga occidentalis","L48027432","97108, Beaver US-OR 45.21744, -123.49223","2025-06-17 04:41",5,45.217443,-123.492233,TRUE,FALSE,TRUE,"S252203620"
"427","herwar","Hermit Warbler","Setophaga occidentalis","L47818995","Mill creek resort","2025-06-16 18:52",1,40.32367,-121.524389,TRUE,FALSE,TRUE,"S251245841"
"428","herwar","Hermit Warbler","Setophaga occidentalis","L865480","Cape Perpetua--Visitor's Center","2025-06-16 17:22",1,44.2809805,-124.1089118,TRUE,FALSE,FALSE,"S251220969"
"429","herwar","Hermit Warbler","Setophaga occidentalis","L47861433","Rebel Ridge Trail","2025-06-16 16:51",1,39.437821,-121.081754,TRUE,FALSE,TRUE,"S251443791"
"430","herwar","Hermit Warbler","Setophaga occidentalis","L47854371","Stevens Canyon Rd, Packwood US-WA (46.7683,-121.7113)","2025-06-16 15:18",2,46.768288,-121.711279,TRUE,FALSE,TRUE,"S251415407"
"431","herwar","Hermit Warbler","Setophaga occidentalis","L47816920","Ecola State Park, Seaside US-OR 45.93133, -123.97731","2025-06-16 14:46",1,45.931329,-123.977314,TRUE,FALSE,TRUE,"S251236466"
"432","herwar","Hermit Warbler","Setophaga occidentalis","L16647054","Lassen NF-FR17 (Dry Lake to Digger Creek)","2025-06-16 14:31",1,40.4192268,-121.6200501,TRUE,FALSE,FALSE,"S251243007"
"433","herwar","Hermit Warbler","Setophaga occidentalis","L3003034","Patjens Lakes Trail","2025-06-16 14:13",1,44.3541735,-121.8982887,TRUE,FALSE,TRUE,"S251201052"
"434","herwar","Hermit Warbler","Setophaga occidentalis","L1479497","Sequoia NP--General Sherman Tree Trail","2025-06-16 14:04",NA,36.5848435,-118.7496931,TRUE,FALSE,FALSE,"S251418991"
"435","herwar","Hermit Warbler","Setophaga occidentalis","L47821072","97467, Reedsport US-OR 43.62214, -123.96632","2025-06-16 13:57",1,43.622143,-123.96632,TRUE,FALSE,TRUE,"S251255465"
"436","herwar","Hermit Warbler","Setophaga occidentalis","L8101122","Yuba Pass Campground","2025-06-16 13:35",1,39.6151108,-120.4909658,TRUE,FALSE,FALSE,"S253433786"
"437","herwar","Hermit Warbler","Setophaga occidentalis","L47803620","Dean Mountain Road, Reedsport US-OR 43.64649, -124.01509","2025-06-16 13:19",1,43.64649,-124.015088,TRUE,FALSE,TRUE,"S251173073"
"438","herwar","Hermit Warbler","Setophaga occidentalis","L11004626","97520, Ashland US-OR 42.07562, -122.61107","2025-06-16 13:12",2,42.075619,-122.611074,TRUE,FALSE,TRUE,"S251184101"
"439","herwar","Hermit Warbler","Setophaga occidentalis","L24000431","Arcata Ridge Trail (North Janes Creek Segment)","2025-06-16 12:35",1,40.892375,-124.079833,TRUE,FALSE,FALSE,"S251257135"
"440","herwar","Hermit Warbler","Setophaga occidentalis","L20213045","Masatchee Creek Trailhead","2025-06-16 12:32",2,46.9126028,-121.4071608,TRUE,FALSE,FALSE,"S251233957"
"441","herwar","Hermit Warbler","Setophaga occidentalis","L47820720","Northway Peak Trailhead","2025-06-16 12:19",1,46.9613202,-121.4815522,TRUE,FALSE,TRUE,"S251254114"
"442","herwar","Hermit Warbler","Setophaga occidentalis","L47802082","Dean Mountain Road, Reedsport US-OR 43.66121, -124.01970","2025-06-16 12:18",1,43.661208,-124.019702,TRUE,FALSE,TRUE,"S251166082"
"443","herwar","Hermit Warbler","Setophaga occidentalis","L685396","The Oregon Garden","2025-06-16 12:00",1,44.9947066,-122.79037,TRUE,FALSE,FALSE,"S251228525"
"444","herwar","Hermit Warbler","Setophaga occidentalis","L47797165","Dean Mountain Road, Reedsport US-OR 43.66285, -124.01671","2025-06-16 11:58",2,43.662848,-124.016705,TRUE,FALSE,TRUE,"S251140734"
"445","herwar","Hermit Warbler","Setophaga occidentalis","L47813712","Mount June","2025-06-16 11:40",13,43.7906828,-122.7230764,TRUE,FALSE,TRUE,"S251224922"
"446","herwar","Hermit Warbler","Setophaga occidentalis","L1417596","Sierra Valley--Lemon Canyon Rd.","2025-06-16 10:35",1,39.5818306,-120.3332543,TRUE,FALSE,FALSE,"S251279252"
"447","herwar","Hermit Warbler","Setophaga occidentalis","L295630","Devils Elbow SP (Heceta Head Lighthouse State Scenic Area)","2025-06-16 10:22",1,44.1350095,-124.1230775,TRUE,FALSE,FALSE,"S251196912"
"448","herwar","Hermit Warbler","Setophaga occidentalis","L48011493","Lumberyard BBS 48","2025-06-16 10:18",1,38.59957,-120.402106,TRUE,FALSE,TRUE,"S252132078"
"449","herwar","Hermit Warbler","Setophaga occidentalis","L2950363","Sierra Discovery Trail (PLA Co.)","2025-06-16 09:51",3,39.3091138,-120.6657986,TRUE,FALSE,FALSE,"S251242909"
"450","herwar","Hermit Warbler","Setophaga occidentalis","L32560113","Dunn Road 100","2025-06-16 09:49",1,44.714019,-123.299116,TRUE,FALSE,TRUE,"S251480202"
"451","herwar","Hermit Warbler","Setophaga occidentalis","L48011487","Lumberyard BBS 42","2025-06-16 09:40",1,38.603045,-120.366559,TRUE,FALSE,TRUE,"S252132074"
"452","herwar","Hermit Warbler","Setophaga occidentalis","L48011486","Lumberyard BBS 41","2025-06-16 09:34",2,38.599488,-120.363405,TRUE,FALSE,TRUE,"S252132073"
"453","herwar","Hermit Warbler","Setophaga occidentalis","L280575","Henry Cowell Redwoods SP (general)--please consider using more specific locations","2025-06-16 09:33",2,37.0218114,-122.0493507,TRUE,FALSE,FALSE,"S251132198"
"454","herwar","Hermit Warbler","Setophaga occidentalis","L9814602","Soapstone Lake Trail","2025-06-16 09:28",2,45.839684,-123.754267,TRUE,FALSE,FALSE,"S251184043"
"455","herwar","Hermit Warbler","Setophaga occidentalis","L489469","Mt. Rainier NP--Paradise","2025-06-16 09:23",1,46.7871318,-121.7340088,TRUE,FALSE,FALSE,"S251108050"
"456","herwar","Hermit Warbler","Setophaga occidentalis","L48011483","Lumberyard BBS 38","2025-06-16 09:17",1,38.602374,-120.350015,TRUE,FALSE,TRUE,"S252132068"
"457","herwar","Hermit Warbler","Setophaga occidentalis","L48011482","Lumberyard BBS 37","2025-06-16 09:12",1,38.602519,-120.346841,TRUE,FALSE,TRUE,"S252132358"
"458","herwar","Hermit Warbler","Setophaga occidentalis","L48011480","Lumberyard BBS 36","2025-06-16 09:05",1,38.594429,-120.346094,TRUE,FALSE,TRUE,"S252132067"
"459","herwar","Hermit Warbler","Setophaga occidentalis","L32459780","Luginbuhl Ranch","2025-06-16 09:00",1,41.3679346,-122.4080579,TRUE,FALSE,TRUE,"S251157089"
"460","herwar","Hermit Warbler","Setophaga occidentalis","L48011477","Lumberyard BBS 34","2025-06-16 08:52",1,38.59723,-120.33575,TRUE,FALSE,TRUE,"S252132356"
"461","herwar","Hermit Warbler","Setophaga occidentalis","L3747412","Shasta-Trinity Forest Road 41N56","2025-06-16 08:49",4,41.3545145,-122.2796119,TRUE,FALSE,TRUE,"S251151179"
"462","herwar","Hermit Warbler","Setophaga occidentalis","L47819036","Trail from Goat Meadow to Mariposa Grove-Grizzly Giant","2025-06-16 08:45",1,37.4965512,-119.6072362,TRUE,FALSE,TRUE,"S251247591"
"463","herwar","Hermit Warbler","Setophaga occidentalis","L48011476","Lumberyard BBS 33","2025-06-16 08:45",1,38.599213,-120.33066,TRUE,FALSE,TRUE,"S252132065"
"464","herwar","Hermit Warbler","Setophaga occidentalis","L913573","Ice House Reservoir--Boat Launch","2025-06-16 08:44",4,38.8299607,-120.36239,TRUE,FALSE,FALSE,"S251068431"
"465","herwar","Hermit Warbler","Setophaga occidentalis","L47810102","North Yuba River along Hwy 49","2025-06-16 08:43",6,39.564598,-120.718316,TRUE,FALSE,TRUE,"S251203128"
"466","herwar","Hermit Warbler","Setophaga occidentalis","L48011472","Lumberyard BBS 30","2025-06-16 08:27",2,38.593039,-120.315999,TRUE,FALSE,TRUE,"S252132062"
"467","herwar","Hermit Warbler","Setophaga occidentalis","L48011471","Lumberyard BBS 29","2025-06-16 08:20",1,38.590284,-120.308628,TRUE,FALSE,TRUE,"S252132061"
"468","herwar","Hermit Warbler","Setophaga occidentalis","L47802256","HJA, Carpenter Mountain","2025-06-16 08:13",5,44.276836,-122.136153,TRUE,FALSE,TRUE,"S251166854"
"469","herwar","Hermit Warbler","Setophaga occidentalis","L48011470","Lumberyard BBS 28","2025-06-16 08:10",1,38.586555,-120.304773,TRUE,FALSE,TRUE,"S252132060"
"470","herwar","Hermit Warbler","Setophaga occidentalis","L47777599","1313 Driver Rd, Westhaven US-CA 41.03381, -124.09212","2025-06-16 07:59",1,41.033807,-124.092123,TRUE,FALSE,TRUE,"S251056444"
"471","herwar","Hermit Warbler","Setophaga occidentalis","L48011468","Lumberyard BBS 26","2025-06-16 07:57",1,38.581943,-120.305955,TRUE,FALSE,TRUE,"S252132058"
"472","herwar","Hermit Warbler","Setophaga occidentalis","L48011467","Lumberyard BBS 25","2025-06-16 07:51",1,38.57795,-120.308239,TRUE,FALSE,TRUE,"S252132057"
"473","herwar","Hermit Warbler","Setophaga occidentalis","L48011466","Lumberyard BBS 24","2025-06-16 07:44",1,38.578111,-120.312124,TRUE,FALSE,TRUE,"S252132056"
"474","herwar","Hermit Warbler","Setophaga occidentalis","L48011465","Lumberyard BBS 23","2025-06-16 07:38",1,38.575821,-120.317948,TRUE,FALSE,TRUE,"S252132055"
"475","herwar","Hermit Warbler","Setophaga occidentalis","L47783293","BBR--Marys Peak North Ridge1","2025-06-16 07:37",1,44.531,-123.54465,TRUE,FALSE,TRUE,"S251080817"
"476","herwar","Hermit Warbler","Setophaga occidentalis","L9152053","Trillium Cottage","2025-06-16 07:36",1,44.9875427,-123.9988424,TRUE,FALSE,TRUE,"S251216719"
"477","herwar","Hermit Warbler","Setophaga occidentalis","L15471825","Silver Fork Campground","2025-06-16 07:26",2,38.6989082,-120.2078962,TRUE,FALSE,FALSE,"S252674720"
"478","herwar","Hermit Warbler","Setophaga occidentalis","L15321447","BBR--Woods Creek 21","2025-06-16 07:25",2,44.53302,-123.54023,TRUE,FALSE,TRUE,"S251080815"
"479","herwar","Hermit Warbler","Setophaga occidentalis","L48011464","Lumberyard BBS 22","2025-06-16 07:22",1,38.571752,-120.324377,TRUE,FALSE,TRUE,"S252132054"
"480","herwar","Hermit Warbler","Setophaga occidentalis","L47748326","Shasta-Trinity National Forest, Mount Shasta US-CA 41.25930, -122.37100","2025-06-16 07:18",8,41.259295,-122.371001,TRUE,FALSE,TRUE,"S251107784"
"481","herwar","Hermit Warbler","Setophaga occidentalis","L9354294","Yosemite NP—Yosemite West","2025-06-16 07:16",1,37.651217,-119.721087,TRUE,FALSE,FALSE,"S251056535"
"482","herwar","Hermit Warbler","Setophaga occidentalis","L15321444","BBR--Woods Creek 18","2025-06-16 07:04",2,44.53666,-123.53234,TRUE,FALSE,TRUE,"S251080812"
"483","herwar","Hermit Warbler","Setophaga occidentalis","L15321443","BBR--Woods Creek 17","2025-06-16 06:58",3,44.53716,-123.53008,TRUE,FALSE,TRUE,"S251080811"
"484","herwar","Hermit Warbler","Setophaga occidentalis","L23008988","Mt Richmond 1-12","2025-06-16 06:57",1,45.428272,-123.241503,TRUE,FALSE,TRUE,"S251402660"
"485","herwar","Hermit Warbler","Setophaga occidentalis","L15321442","BBR--Woods Creek 16","2025-06-16 06:52",3,44.53801,-123.52811,TRUE,FALSE,TRUE,"S251080810"
"486","herwar","Hermit Warbler","Setophaga occidentalis","L15321441","BBR--Woods Creek 15","2025-06-16 06:37",1,44.54098,-123.52005,TRUE,FALSE,TRUE,"S251080809"
"487","herwar","Hermit Warbler","Setophaga occidentalis","L48011455","Lumberyard BBS 14","2025-06-16 06:36",2,38.552342,-120.345211,TRUE,FALSE,TRUE,"S252132047"
"488","herwar","Hermit Warbler","Setophaga occidentalis","L23010381","Mt Richmond 2-8","2025-06-16 06:35",1,45.437744,-123.228472,TRUE,FALSE,TRUE,"S251405937"
"489","herwar","Hermit Warbler","Setophaga occidentalis","L15321440","BBR--Woods Creek 14","2025-06-16 06:29",3,44.54042,-123.52264,TRUE,FALSE,TRUE,"S251080808"
"490","herwar","Hermit Warbler","Setophaga occidentalis","L15321439","BBR--Woods Creek 13","2025-06-16 06:22",3,44.5395,-123.52509,TRUE,FALSE,TRUE,"S251080807"
"491","herwar","Hermit Warbler","Setophaga occidentalis","L15321438","BBR--Woods Creek 12","2025-06-16 06:14",1,44.53785,-123.5263,TRUE,FALSE,TRUE,"S251080806"
"492","herwar","Hermit Warbler","Setophaga occidentalis","L47805296","McKinley Grove Rd, Shaver Lake US-CA 37.00773, -119.09349","2025-06-16 06:14",1,37.007728,-119.093492,TRUE,FALSE,TRUE,"S251180471"
"493","herwar","Hermit Warbler","Setophaga occidentalis","L15321437","BBR--Woods Creek 11","2025-06-16 06:07",2,44.53654,-123.52589,TRUE,FALSE,TRUE,"S251080805"
"494","herwar","Hermit Warbler","Setophaga occidentalis","L15321436","BBR--Woods Creek 10","2025-06-16 06:01",2,44.53579,-123.52409,TRUE,FALSE,TRUE,"S251080804"
"495","herwar","Hermit Warbler","Setophaga occidentalis","L15321435","BBR--Woods Creek 9","2025-06-16 05:54",6,44.53526,-123.52609,TRUE,FALSE,TRUE,"S251080803"
"496","herwar","Hermit Warbler","Setophaga occidentalis","L15321434","BBR--Woods Creek 8","2025-06-16 05:46",5,44.53596,-123.52851,TRUE,FALSE,TRUE,"S251080802"
"497","herwar","Hermit Warbler","Setophaga occidentalis","L15321432","BBR--Woods Creek 7","2025-06-16 05:39",6,44.53596,-123.53178,TRUE,FALSE,TRUE,"S251080801"
"498","herwar","Hermit Warbler","Setophaga occidentalis","L15321431","BBR--Woods Creek 6","2025-06-16 05:32",4,44.53513,-123.53395,TRUE,FALSE,TRUE,"S251080800"
"499","herwar","Hermit Warbler","Setophaga occidentalis","L15321430","BBR--Woods Creek 5","2025-06-16 05:25",1,44.53428,-123.53641,TRUE,FALSE,TRUE,"S251080799"
"500","herwar","Hermit Warbler","Setophaga occidentalis","L15321429","BBR--Woods Creek 4","2025-06-16 05:18",2,44.5327,-123.53858,TRUE,FALSE,TRUE,"S251080798"
"501","herwar","Hermit Warbler","Setophaga occidentalis","L15321428","BBR--Woods Creek 3","2025-06-16 05:11",3,44.53193,-123.54028,TRUE,FALSE,TRUE,"S251080797"
"502","herwar","Hermit Warbler","Setophaga occidentalis","L15321426","BBR--Woods Creek 1","2025-06-16 04:55",2,44.5307,-123.5446,TRUE,FALSE,TRUE,"S251080795"
"503","herwar","Hermit Warbler","Setophaga occidentalis","L46694940","Donnington Ln","2025-06-15 20:00",1,39.350621,-120.110525,TRUE,FALSE,TRUE,"S250908363"
"504","herwar","Hermit Warbler","Setophaga occidentalis","L47749273","97138, Seaside US-OR 46.06682, -123.45588","2025-06-15 17:22",1,46.06682,-123.455879,TRUE,FALSE,TRUE,"S250914908"
"505","herwar","Hermit Warbler","Setophaga occidentalis","L915996","Calaveras Big Trees SP--North Grove","2025-06-15 16:34",1,38.2787612,-120.3080392,TRUE,FALSE,FALSE,"S250898733"
"506","herwar","Hermit Warbler","Setophaga occidentalis","L8883922","Salt Creek Summit Sno-Park","2025-06-15 15:02",8,43.6081214,-122.1179835,TRUE,FALSE,FALSE,"S252016219"
"507","herwar","Hermit Warbler","Setophaga occidentalis","L1873235","785 Jackson yard","2025-06-15 14:32",1,39.9362675,-120.9559051,TRUE,FALSE,TRUE,"S250827534"
"508","herwar","Hermit Warbler","Setophaga occidentalis","L47725269","The Immortal Tree","2025-06-15 13:35",1,40.416934,-123.967452,TRUE,FALSE,TRUE,"S250825653"
"509","herwar","Hermit Warbler","Setophaga occidentalis","L3056009","Trinidad--Strawberry Rock Trail","2025-06-15 13:24",1,41.0767631,-124.1370535,TRUE,FALSE,FALSE,"S251088210"
"510","herwar","Hermit Warbler","Setophaga occidentalis","L7099466","Pittsburg Rd.","2025-06-15 13:21",1,45.897188,-123.09056,TRUE,FALSE,FALSE,"S250865196"
"511","herwar","Hermit Warbler","Setophaga occidentalis","L48027152","Larch Mountain Trail, Corbett US-OR 45.52991, -122.09053","2025-06-15 13:17",19,45.529909,-122.090526,TRUE,TRUE,TRUE,"S252202494"
"512","herwar","Hermit Warbler","Setophaga occidentalis","L47944089","National Forest Development Road 388, Vida, Oregon, US (44.038, -122.508)","2025-06-15 12:57",7,44.0382167,-122.5079617,TRUE,FALSE,TRUE,"S251831995"
"513","herwar","Hermit Warbler","Setophaga occidentalis","L47796362","2975–2993 Coyote Creek Rd, Wolf Creek US-OR 42.68147, -123.33022","2025-06-15 12:53",1,42.681475,-123.330221,TRUE,FALSE,TRUE,"S251136634"
"514","herwar","Hermit Warbler","Setophaga occidentalis","L8113489","Old Growth Cedar Preserve Trail","2025-06-15 12:30",1,45.6019,-123.93747,TRUE,FALSE,FALSE,"S252966496"
"515","herwar","Hermit Warbler","Setophaga occidentalis","L14596316","97520, Ashland US-OR 42.07955, -122.60718","2025-06-15 12:29",4,42.079547,-122.607179,TRUE,FALSE,TRUE,"S250817408"
"516","herwar","Hermit Warbler","Setophaga occidentalis","L13080520","Packwood Skate Creek Park","2025-06-15 12:17",1,46.6175579,-121.6871101,TRUE,FALSE,FALSE,"S250817923"
"517","herwar","Hermit Warbler","Setophaga occidentalis","L47773902","FS Road 4611","2025-06-15 12:12",1,42.133768,-123.34049,TRUE,FALSE,TRUE,"S251039239"
"518","herwar","Hermit Warbler","Setophaga occidentalis","L6014093","FR1004 at FR1034","2025-06-15 12:12",1,45.28074,-123.87764,TRUE,FALSE,TRUE,"S250777945"
"519","herwar","Hermit Warbler","Setophaga occidentalis","L850035","Sequoia Park & Zoo","2025-06-15 12:09",8,40.7769108,-124.1468802,TRUE,FALSE,FALSE,"S250801504"
"520","herwar","Hermit Warbler","Setophaga occidentalis","L27119877","Forest Service Road 14, Beaver US-OR 45.22329, -123.72727t","2025-06-15 11:49",1,45.223288,-123.727271,TRUE,FALSE,TRUE,"S250764835"
"521","herwar","Hermit Warbler","Setophaga occidentalis","L471051","Purisima Creek Redwoods OSP","2025-06-15 11:42",3,37.439999,-122.3491573,TRUE,TRUE,FALSE,"S250791148"
"522","herwar","Hermit Warbler","Setophaga occidentalis","L47795012","Plumas NF -- Silver Lake CG","2025-06-15 11:41",3,39.9584407,-121.1352852,TRUE,FALSE,TRUE,"S250864159"
"523","herwar","Hermit Warbler","Setophaga occidentalis","L19184563","Monte rio yard","2025-06-15 11:37",1,38.473449,-123.006202,TRUE,FALSE,TRUE,"S250758470"
"524","herwar","Hermit Warbler","Setophaga occidentalis","L47712697","936 Nicoleno Road, South Lake Tahoe, California, US (38.926, -120.083)","2025-06-15 11:35",1,38.9259367,-120.0826117,TRUE,FALSE,TRUE,"S250755884"
"525","herwar","Hermit Warbler","Setophaga occidentalis","L3014345","BFL3 and N","2025-06-15 11:32",1,45.269215,-123.903168,TRUE,FALSE,TRUE,"S250756019"
"526","herwar","Hermit Warbler","Setophaga occidentalis","L47745649","Brandy City upper road and pond","2025-06-15 11:15",3,39.5414421,-121.0212526,TRUE,FALSE,TRUE,"S250899182"
"527","herwar","Hermit Warbler","Setophaga occidentalis","L14255741","Cedar Butte Trail","2025-06-15 11:00",2,45.5858969,-123.6479581,TRUE,FALSE,FALSE,"S251887114"
"528","herwar","Hermit Warbler","Setophaga occidentalis","L47725376","Lost Lake Butte Trail","2025-06-15 10:50",3,45.497216,-121.818767,TRUE,FALSE,TRUE,"S250806311"
"529","herwar","Hermit Warbler","Setophaga occidentalis","L2745685","Henry Cowell Redwoods SP--River Trail","2025-06-15 10:38",2,37.0388231,-122.0642397,TRUE,FALSE,FALSE,"S251112875"
"530","herwar","Hermit Warbler","Setophaga occidentalis","L21103165","North Yolla Bolly Peak Trail. Yolla Bolly-Middle Eel Wilderness (40.2007,-122.9789)","2025-06-15 09:58",5,40.200745,-122.97893,TRUE,FALSE,TRUE,"S251571040"
"531","herwar","Hermit Warbler","Setophaga occidentalis","L47739197","Lower Highway 242","2025-06-15 09:54",2,44.1677407,-121.9297363,TRUE,FALSE,TRUE,"S250867777"
"532","herwar","Hermit Warbler","Setophaga occidentalis","L47746010","Brandy City road lower","2025-06-15 09:44",2,39.5347804,-121.0193742,TRUE,FALSE,TRUE,"S250900082"
"533","herwar","Hermit Warbler","Setophaga occidentalis","L5388279","OCCC Woodlands/Estuary Area","2025-06-15 09:30",1,44.6015713,-124.0400004,TRUE,FALSE,TRUE,"S250919366"
"534","herwar","Hermit Warbler","Setophaga occidentalis","L390292","Montgomery Woods State Reserve","2025-06-15 09:24",2,39.2360094,-123.3801234,TRUE,FALSE,FALSE,"S251128557"
"535","herwar","Hermit Warbler","Setophaga occidentalis","L47741103","Glasgow BBS Route Stop #40","2025-06-15 09:20",1,43.3777158,-124.1075673,TRUE,FALSE,TRUE,"S250878139"
"536","herwar","Hermit Warbler","Setophaga occidentalis","L47707055","Bailey Creek railroad grade and adjacent forest","2025-06-15 09:20",1,40.297002,-121.14026,TRUE,FALSE,TRUE,"S250733965"
"537","herwar","Hermit Warbler","Setophaga occidentalis","L4675748","Kings Canyon NP--Bubbs Creek Trail","2025-06-15 09:16",1,36.7944228,-118.5818446,TRUE,FALSE,FALSE,"S250880260"
"538","herwar","Hermit Warbler","Setophaga occidentalis","L8266250","Regatta Park","2025-06-15 09:14",1,44.9740102,-123.9989388,TRUE,FALSE,FALSE,"S251216919"
"539","herwar","Hermit Warbler","Setophaga occidentalis","L2193760","Trout Lake area","2025-06-15 09:00",2,45.98692,-121.48873,TRUE,FALSE,FALSE,"S250916455"
"540","herwar","Hermit Warbler","Setophaga occidentalis","L34083238","National Forest Development Road 200, Hoodsport, Washington, US (47.457, -123.393)","2025-06-15 08:50",1,47.4574747,-123.3926768,TRUE,FALSE,TRUE,"S250860114"
"541","herwar","Hermit Warbler","Setophaga occidentalis","L41849072","Lake Emily (39.447, -123.392)","2025-06-15 08:30",NA,39.4466194,-123.3916555,TRUE,FALSE,FALSE,"S250713000"
"542","herwar","Hermit Warbler","Setophaga occidentalis","L47721919","BLM Road 37-6-36","2025-06-15 08:29",1,42.2455742,-123.3846786,TRUE,FALSE,TRUE,"S250792061"
"543","herwar","Hermit Warbler","Setophaga occidentalis","L1235322","Southern Humboldt Community Park","2025-06-15 08:16",1,40.087561,-123.80253,TRUE,FALSE,FALSE,"S252776947"
"544","herwar","Hermit Warbler","Setophaga occidentalis","L47750453","Shimmerback Ranch","2025-06-15 08:08",3,39.566637,-123.437119,TRUE,FALSE,TRUE,"S250920694"
"545","herwar","Hermit Warbler","Setophaga occidentalis","L36579499","Forest Lane","2025-06-15 08:05",2,39.86215,-120.689267,TRUE,FALSE,TRUE,"S251044848"
"546","herwar","Hermit Warbler","Setophaga occidentalis","L47520386","Florence Keller Park","2025-06-15 07:53",1,41.806646,-124.150844,TRUE,FALSE,TRUE,"S250664249"
"547","herwar","Hermit Warbler","Setophaga occidentalis","L47514032","1700 Genesee Rd, Taylorsville US-CA 40.05164, -120.82053","2025-06-15 07:48",3,40.051642,-120.820532,TRUE,FALSE,TRUE,"S250644073"
"548","herwar","Hermit Warbler","Setophaga occidentalis","L47715951","Pole Creek Trail","2025-06-15 07:15",1,39.2375039,-120.2328263,TRUE,FALSE,TRUE,"S250777927"
"549","herwar","Hermit Warbler","Setophaga occidentalis","L3917345","Yuba River Ranger Station Area","2025-06-15 07:07",2,39.4393257,-121.0706913,TRUE,FALSE,FALSE,"S250920530"
"550","herwar","Hermit Warbler","Setophaga occidentalis","L47544724","Sierra National Forest, Shaver Lake US-CA 37.09315, -119.23072","2025-06-15 06:40",1,37.09315,-119.230721,TRUE,FALSE,TRUE,"S250627632"
"551","herwar","Hermit Warbler","Setophaga occidentalis","L420195","Big Morongo Canyon Preserve & Covington Park","2025-06-15 06:21",1,34.0497222,-116.5702639,TRUE,TRUE,FALSE,"S250658419"
"552","herwar","Hermit Warbler","Setophaga occidentalis","L1608458","Schwarz Park Campground","2025-06-15 06:15",2,43.779836,-122.956098,TRUE,FALSE,FALSE,"S251037849"
"553","herwar","Hermit Warbler","Setophaga occidentalis","L1180504","Yosemite NP--Happy Isles Fen","2025-06-15 06:14",1,37.730997,-119.5610762,TRUE,FALSE,FALSE,"S252643131"
"554","herwar","Hermit Warbler","Setophaga occidentalis","L109497","Butterbredt Spring","2025-06-15 05:52",1,35.3817725,-118.113327,TRUE,FALSE,FALSE,"S250745111"
"555","herwar","Hermit Warbler","Setophaga occidentalis","L2896798","Yosemite NP--Tamarack Flat Rd.","2025-06-15 05:40",2,37.7643369,-119.7728634,TRUE,FALSE,FALSE,"S251496816"
"556","herwar","Hermit Warbler","Setophaga occidentalis","L46003341","Green Ridge Trailhead Pond","2025-06-15 05:35",1,44.4255762,-121.6108035,TRUE,FALSE,TRUE,"S251198186"
"557","herwar","Hermit Warbler","Setophaga occidentalis","L47431846","Longview Loop","2025-06-15 05:15",2,45.608012,-123.937167,TRUE,FALSE,TRUE,"S250884531"
