"","speciesCode","comName","sciName","locId","locName","obsDt","howMany","lat","lng","obsValid","obsReviewed","locationPrivate","subId"
"1","blkski","Black Skimmer","Rynchops niger","L12174209","Cape May Reef (Offshore by boat only)","2025-05-16 18:39",1,38.8684833,-74.68565,TRUE,FALSE,FALSE,"S238958679"
"2","blkski","Black Skimmer","Rynchops niger","L11115640","Hunting Island SP--Lighthouse & North Beach","2025-05-16 18:37",1,32.3755398,-80.4372597,TRUE,FALSE,FALSE,"S238940183"
"3","blkski","Black Skimmer","Rynchops niger","L1280497","Cape May Harbor","2025-05-16 18:24",1,38.9496627,-74.8943564,TRUE,FALSE,FALSE,"S238936074"
"4","blkski","Black Skimmer","Rynchops niger","L45167363","James Island Airbnb","2025-05-16 18:13",3,32.680889,-79.964421,TRUE,FALSE,TRUE,"S238923769"
"5","blkski","Black Skimmer","Rynchops niger","L1663502","Pea Island NWR--North Pond Wildlife Trail","2025-05-16 17:59",150,35.7156212,-75.4935891,TRUE,FALSE,FALSE,"S238940230"
"6","blkski","Black Skimmer","Rynchops niger","L243650","Carolina Beach State Park","2025-05-16 17:58",1,34.0499847,-77.9176247,TRUE,FALSE,FALSE,"S238958381"
"7","blkski","Black Skimmer","Rynchops niger","L127332","Fort De Soto Park","2025-05-16 17:55",75,27.6327266,-82.718157,TRUE,FALSE,FALSE,"S238958055"
"8","blkski","Black Skimmer","Rynchops niger","L11031296","Veterans Memorial Center","2025-05-16 17:39",15,28.3507698,-80.6825209,TRUE,FALSE,FALSE,"S238937735"
"9","blkski","Black Skimmer","Rynchops niger","L557007","Cape Hatteras NS--Salt Pond","2025-05-16 17:25",2,35.2300561,-75.5322504,TRUE,FALSE,FALSE,"S238930676"
"10","blkski","Black Skimmer","Rynchops niger","L10248819","Quintana Boat Ramp","2025-05-16 17:20",6,28.9222135,-95.3427458,TRUE,FALSE,FALSE,"S238929839"
"11","blkski","Black Skimmer","Rynchops niger","L1054424","Wrightsville Beach--Masonboro Inlet","2025-05-16 17:03",100,34.1870979,-77.8114414,TRUE,FALSE,FALSE,"S238911836"
"12","blkski","Black Skimmer","Rynchops niger","L45193713","Canaveral National Seashore, Titusville US-FL 28.63555, -80.77619","2025-05-16 16:59",50,28.635552,-80.776193,TRUE,FALSE,TRUE,"S238917862"
"13","blkski","Black Skimmer","Rynchops niger","L337931","Fort Fisher SRA","2025-05-16 16:37",1,33.9513428,-77.9276087,TRUE,FALSE,FALSE,"S238950671"
"14","blkski","Black Skimmer","Rynchops niger","L470628","Thompson's Beach and Road","2025-05-16 16:24",2,39.1928839,-74.9945641,TRUE,FALSE,FALSE,"S238943062"
"15","blkski","Black Skimmer","Rynchops niger","L4679458","Cape Hatteras NS--Ramp 55","2025-05-16 16:20",6,35.205733,-75.7045609,TRUE,FALSE,FALSE,"S238916931"
"16","blkski","Black Skimmer","Rynchops niger","L306109","Cook's Beach and Road","2025-05-16 16:18",1,39.1088683,-74.8936135,TRUE,FALSE,FALSE,"S238894489"
"17","blkski","Black Skimmer","Rynchops niger","L714449","Villas--Miami Ave. beach","2025-05-16 16:09",1,39.0373447,-74.9368429,TRUE,FALSE,FALSE,"S238898685"
"18","blkski","Black Skimmer","Rynchops niger","L31902245","1402 Bay Street","2025-05-16 15:58",1,33.870884,-78.518794,TRUE,FALSE,TRUE,"S238948752"
"19","blkski","Black Skimmer","Rynchops niger","L508149","Nickerson Beach","2025-05-16 15:57",400,40.5871823,-73.6024,TRUE,FALSE,FALSE,"S238912337"
"20","blkski","Black Skimmer","Rynchops niger","L45186308","Pamlico Sound, Hatteras US-NC 35.22170, -75.69776","2025-05-16 15:51",2,35.221698,-75.697757,TRUE,FALSE,TRUE,"S238878879"
"21","blkski","Black Skimmer","Rynchops niger","L197353","Sandy Hook","2025-05-16 15:35",NA,40.4392518,-73.9869263,TRUE,FALSE,FALSE,"S238937560"
"22","blkski","Black Skimmer","Rynchops niger","L509134","Elsie Roemer Bird Sanctuary","2025-05-16 15:31",1,37.7525975,-122.2473836,TRUE,FALSE,FALSE,"S238937706"
"23","blkski","Black Skimmer","Rynchops niger","L109136","Cape Island--South Cape May Meadows (SCMM)","2025-05-16 15:27",2,38.9359287,-74.9434519,TRUE,FALSE,FALSE,"S238918781"
"24","blkski","Black Skimmer","Rynchops niger","L45190301","610 Texas State Highway 87, Bolivar Peninsula, Texas, US (29.365, -94.77)","2025-05-16 15:21",70,29.3651219,-94.7695492,TRUE,FALSE,TRUE,"S238899499"
"25","blkski","Black Skimmer","Rynchops niger","L302921","Norbury's Landing","2025-05-16 15:15",2,39.0501634,-74.9273613,TRUE,FALSE,FALSE,"S238906006"
"26","blkski","Black Skimmer","Rynchops niger","L248659","Quintana Neotropical Bird Sanctuary (UTC 121)","2025-05-16 14:43",1,28.9336226,-95.3087246,TRUE,FALSE,FALSE,"S238902863"
"27","blkski","Black Skimmer","Rynchops niger","L109133","Edwin B. Forsythe NWR (formerly Brig)","2025-05-16 14:36",72,39.465,-74.4477778,TRUE,FALSE,FALSE,"S238903894"
"28","blkski","Black Skimmer","Rynchops niger","L2759848","Heislerville WMA--South Impoundment","2025-05-16 14:35",150,39.223909,-75.0034475,TRUE,FALSE,FALSE,"S238957143"
"29","blkski","Black Skimmer","Rynchops niger","L45186630","114 Matt's Landing Rd, Leesburg US-NJ 39.23287, -75.01055","2025-05-16 14:31",75,39.232867,-75.010546,TRUE,FALSE,TRUE,"S238880797"
"30","blkski","Black Skimmer","Rynchops niger","L211914","Nummy Island","2025-05-16 14:21",1,39.0365891,-74.7912741,TRUE,FALSE,FALSE,"S238848691"
"31","blkski","Black Skimmer","Rynchops niger","L109134","North Wildwood--Hereford Inlet/Seawall","2025-05-16 14:20",2,39.0119444,-74.7925,TRUE,FALSE,FALSE,"S238860239"
"32","blkski","Black Skimmer","Rynchops niger","L1162083","Heislerville WMA--Main Pool","2025-05-16 14:12",150,39.2310077,-75.0085974,TRUE,FALSE,FALSE,"S238943151"
"33","blkski","Black Skimmer","Rynchops niger","L444485","Plumb Beach","2025-05-16 14:09",125,40.5823284,-73.9153746,TRUE,FALSE,FALSE,"S238876216"
"34","blkski","Black Skimmer","Rynchops niger","L1298509","Cape Island--Spicers Creek Boat Access","2025-05-16 13:42",2,38.9531953,-74.9086542,TRUE,FALSE,FALSE,"S238891896"
"35","blkski","Black Skimmer","Rynchops niger","L197073","Stone Harbor Point","2025-05-16 13:39",1,39.0317999,-74.7723111,TRUE,FALSE,FALSE,"S238836250"
"36","blkski","Black Skimmer","Rynchops niger","L771306","Jarvis Sound","2025-05-16 13:30",4,38.967751,-74.8683929,TRUE,FALSE,FALSE,"S238910190"
"37","blkski","Black Skimmer","Rynchops niger","L730351","Charleston Slough/Coast Casey Forebay","2025-05-16 13:28",1,37.4359191,-122.098918,TRUE,FALSE,FALSE,"S238905359"
"38","blkski","Black Skimmer","Rynchops niger","L422541","Leonabelle Turnbull Birding Ctr. (CTC 057)","2025-05-16 13:23",2,27.8275297,-97.0789558,TRUE,FALSE,FALSE,"S238871519"
"39","blkski","Black Skimmer","Rynchops niger","L604728","Fort Monroe","2025-05-16 13:10",23,37.0039407,-76.3073874,TRUE,FALSE,FALSE,"S238834148"
"40","blkski","Black Skimmer","Rynchops niger","L92448","Edwin B. Forsythe NWR--Wildlife Drive (8-mile auto tour loop only)","2025-05-16 13:03",90,39.464298,-74.417612,TRUE,FALSE,FALSE,"S238902941"
"41","blkski","Black Skimmer","Rynchops niger","L594012","Shoreline Park--Shoreline Lake area","2025-05-16 12:52",3,37.432341,-122.0918369,TRUE,FALSE,FALSE,"S238890644"
"42","blkski","Black Skimmer","Rynchops niger","L464099","Prime Hook NWR--Dike Trail (formerly Observation Point Trail)","2025-05-16 12:12",4,38.831785,-75.2446157,TRUE,FALSE,FALSE,"S238930303"
"43","blkski","Black Skimmer","Rynchops niger","L45178246","19500 Gulf Blvd, Indian Shores US-FL 27.85113, -82.84579","2025-05-16 11:40",150,27.851127,-82.845793,TRUE,FALSE,TRUE,"S238841125"
"44","blkski","Black Skimmer","Rynchops niger","L1041187","Sandy Hook--Spermaceti Cove area","2025-05-16 11:26",4,40.4259441,-73.9882851,TRUE,FALSE,FALSE,"S238914741"
"45","blkski","Black Skimmer","Rynchops niger","L592872","Ocean Drive--Two Mile Landing","2025-05-16 11:15",1,38.9595423,-74.866333,TRUE,FALSE,FALSE,"S238786638"
"46","blkski","Black Skimmer","Rynchops niger","L152499","Breezy Point Tip","2025-05-16 10:41",70,40.5506643,-73.9357889,TRUE,FALSE,FALSE,"S238879130"
"47","blkski","Black Skimmer","Rynchops niger","L1125706","Big Talbot Island SP--Spoonbill Pond (includes parking & boat ramp)","2025-05-16 10:38",1,30.5101704,-81.4585671,TRUE,FALSE,FALSE,"S238886484"
"48","blkski","Black Skimmer","Rynchops niger","L1190770","Packery Channel Mustang Isl. (TX361 bridge area)","2025-05-16 10:32",1,27.621,-97.211,TRUE,FALSE,FALSE,"S238795935"
"49","blkski","Black Skimmer","Rynchops niger","L723695","Lido Beach Passive Nature Area","2025-05-16 10:19",1,40.5923663,-73.5957384,TRUE,FALSE,FALSE,"S238792385"
"50","blkski","Black Skimmer","Rynchops niger","L1296469","West Ship Island","2025-05-16 10:17",30,30.2122016,-88.9542389,TRUE,FALSE,FALSE,"S238869844"
"51","blkski","Black Skimmer","Rynchops niger","L1130357","Heislerville WMA--North impoundment","2025-05-16 10:08",40,39.2340482,-75.0064945,TRUE,FALSE,FALSE,"S238787234"
"52","blkski","Black Skimmer","Rynchops niger","L249999","Heislerville WMA","2025-05-16 09:56",45,39.2302586,-75.0034046,TRUE,FALSE,FALSE,"S238780329"
"53","blkski","Black Skimmer","Rynchops niger","L16373785","Tubbs Inlet","2025-05-16 09:53",47,33.8757345,-78.4823179,TRUE,FALSE,TRUE,"S238925590"
"54","blkski","Black Skimmer","Rynchops niger","L109339","IRWD San Joaquin Marsh & Wildlife Sanctuary, Irvine","2025-05-16 09:44",75,33.6637274,-117.8426814,TRUE,FALSE,FALSE,"S238924444"
"55","blkski","Black Skimmer","Rynchops niger","L506275","San Diego River mudflats (including Robb Field & north side)","2025-05-16 09:33",3,32.7568803,-117.2401432,TRUE,FALSE,FALSE,"S238849473"
"56","blkski","Black Skimmer","Rynchops niger","L45142880","6051 Gulf of Mexico Drive, Longboat Key, Florida, US (27.421, -82.67)","2025-05-16 09:32",3,27.4209815,-82.6703536,TRUE,FALSE,TRUE,"S238597153"
"57","blkski","Black Skimmer","Rynchops niger","L9379841","Plum Tree Island NWR (restricted access)","2025-05-16 09:13",2,37.121984,-76.297572,TRUE,FALSE,FALSE,"S238954773"
"58","blkski","Black Skimmer","Rynchops niger","L549315","DuPont Nature Center and Lighthouse Rd.","2025-05-16 08:54",20,38.947648,-75.314868,TRUE,FALSE,FALSE,"S238706835"
"59","blkski","Black Skimmer","Rynchops niger","L612914","Carolina Beach--North End","2025-05-16 08:51",2,34.0583482,-77.8855133,TRUE,FALSE,FALSE,"S238958490"
"60","blkski","Black Skimmer","Rynchops niger","L45093088","Ocean City Bike Path, Ocean City, New Jersey, US (39.295, -74.588)","2025-05-16 08:49",6,39.2945986,-74.5878341,TRUE,FALSE,TRUE,"S238773186"
"61","blkski","Black Skimmer","Rynchops niger","L770565","South Padre Is.--Birding and Nature Center","2025-05-16 08:44",2,26.1374628,-97.1739367,TRUE,FALSE,FALSE,"S238784280"
"62","blkski","Black Skimmer","Rynchops niger","L45191252","Little Bulls Bar","2025-05-16 08:43",140,32.947023,-79.57017,TRUE,FALSE,TRUE,"S238904262"
"63","blkski","Black Skimmer","Rynchops niger","L405340","Marco Island--Tiger Tail Beach","2025-05-16 08:35",1,25.948098,-81.74456,TRUE,FALSE,FALSE,"S238621072"
"64","blkski","Black Skimmer","Rynchops niger","L16158959","LASP, Pea Island NWR vtr ctr trail, Rodanthe US-NC (35.7140,-75.4974)","2025-05-16 08:23",50,35.713951,-75.497387,TRUE,FALSE,TRUE,"S238615042"
"65","blkski","Black Skimmer","Rynchops niger","L6004879","Little Saint Simons Island--Myrtle Pond North Tower","2025-05-16 08:20",3,31.2862765,-81.2950582,TRUE,FALSE,FALSE,"S238778468"
"66","blkski","Black Skimmer","Rynchops niger","L11014997","Oso Bay Wetlands Preserve--Holly Hike & Bike Trail","2025-05-16 08:20",2,27.6748465,-97.3289764,TRUE,FALSE,FALSE,"S238628093"
"67","blkski","Black Skimmer","Rynchops niger","L160668","Lovers Key SP","2025-05-16 08:13",20,26.3911316,-81.8713188,TRUE,FALSE,FALSE,"S238622202"
"68","blkski","Black Skimmer","Rynchops niger","L280834","Walsingham Park","2025-05-16 08:02",2,27.8763584,-82.8090332,TRUE,FALSE,FALSE,"S238627760"
"69","blkski","Black Skimmer","Rynchops niger","L2456547","Spoil Island SL3","2025-05-16 07:59",3,27.5350649,-80.339756,TRUE,FALSE,TRUE,"S238566865"
"70","blkski","Black Skimmer","Rynchops niger","L25588737","Sunset Lake Park Walking Path","2025-05-16 07:57",1,27.8613479,-97.3420718,TRUE,FALSE,TRUE,"S238613978"
"71","blkski","Black Skimmer","Rynchops niger","L159367","Parramore Island","2025-05-16 07:45",30,37.5366,-75.6349,TRUE,FALSE,FALSE,"S238883057"
"72","blkski","Black Skimmer","Rynchops niger","L283726","South Padre Is.--WBC/Conv. Center/Laguna Madre Trail (LTC 035)","2025-05-16 07:35",2,26.1400912,-97.1748233,TRUE,FALSE,FALSE,"S238579386"
"73","blkski","Black Skimmer","Rynchops niger","L3243111","Siesta Key--Beach Access 5","2025-05-16 07:33",2,27.2726991,-82.5676659,TRUE,FALSE,FALSE,"S238578220"
"74","blkski","Black Skimmer","Rynchops niger","L301036","San Carlos Bay/Bunche Beach Preserve","2025-05-16 07:25",16,26.476174,-81.9673795,TRUE,FALSE,FALSE,"S238562508"
"75","blkski","Black Skimmer","Rynchops niger","L999406","Mustang Island SP- Bathhouse area","2025-05-16 07:24",2,27.6696562,-97.1717548,TRUE,FALSE,FALSE,"S238580627"
"76","blkski","Black Skimmer","Rynchops niger","L21408464","Greyhawk Landing","2025-05-16 07:21",1,27.505959,-82.413858,TRUE,FALSE,TRUE,"S238562897"
"77","blkski","Black Skimmer","Rynchops niger","L366370","Audubon Park","2025-05-16 07:19",2,29.9253976,-90.128804,TRUE,FALSE,FALSE,"S238615228"
"78","blkski","Black Skimmer","Rynchops niger","L26861049","Tigertail","2025-05-16 07:16",1,25.941189,-81.739197,TRUE,FALSE,TRUE,"S238617074"
"79","blkski","Black Skimmer","Rynchops niger","L827977","Bayfront Park (J St.)","2025-05-16 07:10",115,32.6186091,-117.1033868,TRUE,FALSE,FALSE,"S238778442"
"80","blkski","Black Skimmer","Rynchops niger","L1165694","Bolsa Chica--walkbridge/inner bay","2025-05-16 07:00",7,33.6965128,-118.0451372,TRUE,FALSE,FALSE,"S238791058"
"81","blkski","Black Skimmer","Rynchops niger","L30501404","Tiana Beach","2025-05-16 07:00",1,40.8306967,-72.5145721,TRUE,FALSE,TRUE,"S238811048"
"82","blkski","Black Skimmer","Rynchops niger","L1396236","Anaheim Coves Park (aka Burris Basin)","2025-05-16 06:58",2,33.8257044,-117.869868,TRUE,FALSE,FALSE,"S238945268"
"83","blkski","Black Skimmer","Rynchops niger","L7086958","Stormwater Treatment Area 1W (Limited Access)","2025-05-16 06:58",3,26.6762842,-80.4273806,TRUE,FALSE,FALSE,"S238611293"
"84","blkski","Black Skimmer","Rynchops niger","L7341266","Robinson Preserve South","2025-05-16 06:56",2,27.5095641,-82.6649941,TRUE,FALSE,FALSE,"S238560648"
"85","blkski","Black Skimmer","Rynchops niger","L191760","Bear Island WMA (fall and winter restricted access)","2025-05-16 06:55",1,32.5918043,-80.4641247,TRUE,FALSE,FALSE,"S238565754"
"86","blkski","Black Skimmer","Rynchops niger","L4115372","Eel Pond, Edgartown","2025-05-16 06:23",1,41.396849,-70.511165,TRUE,FALSE,FALSE,"S238522096"
"87","blkski","Black Skimmer","Rynchops niger","L481023","Los Angeles River--Willow St.","2025-05-16 06:15",25,33.8048977,-118.2059383,TRUE,FALSE,FALSE,"S238922598"
"88","blkski","Black Skimmer","Rynchops niger","L29227681","Orlando Apopka Airport Industrial Area","2025-05-16 06:13",14,28.7067118,-81.5827368,TRUE,FALSE,TRUE,"S238806911"
"89","blkski","Black Skimmer","Rynchops niger","L130081","Cape Hatteras","2025-05-16 06:13",4,35.2390251,-75.5356293,TRUE,FALSE,FALSE,"S238595548"
"90","blkski","Black Skimmer","Rynchops niger","L693848","Cape Island--CMP--Coral Ave. dune crossing","2025-05-16 06:07",2,38.9327948,-74.9651502,TRUE,FALSE,FALSE,"S238592926"
"91","blkski","Black Skimmer","Rynchops niger","L45113498","Santa Rosa Island, Navarre US-FL (30.3781,-86.8700)","2025-05-16 06:03",1,30.378108,-86.870045,TRUE,FALSE,TRUE,"S238572469"
"92","blkski","Black Skimmer","Rynchops niger","L29449420","Pier","2025-05-16 05:51",6,30.3604622,-89.0894737,TRUE,FALSE,TRUE,"S238570996"
"93","blkski","Black Skimmer","Rynchops niger","L165792","Fort Morgan State Historic Site","2025-05-16 05:44",1,30.2294449,-88.0180432,TRUE,FALSE,FALSE,"S238556292"
"94","blkski","Black Skimmer","Rynchops niger","L335811","Assateague Island","2025-05-16 05:20",8,37.8872945,-75.3440039,TRUE,FALSE,FALSE,"S238603104"
"95","blkski","Black Skimmer","Rynchops niger","L351189","Calvert Vaux Park (Dreier-Offerman Park)","2025-05-16 04:47",3,40.5848762,-73.9945752,TRUE,FALSE,FALSE,"S238882153"
"96","blkski","Black Skimmer","Rynchops niger","L45186984","8900 Bayview Avenue, Wildwood Crest, New Jersey, US (38.967, -74.852)","2025-05-16 01:30",15,38.9671639,-74.8521382,TRUE,FALSE,TRUE,"S238882495"
"97","blkski","Black Skimmer","Rynchops niger","L127295","Porpoise Point","2025-05-15 19:35",2,29.9098,-81.2954,TRUE,FALSE,FALSE,"S238432495"
"98","blkski","Black Skimmer","Rynchops niger","L8199426","Winterberry Park","2025-05-15 19:27",3,25.9242504,-81.7121512,TRUE,FALSE,FALSE,"S238429207"
"99","blkski","Black Skimmer","Rynchops niger","L1166668","Cape Island--Higbee Beach WMA--Canal Overlook/Jetty","2025-05-15 19:25",3,38.9658365,-74.9632305,TRUE,FALSE,FALSE,"S238421393"
"100","blkski","Black Skimmer","Rynchops niger","L10854077","Belmar Beachfront","2025-05-15 19:22",6,40.1768142,-74.0134642,TRUE,FALSE,TRUE,"S238454281"
"101","blkski","Black Skimmer","Rynchops niger","L45088228","Mud Flats At The Esplanade (Private Access) (27.427, -82.609)","2025-05-15 19:06",6,27.4270929,-82.6088284,TRUE,FALSE,TRUE,"S238425458"
"102","blkski","Black Skimmer","Rynchops niger","L45085054","Boiling Spring Lakes, North Carolina, US (33.911, -77.947)","2025-05-15 19:02",1,33.9111676,-77.947069,TRUE,FALSE,TRUE,"S238405982"
"103","blkski","Black Skimmer","Rynchops niger","L45087660","409 Beach Drive, Lower Township, New Jersey, US (38.98, -74.96)","2025-05-15 19:02",1,38.9799009,-74.9602307,TRUE,FALSE,TRUE,"S238421695"
"104","blkski","Black Skimmer","Rynchops niger","L370811","Saint Simons Island--Coast Guard Beach","2025-05-15 18:45",6,31.1441965,-81.3702017,TRUE,FALSE,FALSE,"S238414964"
"105","blkski","Black Skimmer","Rynchops niger","L473168","Cape Hatteras NS--Cape Point","2025-05-15 18:45",2,35.2234655,-75.5286026,TRUE,FALSE,FALSE,"S238439099"
"106","blkski","Black Skimmer","Rynchops niger","L109132","Cape Island--Cape May Point SP (CMPSP)","2025-05-15 18:43",1,38.9338272,-74.9550854,TRUE,FALSE,FALSE,"S238412921"
"107","blkski","Black Skimmer","Rynchops niger","L941882","Gulf SP--Pier","2025-05-15 18:38",1,30.2488451,-87.6674974,TRUE,FALSE,FALSE,"S238413755"
"108","blkski","Black Skimmer","Rynchops niger","L13277209","Homer Gudelsky Park, Ocean City US-MD 38.33013, -75.09610","2025-05-15 18:34",5,38.33013,-75.096096,TRUE,FALSE,TRUE,"S238517808"
"109","blkski","Black Skimmer","Rynchops niger","L17115171","Hunting Island SP--North Spit","2025-05-15 18:32",25,32.3944722,-80.426661,TRUE,FALSE,FALSE,"S238451005"
"110","blkski","Black Skimmer","Rynchops niger","L45092952","I-95 N, Brunswick US-GA (31.2067,-81.5342)","2025-05-15 18:30",3,31.206655,-81.534226,TRUE,FALSE,TRUE,"S238452428"
"111","blkski","Black Skimmer","Rynchops niger","L45082805","North Carolina, US (33.92, -77.943)","2025-05-15 18:24",2,33.9198036,-77.9430519,TRUE,FALSE,TRUE,"S238392599"
"112","blkski","Black Skimmer","Rynchops niger","L6572021","stakeout Snowy Plover, Cumberland Island National Seashore--Dungeness Beach To South Jetty (2017)","2025-05-15 18:15",3,30.7360054,-81.4557474,TRUE,FALSE,FALSE,"S238412509"
"113","blkski","Black Skimmer","Rynchops niger","L299557","Cape Island--Nature Center of CM & Delaware Ave.","2025-05-15 18:08",7,38.9451667,-74.8998888,TRUE,FALSE,FALSE,"S238508813"
"114","blkski","Black Skimmer","Rynchops niger","L109217","Milford Point — Sandbars","2025-05-15 18:06",2,41.1725812,-73.1003666,TRUE,FALSE,FALSE,"S238383064"
"115","blkski","Black Skimmer","Rynchops niger","L3797793","Ocean City Welcome Center","2025-05-15 17:59",2,39.2881767,-74.5824587,TRUE,FALSE,FALSE,"S238382953"
"116","blkski","Black Skimmer","Rynchops niger","L718342","Brownsville Preserve","2025-05-15 17:56",4,37.4689,-75.8327,TRUE,FALSE,FALSE,"S238416241"
"117","blkski","Black Skimmer","Rynchops niger","L36758041","Bushy Park Boat Landing","2025-05-15 17:48",1,32.9683064,-79.9368334,TRUE,FALSE,TRUE,"S238606582"
"118","blkski","Black Skimmer","Rynchops niger","L420537","Nob Hill Pond","2025-05-15 17:47",12,37.5218818,-122.2498887,TRUE,FALSE,FALSE,"S238600825"
"119","blkski","Black Skimmer","Rynchops niger","L45083448","HRBT North Island (private)","2025-05-15 17:40",2,37.001236,-76.319217,TRUE,FALSE,TRUE,"S238396505"
"120","blkski","Black Skimmer","Rynchops niger","L8963426","Tarpon Cove","2025-05-15 17:37",7,26.6922397,-80.0475276,TRUE,FALSE,FALSE,"S238439407"
"121","blkski","Black Skimmer","Rynchops niger","L4542281","Clearwater Beach/Pier 60 Park","2025-05-15 17:30",1,27.9772246,-82.8288567,TRUE,FALSE,FALSE,"S238373601"
"122","blkski","Black Skimmer","Rynchops niger","L478948","Prime Hook NWR--Prime Hook Beach Rd.","2025-05-15 17:28",55,38.8536119,-75.2592659,TRUE,FALSE,FALSE,"S238378769"
"123","blkski","Black Skimmer","Rynchops niger","L805361","New River Inlet","2025-05-15 17:15",6,34.529576,-77.3440719,TRUE,FALSE,FALSE,"S238405337"
"124","blkski","Black Skimmer","Rynchops niger","L683111","Batiquitos Lagoon--east end","2025-05-15 17:02",2,33.0940148,-117.2795257,TRUE,FALSE,FALSE,"S238455973"
"125","blkski","Black Skimmer","Rynchops niger","L92443","Cape Island--CMPSP--Hawkwatch Platform","2025-05-15 17:00",2,38.9328558,-74.9579416,TRUE,FALSE,FALSE,"S238392898"
"126","blkski","Black Skimmer","Rynchops niger","L846390","Fisherman Island NWR (restricted access)","2025-05-15 16:58",2,37.095289,-75.9762526,TRUE,FALSE,FALSE,"S238363579"
"127","blkski","Black Skimmer","Rynchops niger","L44806099","Pensacola beach","2025-05-15 16:45",3,30.3276135,-87.1572838,TRUE,FALSE,TRUE,"S238777959"
"128","blkski","Black Skimmer","Rynchops niger","L192875","Upper Newport Bay Nature Preserve","2025-05-15 16:19",NA,33.636203,-117.8876352,TRUE,FALSE,FALSE,"S238454127"
"129","blkski","Black Skimmer","Rynchops niger","L4442533","Wild Dunes","2025-05-15 16:16",1,32.8015303,-79.753406,TRUE,FALSE,FALSE,"S238351840"
"130","blkski","Black Skimmer","Rynchops niger","L11660929","Royal Oak Dr - Everett Creek (private-permission required)","2025-05-15 15:45",7,34.1146204,-77.8767973,TRUE,FALSE,TRUE,"S238350922"
"131","blkski","Black Skimmer","Rynchops niger","L2101187","Fisherman's Cove Conservation Area","2025-05-15 15:21",2,40.1089316,-74.0406418,TRUE,FALSE,FALSE,"S238421086"
"132","blkski","Black Skimmer","Rynchops niger","L598880","Edwin B. Forsythe NWR--Southwest Pool","2025-05-15 14:47",1,39.4621738,-74.4368362,TRUE,FALSE,FALSE,"S238362826"
"133","blkski","Black Skimmer","Rynchops niger","L6172443","Sheriff's Meadow Pond","2025-05-15 14:30",2,41.3943969,-70.5139875,TRUE,FALSE,FALSE,"S238447875"
"134","blkski","Black Skimmer","Rynchops niger","L385839","Salt Marsh Nature Center at Marine Park","2025-05-15 14:23",3,40.599946,-73.9243268,TRUE,FALSE,FALSE,"S238954930"
"135","blkski","Black Skimmer","Rynchops niger","L3161280","Seabrook Island--North Beach","2025-05-15 14:15",26,32.5727539,-80.1518404,TRUE,FALSE,FALSE,"S238326013"
"136","blkski","Black Skimmer","Rynchops niger","L714512","Sunset Lake  (Portland)","2025-05-15 14:15",9,27.8679131,-97.3274088,TRUE,FALSE,FALSE,"S238449130"
"137","blkski","Black Skimmer","Rynchops niger","L29494461","Forsyth","2025-05-15 14:08",75,39.4646797,-74.449791,TRUE,FALSE,TRUE,"S238325262"
"138","blkski","Black Skimmer","Rynchops niger","L527266","East Point Lighthouse","2025-05-15 14:07",12,39.1963928,-75.0278878,TRUE,FALSE,FALSE,"S238304416"
"139","blkski","Black Skimmer","Rynchops niger","L109216","Milford Point, CT Audubon","2025-05-15 12:34",2,41.1754303,-73.1032485,TRUE,FALSE,FALSE,"S238372702"
"140","blkski","Black Skimmer","Rynchops niger","L483821","Little Creek Wildlife Area--Main Tract","2025-05-15 12:29",6,39.1506971,-75.4237175,TRUE,FALSE,FALSE,"S238314117"
"141","blkski","Black Skimmer","Rynchops niger","L366514","Nickerson Beach","2025-05-15 12:21",185,40.5847565,-73.6166382,TRUE,FALSE,TRUE,"S238383559"
"142","blkski","Black Skimmer","Rynchops niger","L849163","Knapps Landing","2025-05-15 12:20",2,41.1710185,-73.1141478,TRUE,FALSE,FALSE,"S238206174"
"143","blkski","Black Skimmer","Rynchops niger","L12894357","Shoreline Park--maintenance road","2025-05-15 12:14",9,37.4310174,-122.095066,TRUE,FALSE,FALSE,"S238338123"
"144","blkski","Black Skimmer","Rynchops niger","L1641918","Bivalve--High St","2025-05-15 12:04",60,39.2337656,-75.0365728,TRUE,FALSE,FALSE,"S238317478"
"145","blkski","Black Skimmer","Rynchops niger","L4943760","Milford Point-Outer Platform (Big Sit!)","2025-05-15 11:32",2,41.1738854,-73.1044181,TRUE,FALSE,FALSE,"S238182126"
"146","blkski","Black Skimmer","Rynchops niger","L470629","Fortescue Beach","2025-05-15 11:12",11,39.2232108,-75.1667404,TRUE,FALSE,FALSE,"S238174047"
"147","blkski","Black Skimmer","Rynchops niger","L148720","Gulf Islands National Seashore--Ft. Massachusetts","2025-05-15 10:52",5,30.2091599,-88.9791107,TRUE,FALSE,FALSE,"S238384365"
"148","blkski","Black Skimmer","Rynchops niger","L5776103","South Padre Is.--KOA marsh/beach","2025-05-15 10:44",1,26.0799705,-97.1663207,TRUE,FALSE,FALSE,"S238196538"
"149","blkski","Black Skimmer","Rynchops niger","L10874116","Sandy Hook--Lot I, Proving Grounds, and North Beach Pavillion","2025-05-15 10:42",2,40.4670489,-73.9983956,TRUE,FALSE,FALSE,"S238193379"
"150","blkski","Black Skimmer","Rynchops niger","L597862","Rutherford Beach","2025-05-15 10:30",5,29.7584911,-93.1245375,TRUE,FALSE,FALSE,"S238465182"
"151","blkski","Black Skimmer","Rynchops niger","L4705858","Bradenton Beach","2025-05-15 10:27",1,27.4685637,-82.7000395,TRUE,FALSE,FALSE,"S238439186"
"152","blkski","Black Skimmer","Rynchops niger","L157037","Kimble's Beach and Road","2025-05-15 10:00",5,39.1049766,-74.8948436,TRUE,FALSE,FALSE,"S238326092"
"153","blkski","Black Skimmer","Rynchops niger","L32206442","Wassaw NWR (North Sand Bar)","2025-05-15 09:45",2,31.9138617,-80.945203,TRUE,FALSE,TRUE,"S238304285"
"154","blkski","Black Skimmer","Rynchops niger","L484987","Bald Point SP","2025-05-15 09:38",2,29.9377826,-84.3381304,TRUE,FALSE,FALSE,"S238177065"
"155","blkski","Black Skimmer","Rynchops niger","L589790","Corson's Inlet SP","2025-05-15 09:32",7,39.2167774,-74.6462631,TRUE,FALSE,FALSE,"S238156838"
"156","blkski","Black Skimmer","Rynchops niger","L18933394","509 Edmunds Ave, Union Beach US-NJ 40.44815, -74.18151","2025-05-15 09:19",3,40.448154,-74.181514,TRUE,FALSE,TRUE,"S238188341"
"157","blkski","Black Skimmer","Rynchops niger","L271098","Bethel Beach Natural Area Preserve","2025-05-15 09:12",5,37.4106814,-76.2503958,TRUE,FALSE,FALSE,"S238308155"
"158","blkski","Black Skimmer","Rynchops niger","L296392","Tuckerton--Great Bay Bvld. WMA","2025-05-15 09:00",12,39.5301285,-74.3183899,TRUE,FALSE,FALSE,"S238158919"
"159","blkski","Black Skimmer","Rynchops niger","L1990251","Pleasure House Point Natural Area","2025-05-15 08:58",1,36.903226,-76.0994303,TRUE,FALSE,FALSE,"S238166163"
"160","blkski","Black Skimmer","Rynchops niger","L788729","Tybee Island--North Beach","2025-05-15 08:50",80,32.0270701,-80.8530664,TRUE,FALSE,FALSE,"S238431725"
"161","blkski","Black Skimmer","Rynchops niger","L12858504","Edwin B. Forsythe NWR--Bristow Trail (formerly Songbird Trail)","2025-05-15 08:49",1,39.4755316,-74.4480687,TRUE,FALSE,FALSE,"S238301167"
"162","blkski","Black Skimmer","Rynchops niger","L284440","Jones Park","2025-05-15 08:39",30,30.3670574,-89.085007,TRUE,FALSE,FALSE,"S238329478"
"163","blkski","Black Skimmer","Rynchops niger","L1774964","Edwin B. Forsythe NWR--Leeds Eco-Trail","2025-05-15 08:09",2,39.4636714,-74.4487429,TRUE,FALSE,FALSE,"S238116900"
"164","blkski","Black Skimmer","Rynchops niger","L318918","South Padre Is.--Valley Land Fund lots (LTC 036)","2025-05-15 08:08",1,26.0988053,-97.1678612,TRUE,FALSE,FALSE,"S238157133"
"165","blkski","Black Skimmer","Rynchops niger","L1571611","DuPont Nature Center--Osprey Beach (Sussex Co.)","2025-05-15 08:03",4,38.9450672,-75.3132708,TRUE,FALSE,FALSE,"S238440997"
"166","blkski","Black Skimmer","Rynchops niger","L36891828","ScottsL-RubesC-kayak","2025-05-15 07:50",3,39.4794684,-74.4188105,TRUE,FALSE,TRUE,"S238291905"
"167","blkski","Black Skimmer","Rynchops niger","L852706","West Ocean City--Hooper's Restaurant (private)","2025-05-15 07:44",18,38.3348566,-75.098505,TRUE,FALSE,FALSE,"S238091331"
"168","blkski","Black Skimmer","Rynchops niger","L207063","Upper Newport Bay","2025-05-15 07:40",7,33.6432772,-117.8879356,TRUE,FALSE,FALSE,"S238197583"
"169","blkski","Black Skimmer","Rynchops niger","L17028983","Mission Bay--Mariners Point","2025-05-15 07:23",1,32.766686,-117.2453127,TRUE,FALSE,FALSE,"S238174538"
"170","blkski","Black Skimmer","Rynchops niger","L2272159","Private Personal Residence, NE, St.Pete, FL","2025-05-15 07:17",2,27.8209833,-82.6345328,TRUE,FALSE,TRUE,"S238288110"
"171","blkski","Black Skimmer","Rynchops niger","L5063962","South Padre Is.--County Park mudflats N. of Conv Ctr.","2025-05-15 07:05",45,26.1440832,-97.1757324,TRUE,FALSE,FALSE,"S238097267"
"172","blkski","Black Skimmer","Rynchops niger","L127346","Anna Maria Island","2025-05-15 06:54",5,27.5189,-82.7263,TRUE,FALSE,FALSE,"S238292936"
"173","blkski","Black Skimmer","Rynchops niger","L45023883","1000 Loggerhead Road, Kure Beach, North Carolina, US (33.954, -77.928)","2025-05-15 06:47",3,33.9542988,-77.9275576,TRUE,FALSE,TRUE,"S238064739"
"174","blkski","Black Skimmer","Rynchops niger","L4400453","Perico Preserve","2025-05-15 06:44",1,27.4972082,-82.6779646,TRUE,FALSE,FALSE,"S238111805"
"175","blkski","Black Skimmer","Rynchops niger","L1616913","Chincoteague NWR--Beach","2025-05-15 06:34",2,37.8800638,-75.3495458,TRUE,FALSE,FALSE,"S238323303"
"176","blkski","Black Skimmer","Rynchops niger","L367627","Salton Sea--Young Rd. (west end)","2025-05-15 06:29",4,33.1330196,-115.6666589,TRUE,FALSE,FALSE,"S238371396"
"177","blkski","Black Skimmer","Rynchops niger","L9820130","New Round Island (restricted access)","2025-05-15 06:25",60,30.3055357,-88.5953804,TRUE,FALSE,FALSE,"S238308169"
"178","blkski","Black Skimmer","Rynchops niger","L44395587","Round Island","2025-05-15 06:18",400,30.3154031,-88.6020811,TRUE,FALSE,TRUE,"S238188178"
"179","blkski","Black Skimmer","Rynchops niger","L45022131","Old Hermit Bunker, Kure Beach, North Carolina, US (33.957, -77.931)","2025-05-15 06:08",1,33.9572364,-77.9312856,TRUE,FALSE,TRUE,"S238052799"
"180","blkski","Black Skimmer","Rynchops niger","L159297","Craney Island Disposal Area (restricted access)","2025-05-15 06:00",1,36.9065,-76.37,TRUE,FALSE,FALSE,"S238369155"
"181","blkski","Black Skimmer","Rynchops niger","L283564","Captree SP","2025-05-14 22:50",14,40.6394313,-73.2644575,TRUE,FALSE,FALSE,"S238002774"
"182","blkski","Black Skimmer","Rynchops niger","L44684133","Bradenton Missionary Village","2025-05-14 20:30",3,27.487019,-82.421859,TRUE,FALSE,TRUE,"S237987751"
"183","blkski","Black Skimmer","Rynchops niger","L2925921","West Ashley Greenway--MP7-MP8","2025-05-14 19:44",2,32.7938328,-80.1036712,TRUE,FALSE,FALSE,"S237978970"
"184","blkski","Black Skimmer","Rynchops niger","L1034892","Galveston Island SP--Observation tower area","2025-05-14 19:33",2,29.2013871,-94.963012,TRUE,FALSE,FALSE,"S237989418"
"185","blkski","Black Skimmer","Rynchops niger","L338851","Edwin B. Forsythe NWR--Barnegat","2025-05-14 19:32",2,39.7635439,-74.200852,TRUE,FALSE,FALSE,"S237968960"
"186","blkski","Black Skimmer","Rynchops niger","L1824475","Slaughter Beach--North","2025-05-14 18:43",1,38.9288375,-75.3149203,TRUE,FALSE,FALSE,"S237941953"
"187","blkski","Black Skimmer","Rynchops niger","L92447","Edwin B. Forsythe NWR--Visitor Center","2025-05-14 18:18",4,39.4648594,-74.4506477,TRUE,FALSE,FALSE,"S237984182"
"188","blkski","Black Skimmer","Rynchops niger","L128974","Galveston Island SP (UTC 070)","2025-05-14 17:58",1,29.1956654,-94.9559069,TRUE,FALSE,FALSE,"S237953942"
"189","blkski","Black Skimmer","Rynchops niger","L612115","Fish Haul Beach Park","2025-05-14 17:46",5,32.2415556,-80.6863701,TRUE,FALSE,FALSE,"S237958444"
"190","blkski","Black Skimmer","Rynchops niger","L267764","Cape Island--Sunset Beach/Concrete Ship","2025-05-14 17:39",3,38.9445079,-74.9704993,TRUE,FALSE,FALSE,"S238063979"
"191","blkski","Black Skimmer","Rynchops niger","L45012501","Pinellas Bayway intersection","2025-05-14 17:17",1,27.7120516,-82.7145646,TRUE,FALSE,TRUE,"S238006900"
"192","blkski","Black Skimmer","Rynchops niger","L3129794","Savannah NWR--Onslow Island (public access on Wednesdays ONLY)","2025-05-14 17:11",2,32.1624028,-81.1453414,TRUE,FALSE,FALSE,"S238004764"
"193","blkski","Black Skimmer","Rynchops niger","L498948","Siesta Key Public Beach","2025-05-14 16:57",3,27.2643958,-82.5517845,TRUE,FALSE,FALSE,"S237986577"
"194","blkski","Black Skimmer","Rynchops niger","L45007342","Hatteras Point","2025-05-14 16:55",55,35.1991783,-75.722874,TRUE,FALSE,TRUE,"S238439551"
"195","blkski","Black Skimmer","Rynchops niger","L11504874","466 Biscayne Dr, Wilmington US-NC 34.27737, -77.79458","2025-05-14 16:41",2,34.27737,-77.794584,TRUE,FALSE,TRUE,"S237903632"
"196","blkski","Black Skimmer","Rynchops niger","L20376584","Bushy Park Boat Landing, Goose Creek US-SC 32.96680, -79.93727","2025-05-14 16:08",1,32.966803,-79.937274,TRUE,FALSE,TRUE,"S237893318"
"197","blkski","Black Skimmer","Rynchops niger","L9819333","Wachapreague to Cedar Island","2025-05-14 16:01",9,37.6122221,-75.6319967,TRUE,FALSE,TRUE,"S237978926"
"198","blkski","Black Skimmer","Rynchops niger","L256021","Moss Landing--Jetty Road, north jetty & State Beach","2025-05-14 15:43",2,36.8151691,-121.7900355,TRUE,TRUE,FALSE,"S237959598"
"199","blkski","Black Skimmer","Rynchops niger","L483813","Bombay Hook NWR--Bear Swamp Pool","2025-05-14 15:26",4,39.286207,-75.4787221,TRUE,FALSE,FALSE,"S237974073"
"200","blkski","Black Skimmer","Rynchops niger","L126637","Bombay Hook National Wildlife Refuge","2025-05-14 14:44",3,39.2670818,-75.4695511,TRUE,FALSE,FALSE,"S238091686"
"201","blkski","Black Skimmer","Rynchops niger","L2455153","Shem Creek Park","2025-05-14 14:15",1,32.7912704,-79.8844732,TRUE,FALSE,FALSE,"S237870804"
"202","blkski","Black Skimmer","Rynchops niger","L764380","Gulf Islands National Seashore-- Santa Rosa Island - East beach access","2025-05-14 13:05",2,30.3683,-86.9384167,TRUE,FALSE,FALSE,"S238146462"
"203","blkski","Black Skimmer","Rynchops niger","L38292395","Prime Hook National Wildlife Refuge, Milton US-DE 38.82890, -75.24846","2025-05-14 12:11",5,38.8289,-75.248457,TRUE,FALSE,TRUE,"S237892156"
"204","blkski","Black Skimmer","Rynchops niger","L768907","Fort Sumter National Monument (not for observations from ferry ride)","2025-05-14 11:24",5,32.7519107,-79.8746395,TRUE,FALSE,FALSE,"S237807745"
"205","blkski","Black Skimmer","Rynchops niger","L12548090","San Joaquin Marsh","2025-05-14 11:00",120,33.6629261,-117.842401,TRUE,TRUE,TRUE,"S237889319"
"206","blkski","Black Skimmer","Rynchops niger","L9254286","Charleston Harbor Marina","2025-05-14 10:44",9,32.7859396,-79.905839,TRUE,FALSE,FALSE,"S237783203"
"207","blkski","Black Skimmer","Rynchops niger","L6318418","Little Saint Simons Island--South End","2025-05-14 10:32",2,31.2400268,-81.3055846,TRUE,FALSE,FALSE,"S237839321"
"208","blkski","Black Skimmer","Rynchops niger","L45005824","Bombay hook NWR","2025-05-14 10:30",4,39.268416,-75.46568,TRUE,FALSE,TRUE,"S237965684"
"209","blkski","Black Skimmer","Rynchops niger","L42502368","East Gator Creek Trail, Florida, US (28.636, -80.776)","2025-05-14 10:27",100,28.63562,-80.7761733,TRUE,FALSE,TRUE,"S237793120"
"210","blkski","Black Skimmer","Rynchops niger","L16683081","Little Saint Simons Island—Skimmer boat tour loop","2025-05-14 10:23",3,31.249086,-81.313663,TRUE,FALSE,TRUE,"S237847134"
"211","blkski","Black Skimmer","Rynchops niger","L1429267","Cape Island--Schellenger's Landing/The Lobster House","2025-05-14 10:23",3,38.9491318,-74.9057248,TRUE,FALSE,FALSE,"S237813007"
"212","blkski","Black Skimmer","Rynchops niger","L2917891","Port Isobel Island","2025-05-14 10:22",4,37.8313615,-75.9779799,TRUE,FALSE,FALSE,"S237772339"
"213","blkski","Black Skimmer","Rynchops niger","L36134831","Pritchard’s Island","2025-05-14 10:17",50,32.3026709,-80.5154594,TRUE,FALSE,FALSE,"S237781469"
"214","blkski","Black Skimmer","Rynchops niger","L5403306","Batiquitos Lagoon--Navigator Circle","2025-05-14 09:46",1,33.0896202,-117.3067053,TRUE,FALSE,FALSE,"S237853448"
"215","blkski","Black Skimmer","Rynchops niger","L234146","The Celery Fields","2025-05-14 09:40",2,27.3253186,-82.4336821,TRUE,FALSE,FALSE,"S237782748"
"216","blkski","Black Skimmer","Rynchops niger","L632896","Lake Belleview","2025-05-14 09:29",1,27.9465497,-82.7934623,TRUE,FALSE,FALSE,"S237805521"
"217","blkski","Black Skimmer","Rynchops niger","L12019251","North Jones","2025-05-14 09:20",78,33.3248652,-79.1688427,TRUE,FALSE,TRUE,"S237740949"
"218","blkski","Black Skimmer","Rynchops niger","L859942","Bayshore Bikeway--10th Street (Pond 23)","2025-05-14 09:19",11,32.5901154,-117.1133738,TRUE,FALSE,FALSE,"S237866491"
"219","blkski","Black Skimmer","Rynchops niger","L45067044","Beach Hammock","2025-05-14 09:00",150,31.9428445,-80.9281214,TRUE,FALSE,TRUE,"S238375874"
"220","blkski","Black Skimmer","Rynchops niger","L44975077","Beach, Bay County US-FL (30.2008,-85.8512)","2025-05-14 08:52",39,30.200813,-85.851225,TRUE,TRUE,TRUE,"S237798453"
"221","blkski","Black Skimmer","Rynchops niger","L450041","Poplar Island","2025-05-14 08:41",1,38.7648589,-76.3814163,TRUE,TRUE,FALSE,"S237780864"
"222","blkski","Black Skimmer","Rynchops niger","L37936001","Hubert SE - Hubert US-NC (34.6290,-77.1519)","2025-05-14 08:32",1,34.629035,-77.15194,TRUE,FALSE,TRUE,"S237859254"
"223","blkski","Black Skimmer","Rynchops niger","L356505","Santee Coastal Reserve (fall and winter restricted access)","2025-05-14 08:22",1,33.1477339,-79.3961066,TRUE,FALSE,FALSE,"S237887783"
"224","blkski","Black Skimmer","Rynchops niger","L871818","North Lido Beach Park","2025-05-14 08:15",400,27.3167045,-82.583995,TRUE,FALSE,FALSE,"S237757107"
"225","blkski","Black Skimmer","Rynchops niger","L24627749","Guana Tolomato Matanzas NERR - Dock Near Visitors Center","2025-05-14 08:13",3,30.0226211,-81.326251,TRUE,FALSE,FALSE,"S237717753"
"226","blkski","Black Skimmer","Rynchops niger","L127294","Anastasia SP","2025-05-14 08:03",11,29.8661797,-81.2705122,TRUE,FALSE,FALSE,"S237721482"
"227","blkski","Black Skimmer","Rynchops niger","L2473134","Jim King Park and Boat Ramp at Sisters Creek Marina","2025-05-14 07:35",5,30.3953606,-81.4584947,TRUE,FALSE,FALSE,"S237728024"
"228","blkski","Black Skimmer","Rynchops niger","L29835049","Pinellas Trail - north of Trinity Blvd","2025-05-14 07:30",1,28.1803283,-82.6539874,TRUE,FALSE,FALSE,"S237812575"
"229","blkski","Black Skimmer","Rynchops niger","L9345941","Pinebrook Park","2025-05-14 07:28",1,27.1057322,-82.4152279,TRUE,FALSE,FALSE,"S237705720"
"230","blkski","Black Skimmer","Rynchops niger","L269018","Cape Island--2nd Ave. jetty/pavilion","2025-05-14 07:23",3,38.9293612,-74.9345362,TRUE,FALSE,FALSE,"S237686281"
"231","blkski","Black Skimmer","Rynchops niger","L1009347","Roosevelt Wetland","2025-05-14 07:22",1,27.8708722,-82.6895428,TRUE,FALSE,FALSE,"S237720799"
"232","blkski","Black Skimmer","Rynchops niger","L14877710","217 Beach Ave, Cape May US-NJ 38.93040, -74.92801","2025-05-14 07:17",7,38.930399,-74.928007,TRUE,FALSE,TRUE,"S237681417"
"233","blkski","Black Skimmer","Rynchops niger","L279421","Riverwinds","2025-05-14 07:11",1,39.8608105,-75.2064077,TRUE,TRUE,FALSE,"S237822640"
"234","blkski","Black Skimmer","Rynchops niger","L1286702","ACBS Surveys ONLY--Bon Secour NWR-Fort Morgan Unit","2025-05-14 07:06",1,30.2290626,-88.0089641,TRUE,FALSE,FALSE,"S237729732"
"235","blkski","Black Skimmer","Rynchops niger","L109135","Cape Island--Higbee Beach WMA","2025-05-14 07:02",10,38.9613889,-74.9608333,TRUE,FALSE,FALSE,"S237702477"
"236","blkski","Black Skimmer","Rynchops niger","L8109579","Palm Island Mitigation Site","2025-05-14 07:00",252,26.8883858,-82.3372074,TRUE,TRUE,FALSE,"S237774827"
"237","blkski","Black Skimmer","Rynchops niger","L614549","Santa Ana River mouth","2025-05-14 06:45",2,33.6299142,-117.9575443,TRUE,FALSE,FALSE,"S237996546"
"238","blkski","Black Skimmer","Rynchops niger","L127303","Gulf Islands National Seashore--Fort Pickens","2025-05-14 06:42",48,30.3231,-87.2829,TRUE,FALSE,FALSE,"S237789976"
"239","blkski","Black Skimmer","Rynchops niger","L45007815","496 Ebb Tide Lane, Gulf Shores, Alabama, US (30.231, -87.977)","2025-05-14 06:41",NA,30.2309586,-87.9772822,TRUE,FALSE,TRUE,"S237978955"
"240","blkski","Black Skimmer","Rynchops niger","L1050138","Johnnie Mercer's Pier","2025-05-14 06:40",1,34.2132146,-77.7864314,TRUE,FALSE,FALSE,"S237671629"
"241","blkski","Black Skimmer","Rynchops niger","L123565","Merritt Island NWR (Please consider using more specific locations)","2025-05-14 06:36",80,28.6628762,-80.7234192,TRUE,FALSE,FALSE,"S237970574"
"242","blkski","Black Skimmer","Rynchops niger","L18727687","turtle patrol","2025-05-14 06:23",4,27.304319,-82.572524,TRUE,FALSE,TRUE,"S237683852"
"243","blkski","Black Skimmer","Rynchops niger","L795156","Dauphin Island--Pier","2025-05-14 06:21",5,30.2478562,-88.126322,TRUE,FALSE,FALSE,"S237767007"
"244","blkski","Black Skimmer","Rynchops niger","L1069194","Philadelphia Naval Yard (restricted access)","2025-05-14 06:14",1,39.8876082,-75.1659143,TRUE,TRUE,FALSE,"S237758181"
"245","blkski","Black Skimmer","Rynchops niger","L10509100","11th View Street Public Beach Access","2025-05-14 06:01",3,36.968393,-76.2811099,TRUE,FALSE,FALSE,"S237680312"
"246","blkski","Black Skimmer","Rynchops niger","L985351","Cape Henlopen SP--Herring Point","2025-05-14 06:00",24,38.7657665,-75.0821221,TRUE,FALSE,FALSE,"S237738669"
"247","blkski","Black Skimmer","Rynchops niger","L7424978","Sammy's Beach","2025-05-14 05:35",3,41.0290844,-72.1875189,TRUE,FALSE,FALSE,"S237659578"
"248","blkski","Black Skimmer","Rynchops niger","L837165","Eagle Lakes Community Park","2025-05-13 23:25",1,26.0773686,-81.7141414,TRUE,FALSE,FALSE,"S237604652"
"249","blkski","Black Skimmer","Rynchops niger","L28768258","Bob Gardner Community Park","2025-05-13 20:41",1,27.47492,-82.41833,TRUE,FALSE,FALSE,"S237574954"
"250","blkski","Black Skimmer","Rynchops niger","L1316658","Morro Bay SP--Marina/Boardwalk Trail","2025-05-13 18:34",3,35.3445235,-120.8418006,TRUE,TRUE,FALSE,"S237605064"
"251","blkski","Black Skimmer","Rynchops niger","L44936296","West Ashley Greenway Parking to Mutual Drive","2025-05-13 18:33",2,32.79381,-80.104556,TRUE,FALSE,TRUE,"S237571512"
"252","blkski","Black Skimmer","Rynchops niger","L44931866","1294–1306 Miracle Strip Pkwy SE, Fort Walton Beach US-FL 30.39474, -86.56425","2025-05-13 18:02",10,30.39474,-86.56425,TRUE,FALSE,TRUE,"S237533196"
"253","blkski","Black Skimmer","Rynchops niger","L1415317","Mission Bay--Bonita Cove/Mariners Basin","2025-05-13 17:35",30,32.7698344,-117.2491679,TRUE,FALSE,FALSE,"S237578264"
"254","blkski","Black Skimmer","Rynchops niger","L718822","Willis Wharf","2025-05-13 17:18",48,37.5118393,-75.8065867,TRUE,FALSE,FALSE,"S237519072"
"255","blkski","Black Skimmer","Rynchops niger","L7426888","San Francisquito Creek Mouth (SCL Co.)","2025-05-13 17:14",3,37.4656362,-122.1154672,TRUE,FALSE,FALSE,"S237588616"
"256","blkski","Black Skimmer","Rynchops niger","L9073552","The Island House Restaurant & Marina","2025-05-13 17:13",3,37.6040181,-75.6873262,TRUE,FALSE,FALSE,"S237544534"
"257","blkski","Black Skimmer","Rynchops niger","L1050482","TX48--Shrimp Basin Bridge / Zapata Memorial Boat Ramp/ San Martin Lake outlet","2025-05-13 17:07",50,26.0023329,-97.2999001,TRUE,FALSE,FALSE,"S237515707"
"258","blkski","Black Skimmer","Rynchops niger","L3301614","Okaloosa Island Pier","2025-05-13 16:38",2,30.3930056,-86.5932083,TRUE,FALSE,FALSE,"S237523806"
"259","blkski","Black Skimmer","Rynchops niger","L44926424","19–33 Carrigan Ave, Port Lavaca US-TX 28.58292, -96.57186","2025-05-13 16:10",100,28.582917,-96.571862,TRUE,FALSE,TRUE,"S237498560"
"260","blkski","Black Skimmer","Rynchops niger","L16027191","Moran’s Dockside 1400 Ocean Drive Avalon","2025-05-13 15:45",1,39.107033,-74.717034,TRUE,FALSE,TRUE,"S237474159"
"261","blkski","Black Skimmer","Rynchops niger","L1395631","Little Talbot Island--South Beach","2025-05-13 15:43",7,30.4278505,-81.4070682,TRUE,FALSE,FALSE,"S237581408"
"262","blkski","Black Skimmer","Rynchops niger","L44923479","Hampton River, Brunswick US-GA 31.29399, -81.38011","2025-05-13 15:23",3,31.293994,-81.38011,TRUE,FALSE,TRUE,"S237480765"
"263","blkski","Black Skimmer","Rynchops niger","L1050808","Bogue Inlet","2025-05-13 14:08",20,34.6444855,-77.1039562,TRUE,FALSE,FALSE,"S238423525"
"264","blkski","Black Skimmer","Rynchops niger","L44915584","17925 Gulf Boulevard, Redington Shores, Florida, US (27.831, -82.834)","2025-05-13 13:52",200,27.8308178,-82.8336066,TRUE,FALSE,TRUE,"S237438175"
"265","blkski","Black Skimmer","Rynchops niger","L6193969","Tybee Island--North Jetty","2025-05-13 13:38",76,32.0241168,-80.8430266,TRUE,FALSE,FALSE,"S237533910"
"266","blkski","Black Skimmer","Rynchops niger","L831918","CBBT--North Scenic Overlook","2025-05-13 13:30",12,37.1214539,-75.9692574,TRUE,FALSE,FALSE,"S237437489"
"267","blkski","Black Skimmer","Rynchops niger","L129090","Sea Rim SP (UTC 027)","2025-05-13 12:29",1,29.6755873,-94.0421026,TRUE,FALSE,FALSE,"S237593316"
"268","blkski","Black Skimmer","Rynchops niger","L21892412","Bayshore Gardens Condominiums & Beaches","2025-05-13 12:24",2,27.4244471,-82.5986148,TRUE,FALSE,FALSE,"S237398500"
"269","blkski","Black Skimmer","Rynchops niger","L2263572","San Joaquin Wildlife Sanctuary--Fledgling Loop Trail","2025-05-13 11:50",100,33.6609892,-117.8437141,TRUE,FALSE,FALSE,"S237535731"
"270","blkski","Black Skimmer","Rynchops niger","L1037720","Gulf Islands NS: Fort Pickens entrance beach","2025-05-13 10:58",81,30.3262677,-87.1803653,TRUE,FALSE,FALSE,"S237393885"
"271","blkski","Black Skimmer","Rynchops niger","L955750","Dewees Island","2025-05-13 10:26",1,32.8353179,-79.7163677,TRUE,FALSE,FALSE,"S237520981"
"272","blkski","Black Skimmer","Rynchops niger","L43707625","Cumberland Dividings bird island","2025-05-13 10:14",7,30.886762,-81.510735,TRUE,FALSE,TRUE,"S237439796"
"273","blkski","Black Skimmer","Rynchops niger","L4838245","Ocean Isle--East End","2025-05-13 09:40",25,33.9010986,-78.3941245,TRUE,FALSE,FALSE,"S237999353"
"274","blkski","Black Skimmer","Rynchops niger","L2220366","Hayward Regional Shoreline--Hayward Marsh","2025-05-13 09:37",20,37.6298244,-122.138958,TRUE,FALSE,FALSE,"S237445672"
"275","blkski","Black Skimmer","Rynchops niger","L13920854","Bolivar side ferry landing, Port Bolivar","2025-05-13 09:36",180,29.362279,-94.7783661,TRUE,FALSE,FALSE,"S237399472"
"276","blkski","Black Skimmer","Rynchops niger","L12578086","Pea Island NWR--North Pond Photo Blind","2025-05-13 09:30",2,35.732008,-75.50033,TRUE,FALSE,FALSE,"S237560871"
"277","blkski","Black Skimmer","Rynchops niger","L1032547","Fort Morgan--Mobile Point","2025-05-13 09:12",2,30.2253848,-88.0279326,TRUE,FALSE,FALSE,"S237370074"
"278","blkski","Black Skimmer","Rynchops niger","L21536704","Williamson Bar","2025-05-13 08:55",25,31.943605,-80.912695,TRUE,FALSE,TRUE,"S237404640"
"279","blkski","Black Skimmer","Rynchops niger","L127258","St. Marks NWR (please consider using a more precise location)","2025-05-13 08:46",1,30.1515653,-84.1473314,TRUE,FALSE,FALSE,"S237416671"
"280","blkski","Black Skimmer","Rynchops niger","L3557104","Cabrillo Beach Park","2025-05-13 08:38",2,33.7120446,-118.2839732,TRUE,FALSE,FALSE,"S237378911"
"281","blkski","Black Skimmer","Rynchops niger","L189003","Emerson Point Preserve","2025-05-13 08:35",5,27.5320111,-82.6256604,TRUE,FALSE,FALSE,"S237316961"
"282","blkski","Black Skimmer","Rynchops niger","L129005","Laguna Atascosa NWR (LTC 024)","2025-05-13 08:30",8,26.2295776,-97.3466982,TRUE,FALSE,FALSE,"S237604129"
"283","blkski","Black Skimmer","Rynchops niger","L2979766","Oso Bay Wetlands Preserve","2025-05-13 08:25",4,27.6680951,-97.3299247,TRUE,FALSE,FALSE,"S237370259"
"284","blkski","Black Skimmer","Rynchops niger","L28825897","Crabby Lady","2025-05-13 08:20",4,25.927568,-81.646557,TRUE,FALSE,TRUE,"S237283697"
"285","blkski","Black Skimmer","Rynchops niger","L10908867","Pea Island NWR--Visitor Center","2025-05-13 08:10",13,35.7166887,-75.4940924,TRUE,FALSE,FALSE,"S237288417"
"286","blkski","Black Skimmer","Rynchops niger","L42733155","Palm Island Ferry","2025-05-13 08:00",1,26.871995,-82.312401,TRUE,FALSE,TRUE,"S237275632"
"287","blkski","Black Skimmer","Rynchops niger","L1015140","Possum Branch Preserve","2025-05-13 08:00",1,28.0454136,-82.7083611,TRUE,FALSE,FALSE,"S237305476"
"288","blkski","Black Skimmer","Rynchops niger","L127324","Honeymoon Island SP","2025-05-13 07:55",2,28.0706,-82.8314,TRUE,FALSE,FALSE,"S237354047"
"289","blkski","Black Skimmer","Rynchops niger","L674658","Cape Hatteras NS--Ramp 26-32","2025-05-13 07:54",1,35.4473081,-75.4834425,TRUE,FALSE,FALSE,"S237593618"
"290","blkski","Black Skimmer","Rynchops niger","L453872","Prime Hook NWR--Headquarters area","2025-05-13 07:50",1,38.830594,-75.2480918,TRUE,FALSE,FALSE,"S237711020"
"291","blkski","Black Skimmer","Rynchops niger","L1065844","Lea-Hutaff Island","2025-05-13 07:41",4,34.3223857,-77.6872444,TRUE,FALSE,FALSE,"S237396506"
"292","blkski","Black Skimmer","Rynchops niger","L1642362","Holden Beach, West End","2025-05-13 07:30",25,33.9051959,-78.3594418,TRUE,FALSE,TRUE,"S237308024"
"293","blkski","Black Skimmer","Rynchops niger","L124353","Huntington Beach SP","2025-05-13 07:30",1,33.5083,-79.0659,TRUE,FALSE,FALSE,"S237512087"
"294","blkski","Black Skimmer","Rynchops niger","L35872722","Siesta Key Beach Access 3B","2025-05-13 07:30",7,27.2754534,-82.5692819,TRUE,FALSE,TRUE,"S237306011"
"295","blkski","Black Skimmer","Rynchops niger","L2116701","Waties Island","2025-05-13 07:21",30,33.8488889,-78.5747222,TRUE,FALSE,FALSE,"S237364404"
"296","blkski","Black Skimmer","Rynchops niger","L2234368","Nathan Benderson Park","2025-05-13 07:15",1,27.3632302,-82.4475861,TRUE,FALSE,FALSE,"S237318172"
"297","blkski","Black Skimmer","Rynchops niger","L8603442","Bruce Beach","2025-05-13 07:00",2,30.4048612,-87.2230008,TRUE,FALSE,FALSE,"S237376877"
"298","blkski","Black Skimmer","Rynchops niger","L753597","Navarre Beach Park","2025-05-13 06:40",2,30.3836119,-86.8492413,TRUE,FALSE,FALSE,"S237624376"
"299","blkski","Black Skimmer","Rynchops niger","L6101062","Safety Harbor Waterfront Park","2025-05-13 05:55",1,27.9913611,-82.6845217,TRUE,FALSE,FALSE,"S237256259"
"300","blkski","Black Skimmer","Rynchops niger","L865177","Bennetts Pier Road","2025-05-13 05:45",3,39.0269854,-75.3614473,TRUE,FALSE,FALSE,"S237250622"
"301","blkski","Black Skimmer","Rynchops niger","L1824473","Slaughter Beach--South","2025-05-12 20:17",8,38.9042714,-75.2948226,TRUE,FALSE,FALSE,"S237156173"
"302","blkski","Black Skimmer","Rynchops niger","L8577818","Star of the Sea","2025-05-12 19:55",2,38.7137679,-75.0759024,TRUE,FALSE,TRUE,"S237140471"
"303","blkski","Black Skimmer","Rynchops niger","L44463280","4960 Gulf of Mexico Drive, Longboat Key, Florida, US (27.404, -82.65) Windward Bay","2025-05-12 19:30",2,27.404147,-82.6499402,TRUE,FALSE,TRUE,"S237118751"
"304","blkski","Black Skimmer","Rynchops niger","L632770","Wantagh Park","2025-05-12 19:18",1,40.6430664,-73.5151809,TRUE,FALSE,FALSE,"S237132567"
"305","blkski","Black Skimmer","Rynchops niger","L999181","28th Street wetlands","2025-05-12 19:13",2,27.8720862,-82.6715183,TRUE,FALSE,FALSE,"S237119159"
"306","blkski","Black Skimmer","Rynchops niger","L5281758","Harbor Island Beach (restricted access)","2025-05-12 18:21",4,32.4041792,-80.4275179,TRUE,FALSE,FALSE,"S237131987"
"307","blkski","Black Skimmer","Rynchops niger","L1395137","Wrightsville Beach--Station 2","2025-05-12 17:35",1,34.2296334,-77.7808486,TRUE,FALSE,FALSE,"S237084381"
"308","blkski","Black Skimmer","Rynchops niger","L498357","Huntington Beach SP--Mullet Pond","2025-05-12 17:34",1,33.5075867,-79.0691809,TRUE,FALSE,FALSE,"S237077790"
"309","blkski","Black Skimmer","Rynchops niger","L449889","Patriot's Point -- nature trail and surrounding areas","2025-05-12 17:13",4,32.7912107,-79.9011505,TRUE,FALSE,FALSE,"S237107080"
"310","blkski","Black Skimmer","Rynchops niger","L559318","Marshes of Glynn Park","2025-05-12 16:26",3,31.153654,-81.4779782,TRUE,FALSE,FALSE,"S238542458"
"311","blkski","Black Skimmer","Rynchops niger","L225431","Hayward Regional Shoreline","2025-05-12 16:15",1,37.6419316,-122.1517012,TRUE,FALSE,FALSE,"S237487535"
"312","blkski","Black Skimmer","Rynchops niger","L792647","Pea Island NWR--Salt Flats","2025-05-12 15:53",2,35.7423325,-75.5069733,TRUE,FALSE,FALSE,"S237045518"
"313","blkski","Black Skimmer","Rynchops niger","L673436","Sonny Bono Salton Sea NWR--Union Tract / Visitor Center","2025-05-12 15:53",1,33.1774666,-115.6150961,TRUE,FALSE,FALSE,"S237148720"
"314","blkski","Black Skimmer","Rynchops niger","L8586297","Gadsdenville Boat Landing","2025-05-12 15:44",2,32.875129,-79.739461,TRUE,FALSE,FALSE,"S237038393"
"315","blkski","Black Skimmer","Rynchops niger","L589206","Andrews Island Causeway","2025-05-12 15:10",8,31.16246,-81.50159,TRUE,FALSE,FALSE,"S238542329"
"316","blkski","Black Skimmer","Rynchops niger","L12862403","2 mile stretch of gulf side 5275-6399 llongboat key","2025-05-12 15:05",3,27.4242864,-82.6748376,TRUE,FALSE,TRUE,"S237014411"
"317","blkski","Black Skimmer","Rynchops niger","L338888","Rockport Beach Park","2025-05-12 15:00",80,28.0308958,-97.0371276,TRUE,FALSE,FALSE,"S237113330"
"318","blkski","Black Skimmer","Rynchops niger","L2981246","Seabrook Island--Beach Access #8","2025-05-12 14:45",14,32.5609205,-80.1786304,TRUE,FALSE,FALSE,"S237041054"
"319","blkski","Black Skimmer","Rynchops niger","L44845459","Miracle Strip Parkway Southeast, Destin, Florida, US (30.395, -86.569)","2025-05-12 14:18",12,30.3948137,-86.5694038,TRUE,FALSE,TRUE,"S237019092"
"320","blkski","Black Skimmer","Rynchops niger","L931387","Island Beach SP--Great Sedge Island","2025-05-12 13:15",1,39.782685,-74.1065598,TRUE,FALSE,FALSE,"S237136915"
"321","blkski","Black Skimmer","Rynchops niger","L3033063","Oak Island--West End","2025-05-12 12:59",8,33.9185505,-78.2347369,TRUE,FALSE,FALSE,"S236980203"
"322","blkski","Black Skimmer","Rynchops niger","L14420278","Chester Island Bird Sanctuary (restricted access)","2025-05-12 12:54",180,28.4507003,-96.3484675,TRUE,FALSE,FALSE,"S237146765"
"323","blkski","Black Skimmer","Rynchops niger","L1107662","MacDill AFB (restricted access)","2025-05-12 11:28",1,27.841171,-82.4837726,TRUE,FALSE,FALSE,"S236947504"
"324","blkski","Black Skimmer","Rynchops niger","L1340108","Bolivar Flats Shorebird Sanctuary--17th Str. Jetty","2025-05-12 11:13",9,29.3681375,-94.7474419,TRUE,FALSE,FALSE,"S236963105"
"325","blkski","Black Skimmer","Rynchops niger","L44826998","Auto selected 28.75829, -95.65689","2025-05-12 10:45",11,28.758294,-95.656894,TRUE,FALSE,TRUE,"S236920293"
"326","blkski","Black Skimmer","Rynchops niger","L41018908","Bailey Tract Trail, Sanibel US-FL 26.42842, -82.08113","2025-05-12 10:11",1,26.428419,-82.081127,TRUE,FALSE,TRUE,"S236890769"
"327","blkski","Black Skimmer","Rynchops niger","L44954687","Maurice River, Port Norris US-NJ 39.23011, -75.03415","2025-05-12 09:00",39,39.230108,-75.034151,TRUE,FALSE,TRUE,"S237672476"
"328","blkski","Black Skimmer","Rynchops niger","L23223239","Lavaca Bay Spoil","2025-05-12 08:22",250,28.5987993,-96.561155,TRUE,FALSE,TRUE,"S237145608"
"329","blkski","Black Skimmer","Rynchops niger","L44812648","Amaryllis/Tuscany Pond","2025-05-12 08:08",1,27.0906935,-82.4050693,TRUE,FALSE,TRUE,"S236833532"
"330","blkski","Black Skimmer","Rynchops niger","L35964900","Wallops Island (restricted access)","2025-05-12 08:03",3,37.867665,-75.441333,TRUE,FALSE,FALSE,"S236960067"
"331","blkski","Black Skimmer","Rynchops niger","L44813397","70037, Belle Chasse US-LA 29.55180, -89.97240","2025-05-12 08:00",25,29.551802,-89.972401,TRUE,FALSE,TRUE,"S236838871"
"332","blkski","Black Skimmer","Rynchops niger","L12742110","Palo Alto Baylands--Boardwalk","2025-05-12 08:00",5,37.459984,-122.106112,TRUE,FALSE,FALSE,"S236988668"
"333","blkski","Black Skimmer","Rynchops niger","L1571602","DuPont Nature Center--Back Beach (Kent Co.)","2025-05-12 07:24",7,38.9507369,-75.3139224,TRUE,FALSE,FALSE,"S238434914"
"334","blkski","Black Skimmer","Rynchops niger","L2177068","Beach at Cape May","2025-05-12 07:22",6,38.930504,-74.9155569,TRUE,FALSE,TRUE,"S236806258"
"335","blkski","Black Skimmer","Rynchops niger","L30058782","San Joaquin Marsh and Wildlife Sanctuary, Irvine US-CA 33.66060, -117.84304","2025-05-12 07:05",35,33.660598,-117.843043,TRUE,FALSE,TRUE,"S236936584"
"336","blkski","Black Skimmer","Rynchops niger","L10496132","ACBS Surveys Only - Horn Island West","2025-05-12 06:58",4,30.242961,-88.762317,TRUE,FALSE,FALSE,"S237023668"
"337","blkski","Black Skimmer","Rynchops niger","L500489","Huntington Beach Pier","2025-05-12 06:15",8,33.653959,-118.0050087,TRUE,FALSE,FALSE,"S236913684"
"338","blkski","Black Skimmer","Rynchops niger","L740881","Upper Newport Bay--Back Bay Dr.","2025-05-12 05:21",3,33.6235893,-117.886734,TRUE,FALSE,FALSE,"S236885629"
"339","blkski","Black Skimmer","Rynchops niger","L7452516","Bald Point SP--Tucker Lake Day Use Area","2025-05-11 19:54",3,29.9351514,-84.3748498,TRUE,FALSE,FALSE,"S236675453"
"340","blkski","Black Skimmer","Rynchops niger","L44782347","Celery Fields Regional Stormwater Facility, Sarasota US-FL 27.32039, -82.43788","2025-05-11 19:31",4,27.32039,-82.43788,TRUE,FALSE,TRUE,"S236657540"
"341","blkski","Black Skimmer","Rynchops niger","L44789518","Shaggy's, Gulf Port","2025-05-11 19:30",25,30.3691286,-89.08317,TRUE,FALSE,TRUE,"S236701420"
"342","blkski","Black Skimmer","Rynchops niger","L1078491","Northshore Park","2025-05-11 19:25",1,27.7841316,-82.6243929,TRUE,FALSE,FALSE,"S236661289"
"343","blkski","Black Skimmer","Rynchops niger","L44783665","Stuart Historic Downtown Roundabout","2025-05-11 19:20",5,27.197508,-80.252063,TRUE,FALSE,TRUE,"S236665481"
"344","blkski","Black Skimmer","Rynchops niger","L1269935","Cape Island--South Cape May beach (CMPSP & SCMM)","2025-05-11 19:13",1,38.9317636,-74.9461985,TRUE,FALSE,FALSE,"S236679705"
"345","blkski","Black Skimmer","Rynchops niger","L44860411","Entrance Channel, Newport Beach US-CA (33.5955,-117.8803)","2025-05-11 19:09",4,33.595504,-117.880324,TRUE,FALSE,TRUE,"S237107457"
"346","blkski","Black Skimmer","Rynchops niger","L388414","Holly Beach","2025-05-11 19:05",8,29.7672272,-93.5097778,TRUE,FALSE,FALSE,"S236677469"
"347","blkski","Black Skimmer","Rynchops niger","L44787021","16701–16839 Dauphin Island Pkwy, Coden US-AL 30.34346, -88.12527","2025-05-11 19:00",2,30.343461,-88.125274,TRUE,FALSE,TRUE,"S236686880"
"348","blkski","Black Skimmer","Rynchops niger","L468473","Newport Pier","2025-05-11 18:54",NA,33.6059343,-117.9312801,TRUE,FALSE,FALSE,"S238491519"
"349","blkski","Black Skimmer","Rynchops niger","L933572","Bird Island","2025-05-11 18:39",2,29.9296285,-90.1245618,TRUE,FALSE,FALSE,"S236669450"
"350","blkski","Black Skimmer","Rynchops niger","L44786221","Celery Fields Regional Stormwater Facility, Sarasota US-FL 27.32544, -82.43345","2025-05-11 18:28",2,27.32544,-82.433447,TRUE,FALSE,TRUE,"S236681935"
"351","blkski","Black Skimmer","Rynchops niger","L1265319","Cape Henlopen SP--The Point","2025-05-11 18:23",3,38.8000272,-75.092376,TRUE,FALSE,FALSE,"S236775337"
"352","blkski","Black Skimmer","Rynchops niger","L44778537","Johns Island, Johns Island US-SC (32.5671,-80.1566)","2025-05-11 18:07",67,32.567068,-80.15664,TRUE,FALSE,TRUE,"S236634827"
"353","blkski","Black Skimmer","Rynchops niger","L164929","Bolsa Chica Ecological Reserve","2025-05-11 18:02",2,33.7026531,-118.050735,TRUE,FALSE,FALSE,"S236888867"
"354","blkski","Black Skimmer","Rynchops niger","L250250","John S. Taylor Park","2025-05-11 17:15",1,27.9023224,-82.8054893,TRUE,FALSE,FALSE,"S237299524"
"355","blkski","Black Skimmer","Rynchops niger","L44775069","Navigation Blvd, Freeport US-TX 28.91900, -95.33954","2025-05-11 17:12",10,28.918995,-95.339536,TRUE,FALSE,TRUE,"S236616121"
"356","blkski","Black Skimmer","Rynchops niger","L44809134","North Carolina, US (33.973, -77.949)","2025-05-11 16:26",7,33.9729222,-77.948592,TRUE,FALSE,TRUE,"S236808789"
"357","blkski","Black Skimmer","Rynchops niger","L14493341","Dolphin Head Recreation Area (restricted access)","2025-05-11 16:25",1,32.267485,-80.7214558,TRUE,FALSE,FALSE,"S236597751"
"358","blkski","Black Skimmer","Rynchops niger","L248017","Bolivar Flats Shorebird Sanctuary","2025-05-11 15:46",16,29.3711371,-94.7287083,TRUE,FALSE,FALSE,"S236687382"
"359","blkski","Black Skimmer","Rynchops niger","L2656818","Marsh View Trail","2025-05-11 15:32",6,32.8057282,-79.8264799,TRUE,FALSE,FALSE,"S236583132"
"360","blkski","Black Skimmer","Rynchops niger","L276368","Packery Channel Park (CTC 064)","2025-05-11 14:42",7,27.6264996,-97.2204369,TRUE,FALSE,FALSE,"S236550925"
"361","blkski","Black Skimmer","Rynchops niger","L751303","Sullivan's Island causeway","2025-05-11 14:41",4,32.7710011,-79.8410261,TRUE,FALSE,FALSE,"S236499673"
"362","blkski","Black Skimmer","Rynchops niger","L760818","Cape Henlopen SP--Breakwater Harbor and shoreline","2025-05-11 14:29",1,38.7915231,-75.0957477,TRUE,FALSE,FALSE,"S236524680"
"363","blkski","Black Skimmer","Rynchops niger","L190286","Pea Island NWR","2025-05-11 14:08",44,35.66591,-75.4799,TRUE,FALSE,FALSE,"S236620508"
"364","blkski","Black Skimmer","Rynchops niger","L465131","Mission Creek outflow","2025-05-11 13:57",10,34.4127959,-119.6869361,TRUE,FALSE,FALSE,"S236577367"
"365","blkski","Black Skimmer","Rynchops niger","L17179200","Bay Creek Nature Preserve (gated community, restricted access)","2025-05-11 13:50",2,37.2428935,-76.0056323,TRUE,FALSE,FALSE,"S236544756"
"366","blkski","Black Skimmer","Rynchops niger","L44742363","Prime Hook National Wildlife Refuge, Milford US-DE 38.85485, -75.24812","2025-05-11 13:49",28,38.85485,-75.248124,TRUE,FALSE,TRUE,"S236461807"
"367","blkski","Black Skimmer","Rynchops niger","L44756898","Eagles Island, Wilmington US-NC 34.22611, -77.95239","2025-05-11 13:13",4,34.226105,-77.952387,TRUE,FALSE,TRUE,"S236528211"
"368","blkski","Black Skimmer","Rynchops niger","L580980","St. Marks NWR--Stoney Bayou 1 & Twin Dikes","2025-05-11 12:55",6,30.1257123,-84.1436863,TRUE,FALSE,FALSE,"S236441448"
"369","blkski","Black Skimmer","Rynchops niger","L44775879","106 S Water St, Wilmington US-NC 34.23391, -77.94962","2025-05-11 12:51",9,34.233907,-77.949615,TRUE,FALSE,TRUE,"S236620537"
"370","blkski","Black Skimmer","Rynchops niger","L3621648","Anastasia SP Beach","2025-05-11 12:31",2,29.8883082,-81.2736797,TRUE,FALSE,TRUE,"S236553837"
"371","blkski","Black Skimmer","Rynchops niger","L8223217","Port Mayaca Lock","2025-05-11 12:30",8,26.9840729,-80.6211543,TRUE,FALSE,FALSE,"S236436288"
"372","blkski","Black Skimmer","Rynchops niger","L22577253","Oso Bay—Ocean Drive mud flats just E. of Texas A&M Corpus Christi campus","2025-05-11 12:12",2,27.7101193,-97.3150831,TRUE,FALSE,FALSE,"S236453805"
"373","blkski","Black Skimmer","Rynchops niger","L44746930","Prime Hook National Wildlife Refuge, Milton US-DE 38.81968, -75.22785","2025-05-11 12:09",5,38.819683,-75.22785,TRUE,FALSE,TRUE,"S236482494"
"374","blkski","Black Skimmer","Rynchops niger","L718480","Grandview Nature Preserve","2025-05-11 11:47",1,37.0869534,-76.2774324,TRUE,FALSE,FALSE,"S236502309"
"375","blkski","Black Skimmer","Rynchops niger","L1784485","Wachapreague--Back Bays","2025-05-11 11:35",3,37.6021044,-75.6457395,TRUE,FALSE,FALSE,"S236560856"
"376","blkski","Black Skimmer","Rynchops niger","L31452328","7529 Harbor Isle","2025-05-11 10:30",1,27.841952,-82.6109969,TRUE,FALSE,TRUE,"S236312488"
"377","blkski","Black Skimmer","Rynchops niger","L589195","Jekyll Island--South Beach","2025-05-11 10:08",200,31.0117481,-81.4304924,TRUE,FALSE,FALSE,"S236454626"
"378","blkski","Black Skimmer","Rynchops niger","L27999703","Fort de Soto East Beach","2025-05-11 10:05",1,27.625378,-82.708831,TRUE,FALSE,TRUE,"S236287894"
"379","blkski","Black Skimmer","Rynchops niger","L44731974","3315 W Beach Dr, Oak Island US-NC 33.91431, -78.19415","2025-05-11 09:44",3,33.914305,-78.194148,TRUE,FALSE,TRUE,"S236412753"
"380","blkski","Black Skimmer","Rynchops niger","L982904","Upper Newport Bay--Eastbluff Dr.","2025-05-11 09:36",100,33.6469213,-117.8680873,TRUE,FALSE,FALSE,"S236600133"
"381","blkski","Black Skimmer","Rynchops niger","L2423907","Bahia Beach Nature Preserve","2025-05-11 09:10",2,27.7214102,-82.463159,TRUE,FALSE,FALSE,"S236318394"
"382","blkski","Black Skimmer","Rynchops niger","L8050794","Quintana--S. Lake Drive / Sand Dollar Str.","2025-05-11 09:00",6,28.9171942,-95.3351208,TRUE,FALSE,FALSE,"S236319017"
"383","blkski","Black Skimmer","Rynchops niger","L126645","Prime Hook National Wildlife Refuge","2025-05-11 08:49",7,38.840717,-75.258354,TRUE,FALSE,FALSE,"S236470883"
"384","blkski","Black Skimmer","Rynchops niger","L44322540","North Lido Beach, Sarasota US-FL (27.3181,-82.5855)","2025-05-11 08:48",6,27.31812,-82.585482,TRUE,FALSE,TRUE,"S236250489"
"385","blkski","Black Skimmer","Rynchops niger","L618537","Amberjack Environmental Park--Lemon Lake","2025-05-11 08:42",2,26.8725833,-82.3001289,TRUE,FALSE,FALSE,"S236508197"
"386","blkski","Black Skimmer","Rynchops niger","L5596580","Tanner Park, Copiague","2025-05-11 08:31",2,40.6584003,-73.3958458,TRUE,FALSE,FALSE,"S236207732"
"387","blkski","Black Skimmer","Rynchops niger","L2991976","ACBS Surveys ONLY - Singing River Island, US-MS (restricted access)","2025-05-11 08:31",30,30.329041,-88.572769,TRUE,FALSE,FALSE,"S236389285"
"388","blkski","Black Skimmer","Rynchops niger","L27752417","Pea island","2025-05-11 08:30",42,35.7176819,-75.4971085,TRUE,FALSE,TRUE,"S236259598"
"389","blkski","Black Skimmer","Rynchops niger","L637448","Red Bug Slough Preserve","2025-05-11 08:30",1,27.2789392,-82.502906,TRUE,FALSE,FALSE,"S236257681"
"390","blkski","Black Skimmer","Rynchops niger","L2723507","Cape Hatteras NS--Ramp 43-44 (Ponds & Beach)","2025-05-11 08:27",9,35.2364534,-75.5286992,TRUE,FALSE,FALSE,"S236300060"
"391","blkski","Black Skimmer","Rynchops niger","L591483","Saint Simons Island--Goulds Inlet","2025-05-11 08:21",2,31.1570695,-81.3650036,TRUE,FALSE,FALSE,"S236255516"
"392","blkski","Black Skimmer","Rynchops niger","L7696493","Sea Island--North End Beach","2025-05-11 08:19",3,31.2071042,-81.3178058,TRUE,FALSE,FALSE,"S236613418"
"393","blkski","Black Skimmer","Rynchops niger","L454176","Quintana Xeriscape Park","2025-05-11 08:15",2,28.9368948,-95.3057098,TRUE,FALSE,FALSE,"S236269588"
"394","blkski","Black Skimmer","Rynchops niger","L13152499","The Celery Fields, Sarasota US-FL (27.3203,-82.4379)","2025-05-11 07:51",4,27.320256,-82.437851,TRUE,FALSE,TRUE,"S236517195"
"395","blkski","Black Skimmer","Rynchops niger","L1131629","Lake Seminole Park","2025-05-11 07:40",NA,27.8452331,-82.7763927,TRUE,FALSE,FALSE,"S238886429"
"396","blkski","Black Skimmer","Rynchops niger","L29432600","St. Augustine Beach","2025-05-11 07:32",13,29.8443844,-81.2648211,TRUE,FALSE,FALSE,"S236555235"
"397","blkski","Black Skimmer","Rynchops niger","L12697686","Rattlesnake Point Road, Rockport","2025-05-11 07:30",12,28.0638355,-97.1108392,TRUE,FALSE,FALSE,"S236539514"
"398","blkski","Black Skimmer","Rynchops niger","L16859749","Newport Pass/Bates beach (Mustang Is.)","2025-05-11 07:23",4,27.6311839,-97.1949024,TRUE,FALSE,FALSE,"S236240587"
"399","blkski","Black Skimmer","Rynchops niger","L2809733","Okaloosa County Veterans/Ross Marler Park","2025-05-11 07:20",2,30.3983718,-86.5917277,TRUE,FALSE,FALSE,"S236699540"
"400","blkski","Black Skimmer","Rynchops niger","L233548","Point La Jolla--seawatch","2025-05-11 07:20",2,32.8507576,-117.2735641,TRUE,FALSE,FALSE,"S236553896"
"401","blkski","Black Skimmer","Rynchops niger","L870652","Boynton Beach Inlet Park","2025-05-11 07:00",2,26.5446541,-80.0426102,TRUE,FALSE,FALSE,"S236317557"
"402","blkski","Black Skimmer","Rynchops niger","L44540610","Vilano beach St Augustine","2025-05-11 06:56",1,29.9164,-81.289366,TRUE,FALSE,TRUE,"S236182552"
"403","blkski","Black Skimmer","Rynchops niger","L620877","San Diego Bay--northwest","2025-05-11 06:44",3,32.6924679,-117.2305584,TRUE,FALSE,FALSE,"S236431473"
"404","blkski","Black Skimmer","Rynchops niger","L126634","Ocean City Inlet","2025-05-11 06:30",3,38.324,-75.091,TRUE,FALSE,FALSE,"S237510788"
"405","blkski","Black Skimmer","Rynchops niger","L130800","Pea Island NWR--North Pond","2025-05-11 06:19",60,35.7175756,-75.4985794,TRUE,FALSE,FALSE,"S236320829"
"406","blkski","Black Skimmer","Rynchops niger","L958328","West Side Pier--Gulfport","2025-05-11 06:11",1,30.3581044,-89.10825,TRUE,FALSE,FALSE,"S236218935"
"407","blkski","Black Skimmer","Rynchops niger","L15171920","Lighthouse Road, Crawfordville, Florida, US (30.107, -84.157)","2025-05-11 06:00",2,30.1072303,-84.1569405,TRUE,FALSE,TRUE,"S236668462"
"408","blkski","Black Skimmer","Rynchops niger","L1440594","Mission Bay--entrance channel (not river mudflats)","2025-05-11 05:47",3,32.7587111,-117.2494586,TRUE,FALSE,FALSE,"S236495112"
"409","blkski","Black Skimmer","Rynchops niger","L40936427","HarveyCedars/Loveladies","2025-05-11 05:35",2,39.710204,-74.132018,TRUE,FALSE,TRUE,"S236601752"
"410","blkski","Black Skimmer","Rynchops niger","L44659928","112 Apples Drive, Egg Harbor Township, New Jersey, US (39.355, -74.652)","2025-05-10 21:37",1,39.3551115,-74.6519288,TRUE,FALSE,TRUE,"S236017428"
"411","blkski","Black Skimmer","Rynchops niger","L505543","Slaughter Beach--Firehall Pavilion","2025-05-10 20:00",5,38.9136596,-75.304724,TRUE,FALSE,FALSE,"S237547383"
"412","blkski","Black Skimmer","Rynchops niger","L586013","Big Stone Beach","2025-05-10 19:51",6,39.0006968,-75.3286772,TRUE,FALSE,FALSE,"S236002255"
"413","blkski","Black Skimmer","Rynchops niger","L972722","Breton NWR--Breton Island","2025-05-10 19:45",5,29.496007,-89.173321,TRUE,FALSE,FALSE,"S236002476"
"414","blkski","Black Skimmer","Rynchops niger","L306595","CMCH--Shell Bay Landing","2025-05-10 19:11",4,39.06269,-74.8193,TRUE,FALSE,FALSE,"S235929512"
"415","blkski","Black Skimmer","Rynchops niger","L598884","Edwin B. Forsythe NWR--Turtle Cove (Salt Marsh)","2025-05-10 19:06",30,39.4519343,-74.4248427,TRUE,FALSE,FALSE,"S236296051"
"416","blkski","Black Skimmer","Rynchops niger","L19111148","17140 Gulf Boulevard, North Redington Beach, Florida, US (27.82, -82.826)","2025-05-10 19:02",4,27.82009,-82.8260624,TRUE,FALSE,TRUE,"S237341348"
"417","blkski","Black Skimmer","Rynchops niger","L2889959","Deveaux Bank (Restricted Access)","2025-05-10 19:00",250,32.5493975,-80.1808594,TRUE,FALSE,FALSE,"S236025744"
"418","blkski","Black Skimmer","Rynchops niger","L44644984","Walmart Largo","2025-05-10 18:54",350,27.926747,-82.78705,TRUE,FALSE,TRUE,"S235925560"
"419","blkski","Black Skimmer","Rynchops niger","L225177","Pascagoula Beach","2025-05-10 18:51",1,30.3437267,-88.5411024,TRUE,FALSE,FALSE,"S235983467"
"420","blkski","Black Skimmer","Rynchops niger","L6365148","Lido Key Beach","2025-05-10 18:39",1,27.3116887,-82.5773835,TRUE,FALSE,FALSE,"S235958943"
"421","blkski","Black Skimmer","Rynchops niger","L27918071","Crab St, Surfside Beach US-TX 28.94841, -95.29581","2025-05-10 18:38",5,28.94841,-95.295806,TRUE,FALSE,TRUE,"S235956097"
"422","blkski","Black Skimmer","Rynchops niger","L376635","Kaufer-Hubert Memorial Park (CTC 092)","2025-05-10 18:38",2,27.3196959,-97.6841211,TRUE,FALSE,FALSE,"S235952147"
"423","blkski","Black Skimmer","Rynchops niger","L276107","Cape Island--CMP (Cape May Point)","2025-05-10 18:30",8,38.9377865,-74.9670721,TRUE,FALSE,FALSE,"S236585317"
"424","blkski","Black Skimmer","Rynchops niger","L1155581","Texas A&M--Corpus Christi","2025-05-10 18:27",6,27.7113045,-97.3275375,TRUE,FALSE,FALSE,"S235995875"
"425","blkski","Black Skimmer","Rynchops niger","L44655143","Bohicket Creek, Edisto Island US-SC 32.59438, -80.19818","2025-05-10 18:25",2,32.594381,-80.198181,TRUE,FALSE,TRUE,"S235988122"
"426","blkski","Black Skimmer","Rynchops niger","L18561280","Harbor Point Realty office","2025-05-10 18:16",1,29.896422,-84.373451,TRUE,FALSE,TRUE,"S235892695"
"427","blkski","Black Skimmer","Rynchops niger","L44682521","Bohicket Creek, Rockville Deveaux Bank","2025-05-10 18:13",2,32.599312,-80.189576,TRUE,FALSE,TRUE,"S236132868"
"428","blkski","Black Skimmer","Rynchops niger","L36956676","8586 Potter Park Drive, Sarasota, Florida, US (27.229, -82.49)","2025-05-10 18:10",2,27.2288754,-82.4896796,TRUE,FALSE,TRUE,"S235929623"
"429","blkski","Black Skimmer","Rynchops niger","L580981","Merritt Island NWR--West Gator Creek","2025-05-10 17:52",20,28.6283331,-80.7873852,TRUE,FALSE,FALSE,"S236008117"
"430","blkski","Black Skimmer","Rynchops niger","L5715113","Lake Florence Boat Ramp","2025-05-10 17:42",1,28.328673,-80.7797222,TRUE,FALSE,FALSE,"S236024793"
"431","blkski","Black Skimmer","Rynchops niger","L23018940","San Joaquin Marsh and Wildlife Sanctuary, Irvine US-CA 33.66108, -117.84056","2025-05-10 17:36",5,33.661083,-117.840558,TRUE,FALSE,TRUE,"S236356677"
"432","blkski","Black Skimmer","Rynchops niger","L127337","Lettuce Lake County Park","2025-05-10 17:30",2,28.0725,-82.3754,TRUE,FALSE,FALSE,"S235922800"
"433","blkski","Black Skimmer","Rynchops niger","L5160880","Phoebus Waterfront Park","2025-05-10 17:22",3,37.0146028,-76.3181403,TRUE,FALSE,FALSE,"S235865346"
"434","blkski","Black Skimmer","Rynchops niger","L998470","Don Edwards NWR--Ravenswood Salt Pond SF2","2025-05-10 17:21",3,37.4887844,-122.1341944,TRUE,FALSE,FALSE,"S236007142"
"435","blkski","Black Skimmer","Rynchops niger","L1415315","Mission Bay--El Carmel Place","2025-05-10 17:15",2,32.7790009,-117.2478917,TRUE,FALSE,FALSE,"S236025215"
"436","blkski","Black Skimmer","Rynchops niger","L351234","Manasota Beach","2025-05-10 17:08",2,27.0109636,-82.411685,TRUE,FALSE,FALSE,"S238810373"
"437","blkski","Black Skimmer","Rynchops niger","L44664451","Padre Island Seashore","2025-05-10 16:30",NA,27.408942,-97.303173,TRUE,FALSE,TRUE,"S236043355"
"438","blkski","Black Skimmer","Rynchops niger","L3638546","Plumb Beach, Brooklyn","2025-05-10 16:10",56,40.5830455,-73.9175284,TRUE,FALSE,TRUE,"S236116927"
"439","blkski","Black Skimmer","Rynchops niger","L44623878","901 Jekyll Island Rd, Jekyll Island US-GA 31.05880, -81.44698","2025-05-10 16:09",1,31.058798,-81.446976,TRUE,FALSE,TRUE,"S235814320"
"440","blkski","Black Skimmer","Rynchops niger","L22770833","Casey Forebay","2025-05-10 16:00",4,37.435164,-122.099709,TRUE,FALSE,TRUE,"S236071987"
"441","blkski","Black Skimmer","Rynchops niger","L267757","Salton Sea--Obsidian Butte","2025-05-10 15:50",1,33.1722397,-115.6427077,TRUE,FALSE,FALSE,"S235933058"
"442","blkski","Black Skimmer","Rynchops niger","L973373","North Fort Monroe","2025-05-10 15:48",12,37.030651,-76.2958002,TRUE,FALSE,FALSE,"S235834975"
"443","blkski","Black Skimmer","Rynchops niger","L5248489","San Joaquin Wildlife Area","2025-05-10 15:45",2,33.6612193,-117.8404284,TRUE,FALSE,TRUE,"S236047705"
"444","blkski","Black Skimmer","Rynchops niger","L3782869","Suncoast Seabird Sanctuary & Beach(do NOT report captive birds)","2025-05-10 15:40",50,27.8364529,-82.8373781,TRUE,FALSE,FALSE,"S236053791"
"445","blkski","Black Skimmer","Rynchops niger","L44614022","Hotel Room (Scope Site) On The 22nd Floor","2025-05-10 15:29",1,29.9512223,-90.0644524,TRUE,FALSE,TRUE,"S235822390"
"446","blkski","Black Skimmer","Rynchops niger","L32042635","heislerville wma","2025-05-10 15:26",100,39.2229767,-74.9925842,TRUE,FALSE,TRUE,"S235898062"
"447","blkski","Black Skimmer","Rynchops niger","L3662928","Cape Lookout NS--Lighthouse to Cape Point","2025-05-10 15:20",1,34.6088173,-76.527307,TRUE,FALSE,FALSE,"S235773643"
"448","blkski","Black Skimmer","Rynchops niger","L451891","Ocean City--Skimmer Island","2025-05-10 15:20",33,38.3357319,-75.0942564,TRUE,FALSE,FALSE,"S235815186"
"449","blkski","Black Skimmer","Rynchops niger","L44623083","1205 Gulf Way, St. Pete Beach, Florida, US (27.691, -82.737)","2025-05-10 15:14",1,27.6911295,-82.7372456,TRUE,FALSE,TRUE,"S235810277"
"450","blkski","Black Skimmer","Rynchops niger","L13565429","Park Blvd. Bridge Pond","2025-05-10 15:07",1,27.8433691,-82.8322497,TRUE,FALSE,FALSE,"S236053811"
"451","blkski","Black Skimmer","Rynchops niger","L45035040","Federal Point Boat Launch","2025-05-10 14:33",2,33.9588998,-77.9421028,TRUE,FALSE,TRUE,"S238144659"
"452","blkski","Black Skimmer","Rynchops niger","L44653517","724–750 Great Creek Rd, Galloway US-NJ 39.46900, -74.45918","2025-05-10 14:25",4,39.468998,-74.459175,TRUE,FALSE,TRUE,"S235978699"
"453","blkski","Black Skimmer","Rynchops niger","L236227","Manasquan Inlet (Ocean Co.)","2025-05-10 14:25",5,40.1019338,-74.0346071,TRUE,FALSE,FALSE,"S235999683"
"454","blkski","Black Skimmer","Rynchops niger","L164186","Reed's Beach and Road","2025-05-10 14:18",2,39.1167451,-74.8916665,TRUE,FALSE,FALSE,"S235733587"
"455","blkski","Black Skimmer","Rynchops niger","L2364638","78th St. Crab Dock","2025-05-10 14:17",2,33.9147732,-78.087033,TRUE,FALSE,FALSE,"S235746523"
"456","blkski","Black Skimmer","Rynchops niger","L609130","Magnolia Cemetery","2025-05-10 14:06",1,32.8176113,-79.9449348,TRUE,FALSE,FALSE,"S235744911"
"457","blkski","Black Skimmer","Rynchops niger","L44641342","Shoreline Park, Mountain View US-CA 37.43514, -122.09585","2025-05-10 14:04",6,37.435139,-122.095853,TRUE,FALSE,TRUE,"S235904971"
"458","blkski","Black Skimmer","Rynchops niger","L1354388","Big Talbot Island SP--Simpson Creek Bridge","2025-05-10 13:38",7,30.4631969,-81.4315291,TRUE,FALSE,FALSE,"S235700569"
"459","blkski","Black Skimmer","Rynchops niger","L6465176","A-1 Flow Equalization Basin (A-1 FEB) [Open Friday - Sunday]","2025-05-10 12:30",218,26.3984897,-80.5940734,TRUE,FALSE,FALSE,"S235715111"
"460","blkski","Black Skimmer","Rynchops niger","L792639","Cape Lookout NS--Cape Lookout Point","2025-05-10 12:29",1,34.5878561,-76.535182,TRUE,FALSE,FALSE,"S235670073"
"461","blkski","Black Skimmer","Rynchops niger","L3579527","Fort George Island Cultural SP","2025-05-10 12:08",2,30.4224766,-81.4328527,TRUE,FALSE,FALSE,"S237385343"
"462","blkski","Black Skimmer","Rynchops niger","L42502370","East Gator Creek Trail, Florida, US (28.636, -80.776)","2025-05-10 12:02",250,28.63562,-80.7761733,TRUE,FALSE,TRUE,"S235662223"
"463","blkski","Black Skimmer","Rynchops niger","L596698","Kiawah Island--Captain Sams Spit","2025-05-10 11:54",20,32.5780634,-80.1460791,TRUE,FALSE,FALSE,"S235719561"
"464","blkski","Black Skimmer","Rynchops niger","L1638347","Fort George Island--Ribault Club","2025-05-10 11:42",2,30.4280138,-81.4242018,TRUE,FALSE,FALSE,"S237825185"
"465","blkski","Black Skimmer","Rynchops niger","L27198764","Prime Hook National Wildlife Refuge, Milton US-DE 38.83042, -75.24818","2025-05-10 11:28",3,38.830416,-75.248177,TRUE,FALSE,TRUE,"S235661814"
"466","blkski","Black Skimmer","Rynchops niger","L9545661","Shoreline Park--maintenance area","2025-05-10 11:26",20,37.428628,-122.08132,TRUE,FALSE,FALSE,"S235746944"
"467","blkski","Black Skimmer","Rynchops niger","L44631148","400 Uccelli Dr, Redwood City US-CA 37.50024, -122.22365","2025-05-10 11:15",1,37.500244,-122.223654,TRUE,FALSE,TRUE,"S235851323"
"468","blkski","Black Skimmer","Rynchops niger","L44661359","Big Talbot Island SP - Spoonbill Pond","2025-05-10 10:55",4,30.5102144,-81.4579225,TRUE,FALSE,TRUE,"S236026017"
"469","blkski","Black Skimmer","Rynchops niger","L127286","Huguenot Memorial City Park","2025-05-10 10:52",150,30.4112444,-81.4206594,TRUE,FALSE,FALSE,"S236016176"
"470","blkski","Black Skimmer","Rynchops niger","L1435475","Torrey Pines State Reserve--upper trails & beach","2025-05-10 10:10",1,32.9182664,-117.2553339,TRUE,FALSE,FALSE,"S235785071"
"471","blkski","Black Skimmer","Rynchops niger","L12356834","10 Pelican Watch Ct, Hilton Head Island US-SC 32.25001, -80.70037","2025-05-10 09:38",2,32.250014,-80.700368,TRUE,FALSE,TRUE,"S235840137"
"472","blkski","Black Skimmer","Rynchops niger","L44812126","TPC Prestancia, Sarasota US-FL (27.2428,-82.4905)Players course holes 10-13","2025-05-10 09:20",3,27.242787,-82.490512,TRUE,FALSE,TRUE,"S236829765"
"473","blkski","Black Skimmer","Rynchops niger","L37261340","crown point Kendall Frost","2025-05-10 09:17",2,32.7912445,-117.2296371,TRUE,FALSE,TRUE,"S235693006"
"474","blkski","Black Skimmer","Rynchops niger","L43590925","Carmel Trail, Wilmington NC","2025-05-10 09:15",1,34.25761,-77.80122,TRUE,FALSE,TRUE,"S235936277"
"475","blkski","Black Skimmer","Rynchops niger","L574284","Lower Suwannee NWR--Shired Island","2025-05-10 09:05",2,29.3972423,-83.2015336,TRUE,FALSE,FALSE,"S235629541"
"476","blkski","Black Skimmer","Rynchops niger","L44559398","1284–1290 Miracle Strip Pkwy SE, Fort Walton Beach US-FL 30.39505, -86.57012","2025-05-10 08:55",20,30.395046,-86.570123,TRUE,FALSE,TRUE,"S235513229"
"477","blkski","Black Skimmer","Rynchops niger","L793778","Port Aransas Nature Preserve at Charlie's Pasture","2025-05-10 08:34",3,27.8327765,-97.0873833,TRUE,FALSE,FALSE,"S236039281"
"478","blkski","Black Skimmer","Rynchops niger","L44658231","Bailey Tract, Sanibel, Florida, US (26.429, -82.081)","2025-05-10 08:08",1,26.4286021,-82.0807931,TRUE,FALSE,TRUE,"S236006499"
"479","blkski","Black Skimmer","Rynchops niger","L44561414","Black Skimmer Colony","2025-05-10 08:00",800,27.3170033,-82.5817337,TRUE,TRUE,TRUE,"S235660707"
"480","blkski","Black Skimmer","Rynchops niger","L1042229","Upper Newport Bay (by boat)","2025-05-10 07:59",64,33.6198192,-117.9030955,TRUE,FALSE,TRUE,"S235739424"
"481","blkski","Black Skimmer","Rynchops niger","L39426468","Johns Island, Seabrook Island US-SC (32.5670,-80.1571)Seabrook Island North Beach including boardwalk 1","2025-05-10 07:58",75,32.567013,-80.15714,TRUE,FALSE,TRUE,"S235533031"
"482","blkski","Black Skimmer","Rynchops niger","L678986","Pond Apple Trail","2025-05-10 07:57",1,26.4474057,-82.0401907,TRUE,FALSE,FALSE,"S236842854"
"483","blkski","Black Skimmer","Rynchops niger","L247876","Topsail Sound","2025-05-10 07:57",2,34.4191699,-77.5851924,TRUE,FALSE,FALSE,"S235443787"
"484","blkski","Black Skimmer","Rynchops niger","L4873603","Rookery Bay NERR--Goodland Bridge and mudflats","2025-05-10 07:50",4,25.9328744,-81.6530058,TRUE,FALSE,FALSE,"S235453297"
"485","blkski","Black Skimmer","Rynchops niger","L718426","Eastern Shore of Virginia NWR","2025-05-10 07:36",1,37.1353322,-75.9615377,TRUE,FALSE,FALSE,"S235449710"
"486","blkski","Black Skimmer","Rynchops niger","L20785297","Shoreline Park--Rengstorff House","2025-05-10 07:33",40,37.431427,-122.087385,TRUE,FALSE,FALSE,"S235554045"
"487","blkski","Black Skimmer","Rynchops niger","L14401030","Nighthawk Bay N end","2025-05-10 07:28",1,27.577664,-97.250752,TRUE,FALSE,TRUE,"S236243685"
"488","blkski","Black Skimmer","Rynchops niger","L2509202","Donegan Park","2025-05-10 07:23",1,27.9026338,-82.7709317,TRUE,FALSE,FALSE,"S235429412"
"489","blkski","Black Skimmer","Rynchops niger","L34935728","Shoreline Park, Mountain View US-CA 37.43432, -122.09299","2025-05-10 07:21",NA,37.434317,-122.09299,TRUE,FALSE,TRUE,"S235525956"
"490","blkski","Black Skimmer","Rynchops niger","L44620503","15500 Buccaneer Trail, Jacksonville, Florida, US (30.51, -81.458)","2025-05-10 07:19",2,30.5101567,-81.4584967,TRUE,FALSE,TRUE,"S235796717"
"491","blkski","Black Skimmer","Rynchops niger","L1286706","ACBS Surveys ONLY--Gulf SP Beach","2025-05-10 07:18",1,30.2497255,-87.6587319,TRUE,FALSE,FALSE,"S235780382"
"492","blkski","Black Skimmer","Rynchops niger","L581830","Belle Glade Marina & Torry Island","2025-05-10 07:17",3,26.7063982,-80.7168961,TRUE,FALSE,FALSE,"S235538315"
"493","blkski","Black Skimmer","Rynchops niger","L40312736","Forebay   Lake","2025-05-10 07:14",28,37.434891,-122.095567,TRUE,FALSE,TRUE,"S235582744"
"494","blkski","Black Skimmer","Rynchops niger","L127320","John Chesnut Sr. Park","2025-05-10 07:05",2,28.0922,-82.7067,TRUE,FALSE,FALSE,"S235514658"
"495","blkski","Black Skimmer","Rynchops niger","L1119131","Fort Pickens","2025-05-10 06:40",27,30.3207296,-87.274704,TRUE,FALSE,TRUE,"S235744912"
"496","blkski","Black Skimmer","Rynchops niger","L127399","J. N. Ding Darling NWR--Bailey Tract","2025-05-10 06:40",5,26.4276,-82.0819,TRUE,FALSE,FALSE,"S236846962"
"497","blkski","Black Skimmer","Rynchops niger","L2294559","Sunset Beach--East End","2025-05-10 06:23",51,33.8729098,-78.4842682,TRUE,FALSE,FALSE,"S235637823"
"498","blkski","Black Skimmer","Rynchops niger","L450426","Cape Island--CMP--St. Peter's dune crossing","2025-05-10 06:05",40,38.9334623,-74.9665347,TRUE,FALSE,FALSE,"S235395007"
"499","blkski","Black Skimmer","Rynchops niger","L267984","Cape Romain NWR--Bulls Island","2025-05-10 06:00",50,32.90017,-79.62438,TRUE,FALSE,FALSE,"S237545401"
"500","blkski","Black Skimmer","Rynchops niger","L44663834","141 West Buttercup Road, Wildwood Crest, New Jersey, US (38.982, -74.831)","2025-05-10 00:01",NA,38.9821837,-74.8306195,TRUE,FALSE,TRUE,"S236040042"
"501","blkski","Black Skimmer","Rynchops niger","L44509359","8181 Olympic Stone Cir, New Port Richey US-FL 28.20039, -82.67962","2025-05-09 20:46",1,28.200391,-82.679616,TRUE,FALSE,TRUE,"S235254246"
"502","blkski","Black Skimmer","Rynchops niger","L44419726","Longboat Terrace beach, Longboat Key","2025-05-09 19:28",1,27.410138,-82.657721,TRUE,FALSE,TRUE,"S235249259"
"503","blkski","Black Skimmer","Rynchops niger","L2359329","Clearwater Point","2025-05-09 19:09",60,27.9644042,-82.8216791,TRUE,FALSE,FALSE,"S235253214"
"504","blkski","Black Skimmer","Rynchops niger","L14617063","18101 Termini San Luis Pass Rd, Galveston US-TX 29.17108, -94.99015","2025-05-09 19:09",4,29.171082,-94.990153,TRUE,FALSE,TRUE,"S235244077"
"505","blkski","Black Skimmer","Rynchops niger","L44506363","29446, Green Pond US-SC 32.59360, -80.45712","2025-05-09 18:39",47,32.593602,-80.457116,TRUE,FALSE,TRUE,"S235237317"
"506","blkski","Black Skimmer","Rynchops niger","L382911","Oso Bay (CTC 068)","2025-05-09 18:14",1,27.7143059,-97.3327732,TRUE,FALSE,FALSE,"S235232873"
"507","blkski","Black Skimmer","Rynchops niger","L44510277","Boat Landing Alley, Wadmalaw Island US-SC 32.59774, -80.18291","2025-05-09 18:08",21,32.597745,-80.18291,TRUE,FALSE,TRUE,"S235259139"
"508","blkski","Black Skimmer","Rynchops niger","L9965931","Anastasia SP--Salt Run","2025-05-09 18:08",1,29.8707018,-81.2740243,TRUE,FALSE,FALSE,"S235202127"
"509","blkski","Black Skimmer","Rynchops niger","L1143641","Oso Bay--TX358 bridge area","2025-05-09 17:44",7,27.6827233,-97.3167807,TRUE,FALSE,FALSE,"S235219427"
"510","blkski","Black Skimmer","Rynchops niger","L44506780","760 Wildlife Drive, Galloway, New Jersey, US (39.464, -74.445)","2025-05-09 16:30",20,39.4637608,-74.4450556,TRUE,FALSE,TRUE,"S235239660"
"511","blkski","Black Skimmer","Rynchops niger","L28008611","Toms Cove parking lot P1","2025-05-09 16:15",3,37.8910197,-75.3422714,TRUE,FALSE,TRUE,"S235185500"
"512","blkski","Black Skimmer","Rynchops niger","L44496352","1201–1211 Gulf Way, St. Pete Beach US-FL 27.69070, -82.73798","2025-05-09 16:09",2,27.690704,-82.737976,TRUE,FALSE,TRUE,"S235182296"
"513","blkski","Black Skimmer","Rynchops niger","L20233359","Ocean Drive Bridge E. of NAS","2025-05-09 16:06",6,27.7099666,-97.3086087,TRUE,FALSE,FALSE,"S235287937"
"514","blkski","Black Skimmer","Rynchops niger","L44512804","hi tide whimbrel roost count 31.95312, -80.89907","2025-05-09 15:47",16,31.95312,-80.899067,TRUE,FALSE,TRUE,"S235270872"
"515","blkski","Black Skimmer","Rynchops niger","L44498082","27725 State Park Road 100, South Padre Island, Texas, US (26.157, -97.171) Beach Access #4","2025-05-09 15:42",1,26.1569435,-97.1711723,TRUE,FALSE,TRUE,"S235191330"
"516","blkski","Black Skimmer","Rynchops niger","L2035789","Pascagoula Point Park","2025-05-09 15:41",13,30.3444726,-88.5622072,TRUE,FALSE,FALSE,"S235188741"
"517","blkski","Black Skimmer","Rynchops niger","L833946","Delnor-Wiggins Pass SP","2025-05-09 15:30",1,26.2816555,-81.8292456,TRUE,FALSE,FALSE,"S235270996"
"518","blkski","Black Skimmer","Rynchops niger","L892424","West Beach","2025-05-09 15:24",8,34.4100608,-119.6901655,TRUE,FALSE,FALSE,"S235226077"
"519","blkski","Black Skimmer","Rynchops niger","L26645181","Tybee Creek, Tybee Island GA","2025-05-09 15:16",4,31.9923451,-80.8748648,TRUE,FALSE,TRUE,"S235274531"
"520","blkski","Black Skimmer","Rynchops niger","L26921540","Pea Island National wildlife refuge","2025-05-09 14:30",50,35.7175933,-75.4937798,TRUE,FALSE,TRUE,"S235169553"
"521","blkski","Black Skimmer","Rynchops niger","L578455","Merritt Island NWR--East Gator Creek","2025-05-09 14:00",50,28.6431628,-80.7664437,TRUE,FALSE,FALSE,"S235236241"
"522","blkski","Black Skimmer","Rynchops niger","L44486267","Grand Isle State Park, Grand Isle US-LA 29.25833, -89.95262","2025-05-09 13:28",2,29.258332,-89.952616,TRUE,FALSE,TRUE,"S235131842"
"523","blkski","Black Skimmer","Rynchops niger","L6609617","Jekyll Island--Old Bridge","2025-05-09 12:55",4,31.0476488,-81.4216679,TRUE,FALSE,FALSE,"S235097778"
"524","blkski","Black Skimmer","Rynchops niger","L268000","Robert Moses SP","2025-05-09 12:48",1,40.6242696,-73.2622342,TRUE,FALSE,FALSE,"S235161351"
"525","blkski","Black Skimmer","Rynchops niger","L127248","St. Vincent NWR","2025-05-09 12:35",65,29.6613,-85.1336,TRUE,FALSE,FALSE,"S236037735"
"526","blkski","Black Skimmer","Rynchops niger","L1329429","Ocean Drive--Middle Thorofare Bridge & fish docks","2025-05-09 12:02",6,38.9566812,-74.8757897,TRUE,FALSE,FALSE,"S235072633"
"527","blkski","Black Skimmer","Rynchops niger","L28708269","Galves House","2025-05-09 11:54",12,29.175646,-95.00095,TRUE,FALSE,TRUE,"S235105691"
"528","blkski","Black Skimmer","Rynchops niger","L42154455","W Gator Creek Rd, Merritt Island US-FL 28.62747, -80.78656","2025-05-09 11:24",100,28.627473,-80.786555,TRUE,FALSE,TRUE,"S235070685"
"529","blkski","Black Skimmer","Rynchops niger","L2074515","Bolivar Flats Shorebird Survey Start","2025-05-09 10:58",1,29.3794826,-94.7245502,TRUE,FALSE,FALSE,"S236808286"
"530","blkski","Black Skimmer","Rynchops niger","L10272822","Bay Access Point, South Padre Island, Texas, US (26.144, -97.174)","2025-05-09 10:45",7,26.1440572,-97.1743803,TRUE,FALSE,TRUE,"S235074893"
"531","blkski","Black Skimmer","Rynchops niger","L20274903","Dauphin Island - middle beach","2025-05-09 10:31",1,30.2477673,-88.1286899,TRUE,FALSE,TRUE,"S235096511"
"532","blkski","Black Skimmer","Rynchops niger","L799306","San Dieguito Lagoon--southwest","2025-05-09 10:23",1,32.9677315,-117.2594056,TRUE,FALSE,FALSE,"S235146216"
"533","blkski","Black Skimmer","Rynchops niger","L1345993","James Nance Park/Indialantic Boardwalk","2025-05-09 09:19",2,28.0924547,-80.5662096,TRUE,FALSE,FALSE,"S235000285"
"534","blkski","Black Skimmer","Rynchops niger","L452423","Airlie Gardens","2025-05-09 08:55",1,34.215,-77.8294444,TRUE,FALSE,FALSE,"S235032692"
"535","blkski","Black Skimmer","Rynchops niger","L2519178","Bull's Island Ferry","2025-05-09 08:45",2,32.9371618,-79.638648,TRUE,FALSE,FALSE,"S235037212"
"536","blkski","Black Skimmer","Rynchops niger","L646019","Lighthouse Inlet Heritage Preserve","2025-05-09 08:30",1,32.6849697,-79.8875141,TRUE,FALSE,FALSE,"S235160835"
"537","blkski","Black Skimmer","Rynchops niger","L2121096","San Joaquin Wildlife Sanctuary--Treehill Trail","2025-05-09 07:34",20,33.6672044,-117.838347,TRUE,FALSE,FALSE,"S235076575"
"538","blkski","Black Skimmer","Rynchops niger","L3051049","ACBS Surveys ONLY - Lake Mars, OceanSprings, US-MS","2025-05-09 07:30",1,30.3613287,-88.7647808,TRUE,FALSE,FALSE,"S237485738"
"539","blkski","Black Skimmer","Rynchops niger","L29010321","Lakewood Ranch Park","2025-05-09 07:29",1,27.4472292,-82.4365568,TRUE,FALSE,FALSE,"S234902007"
"540","blkski","Black Skimmer","Rynchops niger","L946639","ACBS Surveys ONLY - Pascagoula Beach, Pascagoula, US-MS","2025-05-09 07:25",1,30.3429541,-88.5528946,TRUE,FALSE,FALSE,"S234995419"
"541","blkski","Black Skimmer","Rynchops niger","L44449229","1246 Fulgur St, Sanibel US-FL 26.43505, -82.04688","2025-05-09 07:21",2,26.435051,-82.046881,TRUE,FALSE,TRUE,"S234920339"
"542","blkski","Black Skimmer","Rynchops niger","L44379464","North Topsail Beach","2025-05-09 07:18",3,34.520823,-77.357078,TRUE,FALSE,TRUE,"S234919118"
"543","blkski","Black Skimmer","Rynchops niger","L44111651","3859 Gulf Blvd, St. Pete Beach US-FL 27.71619, -82.73857","2025-05-09 07:14",454,27.716187,-82.73857,TRUE,FALSE,TRUE,"S235039585"
"544","blkski","Black Skimmer","Rynchops niger","L44450564","Galveston Island State Park, Galveston US-TX 29.21263, -94.95378","2025-05-09 06:58",3,29.212628,-94.953778,TRUE,FALSE,TRUE,"S234928986"
"545","blkski","Black Skimmer","Rynchops niger","L44447503","3822–3998 Stone Chimney Rd SW, Supply US-NC (33.9218,-78.2379)","2025-05-09 06:39",5,33.921812,-78.237931,TRUE,FALSE,TRUE,"S234908861"
"546","blkski","Black Skimmer","Rynchops niger","L126644","Cape Henlopen State Park","2025-05-09 06:33",11,38.7714636,-75.086344,TRUE,FALSE,FALSE,"S235088698"
"547","blkski","Black Skimmer","Rynchops niger","L231988","Kathryn Abbey Hanna Park","2025-05-09 06:03",5,30.3713664,-81.4073128,TRUE,FALSE,FALSE,"S235076241"
"548","blkski","Black Skimmer","Rynchops niger","L30998325","NC-12, Cedar Island US-NC (34.9393,-76.3430)","2025-05-09 05:49",1,34.939254,-76.343009,TRUE,FALSE,TRUE,"S235153647"
"549","blkski","Black Skimmer","Rynchops niger","L44433411","Panama City Beach Access #2","2025-05-09 05:29",1,30.138041,-85.751624,TRUE,FALSE,TRUE,"S234895606"
"550","blkski","Black Skimmer","Rynchops niger","L44490554","NC-12, Cedar Island US-NC (34.9533,-76.3181)","2025-05-09 05:08",1,34.953272,-76.31805,TRUE,FALSE,TRUE,"S235153381"
"551","blkski","Black Skimmer","Rynchops niger","L235502","Shark River","2025-05-08 21:19",1,40.1819929,-74.0415905,TRUE,FALSE,FALSE,"S234813151"
"552","blkski","Black Skimmer","Rynchops niger","L26419611","Professional Parkway West, Sarasota, Florida, US (27.371, -82.437)","2025-05-08 19:27",1,27.3708511,-82.4366366,TRUE,FALSE,TRUE,"S234796607"
"553","blkski","Black Skimmer","Rynchops niger","L4653074","Headquarters Plantation Drive","2025-05-08 19:07",2,32.7565665,-80.0232339,TRUE,FALSE,FALSE,"S234815400"
"554","blkski","Black Skimmer","Rynchops niger","L762952","Navarre Beach  -  Public Access","2025-05-08 19:07",1,30.3769167,-86.8842833,TRUE,FALSE,FALSE,"S235153453"
"555","blkski","Black Skimmer","Rynchops niger","L2743977","Gulf SP--Pavilion Beachfront","2025-05-08 18:10",2,30.2532352,-87.6475849,TRUE,FALSE,FALSE,"S234804771"
"556","blkski","Black Skimmer","Rynchops niger","L14952839","South Padre Island Convention Centre, South Padre Island US-TX 26.14028, -97.17515","2025-05-08 17:40",2,26.140276,-97.175152,TRUE,FALSE,TRUE,"S234818891"
"557","blkski","Black Skimmer","Rynchops niger","L44424353","Ocean Dr, Wildwood US-NJ 39.02618, -74.80482","2025-05-08 17:25",75,39.026179,-74.804822,TRUE,FALSE,TRUE,"S234785661"
"558","blkski","Black Skimmer","Rynchops niger","L42449799","Goose Island SP -Bayside","2025-05-08 17:22",5,28.125532,-96.983967,TRUE,FALSE,TRUE,"S234767152"
"559","blkski","Black Skimmer","Rynchops niger","L7270735","South Padre Is.--wooded lots from West Hibiscus south to West Campeche (identify street names for rarities)","2025-05-08 17:21",1,26.1113115,-97.1712824,TRUE,FALSE,FALSE,"S234811598"
"560","blkski","Black Skimmer","Rynchops niger","L24343296","Stone Harbor Bridge, Wildwood US-NJ 39.03147, -74.79927","2025-05-08 17:15",80,39.031466,-74.799268,TRUE,FALSE,TRUE,"S234748457"
"561","blkski","Black Skimmer","Rynchops niger","L44419849","Wrightsville Beach CW - New Hanover County US-NC (34.1858,-77.8145)","2025-05-08 17:10",188,34.185777,-77.814546,TRUE,FALSE,TRUE,"S234757366"
"562","blkski","Black Skimmer","Rynchops niger","L956921","Biloxi Small Craft Harbor","2025-05-08 16:40",2,30.3910483,-88.8851693,TRUE,FALSE,FALSE,"S234754850"
"563","blkski","Black Skimmer","Rynchops niger","L505745","Mallory Square, Key West","2025-05-08 15:27",2,24.5599656,-81.8077183,TRUE,FALSE,FALSE,"S234707168"
"564","blkski","Black Skimmer","Rynchops niger","L713834","Padre Isl. NS- Malaquite Beach/Visitor Ctr. area","2025-05-08 13:58",9,27.4244237,-97.2973251,TRUE,FALSE,FALSE,"S234724634"
"565","blkski","Black Skimmer","Rynchops niger","L4034501","Marina West Town Boat Launch","2025-05-08 13:50",4,40.593515,-73.5925414,TRUE,FALSE,FALSE,"S234745710"
"566","blkski","Black Skimmer","Rynchops niger","L572363","Padre Isl. NS--Bird Island Basin Environs (Including Campground Ponds)","2025-05-08 13:14",2,27.4721051,-97.312088,TRUE,FALSE,FALSE,"S234724452"
"567","blkski","Black Skimmer","Rynchops niger","L127257","St. Marks NWR--Mounds Trail & Tower Pond","2025-05-08 12:47",1,30.0879518,-84.1609812,TRUE,FALSE,FALSE,"S234880861"
"568","blkski","Black Skimmer","Rynchops niger","L10918421","South Cove Brigantine","2025-05-08 12:25",1,39.3821442,-74.4145295,TRUE,FALSE,TRUE,"S234697213"
"569","blkski","Black Skimmer","Rynchops niger","L44405834","Fort Pickens Road, Florida, US (30.32, -87.236)","2025-05-08 10:44",40,30.320115,-87.235554,TRUE,FALSE,TRUE,"S234682197"
"570","blkski","Black Skimmer","Rynchops niger","L37818427","St. Marks National Wildlife Refuge, Crawfordville US-FL 30.07939, -84.17826","2025-05-08 10:16",11,30.079394,-84.178261,TRUE,FALSE,TRUE,"S234867717"
"571","blkski","Black Skimmer","Rynchops niger","L2334913","Kiawah Island--East Beach","2025-05-08 10:13",60,32.6106042,-80.0157452,TRUE,FALSE,FALSE,"S234638904"
"572","blkski","Black Skimmer","Rynchops niger","L22200845","HBSP, Jetty","2025-05-08 10:05",3,33.524681,-79.03055,TRUE,FALSE,TRUE,"S234581424"
"573","blkski","Black Skimmer","Rynchops niger","L6187779","Goose Island","2025-05-08 09:58",110,40.642881,-73.4826028,TRUE,FALSE,TRUE,"S234679223"
"574","blkski","Black Skimmer","Rynchops niger","L578456","T.M. Goodwin WMA--Broadmoor Unit","2025-05-08 09:18",200,27.8891565,-80.746336,TRUE,FALSE,FALSE,"S234720869"
"575","blkski","Black Skimmer","Rynchops niger","L4233381","US-FL-Naples-9282-9290 Lely Resort Blvd - 26.0699x-81.7063","2025-05-08 09:02",12,26.069874,-81.706314,TRUE,FALSE,TRUE,"S234556287"
"576","blkski","Black Skimmer","Rynchops niger","L29848431","Fort Matanzas National Monument, Saint Augustine US-FL 29.71198, -81.23026","2025-05-08 09:01",2,29.711982,-81.230257,TRUE,FALSE,TRUE,"S234618190"
"577","blkski","Black Skimmer","Rynchops niger","L37818420","Tower Pond Trail, Crawfordville US-FL 30.08776, -84.16418","2025-05-08 08:49",4,30.087756,-84.164185,TRUE,FALSE,TRUE,"S234752532"
"578","blkski","Black Skimmer","Rynchops niger","L11885718","IRWD San Joaquin Marsh & Wildlife Sanctuary, Irvine, CA","2025-05-08 08:42",50,33.6612283,-117.8404284,TRUE,FALSE,TRUE,"S234716691"
"579","blkski","Black Skimmer","Rynchops niger","L1356673","Isle of Palms County Park","2025-05-08 08:30",14,32.7864697,-79.7855254,TRUE,FALSE,FALSE,"S234597786"
"580","blkski","Black Skimmer","Rynchops niger","L36381125","Summer haven beach and inlet","2025-05-08 08:25",1,29.6846765,-81.2190503,TRUE,FALSE,TRUE,"S234678241"
"581","blkski","Black Skimmer","Rynchops niger","L1514629","South Lido County Park","2025-05-08 08:14",1,27.2995048,-82.5665436,TRUE,FALSE,FALSE,"S234604491"
"582","blkski","Black Skimmer","Rynchops niger","L16861269","Celery Fields","2025-05-08 08:02",1,27.320572,-82.4377,TRUE,FALSE,TRUE,"S234588579"
"583","blkski","Black Skimmer","Rynchops niger","L6023480","Round Island  - Beneficial Use Site (Restricted Access)","2025-05-08 07:36",70,30.3119125,-88.604393,TRUE,FALSE,TRUE,"S234811557"
"584","blkski","Black Skimmer","Rynchops niger","L44395583","Round Island","2025-05-08 07:32",65,30.3154031,-88.6020811,TRUE,FALSE,TRUE,"S234630144"
"585","blkski","Black Skimmer","Rynchops niger","L823871","Breach Inlet","2025-05-08 07:32",1,32.77544,-79.8132706,TRUE,FALSE,FALSE,"S234558904"
"586","blkski","Black Skimmer","Rynchops niger","L899138","Rachel Carson Reserve","2025-05-08 07:30",2,34.7131841,-76.6688633,TRUE,FALSE,FALSE,"S234676743"
"587","blkski","Black Skimmer","Rynchops niger","L305617","Cape Island--CMP--Alexander Ave. dunes/beach","2025-05-08 07:07",5,38.9405526,-74.9714112,TRUE,FALSE,FALSE,"S234544931"
"588","blkski","Black Skimmer","Rynchops niger","L1505042","Bolivar Flats Shorebird Sanctuary--Rettilon Rd","2025-05-08 07:05",70,29.3872984,-94.7278439,TRUE,FALSE,FALSE,"S234806455"
